~VERSION INFORMATION
 VERS.                2.0:   CWLS LOG ASCII STANDARD - VERSION 2.0
 WRAP.                 NO:   ONE LINE PER DEPTH STEP
~WELL INFORMATION
#MNEM.UNIT      DATA TYPE    INFORMATION
#----------   ------------   ------------------------------
 STRT.F            7.0000:   START DEPTH
 STOP.F          480.0000:   STOP DEPTH
 STEP.F            0.1000:   STEP LENGTH
 NULL.          -999.2500:   NO VALUE
 COMP.       F D SERV INC:   COMPANY
 WELL.    67-2 SX-3 #67-3:   WELL
 FLD .          N.P.R. #3:   FIELD
 LOC .       S3 T38N R78W:   LOCATION
 CNTY.            NATRONA:   COUNTY
 STAT.            WYOMING:   STATE
 CTRY. UNITED STATES OF AMERICA:   COUNTRY
 SRVC.     Atlas Wireline:   SERVICE COMPANY
 DATE.        12-FEB-1992:   LOGDATE
 API .       490252250400:   API NUMBER
~CURVE INFORMATION
#MNEM.UNIT       API CODE    CURVE DESCRIPTION
#----------   ------------   ------------------------------
 DEPT.F                  :   
 SPR .MV     07 010 01 00:   SPONTANEOUS POTENTIAL
 GRR .GAPI   07 310 01 00:   GAMMA RAY
 RILD.OHMM   07 120 46 00:   INDUCTION LOG DEEP RESISTIVITY
 RILM.OHMM   07 120 44 00:   INDUCTION LOG MEDIUM RESISTIVITY
 RFOC.OHMM   07 220 04 00:   RESISTIVITY FOCUSED LOG
~PARAMETER INFORMATION
#MNEM.UNIT          VALUE    DESCRIPTION
#----------   ------------   ------------------------------
 PD  .                 GL:   PERMANENT DATUM
 EPD .F              5165:   ELEVATION PERMANENT DATUM
 LMF .                 KB:   LOG MEASURED FROM
 DAPD.F                10:   FEET ABOVE PERMANENT DATUM
 DMF .                 KB:   DRILLING MEASURED FROM
 EKB .F              5175:   KELLING BUSHING
 EDF .F              5174:   DRILLING FLOOR
 EGL .F              5165:   GROUND LEVEL
 DATE.        12-FEB-1992:   RUN DATE
 RUN .                  1:   RUN NUMBER
 DD  .F               487:   DEPTH DRILLER
 DL  .F               485:   DEPTH LOGGER
 BLI .F               482:   BOTTOM LOG INTERVAL
 CS  .IN            8.625:   CASING SIZE
 CBD .F               183:   CASING BOTTOM DRILLER
 CBL .F               186:   CASING BOTTOM LOGGER
 BS  .IN            7.875:   BIT SIZE
 BSD .F               487:   BIT SIZE AT DEPTH
 DFT .           CHEM GEL:   DRILLING FLUID TYPE
 DFD .               16.1:   DRILLING FLUID DENSITY
 DFV .                 43:   DRILLING FLUID VISCOSITY
 DFPH.                9.5:   DRILLING FLUID PH
 DFL .               11.8:   DRILLING FLUID LOSS
 MSS .           MUD TANK:   MUD SAMPLE SOURCE
 RMS .OHMM           2.36:   RESISTIVITY MUD SAMPLE
 MST .F                65:   MUD SAMPLE TEMPERATURE
 RMF .OHMM           1.17:   RESISTIVITY MUD FILTRATE SAMPLE
 MFST.F                65:   MUD FILTRATE SAMPLE TEMPERATURE
 RMC .OHMM           5.18:   RESISTIVITY MUD CAKE
 MCST.F                65:   MUD CAKE SAMPLE TEMPERATURE
 MFSS.               MEAS:   MUD FILTRATE SAMPLE SOURCE
 MCSS.               CALC:   MUD CAKE SAMPLE SOURCE
 RMB .OHMM           1.67:   RESISTIVITY MUD AT BHT
 BHT .F                92:   BOTTOM HOLE TEMPERATURE
 TCS .HRS               2:   TIME CURCULATED STOPPED
 MRT .F                92:   MAXIMUM RECORDED TEMPERATURE
 LUN .           HL- 6224:   LOGGING UNIT NUMBER
 LUL .             CASPER:   LOGGING UNIT LOCATION
 ENGI.        VERN RAUTIO:   RECORDING ENGINEER
 WITN.        GARY STRONG:   WITNESSED BY
 CLNT.            A2DTECH:   CLIENT CODE
 ORIG.           5" PRINT:   ORIGIN OF DATA
 UWI .       490252250400:   UNIQUE WELL ID
 DICO. A2D Technologies, Inc.:   DIGITIZING COMPANY
~OTHER INFORMATION
~A    DEPT     SPR        GRR       RILD       RILM       RFOC   
# ...
  263.2000   -32.6844   101.0688     6.2337     6.0208     9.5665
  263.3000   -32.6832   102.2280     6.1285     5.9396     9.5125
  263.4000   -32.6817   103.0087     6.0573     5.8592     9.4372
  263.5000   -32.6802   103.9790     6.0228     5.7418     9.2737
  263.6000   -32.6787   104.9493     5.9882     5.6345     8.9228
  263.7000   -32.6770   105.8853     5.9207     5.5745     8.3317
  263.8000   -32.6757   106.4587     5.8795     5.5393     7.7822
  263.9000   -32.5940   106.8619     5.8460     5.5116     7.4104
  264.0000   -32.5225   107.3503     5.8230     5.5008     7.1872
  264.1000   -32.5210   107.6768     5.8202     5.5008     6.6830
  264.2000   -32.5195   107.6834     5.7820     5.5069     6.1450
  264.3000   -32.5180   107.6910     5.7819     5.5393     5.7359
  264.4000   -32.5165   107.4926     5.8018     5.6005     5.5040
  264.5000   -32.5150   107.1134     5.8218     5.6407     5.3146
  264.6000   -32.5135   106.7242     5.8265     5.6893     5.0923
  264.7000   -32.5120   106.4630     5.8621     5.7451     4.9346
  264.8000   -32.5102   105.9247     5.8924     5.7794     4.8261
  264.9000   -32.5090   105.7215     5.9487     5.8573     4.7827
  265.0000   -32.5075   105.3373     6.0008     5.9399     4.7962
  265.1000   -32.5060   104.9531     6.0422     6.0419     4.8520
  265.2000   -32.5045   104.6869     6.1115     6.1456     4.9639
  265.3000   -32.5028   104.1585     6.1800     6.2463     5.2434
  265.4000   -32.5015   103.9504     6.2770     6.3246     5.5634
  265.5000   -32.5000   103.5611     6.3653     6.3897     5.8413
  265.6000   -32.4985   103.0860     6.4375     6.4876     6.0549
  265.7000   -32.4970   102.6110     6.5104     6.5822     6.4106
  265.8000   -32.4954   102.0924     6.5973     6.6573     6.9176
  265.9000   -32.4940   101.6605     6.6591     6.7345     7.3628
  266.0000   -32.4925   101.3453     6.7346     6.8102     7.7488
  266.1000   -32.5508   101.1110     6.8110     6.9177     8.1735
  266.2000   -32.6396   100.9176     6.8882     7.0578     8.7129
  266.3000   -32.6416   100.9258     6.9746     7.1951     9.1083
  266.4000   -32.7621   101.1558     7.0814     7.2799     9.4919
  266.5000   -32.7853   101.5683     7.2298     7.4255     9.7598
  266.6000   -32.8526   102.0566     7.3950     7.6048     9.8947
  266.7000   -32.9324   102.5449     7.5637     7.7965     9.9512
  266.8000   -32.9434   103.0576     7.7425     7.9581    10.0175
  266.9000   -33.0794   103.7506     7.8702     8.0945    10.0652
  267.0000   -33.1842   104.6498     8.0049     8.2448    10.0879
  267.1000   -33.2267   105.6199     8.1185     8.3750    10.1098
  267.2000   -33.2748   106.5378     8.2357     8.4855    10.1587
  267.3000   -33.3741   107.2883     8.4252     8.6278    10.0883
  267.4000   -33.3723   107.7626     8.7154     8.8022    10.0358
  267.5000   -33.3708   108.0760     8.8349     8.9026     9.9791
  267.6000   -33.3694   108.2075     8.9567     9.0557     9.8965
  267.7000   -33.3679   108.1572     9.0583     9.1709     9.7980
  267.8000   -33.3359   107.9209     9.1610     9.2756     9.7434
  267.9000   -33.2147   107.6885     9.2783     9.3815     9.7435
  268.0000   -33.2132   107.2743     9.3701     9.4840     9.7436
  268.1000   -33.2117   106.7992     9.4421     9.5459     9.7130
  268.2000   -33.1425   106.1383     9.4953     9.5923     9.6762
  268.3000   -33.0585   104.9405     9.5488     9.6469     9.6820
  268.4000   -33.0571   103.7424     9.6058     9.7018     9.7442
  268.5000   -33.0553   102.5447     9.6567     9.7569     9.7443
  268.6000   -32.9491   101.4730     9.7111     9.8161     9.7445
  268.7000   -32.9024   100.7169     9.7395     9.8683     9.7446
  268.8000   -32.9009   100.4826     9.7525     9.9245     9.7554
  268.9000   -32.8994   100.2482     9.8069     9.9810     9.8130
  269.0000   -32.8978   100.2039     9.8065    10.0237     9.8132
  269.1000   -32.8964   100.2105     9.8061    10.0247     9.8133
  269.2000   -32.8949   100.2171     9.8361    10.0818     9.8420
  269.3000   -32.8934   100.2237     9.8740    10.0939     9.8823
  269.4000   -32.8919   100.2315     9.8781    10.0939     9.8824
  269.5000   -32.8894   100.2369     9.9422    10.0939     9.8826
  269.6000   -32.7659   100.2435     9.9419    10.0939     9.8827
  269.7000   -32.7373   100.2501     9.9415    10.0939     9.8492
  269.8000   -32.7358   100.2746     9.9626    10.0939     9.8143
  269.9000   -32.7342   100.5642    10.0187    10.0939     9.8144
  270.0000   -32.7328   100.5697    10.0798    10.0939     9.8146
  270.1000   -32.7310   100.5763    10.1320    10.0939     9.8147
  270.2000   -32.7298   100.5829    10.1496    10.0939     9.8148
  270.3000   -32.7282   100.5665    10.1753    10.0939     9.8150
  270.4000   -32.7267   100.2972    10.2326    10.0939     9.8151
  270.5000   -32.7253   100.3028    10.2909    10.1222     9.8152
  270.6000   -32.7236   100.0176    10.3482    10.1798     9.8154
  270.7000   -32.7222    99.5425    10.4066    10.2377     9.8155
  270.8000   -32.7207    99.0673    10.4652    10.3074     9.8156
  270.9000   -32.7192    98.5310    10.5242    10.3546     9.8340
  271.0000   -32.7177    98.1169    10.5869    10.4135     9.8846
  271.1000   -32.7162    97.4909    10.7281    10.4728     9.8847
  271.2000   -32.7147    96.7748    10.7780    10.5393     9.8849
  271.3000   -32.7132    96.0917    10.8753    10.6734     9.9212
  271.4000   -32.7770    95.5653    10.9987    10.7814     9.9543
  271.5000   -32.8604    95.1414    11.1316    10.9045     9.9759
  271.6000   -32.8677    94.8222    11.3417    11.0290    10.0944
  271.7000   -33.0073    94.7818    11.5743    11.1548    10.1498
  271.8000   -33.0060    95.0198    11.7498    11.2861    10.2505
  271.9000   -33.0045    95.2071    11.8540    11.4739    10.3979
  272.0000   -33.0030    95.4843    11.9613    11.6220    10.5936
  272.1000   -33.0015    95.6108    12.2439    11.7547    10.8367
  272.2000   -32.9999    95.3115    12.3780    11.8888    11.1303
  272.3000   -32.9985    94.6814    12.5710    12.0278    11.2883
  272.4000   -33.0802    94.4316    12.7858    12.2718    11.4434
  272.5000   -33.1456    93.9880    13.0040    12.5034    11.5988
  272.6000   -33.1710    93.5129    13.2258    12.7906    11.7884
  272.7000   -33.2928    92.6098    13.4969    13.0840    11.9349
  272.8000   -33.5323    90.9789    13.6823    13.3636    12.1862
  272.9000   -33.7748    88.4675    13.9160    13.5311    12.4667
  273.0000   -34.0171    86.6348    14.1263    13.7410    12.8557
  273.1000   -34.2594    85.0562    14.2864    13.9771    13.3760
  273.2000   -34.5092    83.5054    14.4692    14.2171    13.9157
  273.3000   -34.9352    81.7195    14.6125    14.4609    14.3181
  273.4000   -35.2378    79.5048    14.7784    14.7128    14.6659
  273.5000   -35.5290    77.6323    14.9460    14.8782    14.9560
  273.6000   -35.8162    76.0637    15.1304    15.0482    15.2131
  273.7000   -36.1638    74.5079    15.4038    15.1745    15.4577
  273.8000   -36.4293    73.0021    15.5686    15.3126    15.5579
  273.9000   -36.8690    72.0414    15.7454    15.5692    15.6348
  274.0000   -37.2733    71.0885    15.9240    15.7761    15.7241
  274.1000   -37.7993    70.1316    16.1270    15.9269    15.7770
  274.2000   -38.5290    69.1746    16.4008    16.1087    15.7772
  274.3000   -39.2747    68.2805    16.5872    16.2574    15.7774
  274.4000   -40.1083    67.5607    16.7755    16.3637    15.7776
  274.5000   -40.7784    66.6038    16.9658    16.5658    15.7778
  274.6000   -41.3236    66.0186    17.1582    16.6524    15.8231
  274.7000   -41.8097    65.5434    17.3526    16.8131    15.9384
  274.8000   -42.2831    65.0682    17.5794    17.0050    16.1247
  274.9000   -42.5688    64.5841    17.7489    17.1989    16.4528
  275.0000   -42.6677    63.8681    17.8875    17.3950    16.6849
  275.1000   -42.7881    63.3430    18.0276    17.5938    17.0880
  275.2000   -42.9521    62.6038    18.2319    17.7948    17.5062
  275.3000   -43.1791    61.6468    18.4555    17.9424    17.8069
