~VERSION INFORMATION
 VERS.                2.0:   CWLS LOG ASCII STANDARD - VERSION 2.0
 WRAP.                 NO:   ONE LINE PER DEPTH STEP
~WELL INFORMATION
#MNEM.UNIT      DATA TYPE    INFORMATION
#----------   ------------   ------------------------------
 STRT.F            4.0000:   START DEPTH
 STOP.F          473.0000:   STOP DEPTH
 STEP.F            0.5000:   STEP LENGTH
 NULL.          -999.2500:   NO VALUE
 COMP.       F D SERV INC:   COMPANY
 WELL.  64-5 SX-10 #64-10:   WELL
 FLD .             TEAPOT:   FIELD
 LOC .      S10 T38N R78W:   LOCATION
 CNTY.            NATRONA:   COUNTY
 STAT.            WYOMING:   STATE
 CTRY. UNITED STATES OF AMERICA:   COUNTRY
 SRVC.     Atlas Wireline:   SERVICE COMPANY
 DATE.        11-APR-1992:   LOGDATE
 API .       490252252800:   API NUMBER
~CURVE INFORMATION
#MNEM.UNIT       API CODE    CURVE DESCRIPTION
#----------   ------------   ------------------------------
 DEPT.F                  :   
 GRR .GAPI   07 310 01 00:   GAMMA RAY
 SPR .MV     07 010 01 00:   SPONTANEOUS POTENTIAL
 RILD.OHMM   07 120 46 00:   INDUCTION LOG DEEP RESISTIVITY
 RILM.OHMM   07 120 44 00:   INDUCTION LOG MEDIUM RESISTIVITY
 RFOC.OHMM   07 220 04 00:   RESISTIVITY FOCUSED LOG
~PARAMETER INFORMATION
#MNEM.UNIT          VALUE    DESCRIPTION
#----------   ------------   ------------------------------
 PD  .                 GL:   PERMANENT DATUM
 EPD .F              5189:   ELEVATION PERMANENT DATUM
 LMF .                 KB:   LOG MEASURED FROM
 DAPD.F                10:   FEET ABOVE PERMANENT DATUM
 DMF .                 KB:   DRILLING MEASURED FROM
 EKB .F              5199:   KELLING BUSHING
 EDF .F              5198:   DRILLING FLOOR
 EGL .F              5189:   GROUND LEVEL
 DATE.        11-APR-1992:   RUN DATE
 RUN .                  1:   RUN NUMBER
 DD  .F               475:   DEPTH DRILLER
 DL  .F               475:   DEPTH LOGGER
 BLI .F               473:   BOTTOM LOG INTERVAL
 CS  .IN            8.625:   CASING SIZE
 CBD .F               130:   CASING BOTTOM DRILLER
 CBL .F               140:   CASING BOTTOM LOGGER
 BS  .IN            7.875:   BIT SIZE
 BSD .F               475:   BIT SIZE AT DEPTH
 DFT .          CHEM. GEL:   DRILLING FLUID TYPE
 DFD .               13.8:   DRILLING FLUID DENSITY
 DFV .                 62:   DRILLING FLUID VISCOSITY
 DFPH.                  9:   DRILLING FLUID PH
 DFL .                6.8:   DRILLING FLUID LOSS
 MSS .            MUDTANK:   MUD SAMPLE SOURCE
 RMS .OHMM           1.85:   RESISTIVITY MUD SAMPLE
 MST .F                72:   MUD SAMPLE TEMPERATURE
 RMF .OHMM           0.96:   RESISTIVITY MUD FILTRATE SAMPLE
 MFST.F                72:   MUD FILTRATE SAMPLE TEMPERATURE
 RMC .OHMM           3.17:   RESISTIVITY MUD CAKE
 MCST.F                72:   MUD CAKE SAMPLE TEMPERATURE
 MFSS.               MEAS:   MUD FILTRATE SAMPLE SOURCE
 MCSS.               MEAS:   MUD CAKE SAMPLE SOURCE
 RMB .OHMM           1.28:   RESISTIVITY MUD AT BHT
 BHT .F               104:   BOTTOM HOLE TEMPERATURE
 TCS .HRS               2:   TIME CURCULATED STOPPED
 MRT .F               104:   MAXIMUM RECORDED TEMPERATURE
 LUN .            HL-6274:   LOGGING UNIT NUMBER
 LUL .             CASPER:   LOGGING UNIT LOCATION
 ENGI.             RAUTIO:   RECORDING ENGINEER
 WITN.        GARY STRONG:   WITNESSED BY
 CLNT.            A2DTECH:   CLIENT CODE
 ORIG.           5" PRINT:   ORIGIN OF DATA
 UWI .       490252252800:   UNIQUE WELL ID
 DICO. A2D Technologies, Inc.:   DIGITIZING COMPANY
~OTHER INFORMATION
~A    DEPT     GRR        SPR       RILD       RILM       RFOC   
# ...
  187.0000   100.8978   -52.2063     4.1022     4.8853     5.6119
  187.5000   101.2129   -51.5954     4.0157     4.7432     5.1591
  188.0000    99.7098   -50.9845     4.0424     4.6220     4.5454
  188.5000    96.6915   -51.1342     4.2436     4.6537     4.3281
  189.0000    94.8848   -51.7384     4.8119     4.7843     4.4383
  189.5000    97.3217   -52.1913     5.2691     4.9532     5.3709
  190.0000   100.3640   -52.4930     5.5337     5.3104     6.4133
  190.5000   103.4064   -52.9459     5.9804     5.6536     6.8234
  191.0000   102.2063   -53.3980     6.3647     6.0191     6.9589
  191.5000    99.4911   -53.5471     6.8258     6.3193     6.9570
  192.0000    97.3818   -53.5440     7.2093     6.5425     6.9071
  192.5000    98.9091   -53.3890     7.4528     6.6799     6.8098
  193.0000   100.1333   -53.2340     7.5025     6.7725     6.8083
  193.5000   100.4576   -53.0790     7.5525     6.9625     7.0000
  194.0000   101.3859   -52.7720     7.5499     7.0593     7.2476
  194.5000   102.5939   -52.7690     7.6008     7.2069     7.4517
  195.0000   101.3333   -53.2269     7.5975     7.2054     7.4501
  195.5000    99.8162   -53.3709     7.6488     7.1040     7.4486
  196.0000    98.6905   -52.9119     7.6455     7.0531     7.4470
  196.5000    99.9667   -52.4341     7.6429     7.0516     7.4455
  197.0000   101.5010   -52.2979     7.5870     7.0501     7.4439
  197.5000   102.6690   -52.1150     7.5844     6.9996     7.4424
  198.0000   102.6811   -51.8353     7.5817     6.9011     7.4408
  198.5000   102.3901   -51.8323     7.5791     6.8517     7.4393
  199.0000   102.4021   -52.1332     7.5765     6.8502     7.4377
  199.5000   102.7172   -52.5861     7.5211     6.8488     7.3843
  200.0000   102.4920   -52.4202     7.4628     6.8474     7.3739
  200.5000   100.6116   -52.2796     7.4385     6.8460     7.3750
  201.0000   102.7404   -52.4316     7.4144     6.8562     7.3760
  201.5000   104.2616   -52.7356     7.4664     6.8954     7.4287
  202.0000   100.9343   -53.0395     7.4664     6.8954     7.4297
  202.5000    96.6979   -53.3435     7.4162     6.8954     7.4828
  203.0000    96.0964   -53.0395     7.3115     6.9437     7.4838
  203.5000    97.6191   -53.0395     7.1099     6.9437     7.4849
  204.0000    99.7464   -52.8875     6.9139     6.8474     7.4339
  204.5000   100.6615   -52.5836     6.9624     6.7998     7.2806
  205.0000   100.6676   -52.1277     7.1099     6.6588     7.2310
  205.5000    98.8554   -51.6717     7.1598     6.4303     7.2323
  206.0000    98.5570   -51.6717     7.1099     6.1665     7.2333
  206.5000   100.9888   -51.6717     6.9624     6.0386     6.9863
  207.0000   103.7221   -51.6717     6.8658     6.0386     6.3370
  207.5000   104.9403   -51.8237     6.7705     6.0810     6.0357
  208.0000   104.9463   -51.6717     6.4473     6.0386     6.1214
  208.5000   105.2554   -50.9119     6.0121     5.7506     6.6107
  209.0000   106.1705   -50.4559     5.5673     5.4381     6.8463
  209.5000   106.7811   -50.3040     5.1195     4.9317     6.9921
  210.0000   103.4548   -50.3040     5.0838     4.2590     6.6597
  210.5000    99.2185   -50.4559     5.1195     3.9996     5.6731
  211.0000    95.2851   -50.6079     5.1195     4.1999     4.4756
  211.5000    92.8669   -50.6079     5.0484     4.4103     4.1167
  212.0000    93.1760   -50.4559     5.0838     4.7293     4.5397
  212.5000    94.0912   -50.4559     5.1554     5.0714     5.6368
  213.0000    95.6124   -50.4559     5.4138     5.4003     6.9503
  213.5000    98.0427   -50.6079     5.6852     5.7506     7.0983
  214.0000    99.2608   -50.6079     6.0967     6.1236     6.8558
  214.5000   101.3881   -50.7599     6.7233     6.3856     6.8091
  215.0000   101.6972   -51.0638     7.2605     6.5664     6.8578
  215.5000    98.3699   -51.0638     7.4664     6.6125     6.8587
  216.0000    91.7093   -50.7599     7.4664     6.6588     6.8120
  216.5000    90.8061   -50.4559     7.1099     6.6125     6.8129
  217.0000    93.2365   -50.0000     6.3561     6.4754     7.0067
  217.5000    94.7577   -49.6960     5.5260     5.9549     7.1070
  218.0000    96.8850   -49.2401     5.0819     4.7293     7.1059
  218.5000    96.5879   -49.0881     4.9783     4.1999     6.0890
  219.0000    97.8062   -49.2401     4.9783     4.1129     5.0361
  219.5000   102.6607   -49.6960     5.0133     4.1999     4.2723
  220.0000   104.2020   -50.0000     4.9437     4.5037     4.7602
  220.5000    99.9455   -49.8480     4.8751     4.7958     6.0809
  221.0000    95.7092   -49.6960     4.9467     4.9662     6.8215
  221.5000    95.7152   -49.3921     5.3533     5.4003     6.3583
  222.0000    97.2364   -49.3921     5.8641     5.7909     6.1883
  222.5000    96.9394   -49.3921     6.4632     6.1665     6.3801
  223.0000    91.7940   -49.3921     6.8719     6.5208     6.9821
  223.5000    90.8909   -49.3921     7.1666     6.8954     7.2756
  224.0000    90.8970   -49.3921     7.4220     7.1904     7.3794
  224.5000    90.6000   -49.3921     7.5798     7.3426     7.4847
  225.0000    89.3939   -49.3921     7.7952     7.4459     7.6446
  225.5000    90.3111   -49.0881     7.8957     7.5506     7.8529
  226.0000    90.6182   -48.6322     7.9614     7.5506     7.9090
  226.5000    89.7151   -48.6322     8.1195     7.5506     7.9101
  227.0000    90.6303   -48.7842     8.1764     7.5506     7.9114
  227.5000    91.2424   -48.7842     8.1764     7.6035     7.8572
  228.0000    91.2485   -48.6322     8.2337     7.7105     7.8039
  228.5000    93.1010   -48.6322     8.3496     7.7105     7.8050
  229.0000    94.5939   -48.6322     8.4671     7.7105     7.8608
  229.5000    92.1030   -48.6322     8.4671     7.6568     8.0282
  230.0000    88.2423   -48.4802     8.4671     7.6035     8.1991
  230.5000    91.6707   -48.4802     8.4671     7.5506     8.2577
  231.0000    95.2485   -48.4802     8.4671     7.3941     8.3167
  231.5000    95.5333   -48.6322     8.4671     7.3941     8.2600
  232.0000    93.9677   -49.0881     8.5265     7.4459     7.9779
  232.5000    93.4241   -49.3921     8.5265     7.5506     7.7054
  233.0000    94.6424   -49.3921     8.8297     7.6568     7.5466
  233.5000    93.6707   -48.7842     9.0170     7.8737     7.7076
  234.0000    90.9090   -48.1763     9.0800     8.1534     7.9268
  234.5000    87.9556   -47.4164     9.1437     8.3844     8.2669
  235.0000    85.4949   -46.8085     9.0779     8.4431     8.5616
  235.5000    83.1152   -46.6565     8.7656     8.3844     8.6831
  236.0000    82.5574   -46.8085     8.0874     7.4459     8.9927
  236.5000    84.7313   -47.1125     6.4840     6.3856     9.0569
  237.0000    86.3031   -46.8085     5.8814     4.8973     8.8705
  237.5000    89.0404   -46.3526     5.6424     4.2294     6.5264
  238.0000    92.4364   -46.0486     5.5285     4.1417     4.2350
  238.5000    97.2970   -46.0486     5.5285     4.5353     3.7357
  239.0000    99.5636   -46.0486     5.5762     5.4003     4.1485
  239.5000    96.6081   -46.0486     5.8107     5.9135     5.0442
  240.0000    84.7285   -46.2006     6.0656     6.4303     7.5616
  240.5000    78.6739   -46.8085     6.5646     7.0414     9.3889
  241.0000    79.5891   -46.9605     7.4906     7.8737     9.2601
  241.5000    81.7163   -46.8085     8.7277     8.8044     9.0695
  242.0000    85.0557   -46.8085     9.7730     8.9908     9.0708
  242.5000    85.6678   -46.6565    10.0835     9.0538     9.0720
  243.0000    84.4618   -46.3526    10.0835     9.0538     9.0733
  243.5000    82.0436   -45.8967    10.1542     9.1811     9.1381
  244.0000    80.2314   -45.8967    10.2971     9.3755     9.1394
  244.5000    80.2375   -45.8967    10.5152     9.5739     9.1406
  245.0000    83.5769   -45.8967    10.7380     9.9836     8.8903
  245.5000    86.3102   -46.0486    10.9655    10.5572     8.8294
  246.0000    86.6178   -46.0486    11.3554    11.6414     9.4691
  246.5000    80.2617   -46.8085    12.7878    12.8369    10.8130
  247.0000    71.7829   -47.2644    14.2010    13.8618    13.1478
  247.5000    61.1829   -47.5684    15.4432    14.7609    14.8057
