~VERSION INFORMATION
 VERS.                2.0:   CWLS LOG ASCII STANDARD - VERSION 2.0
 WRAP.                 NO:   ONE LINE PER DEPTH STEP
~WELL INFORMATION
#MNEM.UNIT      DATA TYPE    INFORMATION
#----------   ------------   ------------------------------
 STRT.F           10.0000:   START DEPTH
 STOP.F          833.5000:   STOP DEPTH
 STEP.F            0.5000:   STEP LENGTH
 NULL.          -999.2500:   NO VALUE
 COMP. FENIX & SCISSON INC:   COMPANY
 WELL.       NPR 3 #46-11:   WELL
 FLD .             TEAPOT:   FIELD
 LOC .      S11 T38N R78W:   LOCATION
 CNTY.            NATRONA:   COUNTY
 STAT.            WYOMING:   STATE
 CTRY. UNITED STATES OF AMERICA:   COUNTRY
 SRVC.           BIRDWELL:   SERVICE COMPANY
 DATE.        17-DEC-1978:   LOGDATE
 API .       490251075600:   API NUMBER
~CURVE INFORMATION
#MNEM.UNIT       API CODE    CURVE DESCRIPTION
#----------   ------------   ------------------------------
 DEPT.F                  :   
 GRD .GAPI   45 310 01 00:   GAMMA RAY FROM DENSITY LOG
 CALD.IN     45 280 60 00:   CALIPER
 CORR.G/C3   45 356 01 00:   DENSITY CORRECTION
 DPHI.DEC    45 890 12 00:   DENSITY POROSITY SANDSTONE
 RHOB.G/C3   45 350 01 00:   BULK DENSITY
 SPR .MV     05 010 01 00:   SPONTANEOUS POTENTIAL FROM RES.
 SN  .OHMM   05 040 16 00:   SHORT NORMAL 16"
 IL  .OHMM   05 120 00 00:   INDUCTION LOG
~PARAMETER INFORMATION
#MNEM.UNIT          VALUE    DESCRIPTION
#----------   ------------   ------------------------------
 PD  .                 GL:   PERMANENT DATUM
 EPD .F              5193:   ELEVATION PERMANENT DATUM
 LMF .                 KB:   LOG MEASURED FROM
 DAPD.F                 4:   FEET ABOVE PERMANENT DATUM
 DMF .                 KB:   DRILLING MEASURED FROM
 EKB .F              5197:   KELLING BUSHING
 EGL .F              5193:   GROUND LEVEL
 DATE.           12-17-78:   RUN DATE
 RUN .                  1:   RUN NUMBER
 DD  .F               845:   DEPTH DRILLER
 DL  .F               834:   DEPTH LOGGER
 BLI .F               827:   BOTTOM LOG INTERVAL
 TLI .F                60:   TOP LOG INTERVAL
 CS  .IN            8.625:   CASING SIZE
 CBD .F                40:   CASING BOTTOM DRILLER
 CBL .F                42:   CASING BOTTOM LOGGER
 BS  .IN            7.875:   BIT SIZE
 BSD .F               845:   BIT SIZE AT DEPTH
 DFT .                KCL:   DRILLING FLUID TYPE
 DFD .                8.8:   DRILLING FLUID DENSITY
 DFV .                 36:   DRILLING FLUID VISCOSITY
 DFPH.               10.5:   DRILLING FLUID PH
 MSS .          FLOW LINE:   MUD SAMPLE SOURCE
 RMS .OHMM            .34:   RESISTIVITY MUD SAMPLE
 MST .F                62:   MUD SAMPLE TEMPERATURE
 RMF .OHMM            .26:   RESISTIVITY MUD FILTRATE SAMPLE
 MFST.F                66:   MUD FILTRATE SAMPLE TEMPERATURE
 RMC .OHMM            .42:   RESISTIVITY MUD CAKE
 MCST.F                68:   MUD CAKE SAMPLE TEMPERATURE
 MFSS.           MEASURED:   MUD FILTRATE SAMPLE SOURCE
 MCSS.           MEASURED:   MUD CAKE SAMPLE SOURCE
 RMB .OHMM           .288:   RESISTIVITY MUD AT BHT
 BHT .F                73:   BOTTOM HOLE TEMPERATURE
 TCS .HRS               4:   TIME CURCULATED STOPPED
 MRT .F                73:   MAXIMUM RECORDED TEMPERATURE
 LUN .               3006:   LOGGING UNIT NUMBER
 LUL .             CASPER:   LOGGING UNIT LOCATION
 ENGI.         B. ROLLINS:   RECORDING ENGINEER
 WITN.         RICHARDSON:   WITNESSED BY
 CLNT.            A2DTECH:   CLIENT CODE
 ORIG.           5" PRINT:   ORIGIN OF DATA
 UWI .       490251075600:   UNIQUE WELL ID
 DICO. A2D Technologies, Inc.:   DIGITIZING COMPANY
~OTHER INFORMATION
~A   DEPT      GRD       CALD       CORR       DPHI       RHOB        SPR         SN         IL   
# ...
  374.5000   106.0180     8.1250    -0.0060     0.1020     2.4950   -25.1000    10.1370     9.1820
  375.0000   107.0270     8.1110    -0.0050     0.1000     2.4990   -25.1000    10.0060     9.1280
  375.5000   106.6190     8.0970    -0.0040     0.1030     2.5020   -25.1000     9.8750     9.0740
  376.0000   107.0410     8.0840    -0.0040     0.1060     2.4980   -25.1000     9.7420     9.0260
  376.5000   109.8900     8.0720    -0.0030     0.1100     2.4930   -25.1000     9.7380     8.9880
  377.0000   112.6590     8.0610    -0.0020     0.1130     2.4890   -25.1000     9.7340     8.9490
  377.5000   115.4080     8.0510    -0.0020     0.1150     2.4840   -25.1000     9.7290     8.9100
  378.0000   117.8400     8.1070    -0.0030     0.1140     2.4830   -25.1000     9.7250     8.8710
  378.5000   117.5050     8.1720    -0.0030     0.1120     2.4850   -25.1000     9.7210     8.8330
  379.0000   117.0850     8.1840    -0.0030     0.1110     2.4860   -25.1000     9.7170     8.7940
  379.5000   114.9060     8.1630    -0.0030     0.1090     2.4870   -25.1010     9.7130     8.7550
  380.0000   112.4910     8.1420    -0.0040     0.1080     2.4890   -25.1000     9.7090     8.7110
  380.5000   110.0590     8.1210    -0.0040     0.1070     2.4900   -25.1000     9.7050     8.7120
  381.0000   107.5520     8.1110    -0.0040     0.1050     2.4910   -25.0840     9.7010     8.7140
  381.5000   107.2810     8.1250    -0.0050     0.1040     2.4920   -25.0620     9.6970     8.7160
  382.0000   107.7720     8.1380    -0.0050     0.1040     2.4940   -25.0400     9.6920     8.7170
  382.5000   109.1210     8.1510    -0.0050     0.1060     2.4950   -25.0190     9.6880     8.7190
  383.0000   110.7160     8.1650    -0.0050     0.1070     2.4960   -24.9970     9.6840     8.7210
  383.5000   112.4570     8.1780    -0.0060     0.1060     2.4980   -24.9750     9.6800     8.7220
  384.0000   114.1960     8.1890    -0.0060     0.1060     2.4970   -24.9540     9.6760     8.7240
  384.5000   115.9310     8.1690    -0.0060     0.1080     2.4930   -24.9320     9.6720     8.7250
  385.0000   117.4490     8.1500    -0.0050     0.1110     2.4890   -24.9100     9.6680     8.7270
  385.5000   116.9530     8.1300    -0.0050     0.1110     2.4850   -24.8880     9.6640     8.7290
  386.0000   116.4440     8.1110    -0.0050     0.1080     2.4860   -24.8670     9.6600     8.7300
  386.5000   115.9450     8.0910    -0.0040     0.1060     2.4890   -24.8450     9.6550     8.7320
  387.0000   114.9730     8.1180    -0.0040     0.1060     2.4920   -24.8230     9.6510     8.7330
  387.5000   113.4950     8.1480    -0.0040     0.1060     2.4920   -24.8010     9.6470     8.7350
  388.0000   112.7160     8.1790    -0.0030     0.1090     2.4890   -24.7780     9.6430     8.7370
  388.5000   112.1430     8.2100    -0.0030     0.1110     2.4860   -24.7580     9.6390     8.7380
  389.0000   111.5780     8.2410    -0.0030     0.1140     2.4830   -24.7350     9.6350     8.7400
  389.5000   111.0180     8.2380    -0.0020     0.1160     2.4790   -24.7080     9.6310     8.7410
  390.0000   110.6510     8.1920    -0.0020     0.1180     2.4760   -24.8080     9.6270     8.7430
  390.5000   114.6020     8.1480    -0.0020     0.1180     2.4740   -25.2160     9.6220     8.7450
  391.0000   119.4290     8.1020    -0.0010     0.1150     2.4770   -25.6800     9.6180     8.7460
  391.5000   119.1500     8.0960    -0.0010     0.1120     2.4810   -26.2820     9.6140     8.7480
  392.0000   118.7620     8.1180    -0.0010     0.1090     2.4840   -26.3140     9.6100     8.7500
  392.5000   119.6880     8.1400     0.0000     0.1060     2.4880   -26.3420     9.6060     8.7510
  393.0000   121.1280     8.1620     0.0000     0.1070     2.4900   -26.3490     9.6020     8.7530
  393.5000   121.4320     8.1840     0.0000     0.1090     2.4890   -26.3660     9.5980     8.7540
  394.0000   117.8930     8.1820     0.0010     0.1110     2.4870   -26.3810     9.5940     8.7560
  394.5000   113.8990     8.1710     0.0010     0.1130     2.4860   -26.3950     9.5900     8.7580
  395.0000   109.7990     8.1590     0.0010     0.1110     2.4840   -26.4100     9.5850     8.7590
  395.5000   108.0460     8.1480     0.0020     0.1080     2.4850   -26.4240     9.5810     8.7610
  396.0000   107.1070     8.1370     0.0020     0.1060     2.4890   -26.4390     9.5770     8.7620
  396.5000   106.8450     8.1250     0.0020     0.1030     2.4940   -26.4530     9.5730     8.7640
  397.0000   106.6110     8.1140     0.0030     0.1010     2.4980   -26.4680     9.5690     8.7660
  397.5000   106.3780     8.1030     0.0030     0.1000     2.5020   -26.4830     9.5650     8.7670
  398.0000   106.1420     8.0910     0.0030     0.1020     2.5010   -26.4970     9.5620     8.7690
  398.5000   105.9040     8.0800     0.0040     0.1040     2.5000   -26.5120     9.5620     8.7700
  399.0000   105.7710     8.0720     0.0030     0.1050     2.4990   -26.5270     9.5620     8.7720
  399.5000   107.1600     8.0990     0.0020     0.1070     2.4970   -26.5420     9.5620     8.7740
  400.0000   108.8960     8.1250     0.0000     0.1060     2.4970   -26.5560     9.5620     8.7750
  400.5000   110.5400     8.1510    -0.0020     0.1040     2.5000   -26.5710     9.5620     8.7770
  401.0000   111.6580     8.1680    -0.0030     0.1010     2.5030   -26.5860     9.5620     8.7790
  401.5000   111.1110     8.1520    -0.0050     0.0990     2.5060   -26.6000     9.5620     8.7800
  402.0000   110.5770     8.1360    -0.0060     0.0980     2.5100   -26.6150     9.5620     8.7820
  402.5000   110.0310     8.1200    -0.0050     0.0980     2.5130   -26.6300     9.5620     8.7830
  403.0000   109.9260     8.1040    -0.0050     0.1000     2.5130   -26.6440     9.5620     8.7850
  403.5000   111.1230     8.0920    -0.0040     0.1020     2.5100   -26.6590     9.5620     8.7870
  404.0000   112.2830     8.1070    -0.0030     0.1040     2.5060   -26.6740     9.5620     8.7880
  404.5000   111.2950     8.1220    -0.0030     0.1060     2.5010   -26.6880     9.5620     8.7900
  405.0000   109.4330     8.1380    -0.0020     0.1080     2.4950   -26.7030     9.5620     8.7910
  405.5000   107.5810     8.1530    -0.0010     0.1110     2.4900   -26.7070     9.5620     8.7930
  406.0000   107.3220     8.1680     0.0000     0.1130     2.4850   -26.7070     9.5620     8.7950
  406.5000   109.2540     8.1830     0.0000     0.1140     2.4810   -26.7070     9.5620     8.7960
  407.0000   111.3360     8.1710     0.0010     0.1110     2.4810   -26.7070     9.5620     8.7980
  407.5000   113.4520     8.1380     0.0020     0.1090     2.4860   -26.7070     9.5620     8.7990
  408.0000   113.3380     8.1040     0.0020     0.1060     2.4910   -26.7070     9.5620     8.8010
  408.5000   112.6600     8.0730     0.0020     0.1040     2.4970   -26.7070     9.5620     8.8030
  409.0000   111.9590     8.1290     0.0020     0.1010     2.4990   -26.7070     9.5620     8.8040
  409.5000   111.2400     8.1900     0.0020     0.1020     2.4970   -26.7070     9.5620     8.8060
  410.0000   111.4560     8.2510     0.0020     0.1030     2.4960   -26.7070     9.5620     8.8080
  410.5000   111.9390     8.2770     0.0020     0.1050     2.4950   -26.7070     9.5620     8.8090
  411.0000   113.7080     8.2030     0.0020     0.1070     2.4930   -26.7070     9.5620     8.8110
  411.5000   115.5460     8.1340     0.0020     0.1080     2.4920   -26.7070     9.5620     8.8120
  412.0000   116.6050     8.1840     0.0020     0.1100     2.4910   -26.7070     9.5620     8.8140
  412.5000   116.3750     8.2230     0.0020     0.1100     2.4890   -26.7070     9.5620     8.8160
  413.0000   116.1730     8.1810     0.0020     0.1080     2.4880   -26.7070     9.5620     8.8170
  413.5000   115.0940     8.1390     0.0020     0.1060     2.4900   -26.7070     9.5620     8.8190
  414.0000   113.4840     8.0980     0.0020     0.1040     2.4920   -26.7070     9.5620     8.8200
  414.5000   111.9450     8.0710     0.0020     0.1030     2.4950   -26.7070     9.5620     8.8220
