~VERSION INFORMATION
 VERS.                2.0:   CWLS LOG ASCII STANDARD - VERSION 2.0
 WRAP.                 NO:   ONE LINE PER DEPTH STEP
~WELL INFORMATION
#MNEM.UNIT      DATA TYPE    INFORMATION
#----------   ------------   ------------------------------
 STRT.F           20.0000:   START DEPTH
 STOP.F          710.0000:   STOP DEPTH
 STEP.F            0.5000:   STEP LENGTH
 NULL.          -999.2500:   NO VALUE
 COMP. FENIX & SCISSON INC:   COMPANY
 WELL.     NPR-3 #42SX-34:   WELL
 FLD .             TEAPOT:   FIELD
 LOC .      S34 T39N R78W:   LOCATION
 CNTY.            NATRONA:   COUNTY
 STAT.            WYOMING:   STATE
 CTRY. UNITED STATES OF AMERICA:   COUNTRY
 SRVC.           BIRDWELL:   SERVICE COMPANY
 DATE.        30-AUG-1978:   LOGDATE
 API .       490251070800:   API NUMBER
~CURVE INFORMATION
#MNEM.UNIT       API CODE    CURVE DESCRIPTION
#----------   ------------   ------------------------------
 DEPT.F                  :   
 SPR .MV     05 010 01 00:   SPONTANEOUS POTENTIAL
 SN  .OHMM   05 040 16 00:   SHORT NORMAL 16'
 ILD .OHMM   05 120 46 00:   INDUCTION LOG DEEP RESISTIVITY
 GRD .GAPI   45 310 01 00:   GAMMA RAY FROM DENSITY LOG
 CALD.IN     45 280 60 00:   CALIPER
 RHOB.G/C3   45 350 01 00:   BULK DENSITY
 DPHI.DEC    45 890 12 00:   DENSITY POROSITY SANDSTONE
 CORR.G/C3   45 356 01 00:   DENSITY CORRECTION
~PARAMETER INFORMATION
#MNEM.UNIT          VALUE    DESCRIPTION
#----------   ------------   ------------------------------
 PD  .                 GL:   PERMANENT DATUM
 EPD .F              5079:   ELEVATION PERMANENT DATUM
 LMF .                 KB:   LOG MEASURED FROM
 DAPD.F                 4:   FEET ABOVE PERMANENT DATUM
 DMF .                 KB:   DRILLING MEASURED FROM
 EKB .F              5083:   KELLING BUSHING
 EGL .F              5079:   GROUND LEVEL
 DATE.            8-30-78:   RUN DATE
 RUN .                  1:   RUN NUMBER
 DD  .F               705:   DEPTH DRILLER
 DL  .F               708:   DEPTH LOGGER
 BLI .F               702:   BOTTOM LOG INTERVAL
 TLI .F                50:   TOP LOG INTERVAL
 CS  .IN            8.625:   CASING SIZE
 CBD .F                40:   CASING BOTTOM DRILLER
 CBL .F                40:   CASING BOTTOM LOGGER
 BS  .IN            7.875:   BIT SIZE
 BSD .F               705:   BIT SIZE AT DEPTH
 DFT .                KCL:   DRILLING FLUID TYPE
 DFD .                8.6:   DRILLING FLUID DENSITY
 DFV .                 34:   DRILLING FLUID VISCOSITY
 DFPH.                  9:   DRILLING FLUID PH
 DFL .                7.4:   DRILLING FLUID LOSS
 MSS .           FLOWLINE:   MUD SAMPLE SOURCE
 RMS .OHMM             .3:   RESISTIVITY MUD SAMPLE
 MST .F                80:   MUD SAMPLE TEMPERATURE
 RMF .OHMM             .4:   RESISTIVITY MUD FILTRATE SAMPLE
 MFST.F                80:   MUD FILTRATE SAMPLE TEMPERATURE
 RMC .OHMM             .5:   RESISTIVITY MUD CAKE
 MCST.F                82:   MUD CAKE SAMPLE TEMPERATURE
 MFSS.               MEAS:   MUD FILTRATE SAMPLE SOURCE
 MCSS.               MEAS:   MUD CAKE SAMPLE SOURCE
 RMB .OHMM            .32:   RESISTIVITY MUD AT BHT
 BHT .F                73:   BOTTOM HOLE TEMPERATURE
 TCS .HRS               3:   TIME CURCULATED STOPPED
 MRT .F                73:   MAXIMUM RECORDED TEMPERATURE
 LUN .               3006:   LOGGING UNIT NUMBER
 LUL .               CASP:   LOGGING UNIT LOCATION
 ENGI.            POINTER:   RECORDING ENGINEER
 WITN.              AMEND:   WITNESSED BY
 CLNT.            A2DTECH:   CLIENT CODE
 ORIG.           5" PRINT:   ORIGIN OF DATA
 UWI .       490251070800:   UNIQUE WELL ID
 DICO. A2D Technologies, Inc.:   DIGITIZING COMPANY
~OTHER INFORMATION
~A   DEPT      SPR         SN        ILD         GRD      CALD       RHOB       DPHI       CORR   
# ...
  182.0000   -43.0558    10.1295     9.7697    87.0128     8.9517     2.4718     0.1250     0.0615
  182.5000   -42.9784    10.0397     9.6724    87.1317     8.9518     2.4764     0.1220     0.0687
  183.0000   -42.9024     9.9507     9.5761    89.5182     8.9519     2.4812     0.1202     0.0759
  183.5000   -42.8260     9.8497     9.4809    89.1480     8.9519     2.4858     0.1188     0.0819
  184.0000   -42.7448     9.8677     9.3864    88.6683     8.9517     2.4908     0.1155     0.0833
  184.5000   -42.6766     9.9039     9.3117    90.1864     8.9523     2.4963     0.1134     0.0847
  185.0000   -42.6167     9.9402     9.3118    91.7267     8.9518     2.4999     0.1144     0.0852
  185.5000   -42.8748     9.9767     9.3117    93.4703     8.9507     2.5011     0.1155     0.0901
  186.0000   -43.1185    10.0236     9.3118    93.5612     8.9559     2.5026     0.1095     0.0981
  186.5000   -43.3861    10.0142     9.3122    91.0928     8.9181     2.5070     0.1022     0.0998
  187.0000   -43.6557     9.9846     9.3117    88.9785     8.8923     2.5129     0.1051     0.0906
  187.5000   -43.7980     9.9551     9.3117    86.6563     8.8666     2.5188     0.1081     0.0823
  188.0000   -43.5706     9.9258     9.3117    87.8909     8.8429     2.5201     0.1116     0.0740
  188.5000   -43.3475     9.8966     9.3117    89.3569     8.8204     2.5072     0.1112     0.0661
  189.0000   -43.0817     9.8675     9.3117    91.0652     8.7940     2.5003     0.1138     0.0642
  189.5000   -43.2749     9.8419     9.4848    92.9660     8.7864     2.4961     0.1241     0.0622
  190.0000   -43.8850     9.9431     9.4848    93.8593     8.8376     2.4845     0.1280     0.0656
  190.5000   -44.4731    10.0337     9.6612    92.2659     8.8976     2.4729     0.1297     0.0708
  191.0000   -44.1953    10.1246     9.7836    91.5324     8.9508     2.4687     0.1366     0.0779
  191.5000   -43.6711    10.2171     9.8897    91.1079     8.9904     2.4604     0.1417     0.0933
  192.0000   -43.1643    10.3105     9.9974    90.6216     8.9895     2.4582     0.1371     0.1221
  192.5000   -42.6345    10.4048    10.1062    89.9545     8.9875     2.4626     0.1314     0.1503
  193.0000   -42.6575    10.4999    10.2154    89.4012     8.9842     2.4662     0.1234     0.1793
  193.5000   -42.6940    10.5959    10.3250    87.6213     8.9815     2.4809     0.1154     0.1863
  194.0000   -42.7576    10.6928    10.4356    89.7408     8.9787     2.5001     0.1072     0.1857
  194.5000   -42.8088    10.7906    10.5478    93.7275     8.9757     2.5177     0.0991     0.1608
  195.0000   -42.8613    10.8892    10.7833    98.2344     8.9729     2.5369     0.0916     0.1299
  195.5000   -42.9168    10.9887    10.8095    98.5462     8.9701     2.5314     0.0932     0.0984
  196.0000   -42.9705    11.0891    10.8625    98.8638     8.9672     2.5225     0.1156     0.0680
  196.5000   -43.0245    11.1901    10.9161    98.9234     8.9645     2.4957     0.1324     0.0370
  197.0000   -43.0781    11.2920    10.9697    99.0835     8.9616     2.4685     0.1336     0.0311
  197.5000   -43.1317    11.3948    11.0230    99.1604     8.9588     2.4636     0.1348     0.0332
  198.0000   -43.1853    11.4986    11.0761    98.6238     8.9562     2.4632     0.1347     0.0354
  198.5000   -43.2389    11.6134    11.1292    97.3098     8.9530     2.4676     0.1272     0.0372
  199.0000   -43.2925    11.6565    11.1821    96.1764     8.9512     2.4774     0.1212     0.0392
  199.5000   -43.3461    11.7362    11.2355    95.0789     8.9427     2.4841     0.1212     0.0412
  200.0000   -43.3996    11.8165    11.2891    96.6561     8.9350     2.4857     0.1208     0.0421
  200.5000   -43.4533    11.8974    11.3429    98.3151     8.9269     2.4876     0.1184     0.0419
  201.0000   -43.5069    11.9787    11.4033    95.6508     8.9189     2.4897     0.1157     0.0419
  201.5000   -43.5605    12.0512    11.6153    93.1076     8.9110     2.4922     0.1206     0.0368
  202.0000   -43.6144    11.8913    11.4033    90.4044     8.9030     2.4879     0.1264     0.0309
  202.5000   -43.6676    11.7506    11.2158    88.1892     8.8950     2.4742     0.1322     0.0260
  203.0000   -43.7216    11.6168    11.2494    87.9576     8.8869     2.4669     0.1356     0.0260
  203.5000   -43.7773    11.8113    11.3170    88.6936     8.8790     2.4630     0.1356     0.0276
  204.0000   -43.8046    12.0012    11.3849    89.2815     8.8716     2.4609     0.1338     0.0341
  204.5000   -43.8013    12.1937    11.4033    85.5112     8.8677     2.4610     0.1299     0.0409
  205.0000   -43.7995    12.3889    11.7073    80.3852     8.8641     2.4657     0.1261     0.0473
  205.5000   -43.8103    12.5873    11.8687    75.0622     8.8606     2.4780     0.1222     0.0530
  206.0000   -43.7943    12.7891    12.0512    69.9190     8.8570     2.5025     0.1184     0.0480
  206.5000   -43.7637    12.9966    12.0512    64.5375     8.8535     2.5328     0.1149     0.0438
  207.0000   -43.2240    13.2139    12.0512    65.8822     8.8500     2.5196     0.1174     0.0662
  207.5000   -42.7671    13.1438    12.0512    70.1998     8.8464     2.4952     0.1213     0.0879
  208.0000   -42.2684    13.0714    12.0512    74.6234     8.8428     2.4866     0.1252     0.0969
  208.5000   -41.7889    12.9994    12.2752    79.0834     8.8394     2.4801     0.1286     0.1001
  209.0000   -41.4150    12.9277    12.2752    83.5304     8.8353     2.4734     0.1244     0.1034
  209.5000   -41.5350    12.8565    12.2752    87.2810     8.8301     2.4741     0.1280     0.1070
  210.0000   -41.6296    12.7856    12.2140    88.6757     8.7946     2.4746     0.1333     0.1103
  210.5000   -41.7459    12.7152    12.1505    90.1620     8.7487     2.4704     0.1344     0.1141
  211.0000   -41.8567    12.6451    12.0874    91.4620     8.6959     2.4678     0.1338     0.1174
  211.5000   -41.9582    12.5754    12.0247    94.2535     8.6699     2.4658     0.1332     0.1329
  212.0000   -42.0857    12.2752    11.9622    97.8563     8.6815     2.4646     0.1302     0.1530
  212.5000   -42.2192    12.3014    11.9001    99.8865     8.8235     2.4740     0.1273     0.1619
  213.0000   -43.0604    12.3468    11.8383    99.3160     8.9055     2.4907     0.1243     0.1584
  213.5000   -44.0031    12.3923    11.7769    98.8943     8.9026     2.4950     0.1214     0.1564
  214.0000   -44.9523    12.4381    11.7157    98.4498     8.8938     2.4891     0.1185     0.1546
  214.5000   -45.9139    12.4822    11.6549    95.1616     8.8820     2.4897     0.1156     0.1609
  215.0000   -46.2210    12.5024    11.5943    91.5479     8.8719     2.4920     0.1135     0.1670
  215.5000   -46.2048    12.4236    11.5341    87.8753     8.8753     2.4951     0.1124     0.1737
  216.0000   -46.2001    12.3579    11.4742    83.9883     8.8816     2.4981     0.1145     0.1738
  216.5000   -46.2059    12.2924    11.4146    83.8723     8.8883     2.5142     0.1169     0.1577
  217.0000   -46.2025    12.2273    11.3553    86.1025     8.8945     2.5293     0.1192     0.1239
  217.5000   -46.2016    12.1625    11.2963    88.1065     8.9010     2.5374     0.1215     0.0896
  218.0000   -46.2016    12.0980    11.2376    90.0821     8.9079     2.5316     0.1239     0.0536
  218.5000   -46.2006    12.0511    11.2015    92.1191     8.9132     2.5247     0.1262     0.0346
  219.0000   -46.1997    12.0510    11.2259    93.2497     8.9161     2.4698     0.1257     0.0359
  219.5000   -46.2005    12.0510    11.2506    91.4182     8.9194     2.4802     0.1242     0.0421
  220.0000   -46.1410    12.0509    11.2757    89.5738     8.9228     2.4942     0.1227     0.0478
  220.5000   -46.0563    12.0509    11.3014    87.8534     8.9260     2.5097     0.1212     0.0495
  221.0000   -45.9721    12.0512    11.3279    86.0635     8.9293     2.5225     0.1196     0.0473
  221.5000   -45.8887    12.0517    11.3549    88.9285     8.9326     2.5178     0.1181     0.0454
  222.0000   -45.8046    11.9799    11.3819    92.0733     8.9359     2.5143     0.1166     0.0430
