~VERSION INFORMATION
 VERS.                2.0:   CWLS LOG ASCII STANDARD - VERSION 2.0
 WRAP.                 NO:   ONE LINE PER DEPTH STEP
~WELL INFORMATION
#MNEM.UNIT      DATA TYPE    INFORMATION
#----------   ------------   ------------------------------
 STRT.F           31.0000:   START DEPTH
 STOP.F          600.0000:   STOP DEPTH
 STEP.F            0.5000:   STEP LENGTH
 NULL.          -999.2500:   NO VALUE
 COMP. FENIX & SCISSON INC:   COMPANY
 WELL.      NPR 3 #84 S-3:   WELL
 FLD .             TEAPOT:   FIELD
 LOC .       S3 T38N R78W:   LOCATION
 CNTY.            NATRONA:   COUNTY
 STAT.            WYOMING:   STATE
 CTRY. UNITED STATES OF AMERICA:   COUNTRY
 SRVC.              Welex:   SERVICE COMPANY
 DATE.        29-MAR-1977:   LOGDATE
 API .       490251032000:   API NUMBER
~CURVE INFORMATION
#MNEM.UNIT       API CODE    CURVE DESCRIPTION
#----------   ------------   ------------------------------
 DEPT.F                  :   
 CALD.IN     45 280 60 00:   CALIPER FROM DENSITY LOG
 GRD .GAPI   45 310 01 00:   GAMMA RAY FROM DENSITY LOG
 CORR.G/C3   45 356 01 00:   DENSITY CORRECTION
 DPHI.DEC    45 890 12 00:   DENSITY POROSITY SANDSTONE
 RHOB.G/C3   45 350 01 00:   BULK DENSITY
 SPR .MV     07 010 01 00:   SPONTANEOUS POTENTIAL
 ILD .OHMM   07 120 46 00:   INDUCTION LOG DEEP
 ILM .OHMM   07 120 44 00:   INDUCTION LOG MEDIUM
 SGRD.OHMM   07 221 05 00:   SHALLOW SHORT GUARD RESISTIVITY
~PARAMETER INFORMATION
#MNEM.UNIT          VALUE    DESCRIPTION
#----------   ------------   ------------------------------
 PD  .                 GL:   PERMANENT DATUM
 EPD .F              5146:   ELEVATION PERMANENT DATUM
 LMF .                 GL:   LOG MEASURED FROM
 DMF .                 GL:   DRILLING MEASURED FROM
 EGL .F              5146:   GROUND LEVEL
 DATE.        29-MAR-1977:   RUN DATE
 RUN .                  1:   RUN NUMBER
 DD  .F               610:   DEPTH DRILLER
 DL  .F               602:   DEPTH LOGGER
 BLI .F               600:   BOTTOM LOG INTERVAL
 TLI .F                30:   TOP LOG INTERVAL
 CS  .IN            8.625:   CASING SIZE
 BSD .F               610:   BIT SIZE AT DEPTH
 DFT .                KCL:   DRILLING FLUID TYPE
 DFD .                8.8:   DRILLING FLUID DENSITY
 BHT .F                63:   BOTTOM HOLE TEMPERATURE
 TCS .HRS            0500:   TIME CURCULATED STOPPED
 MRT .F                63:   MAXIMUM RECORDED TEMPERATURE
 ENGI.            C. DOAK:   RECORDING ENGINEER
 WITN.            R. LYON:   WITNESSED BY
 CLNT.            A2DTECH:   CLIENT CODE
 ORIG.           5" PRINT:   ORIGIN OF DATA
 UWI .       490251032000:   UNIQUE WELL ID
 DICO. A2D Technologies, Inc.:   DIGITIZING COMPANY
~OTHER INFORMATION
~A   DEPT     CALD        GRD       CORR       DPHI       RHOB        SPR        ILD        ILM       SGRD   
   31.0000  -999.2500  -999.2500  -999.2500  -999.2500  -999.2500  -999.2500  -999.2500  -999.2500  -999.2500
   31.5000     7.9527    85.9467    -0.4119  -999.2500     1.9843  -999.2500  -999.2500  -999.2500  -999.2500
   32.0000     8.0562    88.9053    -0.3989  -999.2500     1.9666  -999.2500  -999.2500  -999.2500  -999.2500
   32.5000     8.1302    91.5061    -0.3740  -999.2500     1.9482  -999.2500  -999.2500  -999.2500  -999.2500
   33.0000     8.1612    93.6074    -0.3573  -999.2500     1.9096  -999.2500  -999.2500  -999.2500  -999.2500
   33.5000     8.1635    94.5127    -0.3436  -999.2500     1.8527  -999.2500  -999.2500  -999.2500  -999.2500
   34.0000     8.1658    92.1468    -0.3238  -999.2500     1.7869  -999.2500  -999.2500  -999.2500  -999.2500
   34.5000     8.1682    88.4359    -0.2890  -999.2500     1.7720  -999.2500  -999.2500  -999.2500  -999.2500
   35.0000     8.1705    83.5327    -0.2436  -999.2500     1.7848  -999.2500  -999.2500  -999.2500  -999.2500
   35.5000     8.1728    82.7794    -0.2057  -999.2500     1.8596  -999.2500  -999.2500  -999.2500  -999.2500
   36.0000     8.1551    84.9036    -0.1618     0.2993     1.9525  -999.2500  -999.2500  -999.2500  -999.2500
   36.5000     8.1436    90.7307    -0.1119     0.2995     2.0087  -999.2500  -999.2500  -999.2500  -999.2500
   37.0000     8.1451    98.7932    -0.0635     0.2319     2.1345  -999.2500  -999.2500  -999.2500  -999.2500
   37.5000     8.1463   103.2790    -0.0241     0.1930     2.4070  -999.2500  -999.2500  -999.2500  -999.2500
   38.0000     8.1475   106.5725     0.0214     0.1041     2.4894  -999.2500  -999.2500  -999.2500  -999.2500
   38.5000     8.1486   108.8228     0.0261     0.0913     2.4969  -999.2500  -999.2500  -999.2500  -999.2500
   39.0000     8.1498   110.3280     0.0309     0.0862     2.5007  -999.2500  -999.2500  -999.2500  -999.2500
   39.5000     8.1510   111.6841     0.0368     0.0820     2.5059  -999.2500  -999.2500  -999.2500  -999.2500
   40.0000     8.1522   112.4441     0.0415     0.0775     2.5135  -999.2500  -999.2500  -999.2500  -999.2500
   40.5000     8.1382   112.0020     0.0447     0.0752     2.5210  -999.2500  -999.2500  -999.2500  -999.2500
   41.0000     8.1397   109.7864     0.0493     0.0749     2.5233  -999.2500  -999.2500     2.0840  -999.2500
   41.5000     8.1409   110.2757     0.0525     0.0812     2.5181   -34.8462     0.8055     2.4642     7.2416
   42.0000     8.1421   112.2355     0.0557     0.0896     2.5099   -32.0097     0.4670     3.4071     7.9843
   42.5000     8.1581   112.5183     0.0588     0.0968     2.4987   -30.2133     0.3426     5.3823     8.4449
   43.0000     8.1742   111.0134     0.0620     0.1073     2.4771   -27.0797     0.2545     6.1846     8.4507
   43.5000     8.2052   109.3492     0.0636     0.1184     2.4442   -24.5404     0.2904     6.0191     8.6978
   44.0000     8.2511   106.6716     0.0502     0.1250     2.4173   -21.4067     0.3965     6.1487     9.1391
   44.5000     8.3715   106.1693     0.0383     0.1358     2.4172   -18.2730     0.6005     6.6848     9.4606
   45.0000     8.5963   108.1967     0.0324     0.1382     2.4293   -16.0309     2.0555     7.1677     9.5327
   45.5000     8.7614   110.1838     0.0311     0.1298     2.4460   -14.8289     5.1197     6.8325     9.4081
   46.0000     8.7924   112.4769     0.0312     0.1193     2.4678   -13.9241     5.5263     6.6497     9.2759
   46.5000     8.7191   113.0879     0.0299     0.1089     2.4826   -13.3164     5.3423     6.6066     9.0273
   47.0000     8.5414   112.5066     0.0270     0.1074     2.4747   -13.0059     5.2349     6.7967     8.7853
   47.5000     8.3638   111.9253     0.0210     0.1164     2.4582   -13.4384     5.3482     7.1379     8.3877
   48.0000     8.2457   110.7479     0.0135     0.1209     2.4453   -13.8742     6.6294     7.3423     8.7496
   48.5000     8.2019   109.4214     0.0076     0.1236     2.4439   -14.1580     6.8662     7.2444     9.1905
   49.0000     8.1733   106.9027     0.0035     0.1242     2.4566   -14.1414     6.7757     7.0515     9.0704
   49.5000     8.1447   103.6389     0.0021     0.1215     2.4724   -13.6823     6.5041     6.8627     9.2672
   50.0000     8.1309   101.2692     0.0023     0.1126     2.4837   -12.6322     6.0314     6.7255     9.6003
   50.5000     8.1023    98.4525     0.0039     0.1019     2.4897   -14.2501     6.2469     6.7759     9.5406
   51.0000     8.0740    96.0828     0.0101     0.0916     2.4950   -14.6859     6.9329     6.8267     9.5471
   51.5000     8.0603    95.1998     0.0178     0.0891     2.4988   -13.7777     6.9838     6.9257     9.3573
   52.0000     8.0463    97.0067     0.0210     0.0873     2.5040   -13.3186     6.7048     6.9295     8.9206
   52.5000     8.0326   101.4925     0.0211     0.0867     2.5011   -13.3053     6.3041     6.8845     8.7432
   53.0000     8.0188   107.9157     0.0183     0.0903     2.4824   -13.7378     6.1773     7.0338     8.6289
   53.5000     8.0203   110.1660     0.0169     0.0950     2.4772   -14.0223     6.1816     7.4383     8.6949
   54.0000     8.0063   109.8828     0.0155     0.1010     2.4743   -14.6027     6.3583     7.9756    11.0873
   54.5000     8.0227   107.8112     0.0127     0.1048     2.4706   -14.1436     6.4059     8.2609    24.0972
   55.0000     8.0239   106.1867     0.0128     0.1075     2.4661   -13.8331     6.4539     7.9293    17.2944
   55.5000     8.0102   105.0092     0.0115     0.1093     2.4632   -13.6712     6.4574     7.7466    10.4389
   56.0000     7.9965   103.9809     0.0101     0.1099     2.4617   -13.5093     6.5058     7.8978    10.1589
   56.5000     7.9827   103.2506     0.0087     0.1104     2.4618   -14.0904     6.5545     7.3603    10.0278
   57.0000     7.9690   103.4144     0.0074     0.1110     2.4603   -15.5630     6.5581     7.3136     9.7606
   57.5000     7.9404   105.6647     0.0060     0.1185     2.4566   -14.2124     6.5618     7.1179     9.4988
   58.0000     7.9267   108.9583     0.0062     0.1229     2.4477   -15.2392     6.5202     7.1218     9.7740
   58.5000     7.9279   111.0595     0.0079     0.1241     2.4477   -15.2249     6.4341     7.2274    10.0555
   59.0000     7.9291   110.7726     0.0095     0.1220     2.4545   -14.1684     6.3494     7.1296    10.0624
   59.5000     7.9303   111.0892     0.0112     0.1175     2.4628   -12.8009     6.3091     7.1336     9.9981
   60.0000     7.9314   112.5944     0.0128     0.1123     2.4658   -11.4512     6.2259     7.1375     9.6662
   60.5000     7.9326   114.3976     0.0160     0.1078     2.4651   -11.3094     6.1439     7.1414     9.8759
   61.0000     7.9338   116.6479     0.0207     0.1081     2.4669   -11.6087     6.0630     7.0961    10.2309
   61.5000     7.9499   118.6002     0.0238     0.1093     2.4773   -12.0441     6.0663     7.1025     9.9582
   62.0000     7.9511   117.8698     0.0300     0.1047     2.4841   -12.4794     6.1118     7.1567     9.7602
   62.5000     7.9523   115.9473     0.0362     0.0960     2.4900   -12.9148     6.1151     7.2571     9.7669
   63.0000     7.9535   114.1737     0.0394     0.0894     2.4953   -13.0259     6.1609     7.3115     9.9788
   63.5000     7.9547   111.0589     0.0395     0.0870     2.4998   -12.5635     6.2501     7.4175     9.9857
   64.0000     7.9559   106.4538     0.0397     0.0867     2.5021   -12.1044     6.3845     7.5320     9.7871
   64.5000     7.9720   103.9351     0.0368     0.0881     2.4999   -11.4968     6.4769     7.6341     9.4599
   65.0000     7.9881   103.0558     0.0324     0.0896     2.4955   -10.7405     6.6162     7.5332     9.3369
   65.5000     7.9893   103.8158     0.0281     0.0923     2.4873   -10.4300     6.8054     7.5471     9.4774
   66.0000     7.9907   104.4267     0.0267     0.0970     2.4791   -10.1195     6.9039     7.8081     9.7574
   66.5000     7.9919   103.8454     0.0284     0.1009     2.4776    -9.3633     7.0524     8.0874    10.3312
   67.0000     7.9782   103.7109     0.0315     0.1021     2.4792    -8.4585     7.1056     8.0349    10.2358
