~VERSION INFORMATION
 VERS.                2.0:   CWLS LOG ASCII STANDARD - VERSION 2.0
 WRAP.                 NO:   ONE LINE PER DEPTH STEP
~WELL INFORMATION
#MNEM.UNIT      DATA TYPE    INFORMATION
#----------   ------------   ------------------------------
 STRT.F            0.0000:   START DEPTH
 STOP.F         4535.0000:   STOP DEPTH
 STEP.F            0.5000:   STEP LENGTH
 NULL.          -999.2500:   NO VALUE
 COMP. LAWRENCE - ALLISON & ASSOCIATES:   COMPANY
 WELL.    NPR ##3 56-X-15:   WELL
 FLD .   TEAPOT NAVAL RES:   FIELD
 LOC .      S15 T38N R78W:   LOCATION
 CNTY.            NATRONA:   COUNTY
 STAT.            WYOMING:   STATE
 CTRY. UNITED STATES OF AMERICA:   COUNTRY
 SRVC.      Dresser Atlas:   SERVICE COMPANY
 DATE.        03-MAY-1984:   LOGDATE
 API .       490251095900:   API NUMBER
~CURVE INFORMATION
#MNEM.UNIT       API CODE    CURVE DESCRIPTION
#----------   ------------   ------------------------------
 DEPT.F                  :   
 CORR.G/C3   45 356 01 00:   DENSITY CORRECTION
 DEN .G/C3   45 350 01 00:   COMPENSATED BULK DENSTIY
 PORD.DEC    45 890 12 00:   POROSITY DENSITY SANDSTONE
 CNC .DEC    42 890 03 00:   NEUTRON POROSITY SANDSTONE
 GRR .GAPI   07 310 01 00:   GAMMA RAY
 CALR.IN     07 280 01 00:   CALIPER FROM RESISTIVITY
 SPR .MV     07 010 01 00:   SPONTANEOUS POTENTIAL
 RILD.OHMM   07 120 46 00:   INDUCTION LOG DEEP RESISTIVITY
 RILM.OHMM   07 120 44 00:   INDUCTION LOG MEDIUM RESISTIVITY
 RFOC.OHMM   07 220 04 00:   RESISTIVITY FOCUSED LOG
 AC  .US/F   60 520 00 00:   ACCOUSTIC
~PARAMETER INFORMATION
#MNEM.UNIT          VALUE    DESCRIPTION
#----------   ------------   ------------------------------
 PD  .                 GL:   PERMANENT DATUM
 EPD .F              5326:   ELEVATION PERMANENT DATUM
 LMF .                 KB:   LOG MEASURED FROM
 DAPD.F                12:   FEET ABOVE PERMANENT DATUM
 DMF .                 KB:   DRILLING MEASURED FROM
 EKB .F              5338:   KELLING BUSHING
 EDF .F              5337:   DRILLING FLOOR
 EGL .F              5326:   GROUND LEVEL
 DATE.        03-MAY-1984:   RUN DATE
 RUN .                  1:   RUN NUMBER
 DD  .F              4547:   DEPTH DRILLER
 DL  .F              4539:   DEPTH LOGGER
 BLI .F              4536:   BOTTOM LOG INTERVAL
 CS  .IN            8.625:   CASING SIZE
 CBD .F              1027:   CASING BOTTOM DRILLER
 CBL .F              1021:   CASING BOTTOM LOGGER
 BS  .IN            7.875:   BIT SIZE
 BSD .F              4547:   BIT SIZE AT DEPTH
 DFT .            KCL GEL:   DRILLING FLUID TYPE
 DFD .                9.1:   DRILLING FLUID DENSITY
 DFV .                 44:   DRILLING FLUID VISCOSITY
 DFPH.                  8:   DRILLING FLUID PH
 DFL .               14.5:   DRILLING FLUID LOSS
 MSS .           MUD TANK:   MUD SAMPLE SOURCE
 RMS .OHMM           0.56:   RESISTIVITY MUD SAMPLE
 MST .F                73:   MUD SAMPLE TEMPERATURE
 RMF .OHMM           0.42:   RESISTIVITY MUD FILTRATE SAMPLE
 MFST.F                73:   MUD FILTRATE SAMPLE TEMPERATURE
 RMC .OHMM           0.71:   RESISTIVITY MUD CAKE
 MCST.F                73:   MUD CAKE SAMPLE TEMPERATURE
 MFSS.               MEAS:   MUD FILTRATE SAMPLE SOURCE
 MCSS.               CALC:   MUD CAKE SAMPLE SOURCE
 RMB .OHMM           0.29:   RESISTIVITY MUD AT BHT
 BHT .F               141:   BOTTOM HOLE TEMPERATURE
 TCS .HRS             3.5:   TIME CURCULATED STOPPED
 MRT .F               125:   MAXIMUM RECORDED TEMPERATURE
 LUN .               6302:   LOGGING UNIT NUMBER
 LUL .               CODY:   LOGGING UNIT LOCATION
 ENGI.              GETTY:   RECORDING ENGINEER
 WITN.           JENNINGS:   WITNESSED BY
 CLNT.            A2DTECH:   CLIENT CODE
 ORIG.           5" PRINT:   ORIGIN OF DATA
 UWI .       490251095900:   UNIQUE WELL ID
 DICO. A2D Technologies, Inc.:   DIGITIZING COMPANY
~OTHER INFORMATION
~A    DEPT    CORR        DEN       PORD        CNC        GRR       CALR        SPR       RILD       RILM       RFOC         AC   
# ...
 3111.0000     0.1588     2.4505     0.1229     0.1622    83.2416     8.0700   -49.7988    17.4888    15.9441    15.6663    75.4053
 3111.5000     0.1562     2.4496     0.1184     0.1558    77.8251     8.0689   -49.6531    17.6034    16.2745    15.9813    75.1072
 3112.0000     0.0974     2.4624     0.1091     0.1561    73.9124     8.0679   -49.4894    17.8404    16.3838    16.0862    74.2085
 3112.5000     0.0611     2.4774     0.1021     0.1547    74.5109     8.0669   -49.0614    17.9592    16.4924    17.2428    73.3087
 3113.0000     0.0670     2.4878     0.0997     0.1495    76.6132     8.0658   -48.4663    17.9500    16.2578    18.3540    73.0106
 3113.5000     0.0970     2.4885     0.0991     0.1486    78.7155     8.0648   -47.7200    17.9426    16.1396    18.0934    73.2423
 3114.0000     0.0909     2.4982     0.0897     0.1514    80.5170     8.0637   -46.8236    17.9352    16.0223    16.7509    73.3974
 3114.5000     0.0839     2.5132     0.0833     0.1599    81.7171     8.0780   -46.0773    17.8037    15.9059    15.9469    73.3265
 3115.0000     0.0725     2.5161     0.0839     0.1673    82.6163     8.0767   -45.1808    17.3087    15.7902    16.0530    73.1803
 3115.5000     0.0755     2.5130     0.0871     0.1690    83.5156     8.0907   -44.1343    16.9447    15.6657    16.5017    73.0339
 3116.0000     0.0768     2.5082     0.0895     0.1669    86.2194     8.0897   -43.0877    16.5885    15.4379    15.6004    73.4153
 3116.5000     0.0752     2.5000     0.0965     0.1676    89.8255     8.1038   -41.8909    16.3529    15.0236    14.9556    74.3994
 3117.0000     0.0705     2.4909     0.1004     0.1631    90.1476     8.1027   -40.2437    16.0090    14.8111    14.7446    74.6300
 3117.5000     0.0478     2.4825     0.1071     0.1616    88.3158     8.1167   -39.0470    15.5639    14.5005    15.2615    74.4837
 3118.0000     0.0492     2.4658     0.1128     0.1625    84.0898     8.1157   -38.3007    15.0265    14.3951    15.0448    74.2621
 3118.5000     0.0581     2.4612     0.1156     0.1698    81.3557     8.1146   -37.8547    14.9163    14.1915    14.5240    74.3560
 3119.0000     0.0731     2.4641     0.1110     0.1768    79.8536     8.1158   -37.2585    14.8069    13.9908    14.2182    74.7997
 3119.5000     0.0700     2.4753     0.1038     0.1801    79.9290     8.1276   -36.8125    14.8008    13.8891    14.1145    75.1809
 3120.0000     0.0532     2.4843     0.0996     0.1768    82.8866     8.1263   -36.9671    14.7947    13.8843    14.1096    75.2607
 3120.5000     0.0576     2.4887     0.0987     0.1747    86.1919     8.1406   -37.1217    14.7886    13.7834    14.1047    75.3406
 3121.0000     0.0636     2.4871     0.1044     0.1696    88.8957     8.1393   -37.5766    14.6802    13.7787    13.7884    75.4204
 3121.5000     0.0569     2.4803     0.1084     0.1690    89.1942     8.1536   -38.3327    14.6687    13.7740    13.3296    75.4248
 3122.0000     0.0437     2.4726     0.1072     0.1793    89.1905     8.1523   -38.9450    14.4656    13.7693    13.4173    75.2786
 3122.5000     0.0345     2.4778     0.1039     0.1795    89.4890     8.1512   -39.5420    14.3595    13.6692    13.9862    75.0570
 3123.0000     0.0404     2.4876     0.1012     0.1761    89.4853     8.1502   -39.6967    14.3535    13.5698    14.2771    74.6093
 3123.5000     0.0599     2.4882     0.0991     0.1746    89.7839     8.1492   -39.8522    14.1484    13.4712    14.4740    74.0863
 3124.0000     0.0583     2.4836     0.1058     0.1786    90.3824     8.1481   -39.8567    13.6599    13.2757    13.8746    73.9389
 3124.5000     0.0340     2.4692     0.1101     0.1838    92.7847     8.1471   -39.8612    13.2801    13.0927    12.8451    74.3213
 3125.0000     0.0339     2.4668     0.1112     0.1868    95.4885     8.1460   -40.0158    13.1827    12.8926    12.2285    75.3054
 3125.5000     0.0579     2.4667     0.1100     0.1880    96.0877     8.1299   -40.0202    13.1773    12.8128    12.3099    76.5156
 3126.0000     0.0639     2.4682     0.1073     0.1856    93.3773     8.1289   -40.0247    13.1718    12.8084    12.4786    76.8215
 3126.5000     0.0753     2.4741     0.1046     0.1844    91.2690     8.1279   -39.8779    13.1664    12.8040    12.7382    76.6752
 3127.0000     0.0455     2.4853     0.1022     0.1829    89.1608     8.1117   -39.7322    13.1610    12.7996    12.9139    76.4536
 3127.5000     0.0347     2.4837     0.1049     0.1817    87.6541     8.1107   -39.5865    13.1555    12.7066    12.9998    76.4581
 3128.0000     0.0315     2.4708     0.1113     0.1805    86.7488     8.0946   -39.2906    13.0591    12.6142    12.9039    76.1410
 3128.5000     0.0207     2.4685     0.1076     0.1766    86.4451     8.0933   -38.9959    13.0537    12.4358    12.7206    75.6859
 3129.0000     0.0209     2.4759     0.1052     0.1748    87.0555     8.0923   -38.7000    12.9580    12.1750    12.3663    75.2669
 3129.5000     0.0253     2.4833     0.1043     0.1812    88.5700     8.0912   -38.4031    12.7740    11.9196    12.0217    75.3467
 3130.0000     0.0553     2.4780     0.1125     0.1897    89.7848     8.0902   -37.9571    12.5054    11.5888    11.6056    76.1047
 3130.5000     0.0673     2.4619     0.1161     0.1958    89.5791     8.1045   -37.5122    12.0735    11.4249    11.1220    77.3149
 3131.0000     0.0536     2.4529     0.1210     0.1982    85.8280     8.1032   -37.2162    11.5759    11.1853    10.9678    77.9223
 3131.5000     0.0263     2.4558     0.1147     0.1986    85.2235     8.1021   -37.0706    11.3325    11.1040    10.9640    78.0021
 3132.0000     0.0322     2.4670     0.1126     0.1968    86.7243     8.1011   -37.2252    11.0942    10.8711    10.8832    78.0065
 3132.5000     0.0366     2.4624     0.1162     0.1956    88.5258     8.1154   -37.2297    10.7111    10.5682    10.8038    77.9345
 3133.0000     0.0441     2.4578     0.1198     0.1994    89.1251     8.1294   -37.3963    10.1986    10.2760    10.7250    77.9401
 3133.5000     0.0620     2.4524     0.1198     0.2036    90.0237     8.1432   -37.7082     9.9141     9.8523    10.5727    77.9446
 3134.0000     0.0785     2.4524     0.1171     0.2047    90.3214     8.1421   -38.1703     9.6358     9.3812    10.4226    78.0244
 3134.5000     0.0631     2.4560     0.1143     0.2036    92.1230     8.1260   -38.6000     9.2300     8.3909    10.2032    78.2550
 3135.0000     0.0509     2.4635     0.1106     0.2066    99.3381     8.1250   -39.0549     8.7835     7.8793     9.7815    78.7869
 3135.5000     0.0344     2.4725     0.1006     0.2118   106.8539     8.1239   -39.5098     8.2334     7.7141     9.1830    79.3189
 3136.0000     0.0162     2.4844     0.0927     0.2103   112.8659     8.1229   -40.1148     7.7584     7.8194     7.9841    80.0769
 3136.5000     0.0176     2.4941     0.0885     0.2049   114.0667     8.1218   -41.0202     7.9185     7.9268     6.9418    80.4582
 3137.0000     0.0340     2.5031     0.0879     0.1991   108.0480     8.1206   -41.6252     8.1950     8.1468     6.6549    79.8522
 3137.5000     0.0596     2.5060     0.0882     0.1910    97.8194     8.1195   -41.6297     9.0282     8.9142     7.1333    78.6336
 3138.0000     0.0745     2.5037     0.0876     0.1892    84.5834     8.1034   -41.7843    10.1555     9.7539     8.9773    77.6435
 3138.5000     0.0684     2.5091     0.0870     0.1916    83.6781     8.1024   -41.9389    11.3446    10.9828    10.3181    76.2767
 3139.0000     0.0547     2.5103     0.0870     0.1947    83.6752     8.1014   -42.0935    12.6729    12.4468    11.2154    75.5823
 3139.5000     0.0546     2.5026     0.0904     0.1944    83.6662     8.1003   -42.2481    13.5788    13.0605    12.5357    75.8893
 3140.0000     0.0665     2.4829     0.1022     0.1938    83.0677     8.0842   -42.7030    14.2495    13.6922    12.8861    76.1952
 3140.5000     0.0771     2.4768     0.1064     0.1923    82.4632     8.0832   -43.4582    14.6449    14.1716    12.8770    76.2750
 3141.0000     0.0633     2.4805     0.1043     0.1909    81.8105     8.0821   -44.5137    14.9471    14.3663    12.6986    76.2795
