~VERSION INFORMATION
 VERS.                2.0:   CWLS LOG ASCII STANDARD - VERSION 2.0
 WRAP.                 NO:   ONE LINE PER DEPTH STEP
~WELL INFORMATION
#MNEM.UNIT      DATA TYPE    INFORMATION
#----------   ------------   ------------------------------
 STRT.F         1420.5000:   START DEPTH
 STOP.F         2187.0000:   STOP DEPTH
 STEP.F            0.5000:   STEP LENGTH
 NULL.          -999.2500:   NO VALUE
 COMP. LAWRENCE/ALLISON INC:   COMPANY
 WELL.      22-2 STX #3-3:   WELL
 FLD .            WILDCAT:   FIELD
 LOC .       S3 T38N R78W:   LOCATION
 CNTY.            NATRONA:   COUNTY
 STAT.            WYOMING:   STATE
 CTRY. UNITED STATES OF AMERICA:   COUNTRY
 SRVC.            Unknown:   SERVICE COMPANY
 DATE.        10-JUN-1991:   LOGDATE
 API .       490251103400:   API NUMBER
~CURVE INFORMATION
#MNEM.UNIT       API CODE    CURVE DESCRIPTION
#----------   ------------   ------------------------------
 DEPT.F                  :   
 ROP .MIN/FT 91 810 01 00:   RATE OF DRILLING PENETRATION
 TGAS.UNITS  91 830 01 00:   TOTAL GAS
~PARAMETER INFORMATION
#MNEM.UNIT          VALUE    DESCRIPTION
#----------   ------------   ------------------------------
 EKB .F              5218:   KELLING BUSHING
 EGL .F              5208:   GROUND LEVEL
 DATE.            6-10-91:   RUN DATE
 BLI .F              2187:   BOTTOM LOG INTERVAL
 TLI .F              1420:   TOP LOG INTERVAL
 CS  .IN            8.625:   CASING SIZE
 CBD .F               562:   CASING BOTTOM DRILLER
 TLAB.HRS            0030:   TIME LOGGER AT BOTTOM
 ENGI.              TOWER:   RECORDING ENGINEER
 WITN.               HUSK:   WITNESSED BY
 CLNT.            A2DTECH:   CLIENT CODE
 ORIG.           5" PRINT:   ORIGIN OF DATA
 UWI .       490251103400:   UNIQUE WELL ID
 DICO. A2D Technologies, Inc.:   DIGITIZING COMPANY
~OTHER INFORMATION
~A  DEPT         ROP      TGAS  
# ...
 1906.5000     0.7686    44.0559
 1907.0000     0.7822    35.6643
 1907.5000     0.8006    29.6408
 1908.0000     0.7904    26.8768
 1908.5000     0.7582    25.1748
 1909.0000     0.7153    23.0769
 1909.5000     0.6653    20.9790
 1910.0000     0.6971    18.8811
 1910.5000     0.7802    18.8811
 1911.0000     0.8586    16.7832
 1911.5000     0.9116    16.7832
 1912.0000     0.9812    14.6853
 1912.5000     0.9999    14.6853
 1913.0000     0.9581    12.5874
 1913.5000     0.8205    12.5874
 1914.0000     0.7726    12.5874
 1914.5000     0.7309    12.5874
 1915.0000     0.7206    10.4895
 1915.5000     0.6999    10.4895
 1916.0000     0.6897    10.4895
 1916.5000     0.6796    10.4895
 1917.0000     0.6436    10.4895
 1917.5000     0.6150     9.4554
 1918.0000     0.5964     8.3916
 1918.5000     0.5653     8.3916
 1919.0000     0.5240     8.3916
 1919.5000     0.4718    10.4895
 1920.0000     0.4298    10.4895
 1920.5000     0.5037    23.5000
 1921.0000     0.5440    28.9996
 1921.5000     0.5871    37.8760
 1922.0000     0.6199    77.1718
 1922.5000     0.6589   287.8125
 1923.0000     0.6677   591.0287
 1923.5000     0.6367  1795.3549
 1924.0000     0.5954  1795.2527
 1924.5000     0.5579  1795.1354
 1925.0000     0.5398  1795.0181
 1925.5000     0.5392  1794.9009
 1926.0000     0.5436  1794.7836
 1926.5000     0.5803  1794.6663
 1927.0000     0.6111  1794.5490
 1927.5000     0.6420  1794.4316
 1928.0000     0.6625  1794.3143
 1928.5000     0.6619  1794.1970
 1929.0000     0.6719  1794.0797
 1929.5000     0.6608  1793.9625
 1930.0000     0.6604  1793.8452
 1930.5000     0.6423  1793.7279
 1931.0000     0.6174  1790.2228
 1931.5000     0.6168  1774.0217
 1932.0000     0.6164  1762.3610
 1932.5000     0.6304  1752.3959
 1933.0000     0.6589  1739.4991
 1933.5000     0.6881  1728.4022
 1934.0000     0.7085  1717.8735
 1934.5000     0.7338  1702.8053
 1935.0000     0.7391  1683.1963
 1935.5000     0.7385  1659.0425
 1936.0000     0.6959  1638.5562
 1936.5000     0.6744  1621.3048
 1937.0000     0.6530  1604.0553
 1937.5000     0.6525  1591.6998
 1938.0000     0.6834  1571.0261
 1938.5000     0.6934  1562.8522
 1939.0000     0.7035  1558.8451
 1939.5000     0.6846  1546.5045
 1940.0000     0.5870  1529.7235
 1940.5000     0.5760  1512.4711
 1941.0000     0.5795  1495.2224
 1941.5000     0.5870  1477.9702
 1942.0000     0.5954  1461.5415
 1942.5000     0.5948  1447.6404
 1943.0000     0.6048  1432.7787
 1943.5000     0.6065  1422.8546
 1944.0000     0.6247  1408.3895
 1944.5000     0.6451  1391.1387
 1945.0000     0.6656  1373.8883
 1945.5000     0.6916  1358.7700
 1946.0000     0.7170  1348.1947
 1946.5000     0.7164  1339.6539
 1947.0000     0.6670  1333.8059
 1947.5000     0.6039  1320.9707
 1948.0000     0.5577  1309.8605
 1948.5000     0.5466  1301.3198
 1949.0000     0.5356  1287.1943
 1949.5000     0.5246  1279.0205
 1950.0000     0.5271  1266.6799
 1950.5000     0.5550  1254.3395
 1951.0000     0.6278  1246.0836
 1951.5000     0.6739  1233.1860
 1952.0000     0.6898  1215.3724
 1952.5000     0.6892  1189.0127
 1953.0000     0.6781  1180.9629
 1953.5000     0.6777  1168.7466
 1954.0000     0.6771  1152.3636
 1954.5000     0.6766  1140.1472
 1955.0000     0.6760  1132.0974
 1955.5000     0.6698  1119.8811
 1956.0000     0.6403  1103.4185
 1956.5000     0.6108  1090.9989
 1957.0000     0.5901  1082.1956
 1957.5000     0.6001  1064.2029
 1958.0000     0.5996  1036.0035
 1958.5000     0.5991  1019.1520
 1959.0000     0.5985  1001.5686
 1959.5000     0.5874   979.5853
 1960.0000     0.6080   954.1642
 1960.5000     0.5556   927.6613
 1961.0000     0.5187   896.7506
 1961.5000     0.5108   858.7838
 1962.0000     0.5136   809.0524
 1962.5000     0.5241   748.9584
 1963.0000     0.5460   692.4628
 1963.5000     0.5692   652.3878
 1964.0000     0.5981   611.7466
 1964.5000     0.6080   577.5488
 1965.0000     0.6184   552.1548
 1965.5000     0.6184   533.2924
 1966.0000     0.6175   516.4427
 1966.5000     0.5975   499.5974
 1967.0000     0.5912   482.7512
 1967.5000     0.5975   465.9006
 1968.0000     0.6092   449.0542
 1968.5000     0.6499   429.2284
 1969.0000     0.6945   408.0995
 1969.5000     0.7378   393.3951
 1970.0000     0.7667   378.3900
 1970.5000     0.7757   361.5590
 1971.0000     0.7757   354.2154
 1971.5000     0.7757   343.0472
 1972.0000     0.7898   334.6956
 1972.5000     0.8281   328.0394
 1973.0000     0.8700   320.6948
 1973.5000     0.9003   313.8076
 1974.0000     0.9497   309.6044
 1974.5000     0.9958   309.5565
 1975.0000     1.0587   309.5046
 1975.5000     1.0945   309.4528
 1976.0000     1.1345   309.3980
 1976.5000     1.0692   313.4865
 1977.0000     0.9539   313.4447
 1977.5000     0.8805   313.3929
 1978.0000     0.8254   313.3390
 1978.5000     0.8284   313.2800
 1979.0000     0.8595   313.2373
 1979.5000     0.8651   314.0417
 1980.0000     0.8730   317.2811
 1980.5000     0.8805   317.2211
 1981.0000     0.8176   317.1774
 1981.5000     0.7348   317.1256
 1982.0000     0.6152   321.2211
 1982.5000     0.6409   321.1621
 1983.0000     0.6918   325.2650
 1983.5000     0.7583   326.3346
 1984.0000     0.8176   329.4280
 1984.5000     0.8145   333.4044
 1985.0000     0.7547   333.3525
 1985.5000     0.6870   337.4571
 1986.0000     0.6355   333.2489
 1986.5000     0.6394   329.0442
 1987.0000     0.6499   328.9977
 1987.5000     0.6499   324.7984
 1988.0000     0.6499   324.7466
 1988.5000     0.6135   324.6903
 1989.0000     0.5556   328.7903
 1989.5000     0.5765   332.8860
 1990.0000     0.6214   336.9853
 1990.5000     0.6748   336.9263
 1991.0000     0.7233   339.5372
 1991.5000     0.7338   340.9735
 1992.0000     0.7385   341.5734
 1992.5000     0.7652   349.1623
 1993.0000     0.7652   353.2604
 1993.5000     0.7128   357.3560
 1994.0000     0.6451   357.3041
 1994.5000     0.6575   357.2508
 1995.0000     0.7128   357.1918
 1995.5000     0.7757   357.1486
 1996.0000     0.7757   361.2508
 1996.5000     0.7595   361.1918
 1997.0000     0.6906   365.2803
 1997.5000     0.6394   367.2921
 1998.0000     0.6289   369.3393
 1998.5000     0.6426   369.2799
 1999.0000     0.6622   369.2213
 1999.5000     0.6918   369.1762
 2000.0000     0.6978   356.6820
 2000.5000     0.6763   357.0339
 2001.0000     0.6706   348.7119
 2001.5000     0.6705   340.9719
 2002.0000     0.6389   337.1764
 2002.5000     0.6079   341.6758
 2003.0000     0.5862   344.4771
 2003.5000     0.5966   357.8230
 2004.0000     0.6488   372.7979
 2004.5000     0.6953   388.5295
 2005.0000     0.7293   393.0289
 2005.5000     0.7638   393.2834
 2006.0000     0.7846   397.7419
 2006.5000     0.7949   398.0561
 2007.0000     0.7923   398.4080
 2007.5000     0.7737   398.6751
 2008.0000     0.7421   398.9861
 2008.5000     0.7210   399.2972
 2009.0000     0.7104   395.4923
 2009.5000     0.7208   395.7719
 2010.0000     0.7311   394.6020
 2010.5000     0.7887   392.2246
 2011.0000     0.8909   392.5764
 2011.5000     0.9826   388.7212
 2012.0000     1.0555   389.0323
 2012.5000     1.0606   385.1613
 2013.0000     1.0157   385.5132
 2013.5000     0.9604   385.8651
 2014.0000     0.8978   384.0544
 2014.5000     0.8872   382.2455
 2015.0000     0.8976   382.6037
 2015.5000     0.8974   382.9493
 2016.0000     0.8553   383.2258
 2016.5000     0.7913   383.5369
 2017.0000     0.7264   383.8479
 2017.5000     0.7187   384.1809
 2018.0000     0.7395   384.4700
 2018.5000     0.7770   384.7811
 2019.0000     0.8244   389.2396
 2019.5000     0.8981   389.5601
 2020.0000     1.0115   394.0595
 2020.5000     1.1403   394.3203
 2021.0000     1.2615   390.4399
 2021.5000     1.2942   394.9393
 2022.0000     1.1892   391.1060
 2022.5000     1.0643   391.4171
 2023.0000     0.9428   391.7281
 2023.5000     0.8514   392.0391
 2024.0000     0.7589   392.3754
 2024.5000     0.7158   392.6613
 2025.0000     0.6716   392.9724
 2025.5000     0.6426   397.4026
 2026.0000     0.6326   393.5944
 2026.5000     0.6383   393.9589
 2027.0000     0.6670   394.2166
 2027.5000     0.6859   394.5276
