~VERSION INFORMATION
 VERS.                2.0:   CWLS LOG ASCII STANDARD - VERSION 2.0
 WRAP.                 NO:   ONE LINE PER DEPTH STEP
~WELL INFORMATION
#MNEM.UNIT      DATA TYPE    INFORMATION
#----------   ------------   ------------------------------
 STRT.F           32.0000:   START DEPTH
 STOP.F          738.0000:   STOP DEPTH
 STEP.F            0.5000:   STEP LENGTH
 NULL.          -999.2500:   NO VALUE
 COMP. FENIX & SCISSON INC:   COMPANY
 WELL.       NPR-3 #43-34:   WELL
 FLD .             TEAPOT:   FIELD
 LOC .      S34 T39N R78W:   LOCATION
 CNTY.            NATRONA:   COUNTY
 STAT.            WYOMING:   STATE
 CTRY. UNITED STATES OF AMERICA:   COUNTRY
 SRVC.            Unknown:   SERVICE COMPANY
 DATE.        26-AUG-1978:   LOGDATE
 API .       490251069900:   API NUMBER
~CURVE INFORMATION
#MNEM.UNIT       API CODE    CURVE DESCRIPTION
#----------   ------------   ------------------------------
 DEPT.F                  :   
 GRD .GAPI   45 310 01 00:   GAMMA RAY FROM DENSITY LOG
 CALD.IN     45 280 60 00:   CALIPER
 RHOB.G/C3   45 350 01 00:   BULK DENSITY
 DPHI.DEC    45 890 12 00:   DENSITY POROSITY SANDSTONE
 CORR.G/C3   45 356 01 00:   DENSITY CORRECTION
 SPR .MV     05 010 01 00:   SPONTANEOUS POTENTIAL FROM RES.
 SN  .OHMM   05 040 16 00:   SHORT NORMAL 16"
 ILD .OHMM   05 120 46 00:   INDUCTION LOG DEEP
~PARAMETER INFORMATION
#MNEM.UNIT          VALUE    DESCRIPTION
#----------   ------------   ------------------------------
 PD  .                 GL:   PERMANENT DATUM
 EPD .F              5110:   ELEVATION PERMANENT DATUM
 LMF .                 KB:   LOG MEASURED FROM
 DAPD.F                 4:   FEET ABOVE PERMANENT DATUM
 DMF .                 KB:   DRILLING MEASURED FROM
 EKB .F              5114:   KELLING BUSHING
 EGL .F              5110:   GROUND LEVEL
 DATE.            8-26-78:   RUN DATE
 RUN .                  1:   RUN NUMBER
 DD  .F               748:   DEPTH DRILLER
 DL  .F               738:   DEPTH LOGGER
 BLI .F               732:   BOTTOM LOG INTERVAL
 TLI .F                40:   TOP LOG INTERVAL
 CS  .IN            8.625:   CASING SIZE
 CBD .F                40:   CASING BOTTOM DRILLER
 CBL .F                40:   CASING BOTTOM LOGGER
 BS  .IN            7.875:   BIT SIZE
 BSD .F               748:   BIT SIZE AT DEPTH
 DFT .                KCL:   DRILLING FLUID TYPE
 DFD .                8.7:   DRILLING FLUID DENSITY
 DFV .                 33:   DRILLING FLUID VISCOSITY
 DFPH.                  9:   DRILLING FLUID PH
 DFL .                 10:   DRILLING FLUID LOSS
 MSS .          FLOW LINE:   MUD SAMPLE SOURCE
 RMS .OHMM            .36:   RESISTIVITY MUD SAMPLE
 MST .F                80:   MUD SAMPLE TEMPERATURE
 RMF .OHMM             .3:   RESISTIVITY MUD FILTRATE SAMPLE
 MFST.F                80:   MUD FILTRATE SAMPLE TEMPERATURE
 RMC .OHMM            .48:   RESISTIVITY MUD CAKE
 MCST.F                82:   MUD CAKE SAMPLE TEMPERATURE
 MFSS.               MEAS:   MUD FILTRATE SAMPLE SOURCE
 MCSS.               MEAS:   MUD CAKE SAMPLE SOURCE
 TCS .HRS               2:   TIME CURCULATED STOPPED
 LUN .               2958:   LOGGING UNIT NUMBER
 LUL .               CASP:   LOGGING UNIT LOCATION
 ENGI.             MILLER:   RECORDING ENGINEER
 WITN.              AMEND:   WITNESSED BY
 CLNT.            A2DTECH:   CLIENT CODE
 ORIG.           5" PRINT:   ORIGIN OF DATA
 UWI .       490251069900:   UNIQUE WELL ID
 DICO. A2D Technologies, Inc.:   DIGITIZING COMPANY
~OTHER INFORMATION
~A   DEPT       GRD      CALD       RHOB       DPHI       CORR        SPR         SN        ILD   
# ...
  477.5000   106.5554     7.0663     2.4513     0.1268     0.1298   -38.8991     4.1725     4.2148
  478.0000   102.8953     7.0620     2.4625     0.1268     0.1272   -38.8810     4.5030     4.1343
  478.5000   102.9090     7.0576     2.4723     0.1280     0.1167   -38.8628     4.8833     4.2414
  479.0000   107.5416     7.0532     2.4722     0.1333     0.1066   -38.8446     5.1435     4.7152
  479.5000   109.2412     7.0489     2.4634     0.1340     0.0994   -38.8265     5.2989     5.0081
  480.0000   106.2354     7.0445     2.4580     0.1247     0.0994   -38.8083     5.5481     5.2504
  480.5000   103.0468     7.0399     2.4650     0.1164     0.1006   -38.7901     5.8944     5.6586
  481.0000   101.9795     7.0364     2.4819     0.1081     0.1040   -38.7719     6.1951     6.1384
  481.5000   101.9875     7.0525     2.4996     0.1002     0.1074   -38.7537     6.3100     6.1996
  482.0000   102.4680     7.0841     2.5171     0.0929     0.1089   -38.7355     6.6676     6.3407
  482.5000   102.9470     7.1095     2.5347     0.0859     0.1062   -38.7168     7.0589     6.4864
  483.0000   103.7285     7.1351     2.5440     0.0857     0.1040   -38.7129     7.3773     6.5576
  483.5000   108.6145     7.1607     2.5362     0.1019     0.0915   -38.7128     7.3601     6.6281
  484.0000   114.1674     7.1863     2.5165     0.1098     0.0775   -38.7127     7.3328     6.6678
  484.5000   117.5143     7.2120     2.4986     0.1183     0.0634   -38.7128     7.3057     6.6136
  485.0000   114.0964     7.2360     2.4906     0.1230     0.0492   -38.7222     7.2787     6.5501
  485.5000   108.3879     7.2366     2.4819     0.1249     0.0431   -38.7758     7.2517     6.4872
  486.0000   106.6290     7.2365     2.4731     0.1252     0.0395   -38.8282     7.1615     6.4249
  486.5000   106.9456     7.2365     2.4702     0.1248     0.0394   -38.8811     7.0419     6.3683
  487.0000   106.9738     7.2365     2.4749     0.1264     0.0391   -38.9409     6.8918     6.3539
  487.5000   107.3101     7.2402     2.4716     0.1288     0.0388   -39.0875     6.7118     6.3246
  488.0000   109.2783     7.2470     2.4669     0.1277     0.0385   -39.2304     6.5364     6.2247
  488.5000   108.4492     7.2538     2.4681     0.1291     0.0382   -39.3067     6.3656     6.0587
  489.0000   108.1534     7.2565     2.4683     0.1403     0.0380   -39.2703     6.1599     5.8627
  489.5000   108.2598     7.2564     2.4599     0.1590     0.0377   -39.1922     5.8810     5.3813
  490.0000   109.7016     7.2608     2.4424     0.1777     0.0374   -39.1136     5.6148     4.7893
  490.5000   111.3117     7.2659     2.4013     0.1883     0.0434   -39.2081     5.3606     4.7455
  491.0000   112.1207     7.2711     2.3732     0.1867     0.0632   -39.3203     5.1159     4.7445
  491.5000   113.1611     7.2763     2.3744     0.1646     0.0866   -39.4317     4.9662     4.7967
  492.0000   113.7513     7.2996     2.4097     0.1397     0.1035   -39.5000     5.0234     4.8902
  492.5000   107.3843     7.3129     2.4454     0.1147     0.1053   -39.1917     5.0830     4.9687
  493.0000   102.6361     7.1693     2.4811     0.1010     0.1054   -38.9382     5.1422     4.9461
  493.5000    98.0245     7.0754     2.5154     0.0968     0.1031   -39.1759     5.4114     4.9232
  494.0000    97.3174     7.0765     2.5180     0.1025     0.0969   -39.4121     6.0292     5.3279
  494.5000   101.2968     7.0826     2.4860     0.1076     0.0912   -39.3175     6.7175     5.8799
  495.0000   107.0085     7.0893     2.4980     0.1009     0.0910   -39.0052     6.8542     6.4949
  495.5000   108.9316     7.0958     2.5106     0.0952     0.0904   -38.6881     6.9814     6.7529
  496.0000   107.9346     7.0802     2.5051     0.1100     0.0897   -38.3700     7.0530     6.8542
  496.5000   107.1468     7.0791     2.4915     0.1097     0.0894   -38.1901     7.1234     6.9391
  497.0000   107.1435     7.0844     2.4919     0.0997     0.0915   -37.9913     7.1945     6.9731
  497.5000   106.9964     7.0898     2.5049     0.0923     0.0953   -37.7901     7.2662     7.0071
  498.0000   107.3031     7.0952     2.5185     0.0892     0.0954   -37.7395     7.3387     7.0414
  498.5000   109.2562     7.1006     2.5298     0.0913     0.0935   -37.8121     7.4120     7.0458
  499.0000   109.5297     7.1060     2.5298     0.0948     0.0917   -37.8837     7.4859     7.0281
  499.5000   108.7793     7.1114     2.5246     0.0980     0.0898   -37.9551     7.5835     7.0113
  500.0000   107.2318     7.1162     2.5195     0.0972     0.0879   -38.0265     7.5351     6.9947
  500.5000   109.3621     7.1163     2.5192     0.0960     0.0874   -38.1009     7.4658     6.9782
  501.0000   112.9246     7.1162     2.5200     0.0982     0.0874   -38.1187     7.3972     6.9617
  501.5000   116.5314     7.1163     2.5199     0.1022     0.0891   -38.1190     7.3293     6.9452
  502.0000   117.0262     7.1128     2.5132     0.1062     0.0909   -38.1189     7.2619     6.9287
  502.5000   114.6945     7.1074     2.5060     0.1056     0.0927   -38.1188     7.1952     6.9176
  503.0000   113.1430     7.1019     2.5012     0.0999     0.0945   -38.1187     7.1290     6.9080
  503.5000   111.9356     7.0964     2.5092     0.0988     0.0963   -38.1189     7.0452     6.8947
  504.0000   111.5470     7.0962     2.5191     0.1010     0.0971   -38.1184     7.0462     6.8811
  504.5000   111.8460     7.0992     2.5251     0.1001     0.0894   -38.2539     7.0459     6.8693
  505.0000   112.0851     7.1067     2.5206     0.1039     0.0817   -38.5039     7.0176     6.8621
  505.5000   112.3510     7.1144     2.5112     0.1296     0.0742   -38.5166     6.9927     6.6057
  506.0000   114.9477     7.1141     2.4725     0.1284     0.0734   -38.5153     6.8864     6.2541
  506.5000   116.2723     7.0967     2.4349     0.1743     0.0743   -38.5149     6.6193     5.8061
  507.0000   111.8827     7.0793     2.3978     0.2001     0.0808   -38.5149     6.3626     5.3699
  507.5000   107.8340     7.0778     2.3608     0.2043     0.0945   -38.5149     6.0823     5.0146
  508.0000   105.8039     7.0671     2.3370     0.1942     0.1349   -38.5149     5.6346     4.9232
  508.5000   106.6202     7.0890     2.4685     0.1624     0.1807   -38.5149     5.1962     4.9481
  509.0000   110.3953     7.1116     2.4625     0.1306     0.1241   -38.5149     5.0673     4.9687
  509.5000   114.0813     7.0837     2.4577     0.1173     0.0494   -38.5149     4.9687     4.9687
  510.0000   115.9963     6.9553     2.4806     0.1204     0.0441   -38.5147     4.9687     4.9687
  510.5000   113.0011     6.9561     2.4913     0.1228     0.0445   -38.5151     5.5064     5.0146
  511.0000   108.2008     6.9571     2.4801     0.1236     0.0449   -38.5129     6.0298     5.2096
  511.5000   104.2622     6.9588     2.4779     0.1273     0.0414   -38.6972     5.9458     5.2504
  512.0000   106.9846     6.9604     2.4696     0.1444     0.0400   -39.0028     5.8094     4.9847
  512.5000   108.7870     6.9620     2.4415     0.1616     0.0375   -39.2982     5.5299     4.8019
  513.0000   107.2989     6.9636     2.4134     0.1719     0.0354   -39.3119     5.2632     4.6258
  513.5000   108.1380     6.9651     2.3970     0.1664     0.0357   -39.1931     5.0146     4.4908
  514.0000   108.3074     6.9667     2.3958     0.1580     0.0362   -39.0509     5.0146     4.4908
  514.5000   100.2982     6.9683     2.4250     0.1477     0.0367   -38.9088     5.1088     4.5201
  515.0000    97.0617     6.9699     2.4630     0.1252     0.0373   -38.7648     5.1880     4.5342
  515.5000    99.8105     6.9714     2.4768     0.1161     0.0375   -38.7618     5.2504     4.5290
  516.0000   105.9092     6.9730     2.4894     0.1092     0.0367   -38.8375     5.6853     4.7021
  516.5000   109.1494     6.9746     2.5009     0.1092     0.0330   -38.9128     6.1268     5.0856
  517.0000   109.1456     6.9739     2.4998     0.1088     0.0294   -38.7792     6.5077     5.5945
  517.5000   109.1608     6.9566     2.4980     0.1058     0.0258   -38.6199     6.5881     6.1542
