~VERSION INFORMATION
 VERS.                2.0:   CWLS LOG ASCII STANDARD - VERSION 2.0
 WRAP.                 NO:   ONE LINE PER DEPTH STEP
~WELL INFORMATION
#MNEM.UNIT      DATA TYPE    INFORMATION
#----------   ------------   ------------------------------
 STRT.F           28.0000:   START DEPTH
 STOP.F          563.0000:   STOP DEPTH
 STEP.F            0.1000:   STEP LENGTH
 NULL.          -999.2500:   NO VALUE
 COMP.       F D SERV INC:   COMPANY
 WELL.    SX-3 62-4 #62-3:   WELL
 FLD .          N.P.R. #3:   FIELD
 LOC .       S3 T38N R78W:   LOCATION
 CNTY.            NATRONA:   COUNTY
 STAT.            WYOMING:   STATE
 CTRY. UNITED STATES OF AMERICA:   COUNTRY
 SRVC.     Atlas Wireline:   SERVICE COMPANY
 DATE.        03-MAY-1992:   LOGDATE
 API .       490252252100:   API NUMBER
~CURVE INFORMATION
#MNEM.UNIT       API CODE    CURVE DESCRIPTION
#----------   ------------   ------------------------------
 DEPT.F                  :   
 RILD.OHMM   07 120 46 00:   INDUCTION LOG DEEP RESISTIVITY
 RILM.OHMM   07 120 44 00:   INDUCTION LOG MEDIUM RESISTIVITY
 CALD.IN     45 280 60 00:   CALIPER FROM DENSITY LOG
 CORR.G/C3   45 356 01 00:   DENSITY CORRECTION
 DEN .G/C3   45 350 01 00:   COMPENSATED BULK DENSTIY
 GRD .GAPI   45 310 01 00:   GAMMA RAY FROM DENSITY LOG
 PORD.DEC    45 890 12 00:   POROSITY DENSITY SANDSTONE
~PARAMETER INFORMATION
#MNEM.UNIT          VALUE    DESCRIPTION
#----------   ------------   ------------------------------
 PD  .                 GL:   PERMANENT DATUM
 EPD .F              5156:   ELEVATION PERMANENT DATUM
 LMF .                 KB:   LOG MEASURED FROM
 DAPD.F                 5:   FEET ABOVE PERMANENT DATUM
 DMF .                 KB:   DRILLING MEASURED FROM
 EKB .F              5161:   KELLING BUSHING
 EGL .F              5156:   GROUND LEVEL
 DATE.        03-MAY-1992:   RUN DATE
 RUN .                  1:   RUN NUMBER
 DD  .F               565:   DEPTH DRILLER
 DL  .F               566:   DEPTH LOGGER
 BLI .F               564:   BOTTOM LOG INTERVAL
 TLI .F                50:   TOP LOG INTERVAL
 CS  .IN            8.625:   CASING SIZE
 CBD .F                49:   CASING BOTTOM DRILLER
 CBL .F                50:   CASING BOTTOM LOGGER
 BS  .IN            7.875:   BIT SIZE
 BSD .F               565:   BIT SIZE AT DEPTH
 DFT .        AIR DRILLED:   DRILLING FLUID TYPE
 LUN .             HL 632:   LOGGING UNIT NUMBER
 LUL .           RK. SPGS:   LOGGING UNIT LOCATION
 ENGI.               RALL:   RECORDING ENGINEER
 WITN.             STRONG:   WITNESSED BY
 CLNT.            A2DTECH:   CLIENT CODE
 ORIG.           5" PRINT:   ORIGIN OF DATA
 UWI .       490252252100:   UNIQUE WELL ID
 DICO. A2D Technologies, Inc.:   DIGITIZING COMPANY
~OTHER INFORMATION
~A   DEPT     RILD       RILM       CALD       CORR        DEN        GRD       PORD   
# ...
  109.9000     6.8452     7.0677     8.2497     0.0009     2.4893   160.9801     0.0982
  110.0000     6.8449     7.0674     8.2586     0.0009     2.4900   161.1980     0.0978
  110.1000     6.8446     7.0671     8.2646     0.0003     2.4906   161.4468     0.0970
  110.2000     6.8443     7.0668     8.2645    -0.0009     2.4916   161.6956     0.0965
  110.3000     6.8440     7.0666     8.2645    -0.0021     2.4929   161.8707     0.0960
  110.4000     6.8438     7.0663     8.2644    -0.0021     2.4939   161.9174     0.0954
  110.5000     6.8435     7.0863     8.2644    -0.0021     2.4946   162.4659     0.0946
  110.6000     6.8432     7.1148     8.2643    -0.0021     2.4952   162.6909     0.0939
  110.7000     6.8429     7.1181     8.2642    -0.0022     2.4964   162.9397     0.0934
  110.8000     6.8426     7.1637     8.2642    -0.0018     2.4976   163.3185     0.0929
  110.9000     6.8423     7.1634     8.2641    -0.0006     2.4989   163.7381     0.0924
  111.0000     6.8421     7.1910     8.2641     0.0008     2.4999   164.0190     0.0917
  111.1000     6.8418     7.2321     8.2640     0.0008     2.5006   164.5532     0.0913
  111.2000     6.8415     7.2625     8.2639     0.0017     2.5012   165.2554     0.0908
  111.3000     6.8412     7.2646     8.2639     0.0029     2.5024   165.8217     0.0902
  111.4000     6.8409     7.3123     8.2684     0.0042     2.5027   166.3224     0.0899
  111.5000     6.8406     7.3121     8.2788     0.0054     2.5031   166.8231     0.0894
  111.6000     6.8403     7.3118     8.2787     0.0068     2.5037   167.3237     0.0889
  111.7000     6.8401     7.3300     8.2787     0.0068     2.5043   167.8435     0.0886
  111.8000     6.8407     7.3620     8.2786     0.0077     2.5049   168.8094     0.0882
  111.9000     6.8870     7.3617     8.2786     0.0089     2.5056   170.2002     0.0878
  112.0000     6.8868     7.3613     8.2785     0.0102     2.5062   171.1308     0.0875
  112.1000     6.8865     7.3611     8.2784     0.0114     2.5068   171.5360     0.0875
  112.2000     6.8862     7.3608     8.2784     0.0128     2.5074   171.7849     0.0873
  112.3000     6.8859     7.3605     8.2783     0.0139     2.5080   172.0361     0.0872
  112.4000     6.8857     7.3602     8.2683     0.0161     2.5087   172.0331     0.0871
  112.5000     6.8854     7.3599     8.2632     0.0179     2.5094   171.8296     0.0869
  112.6000     6.9169     7.3595     8.2631     0.0184     2.5094   171.5747     0.0869
  112.7000     6.9327     7.3929     8.2630     0.0169     2.5094   171.0119     0.0866
  112.8000     6.9324     7.4101     8.2630     0.0128     2.5094   170.0016     0.0864
  112.9000     6.9321     7.4098     8.2629     0.0105     2.5094   169.0009     0.0863
  113.0000     6.9318     7.4095     8.2629     0.0080     2.5094   168.4055     0.0862
  113.1000     6.9316     7.4092     8.2628     0.0061     2.5086   168.1953     0.0859
  113.2000     6.9313     7.4089     8.2627     0.0044     2.5086   167.7816     0.0857
  113.3000     6.9310     7.4086     8.2627     0.0022     2.5086   167.3849     0.0857
  113.4000     6.9307     7.4083     8.2626     0.0022     2.5083   167.0691     0.0859
  113.5000     6.9304     7.4080     8.2625     0.0010     2.5080   166.5744     0.0862
  113.6000     6.9301     7.4140     8.2625     0.0007     2.5086   166.2823     0.0863
  113.7000     6.9298     7.4588     8.2624     0.0007     2.5086   166.0648     0.0863
  113.8000     6.9295     7.4585     8.2679     0.0007     2.5086   165.6439     0.0863
  113.9000     6.9293     7.4582     8.2774     0.0008     2.5090   165.1373     0.0860
  114.0000     6.9431     7.4579     8.2773     0.0022     2.5099   164.6306     0.0858
  114.1000     6.9769     7.4576     8.2772     0.0033     2.5110   164.0854     0.0855
  114.2000     6.9766     7.4573     8.2772     0.0046     2.5116   162.9560     0.0851
  114.3000     6.9763     7.4570     8.2771     0.0058     2.5123   162.5091     0.0844
  114.4000     7.0059     7.4567     8.2771     0.0071     2.5134   162.3489     0.0839
  114.5000     7.0243     7.4262     8.2803     0.0085     2.5142   162.4702     0.0833
  114.6000     7.0240     7.4046     8.2920     0.0112     2.5146   162.7190     0.0829
  114.7000     7.0237     7.4043     8.2919     0.0124     2.5147   162.9943     0.0824
  114.8000     7.0234     7.4039     8.2918     0.0127     2.5153   163.5396     0.0820
  114.9000     7.0231     7.4036     8.2918     0.0127     2.5153   163.9956     0.0817
  115.0000     7.0228     7.4033     8.2917     0.0113     2.5147   164.4963     0.0815
  115.1000     7.0225     7.4030     8.2917     0.0079     2.5141   164.9969     0.0821
  115.2000     7.0222     7.4229     8.2916     0.0066     2.5129   165.4975     0.0825
  115.3000     7.0219     7.4539     8.2915     0.0042     2.5111   165.9982     0.0832
  115.4000     7.0216     7.4536     8.2915     0.0026     2.5098   166.5291     0.0841
  115.5000     7.0214     7.4532     8.2914     0.0014     2.5077   166.7629     0.0852
  115.6000     7.0211     7.4530     8.2914     0.0006     2.5055   167.1994     0.0865
  115.7000     7.0208     7.4526     8.2913     0.0006     2.5034   167.5613     0.0882
  115.8000     7.0325     7.4523     8.2912     0.0006     2.5015   167.6305     0.0891
  115.9000     7.0691     7.4623     8.2912     0.0005     2.4998   167.3756     0.0899
  116.0000     7.0687     7.5036     8.2911     0.0005     2.4984   167.1127     0.0907
  116.1000     7.0685     7.5032     8.3000     0.0005     2.4964   166.8660     0.0915
  116.2000     7.0682     7.5029     8.3060     0.0005     2.4958   166.8060     0.0925
  116.3000     7.0679     7.5026     8.3060     0.0005     2.4952   166.8030     0.0930
  116.4000     7.0676     7.5023     8.3059     0.0005     2.4945   166.8970     0.0935
  116.5000     7.0644     7.5020     8.3059     0.0005     2.4939   167.0983     0.0940
  116.6000     7.0181     7.5017     8.3058     0.0005     2.4933   167.0947     0.0943
  116.7000     7.0179     7.5448     8.2965     0.0005     2.4933   167.3919     0.0946
  116.8000     7.0176     7.5532     8.2906     0.0005     2.4933   167.5916     0.0948
  116.9000     7.0173     7.5529     8.2906     0.0005     2.4933   167.6872     0.0948
  117.0000     7.0170     7.5526     8.2905     0.0005     2.4933   167.7885     0.0948
  117.1000     7.0167     7.5601     8.2905     0.0020     2.4935   168.0373     0.0946
  117.2000     7.0164     7.6045     8.2904     0.0020     2.4943   168.2798     0.0944
  117.3000     7.0505     7.6042     8.2903     0.0020     2.4956   168.2762     0.0940
  117.4000     7.0646     7.6375     8.2903     0.0025     2.4962   168.2737     0.0936
  117.5000     7.0643     7.6564     8.2902     0.0035     2.4973   168.2707     0.0936
  117.6000     7.0738     7.6561     8.2902     0.0035     2.4982   168.2677     0.0931
  117.7000     7.1129     7.6558     8.2901     0.0050     2.4988   168.2647     0.0930
  117.8000     7.1126     7.6554     8.2900     0.0060     2.4993   168.2344     0.0929
  117.9000     7.1123     7.6969     8.2900     0.0065     2.4993   167.6567     0.0927
  118.0000     7.1120     7.7080     8.2899     0.0070     2.4981   167.2211     0.0927
  118.1000     7.1291     7.7315     8.2899     0.0079     2.4968   167.0496     0.0930
  118.2000     7.1700     7.7610     8.2898     0.0079     2.4952   167.0466     0.0935
  118.3000     7.2105     7.7607     8.2897     0.0079     2.4935   166.9738     0.0939
  118.4000     7.2101     7.7603     8.2897     0.0090     2.4922   166.7399     0.0944
  118.5000     7.2437     7.7600     8.2896     0.0094     2.4910   166.7365     0.0952
  118.6000     7.2852     7.7915     8.2896     0.0094     2.4903   166.7338     0.0959
  118.7000     7.3270     7.8134     8.2895     0.0094     2.4902   166.7308     0.0964
  118.8000     7.3690     7.8265     8.2894     0.0093     2.4898   166.7278     0.0973
  118.9000     7.4115     7.8671     8.2894     0.0079     2.4894   166.7248     0.0975
