~VERSION INFORMATION
 VERS.                2.0:   CWLS LOG ASCII STANDARD - VERSION 2.0
 WRAP.                 NO:   ONE LINE PER DEPTH STEP
~WELL INFORMATION
#MNEM.UNIT      DATA TYPE    INFORMATION
#----------   ------------   ------------------------------
 STRT.F           20.0000:   START DEPTH
 STOP.F          698.0000:   STOP DEPTH
 STEP.F            0.5000:   STEP LENGTH
 NULL.          -999.2500:   NO VALUE
 COMP. FENIX & SCISSON INC:   COMPANY
 WELL.    52 SX 34 #52-34:   WELL
 FLD .             TEAPOT:   FIELD
 LOC .      S34 T39N R78W:   LOCATION
 CNTY.            NATRONA:   COUNTY
 STAT.            WYOMING:   STATE
 CTRY. UNITED STATES OF AMERICA:   COUNTRY
 SRVC.            Unknown:   SERVICE COMPANY
 DATE.        26-JAN-1979:   LOGDATE
 API .       490251077100:   API NUMBER
~CURVE INFORMATION
#MNEM.UNIT       API CODE    CURVE DESCRIPTION
#----------   ------------   ------------------------------
 DEPT.F                  :   
 SPR .MV     05 010 01 00:   SPONTANEOUS POTENTIAL FROM RES.
 CALD.IN     45 280 60 00:   CALIPER
 GRD .GAPI   45 310 01 00:   GAMMA RAY FROM DENSITY LOG
 CORR.G/C3   45 356 01 00:   DENSITY CORRECTION
 RHOB.G/C3   45 350 01 00:   BULK DENSITY
 ILD .OHMM   05 120 46 00:   INDUCTION LOG DEEP
 SN  .OHMM   05 040 16 00:   SHORT NORMAL 16"
 DPHI.DEC    45 890 12 00:   DENSITY POROSITY SANDSTONE
~PARAMETER INFORMATION
#MNEM.UNIT          VALUE    DESCRIPTION
#----------   ------------   ------------------------------
 PD  .                 GL:   PERMANENT DATUM
 EPD .F              5072:   ELEVATION PERMANENT DATUM
 LMF .                 KB:   LOG MEASURED FROM
 DAPD.F                 4:   FEET ABOVE PERMANENT DATUM
 DMF .                 KB:   DRILLING MEASURED FROM
 EKB .F              5076:   KELLING BUSHING
 EGL .F              5072:   GROUND LEVEL
 DATE.            1-26-79:   RUN DATE
 RUN .                  1:   RUN NUMBER
 DD  .F               688:   DEPTH DRILLER
 DL  .F               698:   DEPTH LOGGER
 BLI .F               691:   BOTTOM LOG INTERVAL
 TLI .F                30:   TOP LOG INTERVAL
 CS  .IN            8.625:   CASING SIZE
 CBD .F                40:   CASING BOTTOM DRILLER
 CBL .F                20:   CASING BOTTOM LOGGER
 BS  .IN            7.875:   BIT SIZE
 BSD .F               688:   BIT SIZE AT DEPTH
 DFT .                KCL:   DRILLING FLUID TYPE
 DFD .                8.9:   DRILLING FLUID DENSITY
 DFV .                 39:   DRILLING FLUID VISCOSITY
 DFPH.                 10:   DRILLING FLUID PH
 DFL .                 10:   DRILLING FLUID LOSS
 MSS .           FLOWLINE:   MUD SAMPLE SOURCE
 RMS .OHMM             .3:   RESISTIVITY MUD SAMPLE
 MST .F                60:   MUD SAMPLE TEMPERATURE
 RMF .OHMM            .22:   RESISTIVITY MUD FILTRATE SAMPLE
 MFST.F                66:   MUD FILTRATE SAMPLE TEMPERATURE
 MFSS.           MEASURED:   MUD FILTRATE SAMPLE SOURCE
 MCSS.           MEASURED:   MUD CAKE SAMPLE SOURCE
 RMB .OHMM            .25:   RESISTIVITY MUD AT BHT
 BHT .F                70:   BOTTOM HOLE TEMPERATURE
 TCS .HRS               7:   TIME CURCULATED STOPPED
 MRT .F                70:   MAXIMUM RECORDED TEMPERATURE
 LUN .               3006:   LOGGING UNIT NUMBER
 LUL .             CASPER:   LOGGING UNIT LOCATION
 ENGI.            ROLLINS:   RECORDING ENGINEER
 WITN.              AMEND:   WITNESSED BY
 CLNT.            A2DTECH:   CLIENT CODE
 ORIG.       2", 5" PRINT:   ORIGIN OF DATA
 UWI .       490251077100:   UNIQUE WELL ID
 DICO. A2D Technologies, Inc.:   DIGITIZING COMPANY
~OTHER INFORMATION
~A   DEPT      SPR         CALD       GRD      CORR       RHOB        ILD         SN       DPHI   
# ...
  668.0000   -44.8013     8.0616    97.9571     0.0249     2.3824     7.6880     8.2029     0.1775
  668.5000   -44.8014     8.0326   108.3205     0.0257     2.3725     7.1581     7.8608     0.1697
  669.0000   -44.8012     8.0658   106.2249     0.0266     2.3900     6.3276     7.5329     0.1560
  669.5000   -44.7992     7.8362    98.1915     0.0274     2.4236     5.8474     7.1753     0.1153
  670.0000   -44.8601     7.6228    90.3035     0.0246     2.4706     5.6270     6.7850     0.1072
  670.5000   -44.9293     7.6718    83.4670     0.0217     2.4969     5.6650     6.4160     0.1077
  671.0000   -44.9977     7.7601    82.0323     0.0251     2.5018     5.7590     6.0595     0.1078
  671.5000   -45.0004     7.7784    88.1564     0.0289     2.4989     5.8394     6.0595     0.1103
  672.0000   -45.0000     7.8415    92.4619     0.0326     2.4925     5.9073     6.4390     0.1167
  672.5000   -45.0004  -999.2500    91.1963     0.0365     2.4863     5.9795     6.9567     0.1175
  673.0000   -45.0007  -999.2500    91.6562     0.0367     2.4818     6.5081     7.5159     0.1110
  673.5000   -45.0720  -999.2500    92.9225     0.0358     2.4827     7.3037     8.1198     0.1006
  674.0000   -45.2214  -999.2500    92.4935     0.0342     2.4838     8.1486     8.7733     0.0993
  674.5000   -45.3706  -999.2500    91.5696     0.0324     2.4849     8.7803     9.2785     0.0992
  675.0000   -45.5202  -999.2500    91.3729     0.0306     2.4862     9.1905     9.6259     0.0990
  675.5000   -45.6688  -999.2500    90.3469     0.0288     2.5014     9.2760     9.8733     0.0973
  676.0000   -45.8238  -999.2500    90.1699     0.0275     2.5179     9.2494    10.0881     0.0962
  676.5000   -45.9752  -999.2500    92.2622     0.0292     2.5220     9.1905    10.1262     0.0962
  677.0000   -46.1306  -999.2500    93.7401     0.0282     2.5162     9.2610    10.1645     0.1015
  677.5000   -46.2863  -999.2500    92.9881     0.0261     2.5032     9.3582    10.1757     0.1058
  678.0000   -46.4417  -999.2500    92.9501     0.0269     2.4921     9.4494    10.3986     0.1062
  678.5000   -46.5972  -999.2500    93.5839     0.0291     2.5120     9.7359    10.5886     0.1066
  679.0000   -46.7526  -999.2500    93.4540     0.0313     2.5072    10.0109    10.7821     0.1070
  679.5000   -46.9080  -999.2500    90.8082     0.0335     2.5013    10.2715    10.9769     0.1066
  680.0000   -47.0636  -999.2500    88.1447     0.0357     2.4990    10.5066    11.1739     0.1061
  680.5000   -47.2197  -999.2500    87.3430     0.0370     2.4990    10.7471    11.3743     0.1056
  681.0000   -47.3800  -999.2500    87.9688     0.0341     2.4992    10.9931    11.5785     0.1051
  681.5000   -47.5105  -999.2500    91.0664     0.0314     2.5031    11.2448    11.7863     0.1028
  682.0000   -47.6438  -999.2500    94.1151     0.0286     2.5083    11.4769    11.9978     0.0999
  682.5000   -47.7777  -999.2500    93.7285     0.0258     2.5136    11.5352    12.0611     0.0986
  683.0000   -47.9122  -999.2500    85.6907     0.0230     2.5175    11.5888    12.1067     0.1027
  683.5000   -48.0464  -999.2500    85.9407     0.0201     2.5036    11.6423    12.1524     0.1135
  684.0000   -48.1708  -999.2500    88.1777     0.0195     2.4854    11.6962    12.1984     0.1215
  684.5000   -48.3181  -999.2500    85.8038     0.0195     2.4779    11.7503    12.2445     0.1224
  685.0000   -48.4873  -999.2500    83.5539     0.0195     2.4742    11.8047    12.2907     0.1235
  685.5000   -48.6603  -999.2500    86.6161     0.0199     2.4707    11.8594    12.3372     0.1230
  686.0000   -48.8393  -999.2500    88.5677     0.0206     2.4705    11.9142    12.3838     0.1219
  686.5000   -49.0599  -999.2500    89.5588     0.0214     2.4763    11.9691    12.4306     0.1227
  687.0000   -49.1703  -999.2500    88.6408     0.0231     2.4748    12.0205    12.4739     0.1243
  687.5000   -49.1775  -999.2500    88.2135     0.0249     2.4702    11.9233    12.4560     0.1236
  688.0000   -49.3349  -999.2500    88.2197     0.0267     2.4713    11.8336    12.4395     0.1215
  688.5000   -49.4915  -999.2500    88.2147     0.0285     2.4763    11.7447    12.4230     0.1231
  689.0000   -49.6466  -999.2500    88.1625     0.0294     2.4699    11.6564    12.4065     0.1294
  689.5000   -49.8036  -999.2500    90.3686     0.0284     2.4596    11.5688    12.3898     0.1304
  690.0000   -49.9700  -999.2500    91.0352     0.0238     2.4583    11.4818    12.3600     0.1245
  690.5000   -50.1232  -999.2500    85.8474     0.0192     2.4751    11.3955    12.3527     0.1176
  691.0000   -50.0816  -999.2500    85.3629     0.0177     2.4890    11.4278    12.3002     0.1101
  691.5000  -999.2500  -999.2500    85.1764     0.0185     2.5000  -999.2500  -999.2500     0.1149
  692.0000  -999.2500  -999.2500    89.7780     0.0191     2.4885  -999.2500  -999.2500     0.1235
  692.5000  -999.2500  -999.2500    88.2591     0.0250     2.4772  -999.2500  -999.2500     0.1179
  693.0000  -999.2500  -999.2500    92.7314     0.0308     2.4875  -999.2500  -999.2500     0.1123
  693.5000  -999.2500  -999.2500  -999.2500     0.0366     2.5005  -999.2500  -999.2500     0.1126
  694.0000  -999.2500  -999.2500  -999.2500     0.0415     2.4978  -999.2500  -999.2500     0.1097
  694.5000  -999.2500  -999.2500  -999.2500     0.0408     2.4990  -999.2500  -999.2500     0.1078
  695.0000  -999.2500  -999.2500  -999.2500     0.0402     2.5024  -999.2500  -999.2500     0.1080
  695.5000  -999.2500  -999.2500  -999.2500     0.0393     2.5038  -999.2500  -999.2500     0.1082
  696.0000  -999.2500  -999.2500  -999.2500     0.0416     2.5026  -999.2500  -999.2500     0.1079
  696.5000  -999.2500  -999.2500  -999.2500     0.0511     2.5024  -999.2500  -999.2500     0.1054
  697.0000  -999.2500  -999.2500  -999.2500     0.0615     2.5049  -999.2500  -999.2500     0.1058
  697.5000  -999.2500  -999.2500  -999.2500     0.0719     2.5042  -999.2500  -999.2500     0.1069
  698.0000  -999.2500  -999.2500  -999.2500     0.0820     2.5032  -999.2500  -999.2500     0.1046
