~VERSION INFORMATION
 VERS.                2.0:   CWLS LOG ASCII STANDARD - VERSION 2.0
 WRAP.                 NO:   ONE LINE PER DEPTH STEP
~WELL INFORMATION
#MNEM.UNIT      DATA TYPE    INFORMATION
#----------   ------------   ------------------------------
 STRT.F            0.0000:   START DEPTH
 STOP.F          890.0000:   STOP DEPTH
 STEP.F            0.1000:   STEP LENGTH
 NULL.          -999.2500:   NO VALUE
 COMP.   FLUOR DANIEL INC:   COMPANY
 WELL.   35-1 X 14 #35-14:   WELL
 FLD .             TEAPOT:   FIELD
 LOC .      S14 T38N R78W:   LOCATION
 CNTY.            NATRONA:   COUNTY
 STAT.            WYOMING:   STATE
 CTRY. UNITED STATES OF AMERICA:   COUNTRY
 SRVC.      Western Atlas:   SERVICE COMPANY
 DATE.        23-JUL-1995:   LOGDATE
 API .       490252273300:   API NUMBER
~CURVE INFORMATION
#MNEM.UNIT       API CODE    CURVE DESCRIPTION
#----------   ------------   ------------------------------
 DEPT.F                  :   
 RILM.OHMM   07 120 44 00:   RESITIVITY LONG MEDIUM
 RILD.OHMM   07 120 46 00:   INDUCTION LOG DEEP RESISTIVITY
 GRR .GAPI   07 310 01 00:   GAMMA RAY
~PARAMETER INFORMATION
#MNEM.UNIT          VALUE    DESCRIPTION
#----------   ------------   ------------------------------
 PD  .                 GL:   PERMANENT DATUM
 EPD .F              5238:   ELEVATION PERMANENT DATUM
 LMF .                 KB:   LOG MEASURED FROM
 DAPD.F                10:   FEET ABOVE PERMANENT DATUM
 DMF .                 KB:   DRILLING MEASURED FROM
 EKB .F              5248:   KELLING BUSHING
 EDF .F              5247:   DRILLING FLOOR
 EGL .F              5238:   GROUND LEVEL
 DATE.        23-JUL-1995:   RUN DATE
 RUN .                  1:   RUN NUMBER
 DD  .F               898:   DEPTH DRILLER
 DL  .F               898:   DEPTH LOGGER
 BLI .F               890:   BOTTOM LOG INTERVAL
 CS  .IN            9.625:   CASING SIZE
 CBD .F                78:   CASING BOTTOM DRILLER
 CBL .F                80:   CASING BOTTOM LOGGER
 BS  .IN             8.75:   BIT SIZE
 BSD .F               898:   BIT SIZE AT DEPTH
 DFT .                AIR:   DRILLING FLUID TYPE
 MRT .F                94:   MAXIMUM RECORDED TEMPERATURE
 LUN .            HL 6530:   LOGGING UNIT NUMBER
 LUL .             CASPER:   LOGGING UNIT LOCATION
 ENGI.       VERRN RAUTIO:   RECORDING ENGINEER
 WITN.        GARY STRONG:   WITNESSED BY
 CLNT.            A2DTECH:   CLIENT CODE
 ORIG.           5" PRINT:   ORIGIN OF DATA
 UWI .       490252273300:   UNIQUE WELL ID
 DICO. A2D Technologies, Inc.:   DIGITIZING COMPANY
~OTHER INFORMATION
~A    DEPT    RILM       RILD         GRR  
# ...
  291.2000     7.0059     6.8598   127.3273
  291.3000     6.9676     6.8270   127.7875
  291.4000     6.9270     6.7871   128.0503
  291.5000     6.8867     6.7476   128.1571
  291.6000     6.8643     6.7082   127.8630
  291.7000     6.8541     6.6745   127.3339
  291.8000     6.8142     6.6751   126.7326
  291.9000     6.7718     6.6375   126.3086
  292.0000     6.7350     6.6300   125.9617
  292.1000     6.6958     6.6305   125.7039
  292.2000     6.6568     6.6133   125.5337
  292.3000     6.6350     6.5857   125.5363
  292.4000     6.6357     6.5863   125.5428
  292.5000     6.6326     6.5869   125.8438
  292.6000     6.5913     6.5874   125.8459
  292.7000     6.5919     6.5879   126.0292
  292.8000     6.5927     6.5651   126.1531
  292.9000     6.5934     6.5434   126.3499
  293.0000     6.5774     6.5440   126.7623
  293.1000     6.5492     6.5445   126.7784
  293.2000     6.5499     6.5451   127.0698
  293.3000     6.5507     6.5102   127.0720
  293.4000     6.5514     6.5008   127.2649
  293.5000     6.5521     6.5014   127.3792
  293.6000     6.5528     6.4864   127.3817
  293.7000     6.5536     6.4575   127.3842
  293.8000     6.5543     6.4580   127.3867
  293.9000     6.5550     6.4586   127.3892
  294.0000     6.5558     6.4591   127.3917
  294.1000     6.5565     6.4596   127.3943
  294.2000     6.5572     6.4602   127.3968
  294.3000     6.5579     6.4607   127.3993
  294.4000     6.5587     6.4612   127.4018
  294.5000     6.5594     6.4618   127.4043
  294.6000     6.5601     6.4624   127.3152
  294.7000     6.5609     6.4628   127.0574
  294.8000     6.5616     6.4634   126.7915
  294.9000     6.5623     6.4639   126.2063
  295.0000     6.5403     6.4645   126.2085
  295.1000     6.5183     6.4650   126.0262
  295.2000     6.5190     6.4655   125.9114
  295.3000     6.5198     6.4662   125.8127
  295.4000     6.5205     6.4346   125.6737
  295.5000     6.4858     6.4224   125.9189
  295.6000     6.4768     6.4229   125.9217
  295.7000     6.4775     6.4235   126.1601
  295.8000     6.4782     6.4240   126.8116
  295.9000     6.4695     6.4245   127.4426
  296.0000     6.4347     6.4252   128.0764
  296.1000     6.4355     6.3947   128.7910
  296.2000     6.4362     6.3817   129.3143
  296.3000     6.4369     6.3822   129.8667
  296.4000     6.4376     6.3827   130.3605
  296.5000     6.4383     6.3833   130.8837
  296.6000     6.4390     6.3838   131.5689
  296.7000     6.4398     6.3843   132.1118
  296.8000     6.4405     6.3848   132.4532
  296.9000     6.4412     6.3854   132.9396
  297.0000     6.4419     6.3859   133.2075
  297.1000     6.4426     6.3864   133.2104
  297.2000     6.4433     6.3870   133.2125
  297.3000     6.4441     6.3875   133.0433
  297.4000     6.4448     6.3880   132.6556
  297.5000     6.4456     6.3886   131.9613
  297.6000     6.4462     6.3891   130.9689
  297.7000     6.4469     6.3896   130.1904
  297.8000     6.4476     6.3902   129.3005
  297.9000     6.4484     6.3907   129.0795
  298.0000     6.4491     6.3913   128.8217
  298.1000     6.4498     6.3918   128.7034
  298.2000     6.4506     6.3923   128.7059
  298.3000     6.4512     6.3928   128.7085
  298.4000     6.4520     6.3934   128.7110
  298.5000     6.4527     6.3939   128.7138
  298.6000     6.4534     6.3944   128.7160
  298.7000     6.4554     6.3950   128.7185
  298.8000     6.4616     6.3955   128.7211
  298.9000     6.4678     6.3960   128.7236
  299.0000     6.4741     6.4171   128.7261
  299.1000     6.4803     6.4417   128.7286
  299.2000     6.4865     6.4498   128.7313
  299.3000     6.4928     6.4877   128.7336
  299.4000     6.4990     6.4883   128.7361
  299.5000     6.5072     6.5218   128.7387
  299.6000     6.5511     6.5611   128.8580
  299.7000     6.5517     6.5806   129.0458
  299.8000     6.5808     6.5946   129.0816
  299.9000     6.6209     6.6343   129.3531
  300.0000     6.6457     6.6743   129.3560
  300.1000     6.6517     6.6747   129.5679
  300.2000     6.6764     6.6751   129.6626
  300.3000     6.7011     6.6755   129.7915
  300.4000     6.7257     6.6758   129.9698
  300.5000     6.7425     6.6762   129.9723
  300.6000     6.7432     6.6766   129.9758
  300.7000     6.7440     6.6769   130.2798
  300.8000     6.6981     6.6773   130.5015
  300.9000     6.6987     6.6777   130.5866
  301.0000     6.6995     6.6781   130.5891
  301.1000     6.7200     6.6784   130.6858
  301.2000     6.7477     6.6788   130.8963
  301.3000     6.7549     6.6966   130.8988
  301.4000     6.7963     6.7261   130.9016
  301.5000     6.8446     6.7299   130.9038
  301.6000     6.8790     6.7738   130.8662
  301.7000     6.9481     6.8106   130.8129
  301.8000     7.0115     6.8512   130.7597
  301.9000     7.0542     6.8922   130.7064
  302.0000     7.0905     6.9333   130.6531
  302.1000     7.0913     6.9665   130.5378
  302.2000     7.1417     6.9678   130.2426
  302.3000     7.1774     7.0159   129.7155
  302.4000     7.2210     7.0513   127.6037
  302.5000     7.2439     7.0655   126.3216
  302.6000     7.2447     7.0864   125.2789
  302.7000     7.2521     7.1156   124.5005
  302.8000     7.2969     7.1216   123.8993
  302.9000     7.2978     7.1660   123.6879
  303.0000     7.3341     7.1664   123.6908
  303.1000     7.3502     7.1668   123.6937
  303.2000     7.3510     7.1927   123.6959
  303.3000     7.3519     7.2175   123.8802
  303.4000     7.3527     7.2179   124.1430
  303.5000     7.3535     7.2183   124.5040
  303.6000     7.3545     7.2188   124.9708
  303.7000     7.3551     7.2191   125.2190
  303.8000     7.3560     7.2195   125.2218
  303.9000     7.3568     7.2199   125.6904
  304.0000     7.3576     7.2358   125.8308
  304.1000     7.3584     7.2710   125.9829
  304.2000     7.3592     7.2715   126.1380
  304.3000     7.3602     7.2216   126.2065
  304.4000     7.3609     7.2219   126.4451
  304.5000     7.3617     7.2223   126.4478
  304.6000     7.3625     7.2227   126.4502
  304.7000     7.3633     7.2231   126.4527
  304.8000     7.3580     7.2235   126.4552
  304.9000     7.3140     7.2240   126.4577
  305.0000     7.3149     7.2243   126.4602
  305.1000     7.2806     7.1923   126.4627
  305.2000     7.2657     7.1751   126.4653
  305.3000     7.2665     7.1755   126.4683
  305.4000     7.2673     7.1661   126.4703
  305.5000     7.2680     7.1266   126.1355
  305.6000     7.2638     7.1271   125.6173
  305.7000     7.2600     7.1274   124.9289
  305.8000     7.2562     7.1278   123.9768
  305.9000     7.2525     7.1282   123.4587
  306.0000     7.2480     7.1286   122.8604
  306.1000     7.2138     7.1290   122.8625
  306.2000     7.1985     7.1294   122.5086
  306.3000     7.1799     7.0805   121.9905
  306.4000     7.1495     7.0809   121.4723
  306.5000     7.1461     7.0813   120.9541
  306.6000     7.1008     7.0816   120.4360
  306.7000     7.1011     7.0820   119.8568
  306.8000     7.0711     7.0824   119.3998
  306.9000     7.0527     7.0829   119.0695
  307.0000     7.0531     7.0446   118.6657
  307.1000     7.0457     7.0346   118.1476
  307.2000     7.0050     7.0113   117.5671
  307.3000     7.0055     6.9867   116.8298
  307.4000     7.0058     6.9782   116.5511
  307.5000     6.9795     6.9391   116.0750
  307.6000     6.9581     6.9395   115.7543
  307.7000     6.9584     6.9047   115.6521
  307.8000     6.9588     6.8645   115.6546
  307.9000     6.9592     6.8449   116.1610
  308.0000     6.9217     6.8320   118.0160
  308.1000     6.9118     6.7982   120.1940
  308.2000     6.9122     6.7986   121.9378
  308.3000     6.8968     6.7600   123.1416
  308.4000     6.8650     6.7523   123.8550
  308.5000     6.8654     6.7527   124.5015
  308.6000     6.8659     6.7531   125.1219
  308.7000     6.8320     6.7534   125.4245
  308.8000     6.8190     6.7503   125.9517
  308.9000     6.8194     6.7075   126.5588
  309.0000     6.8075     6.7078   126.5609
  309.1000     6.7729     6.7082   126.3888
  309.2000     6.7733     6.7086   125.8651
  309.3000     6.7737     6.7089   125.1777
