~VERSION INFORMATION
 VERS.                2.0:   CWLS LOG ASCII STANDARD - VERSION 2.0
 WRAP.                 NO:   ONE LINE PER DEPTH STEP
~WELL INFORMATION
#MNEM.UNIT      DATA TYPE    INFORMATION
#----------   ------------   ------------------------------
 STRT.F           14.5000:   START DEPTH
 STOP.F          750.0000:   STOP DEPTH
 STEP.F            0.5000:   STEP LENGTH
 NULL.          -999.2500:   NO VALUE
 COMP. FENIX & SCISSON INC:   COMPANY
 WELL.       NPR 3 #24-14:   WELL
 FLD .             TEAPOT:   FIELD
 LOC .      S14 T38N R78W:   LOCATION
 CNTY.            NATRONA:   COUNTY
 STAT.            WYOMING:   STATE
 CTRY. UNITED STATES OF AMERICA:   COUNTRY
 SRVC.           BIRDWELL:   SERVICE COMPANY
 DATE.        27-DEC-1978:   LOGDATE
 API .       490251075900:   API NUMBER
~CURVE INFORMATION
#MNEM.UNIT       API CODE    CURVE DESCRIPTION
#----------   ------------   ------------------------------
 DEPT.F                  :   
 SPR .MV     05 010 01 00:   SPONTANEOUS POTENTIAL FROM RES.
 SN  .OHMM   05 040 16 00:   SHORT NORMAL 16"
 IL  .OHMM   05 120 00 00:   INDUCTION LOG
 GRD .GAPI   45 310 01 00:   GAMMA RAY FROM DENSITY LOG
 CALD.IN     45 280 60 00:   CALIPER
 RHOB.G/C3   45 350 01 00:   BULK DENSITY
 DPHI.DEC    45 890 12 00:   DENSITY POROSITY SANDSTONE
 CORR.G/C3   45 356 01 00:   DENSITY CORRECTION
~PARAMETER INFORMATION
#MNEM.UNIT          VALUE    DESCRIPTION
#----------   ------------   ------------------------------
 PD  .                 GL:   PERMANENT DATUM
 EPD .F              5209:   ELEVATION PERMANENT DATUM
 LMF .                 KB:   LOG MEASURED FROM
 DAPD.F                 4:   FEET ABOVE PERMANENT DATUM
 DMF .                 KB:   DRILLING MEASURED FROM
 EKB .F              5212:   KELLING BUSHING
 EGL .F              5209:   GROUND LEVEL
 DATE.           12-27-78:   RUN DATE
 RUN .                  1:   RUN NUMBER
 DD  .F               750:   DEPTH DRILLER
 DL  .F               742:   DEPTH LOGGER
 BLI .F               735:   BOTTOM LOG INTERVAL
 TLI .F                35:   TOP LOG INTERVAL
 CS  .IN            8.625:   CASING SIZE
 CBD .F                40:   CASING BOTTOM DRILLER
 CBL .F                32:   CASING BOTTOM LOGGER
 BS  .IN            7.875:   BIT SIZE
 BSD .F               750:   BIT SIZE AT DEPTH
 DFT .                KCL:   DRILLING FLUID TYPE
 DFD .                8.6:   DRILLING FLUID DENSITY
 DFV .                 35:   DRILLING FLUID VISCOSITY
 DFPH.                9.4:   DRILLING FLUID PH
 DFL .               12.4:   DRILLING FLUID LOSS
 MSS .           FLOWLINE:   MUD SAMPLE SOURCE
 RMS .OHMM            .38:   RESISTIVITY MUD SAMPLE
 MST .F                58:   MUD SAMPLE TEMPERATURE
 RMF .OHMM            .38:   RESISTIVITY MUD FILTRATE SAMPLE
 MFST.F                58:   MUD FILTRATE SAMPLE TEMPERATURE
 RMC .OHMM            .36:   RESISTIVITY MUD CAKE
 MCST.F                60:   MUD CAKE SAMPLE TEMPERATURE
 MFSS.           MEASURED:   MUD FILTRATE SAMPLE SOURCE
 MCSS.           MEASURED:   MUD CAKE SAMPLE SOURCE
 RMB .OHMM            .37:   RESISTIVITY MUD AT BHT
 BHT .F                59:   BOTTOM HOLE TEMPERATURE
 TCS .HRS               2:   TIME CURCULATED STOPPED
 MRT .F                59:   MAXIMUM RECORDED TEMPERATURE
 LUN .               2958:   LOGGING UNIT NUMBER
 LUL .             CASPER:   LOGGING UNIT LOCATION
 ENGI.         B. ROLLINS:   RECORDING ENGINEER
 WITN.           DINSMORE:   WITNESSED BY
 CLNT.            A2DTECH:   CLIENT CODE
 ORIG.           5" PRINT:   ORIGIN OF DATA
 UWI .       490251075900:   UNIQUE WELL ID
 DICO. A2D Technologies, Inc.:   DIGITIZING COMPANY
~OTHER INFORMATION
~A   DEPT      SPR         SN         IL         GRD      CALD       RHOB       DPHI       CORR   
# ...
  662.5000   -63.2800    12.4060    10.6740    76.9940     8.0720     2.4560     0.1140     0.2750
  663.0000   -63.3630    12.3530    10.5280    77.8510     8.0780     2.4800     0.1180     0.2530
  663.5000   -63.6980    12.2990    10.3820    81.5680     8.0860     2.4840     0.1210     0.2230
  664.0000   -63.8990    12.1700    10.2360    81.8760     8.1220     2.4820     0.1200     0.1940
  664.5000   -63.8970    12.0010    10.1800    81.2680     8.1600     2.4810     0.1260     0.1640
  665.0000   -63.9160    11.9440    10.1370    80.4220     8.1980     2.4770     0.1380     0.1340
  665.5000   -64.3330    11.9390    10.0950    78.7910     8.2140     2.4640     0.1390     0.1200
  666.0000   -64.7600    11.9350    10.0520    78.6740     8.1780     2.4450     0.1230     0.1250
  666.5000   -65.1870    11.9310    10.0280    78.8150     8.1430     2.4530     0.1160     0.1240
  667.0000   -65.6120    11.9260    10.0210    79.5420     8.1640     2.4840     0.1180     0.1110
  667.5000   -66.0360    11.9220    10.0150    79.0550     8.2110     2.4880     0.1270     0.0870
  668.0000   -66.4610    11.9170    10.0090    78.9930     8.2230     2.4800     0.1430     0.0590
  668.5000   -66.7960    11.9130    10.0020    78.5470     8.2170     2.4530     0.1370     0.0540
  669.0000   -67.0140    11.9080     9.9960    77.9670     8.2110     2.4450     0.1260     0.0570
  669.5000   -67.2330    11.9040     9.9900    77.8230     8.2050     2.4550     0.1260     0.0520
  670.0000   -67.4520    11.8990     9.9830    79.7220     8.1990     2.4700     0.1260     0.0460
  670.5000   -67.6690    11.8950     9.9770    84.8820     8.1920     2.4720     0.1240     0.0420
  671.0000   -67.7160    11.8910     9.9710    87.1440     8.1850     2.4730     0.1260     0.0420
  671.5000   -67.7360    11.8860     9.9640    86.6250     8.2190     2.4790     0.1280     0.0420
  672.0000   -67.7560    11.8820     9.9580    85.1280     8.2610     2.4820     0.1310     0.0420
  672.5000   -67.7760    11.8770     9.9520    82.9920     8.3040     2.4740     0.1350     0.0430
  673.0000   -67.7960    11.8730     9.9450    81.4990     8.3170     2.4620     0.1410     0.0480
  673.5000   -67.8150    11.8680     9.9390    81.4870     8.3060     2.4530     0.1340     0.0640
  674.0000   -67.8350    11.8640     9.9170    84.3070     8.2950     2.4460     0.1210     0.0990
  674.5000   -67.8550    11.8600     9.8950    85.4990     8.2840     2.4710     0.1060     0.1060
  675.0000   -67.8750    11.8550     9.8720    87.9930     8.2880     2.4960     0.1000     0.1070
  675.5000   -67.8930    11.8510     9.8500    90.8770     8.2940     2.5030     0.0970     0.1190
  676.0000   -68.0130    11.8460     9.8280    90.7030     8.2990     2.5110     0.0950     0.1340
  676.5000   -68.1710    11.8380     9.8050    86.9020     8.3030     2.5170     0.0930     0.1440
  677.0000   -68.3290    11.8400     9.7830    82.6620     8.3040     2.5180     0.0910     0.1510
  677.5000   -68.5010    11.7000     9.7610    81.6140     8.3040     2.5180     0.0890     0.1640
  678.0000   -68.9660    11.5650     9.7380    84.4910     8.3040     2.5270     0.0850     0.1980
  678.5000   -69.4750    11.4100     9.7160    84.5570     8.3020     2.5440     0.0770     0.2300
  679.0000   -69.4650    11.4220     9.6940    84.5540     8.2580     2.5500     0.0750     0.2300
  679.5000   -69.4260    11.4370     9.6710    84.6430     8.2120     2.5540     0.0770     0.2130
  680.0000   -69.3870    11.4520     9.6050    85.6390     8.1710     2.5560     0.0840     0.1740
  680.5000   -69.3490    11.4660     9.5320    87.5050     8.1350     2.5510     0.0980     0.1200
  681.0000   -69.3070    11.4810     9.4580    88.3630     8.0870     2.5320     0.1130     0.1050
  681.5000   -69.3850    11.4960     9.4020    88.5900     7.9770     2.5080     0.1270     0.1080
  682.0000   -69.5070    11.5150     9.3930    88.5960     7.8660     2.4830     0.1350     0.1340
  682.5000   -69.9420    11.4900     9.3830    87.7160     7.7690     2.4560     0.1090     0.1880
  683.0000   -70.4040    11.4530     9.3730    85.0040     7.7680     2.4750     0.0740     0.2370
  683.5000   -70.7360    11.4170     9.3640    82.8420     7.7680     2.5170     0.0780     0.2410
  684.0000   -70.8240    11.3800     9.3540    83.0840     7.7680     2.5560     0.0980     0.1780
  684.5000   -70.9320    11.3430     9.3450    83.4490     7.7680     2.5340     0.1270     0.0960
  685.0000   -71.1080    11.3070     9.3350    83.5480     7.7810     2.5000     0.1250     0.0790
  685.5000   -71.2860    11.2700     9.3260    83.5530     7.8010     2.4710     0.1210     0.0910
  686.0000   -71.4630    11.2330     9.3050    83.5560     7.8520     2.4720     0.1170     0.1100
  686.5000   -71.5740    11.1970     9.2620    83.5440     7.9080     2.4820     0.1270     0.1170
  687.0000   -71.6650    11.1600     9.2190    83.6410     7.9050     2.4840     0.1340     0.1150
  687.5000   -71.9400    11.1230     9.1760    85.9900     7.9610     2.4690     0.1410     0.1130
  688.0000   -72.3300    11.0870     9.1330    87.8610     7.9890     2.4570     0.1470     0.1120
  688.5000   -72.7210    11.0500     9.0900    88.2810     7.9090     2.4340     0.1330     0.1100
  689.0000   -73.1130    11.0130     9.0470    88.0130     7.8560     2.4460     0.1230     0.1050
  689.5000   -73.5060    10.9440     9.0040    87.7610     7.9660     2.4770     0.1230     0.1010
  690.0000   -73.8990    10.8500     8.9610    87.5160     8.1520     2.4780     0.1250     0.1060
  690.5000   -74.2910    10.7550     8.9180    87.2520     8.2810     2.4750     0.1200     0.1520
  691.0000   -74.6820    10.6040     8.8460    88.0020     8.2620     2.4730     0.0990     0.2380
  691.5000   -75.0730    10.3620     8.7560    91.6870     8.2430     2.4800     0.0480     0.3560
  692.0000   -75.2990    10.1900     8.6660    96.2100     8.1850     2.5590     0.0110     0.3860
  692.5000   -75.2980    10.1230     8.5760    97.6810     8.0560     2.6500     0.0260     0.3460
  693.0000   -75.2980    10.0550     8.4860    97.3160     7.8950     2.6660     0.0530     0.2830
  693.5000   -75.2890     9.9880     8.3960    95.4240     7.7830     2.6250     0.0770     0.2210
  694.0000   -75.6360     9.9210     8.2910    93.8430     7.8110     2.5810     0.0950     0.1650
  694.5000   -76.0210     9.8530     8.1660    93.5320     7.8620     2.5370     0.1080     0.1500
  695.0000   -76.4090     9.7860     8.0410    94.5200     7.9240     2.5070     0.1130     0.1500
  695.5000   -76.7210     9.7190     7.9160    97.4040     7.9840     2.4920     0.1240     0.1480
  696.0000   -76.7750     9.6050     7.7160    98.2670     7.9830     2.4860     0.1370     0.1420
  696.5000   -76.8320     9.3540     7.5020    98.9540     7.9790     2.4640     0.1460     0.1370
  697.0000   -76.8950     9.1020     7.1640   102.8590     7.9760     2.4410     0.1450     0.1260
  697.5000   -77.2540     8.8500     6.8060   106.5170     7.9720     2.4350     0.1310     0.1120
  698.0000   -77.6480     8.5990     6.4470   108.4490     7.9700     2.4530     0.1180     0.0850
  698.5000   -77.5990     8.3470     5.6180   110.4190     7.9890     2.4750     0.1050     0.0570
  699.0000   -77.5230     8.1170     5.6340   110.3310     8.0670     2.4960     0.0920     0.0490
  699.5000   -77.9350     7.6300     5.6670   108.6330     8.0850     2.5150     0.0870     0.0470
  700.0000   -78.3380     7.1820     5.6990   103.4740     8.0850     2.5300     0.0850     0.0450
  700.5000   -78.6970     6.5090     5.7440    97.2600     8.0850     2.5360     0.0850     0.0440
  701.0000   -78.7430     6.5930     5.8150    92.5720     8.0850     2.5370     0.0850     0.0430
  701.5000   -78.7800     6.7610     5.8870    92.0720     8.0720     2.5380     0.0850     0.0430
  702.0000   -78.8190     7.0660     6.1070    92.3400     8.0430     2.5390     0.0850     0.0420
  702.5000   -78.8590     7.7520     6.6740    92.4370     8.0260     2.5400     0.0880     0.0420
