~VERSION INFORMATION
 VERS.                2.0:   CWLS LOG ASCII STANDARD - VERSION 2.0
 WRAP.                 NO:   ONE LINE PER DEPTH STEP
~WELL INFORMATION
#MNEM.UNIT      DATA TYPE    INFORMATION
#----------   ------------   ------------------------------
 STRT.F           12.5000:   START DEPTH
 STOP.F          604.0000:   STOP DEPTH
 STEP.F            0.5000:   STEP LENGTH
 NULL.          -999.2500:   NO VALUE
 COMP. FENIX & SCISSON INC:   COMPANY
 WELL.   SX-3 NPR 3 #61-3:   WELL
 FLD .             TEAPOT:   FIELD
 LOC .       S3 T38N R78W:   LOCATION
 CNTY.            NATRONA:   COUNTY
 STAT.            WYOMING:   STATE
 CTRY. UNITED STATES OF AMERICA:   COUNTRY
 SRVC.           BIRDWELL:   SERVICE COMPANY
 DATE.        03-DEC-1978:   LOGDATE
 API .       490251074100:   API NUMBER
~CURVE INFORMATION
#MNEM.UNIT       API CODE    CURVE DESCRIPTION
#----------   ------------   ------------------------------
 DEPT.F                  :   
 SPR .MV     05 010 01 00:   SPONTANEOUS POTENTIAL FROM RES.
 SN  .OHMM   05 040 16 00:   SHORT NORMAL 16"
 IL  .OHMM   05 120 00 00:   INDUCTION LOG
 CALD.IN     45 280 60 00:   CALIPER
 GRD .GAPI   45 310 01 00:   GAMMA RAY FROM DENSITY LOG
 DEN .G/C3   45 350 01 00:   COMPENSATED BULK DENSTIY
 CORR.G/C3   45 356 01 00:   DENSITY CORRECTION
 DPHI.DEC    45 890 12 00:   DENSITY POROSITY SANDSTONE
~PARAMETER INFORMATION
#MNEM.UNIT          VALUE    DESCRIPTION
#----------   ------------   ------------------------------
 PD  .                 GL:   PERMANENT DATUM
 EPD .F              5099:   ELEVATION PERMANENT DATUM
 LMF .                 KB:   LOG MEASURED FROM
 DAPD.F                 4:   FEET ABOVE PERMANENT DATUM
 DMF .                 KB:   DRILLING MEASURED FROM
 EKB .F              5103:   KELLING BUSHING
 EGL .F              5099:   GROUND LEVEL
 DATE.            12-3-78:   RUN DATE
 RUN .                  1:   RUN NUMBER
 DD  .F               615:   DEPTH DRILLER
 DL  .F               604:   DEPTH LOGGER
 BLI .F               598:   BOTTOM LOG INTERVAL
 TLI .F                40:   TOP LOG INTERVAL
 CS  .IN            8.625:   CASING SIZE
 CBL .F                35:   CASING BOTTOM LOGGER
 BS  .IN            7.875:   BIT SIZE
 BSD .F               615:   BIT SIZE AT DEPTH
 DFT .                KCL:   DRILLING FLUID TYPE
 DFD .                8.8:   DRILLING FLUID DENSITY
 DFV .                 42:   DRILLING FLUID VISCOSITY
 DFPH.               12.2:   DRILLING FLUID PH
 DFL .                 10:   DRILLING FLUID LOSS
 MSS .           FLOWLINE:   MUD SAMPLE SOURCE
 RMS .OHMM            .24:   RESISTIVITY MUD SAMPLE
 MST .F                58:   MUD SAMPLE TEMPERATURE
 RMF .OHMM             .3:   RESISTIVITY MUD FILTRATE SAMPLE
 MFST.F                54:   MUD FILTRATE SAMPLE TEMPERATURE
 RMC .OHMM            .34:   RESISTIVITY MUD CAKE
 MCST.F                56:   MUD CAKE SAMPLE TEMPERATURE
 MFSS.           MEASURED:   MUD FILTRATE SAMPLE SOURCE
 MCSS.           MEASURED:   MUD CAKE SAMPLE SOURCE
 RMB .OHMM            .27:   RESISTIVITY MUD AT BHT
 BHT .F                56:   BOTTOM HOLE TEMPERATURE
 TCS .HRS               3:   TIME CURCULATED STOPPED
 MRT .F                52:   MAXIMUM RECORDED TEMPERATURE
 LUN .               2958:   LOGGING UNIT NUMBER
 LUL .                CPR:   LOGGING UNIT LOCATION
 ENGI.            ROLLINS:   RECORDING ENGINEER
 WITN.              AMEND:   WITNESSED BY
 CLNT.            A2DTECH:   CLIENT CODE
 ORIG.       2", 5" PRINT:   ORIGIN OF DATA
 UWI .       490251074100:   UNIQUE WELL ID
 DICO. A2D Technologies, Inc.:   DIGITIZING COMPANY
~OTHER INFORMATION
~A   DEPT      SPR         SN         IL       CALD         GRD       DEN       CORR       DPHI   
# ...
  539.0000   -52.0952    15.2173    17.6073     7.9427    81.0655     2.3649     0.0174     0.1963
  539.5000   -52.3784    15.0644    17.3379     7.9401    81.6387     2.3615     0.0169     0.1989
  540.0000   -52.6617    14.9129    17.0727     7.9374    80.6235     2.3579     0.0164     0.1981
  540.5000   -52.9448    14.7630    16.8119     7.9348    79.1910     2.3567     0.0159     0.1943
  541.0000   -53.2311    14.6146    16.6261     7.9321    77.8541     2.3659     0.0154     0.1905
  541.5000   -53.3375    14.4677    16.5599     7.9295    78.1712     2.3733     0.0149     0.1867
  542.0000   -53.3739    14.3223    16.4992     7.9268    80.4557     2.3748     0.0145     0.1863
  542.5000   -53.4089    14.1783    16.4387     7.9242    82.7953     2.3741     0.0140     0.1895
  543.0000   -53.4441    14.0358    16.3784     7.9216    84.5759     2.3705     0.0135     0.1937
  543.5000   -53.4795    13.8947    16.3217     7.9189    84.9984     2.3582     0.0160     0.2040
  544.0000   -53.5149    13.7432    15.9291     7.9163    85.4499     2.3458     0.0188     0.2142
  544.5000   -53.5503    13.5841    15.5660     7.9136    85.8997     2.3365     0.0215     0.2010
  545.0000   -53.5857    13.4252    15.2112     7.9110    86.4022     2.3466     0.0230     0.1874
  545.5000   -53.6211    13.2684    14.8645     7.9083    84.2821     2.3670     0.0244     0.1739
  546.0000   -53.6565    13.1135    14.5257     7.9057    81.7841     2.3873     0.0260     0.1672
  546.5000   -53.6919    12.9604    14.1946     7.9031    79.7735     2.4083     0.0281     0.1637
  547.0000   -53.7273    12.8091    13.8710     7.9004    79.9871     2.4165     0.0302     0.1599
  547.5000   -53.7627    12.6595    13.5549     7.8978    81.2192     2.4212     0.0322     0.1587
  548.0000   -53.7981    12.5117    13.2459     7.8951    82.4529     2.4246     0.0358     0.1575
  548.5000   -53.8332    12.3656    12.9440     7.8925    83.4377     2.4258     0.0418     0.1563
  549.0000   -53.8693    12.2213    12.6490     7.8898    83.3059     2.4273     0.0474     0.1527
  549.5000   -53.9016    12.0780    12.4858     7.8872    82.7789     2.4339     0.0494     0.1483
  550.0000   -54.1160    11.9895    12.3710     7.8846    82.4057     2.4405     0.0446     0.1452
  550.5000   -54.4042    11.9259    12.2572     7.8817    82.5601     2.4452     0.0391     0.1520
  551.0000   -54.6966    11.8626    12.2648     7.8846    82.7603     2.4375     0.0361     0.1563
  551.5000   -54.9885    11.7996    12.3099     7.8892    83.0269     2.4298     0.0380     0.1571
  552.0000   -55.2803    11.7369    12.3556     7.8938    82.2668     2.4283     0.0399     0.1524
  552.5000   -55.5721    11.6746    12.4012     7.8983    81.3464     2.4306     0.0418     0.1445
  553.0000   -55.8639    11.6126    12.4470     7.9029    80.4334     2.4431     0.0444     0.1436
  553.5000   -56.1557    11.5509    12.4930     7.9074    79.7921     2.4494     0.0516     0.1424
  554.0000   -56.4477    11.4896    12.5391     7.9120    80.6700     2.4558     0.0698     0.1380
  554.5000   -56.7393    11.4286    12.5853     7.9166    81.8174     2.4621     0.0879     0.1328
  555.0000   -57.0342    11.3679    12.6017     7.9211    82.9609     2.4687     0.0978     0.1322
  555.5000   -57.1276    11.3076    12.6024     7.9257    84.1402     2.4703     0.1077     0.1307
  556.0000   -57.1291    11.2475    12.4908     7.9303    84.9365     2.4750     0.1176     0.1245
  556.5000   -57.1286    11.1878    12.2843     7.9348    85.5969     2.4859     0.1251     0.1192
  557.0000   -57.1281    11.1284    12.0813     7.9393    87.0780     2.4934     0.1221     0.1188
  557.5000   -57.1284    11.0693    11.8815     7.9358    88.9090     2.4901     0.1186     0.1188
  558.0000   -57.1616    11.0105    11.7039     7.9232    90.6004     2.4908     0.1016     0.1188
  558.5000   -57.3152    10.9710    11.7120     7.9106    90.1211     2.4892     0.0852     0.1303
  559.0000   -57.4638    10.9829    11.7194     7.8979    87.8068     2.4624     0.0733     0.1456
  559.5000   -57.6124    10.9918    11.7268     7.8853    86.5564     2.4407     0.0755     0.1512
  560.0000   -57.7614    11.0007    11.7342     7.8727    86.1917     2.4427     0.0780     0.1322
  560.5000   -57.9120    11.0097    11.7416     7.8601    86.3141     2.4710     0.0705     0.1202
  561.0000   -57.8860    11.0186    11.7490     7.8475    86.4920     2.4859     0.0480     0.1200
  561.5000   -57.8310    11.0275    11.7564     7.8463    86.5634     2.4788     0.0259     0.1322
  562.0000   -57.7759    11.0365    11.7638     7.8557    85.8462     2.4670     0.0126     0.1412
  562.5000   -57.7211    11.0455    11.7713     7.8653    84.8090     2.4551     0.0128     0.1476
  563.0000   -57.6663    11.0545    11.7787     7.8749    83.7702     2.4450     0.0185     0.1435
  563.5000   -57.6118    11.0634    11.7861     7.8845    82.7149     2.4474     0.0240     0.1359
  564.0000   -57.5570    11.0724    11.7936     7.8941    82.7951     2.4592     0.0294     0.1281
  564.5000   -57.5633    11.0814    11.8011     7.9036    86.3054     2.4717     0.0333     0.1204
  565.0000   -57.6268    11.0904    11.8078     7.9132    89.9171     2.4841     0.0319     0.1120
  565.5000   -57.6910    11.0994    11.8126     7.9228    90.5624     2.4966     0.0306     0.1120
  566.0000   -57.7553    11.1085    11.6962     7.9324    89.2999     2.5011     0.0279     0.1147
  566.5000   -57.8195    11.1175    11.6164     7.9409    88.4047     2.4948     0.0182     0.1235
  567.0000   -57.8836    11.1265    11.5372     7.9447    90.2403     2.4816     0.0086     0.1323
  567.5000   -57.9478    11.1356    11.4585     7.9486    92.6807     2.4685     0.0036     0.1411
  568.0000   -58.0120    11.1446    11.3803     7.9526    93.3665     2.4554     0.0007     0.1504
  568.5000   -58.0762    11.1537    11.3026     7.9566    93.4895     2.4423    -0.0005     0.1520
  569.0000   -58.1403    11.1629    11.2255     7.9606    93.5656     2.4351    -0.0005     0.1523
  569.5000   -58.2045    11.1752    11.1489     7.9646    93.1662     2.4372     0.0018     0.1485
  570.0000   -58.2687    11.1197    11.0729     7.9685    91.8506     2.4430     0.0072     0.1438
  570.5000   -58.3328    11.0249    10.9973     7.9725    91.9144     2.4502     0.0125     0.1391
  571.0000   -58.3970    10.9305    10.8872     7.9769    96.0367     2.4577     0.0178     0.1377
  571.5000   -58.4610    10.8369    10.7595     7.9805   100.0919     2.4590     0.0232     0.1386
  572.0000   -58.5222    10.7441    10.6333     7.9535    99.8810     2.4591     0.0285     0.1369
  572.5000   -58.6528    10.6521    10.5086     7.8289    95.6700     2.4595     0.0339     0.1348
  573.0000   -58.7908    10.5608    10.3854     7.8357    92.9333     2.4620     0.0392     0.1340
  573.5000   -58.9290    10.4704    10.2636     7.9411    92.5896     2.4684     0.0389     0.1288
  574.0000   -59.0669    10.3807    10.1432     7.9274    92.3743     2.4750     0.0383     0.1269
  574.5000   -59.2048    10.2918    10.0243     7.8429    92.7399     2.4727     0.0376     0.1302
  575.0000   -59.3427    10.2037     9.9067     7.7800    92.9987     2.4661     0.0370     0.1332
  575.5000   -59.4806    10.1163     9.7906     7.7976    93.1800     2.4671     0.0364     0.1311
  576.0000   -59.6185    10.0296     9.6757     7.9166    93.3258     2.4705     0.0358     0.1292
  576.5000   -59.7564     9.9437     9.5632     7.9220    94.7596     2.4739     0.0351     0.1273
  577.0000   -59.8943     9.8586     9.4369     7.9213    96.5122     2.4770     0.0345     0.1254
  577.5000   -60.0322     9.6816     9.2132     7.9170    98.2703     2.4775     0.0339     0.1252
  578.0000   -60.1701     9.4318     8.7287     7.9108   100.0231     2.4781     0.0333     0.1329
  578.5000   -60.3080     9.1885     8.0909     7.9045   101.7746     2.4692     0.0327     0.1433
  579.0000   -60.4459     8.9514     7.4997     7.8982   103.5527     2.4539     0.0320     0.1536
