~VERSION INFORMATION
 VERS.                2.0:   CWLS LOG ASCII STANDARD - VERSION 2.0
 WRAP.                 NO:   ONE LINE PER DEPTH STEP
~WELL INFORMATION
#MNEM.UNIT      DATA TYPE    INFORMATION
#----------   ------------   ------------------------------
 STRT.F            0.0000:   START DEPTH
 STOP.F          530.0000:   STOP DEPTH
 STEP.F            0.5000:   STEP LENGTH
 NULL.          -999.2500:   NO VALUE
 COMP. FENIX & SCISSON INC:   COMPANY
 WELL.      74 SX 3 #74-3:   WELL
 FLD .             TEAPOT:   FIELD
 LOC .       S3 T38N R78W:   LOCATION
 CNTY.            NATRONA:   COUNTY
 STAT.            WYOMING:   STATE
 CTRY. UNITED STATES OF AMERICA:   COUNTRY
 SRVC.            Unknown:   SERVICE COMPANY
 DATE.        20-SEP-1978:   LOGDATE
 API .       490251072200:   API NUMBER
~CURVE INFORMATION
#MNEM.UNIT       API CODE    CURVE DESCRIPTION
#----------   ------------   ------------------------------
 DEPT.F                  :   
 CALD.IN     45 280 60 00:   CALIPER
 GRD .GAPI   45 310 01 00:   GAMMA RAY FROM DENSITY LOG
 RHOB.G/C3   45 350 01 00:   BULK DENSITY
 DPHI.DEC    45 890 12 00:   DENSITY POROSITY SANDSTONE
 CORR.G/C3   45 356 01 00:   DENSITY CORRECTION
 SPR .MV     05 010 01 00:   SPONTANEOUS POTENTIAL FROM RES.
 SN  .OHMM   05 040 16 00:   SHORT NORMAL 16"
 ILD .OHMM   05 120 46 00:   INDUCTION LOG DEEP
~PARAMETER INFORMATION
#MNEM.UNIT          VALUE    DESCRIPTION
#----------   ------------   ------------------------------
 PD  .                 GL:   PERMANENT DATUM
 EPD .F              5139:   ELEVATION PERMANENT DATUM
 LMF .                 KB:   LOG MEASURED FROM
 DAPD.F                 4:   FEET ABOVE PERMANENT DATUM
 DMF .                 KB:   DRILLING MEASURED FROM
 EKB .F              5143:   KELLING BUSHING
 EGL .F              5139:   GROUND LEVEL
 DATE.            9-20-78:   RUN DATE
 RUN .                  1:   RUN NUMBER
 DD  .F               532:   DEPTH DRILLER
 DL  .F               530:   DEPTH LOGGER
 BLI .F               524:   BOTTOM LOG INTERVAL
 TLI .F                40:   TOP LOG INTERVAL
 CS  .IN            8.625:   CASING SIZE
 CBD .F                40:   CASING BOTTOM DRILLER
 CBL .F                40:   CASING BOTTOM LOGGER
 BS  .IN            7.875:   BIT SIZE
 BSD .F               532:   BIT SIZE AT DEPTH
 DFT .                KCL:   DRILLING FLUID TYPE
 DFD .                8.8:   DRILLING FLUID DENSITY
 DFV .                 38:   DRILLING FLUID VISCOSITY
 DFPH.                  9:   DRILLING FLUID PH
 DFL .                6.2:   DRILLING FLUID LOSS
 MSS .                PIT:   MUD SAMPLE SOURCE
 BHT .F                69:   BOTTOM HOLE TEMPERATURE
 TCS .HRS               3:   TIME CURCULATED STOPPED
 MRT .F                69:   MAXIMUM RECORDED TEMPERATURE
 LUN .               2958:   LOGGING UNIT NUMBER
 LUL .             CASPER:   LOGGING UNIT LOCATION
 ENGI.           REYNOLDS:   RECORDING ENGINEER
 WITN.           DINSMORE:   WITNESSED BY
 CLNT.            A2DTECH:   CLIENT CODE
 ORIG.       2", 5" PRINT:   ORIGIN OF DATA
 UWI .       490251072200:   UNIQUE WELL ID
 DICO. A2D Technologies, Inc.:   DIGITIZING COMPANY
~OTHER INFORMATION
~A    DEPT    CALD         GRD      RHOB       DPHI       CORR        SPR         SN        ILD   
# ...
  486.0000     7.4355    69.8992     2.4941     0.1072     0.0417   -32.6455    11.2987    11.0326
  486.5000     7.4357    65.3592     2.4942     0.1064     0.0409   -32.6321    11.4926    11.2050
  487.0000     7.4359    63.3628     2.4954     0.1041     0.0401   -32.8072    11.6898    11.3800
  487.5000     7.4361    63.4262     2.4967     0.1032     0.0394   -34.0694    11.8904    11.5577
  488.0000     7.4363    63.6516     2.4979     0.1043     0.0358   -35.8512    12.0943    11.7383
  488.5000     7.4366    64.7202     2.4992     0.1054     0.0355   -35.1909    12.2897    11.9216
  489.0000     7.4368    65.6188     2.5004     0.1038     0.0360   -34.7580    12.4739    12.1079
  489.5000     7.4370    64.8233     2.5016     0.1010     0.0364   -34.8268    12.6609    12.2970
  490.0000     7.4372    63.9555     2.5029     0.0995     0.0369   -34.8862    12.8507    12.4891
  490.5000     7.4374    64.6152     2.5040     0.0997     0.0374   -34.9453    13.0433    12.6841
  491.0000     7.4376    65.3085     2.5030     0.1004     0.0378   -35.0041    13.2389    12.8823
  491.5000     7.4379    66.2814     2.5020     0.1012     0.0383   -35.0631    13.4373    13.0835
  492.0000     7.4381    67.7451     2.5011     0.1019     0.0388   -35.1217    13.6388    13.2879
  492.5000     7.4383    70.2915     2.5040     0.0808     0.0392   -35.1498    13.8436    13.5058
  493.0000     7.4385    64.0835     2.5139     0.0836     0.0397   -34.8677    14.0500    13.5787
  493.5000     7.4387    66.4278     2.5237     0.0870     0.0401   -34.3706    14.1964    13.6762
  494.0000     7.4390    66.2687     2.5283     0.0856     0.0406   -34.0041    14.2899    13.7744
  494.5000     7.4392    65.3400     2.5289     0.0842     0.0412   -34.3509    14.4050    13.8733
  495.0000     7.4394    64.6036     2.5295     0.0828     0.0372   -34.6860    14.3900    13.9729
  495.5000     7.4396    64.0406     2.5447     0.0543     0.0322   -35.0231    14.3711    14.0125
  496.0000     7.4398    63.4823     2.5793     0.0673     0.0306   -35.1495    14.3523    14.0125
  496.5000     7.4400    62.9216     2.5191     0.0767     0.0346   -35.1333    14.3335    14.0125
  497.0000     7.4402    62.3792     2.5126     0.0860     0.0386   -34.7060    14.3147    14.0125
  497.5000     7.4405    62.1295     2.5145     0.0932     0.0425   -34.5550    14.2959    14.0124
  498.0000     7.4407    61.9035     2.5155     0.0925     0.0464   -34.5560    14.2772    14.0131
  498.5000     7.4409    61.0844     2.5165     0.0918     0.0503   -34.7100    14.2585    13.9812
  499.0000     7.4411    60.1926     2.5174     0.0910     0.0535   -35.3413    14.2398    13.9332
  499.5000     7.4413    60.5823     2.5190     0.0893     0.0544   -35.3910    14.2211    13.8857
  500.0000     7.4416    61.3621     2.5229     0.0871     0.0552   -35.4270    14.2025    13.8383
  500.5000     7.4418    60.7300     2.5268     0.0847     0.0545   -35.4650    14.1839    13.7912
  501.0000     7.4420    60.5698     2.5296     0.0872     0.0539   -35.5040    14.1655    13.7442
  501.5000     7.4422    60.8442     2.5245     0.0907     0.0532   -35.5418    14.1485    13.6974
  502.0000     7.4424    60.9659     2.5194     0.0941     0.0501   -35.4682    14.0400    13.6506
  502.5000     7.4426    60.7028     2.5143     0.0976     0.0471   -35.3845    13.9057    13.5567
  503.0000     7.4429    59.5302     2.5099     0.0991     0.0472   -35.3007    13.7727    13.4287
  503.5000     7.4431    64.8549     2.5092     0.0988     0.0472   -35.2173    13.6409    13.3019
  504.0000     7.4433    66.1654     2.5094     0.0985     0.0472   -35.1662    13.5104    13.1763
  504.5000     7.4435    66.7289     2.5097     0.0982     0.0472   -35.2910    13.3812    13.0519
  505.0000     7.4437    65.5906     2.5099     0.0976     0.0472   -35.7617    13.2532    12.9286
  505.5000     7.4440    64.6176     2.5092     0.0985     0.0465   -36.4087    13.1264    12.8066
  506.0000     7.4442    63.9333     2.5067     0.1002     0.0422   -36.7342    13.0008    12.6856
  506.5000     7.4444    63.9579     2.5043     0.1019     0.0379   -37.0715    12.8765    12.5658
  507.0000     7.4446    65.2347     2.5019     0.1036     0.0382   -37.1290    12.7533    12.4472
  507.5000     7.4448    66.2800     2.4999     0.1026     0.0395   -37.1294    12.6313    12.3296
  508.0000     7.4450    66.9776     2.5007     0.1010     0.0408   -37.1287    12.5105    12.2132
  508.5000     7.4453    67.5938     2.5045     0.0994     0.0421   -37.1298    12.3908    12.0979
  509.0000     7.4455    68.0780     2.5083     0.0979     0.0441   -37.1918    12.2723    11.9837
  509.5000     7.4457    68.5611     2.5121     0.0963     0.0486   -37.3354    12.1549    11.8720
  510.0000     7.4459    69.0070     2.5159     0.0947     0.0530   -37.4783    12.0386    11.7076
  510.5000     7.4461    69.4351     2.5198     0.0932     0.0571   -37.6195    11.9234    11.5473
  511.0000     7.4463    69.7303     2.5189     0.0937     0.0573   -37.6802    11.8094    11.3890
  511.5000     7.4466    69.0866     2.5155     0.0949     0.0572   -37.4863    11.6964    11.3025
  512.0000     7.4468    67.3450     2.5122     0.0961     0.0572   -37.3509    11.5847    11.2496
  512.5000     7.4470    65.4825     2.5090     0.0972     0.0594   -37.8105    11.4418    11.1972
  513.0000     7.4472    64.4870     2.5077     0.0984     0.0619   -37.9194    11.4436    11.1313
  513.5000     7.4474    65.2671     2.5070     0.0995     0.0645   -37.9221    11.4429    11.1505
  514.0000     7.4476    66.3170     2.5070     0.0991     0.0671   -37.9207    11.4430    11.1766
  514.5000     7.4479    65.3612     2.5070     0.0984     0.0650   -37.9215    11.4430    11.2028
  515.0000     7.4481    64.3188     2.5098     0.0978     0.0625   -37.9654    11.4433    11.2342
  515.5000     7.4483    64.3301     2.5250     0.0971     0.0600   -38.0129    11.4455    11.1495
  516.0000     7.4485  -999.2500     2.5345     0.0964     0.0574   -38.0599    11.3513    11.0112
  516.5000     7.4487  -999.2500     2.5281     0.0957     0.0580   -38.1019    11.2410    10.8746
  517.0000     7.4489  -999.2500     2.5219     0.0950     0.0589   -38.4291    11.1313    10.7397
  517.5000     7.4492  -999.2500     2.5191     0.0944     0.0598   -38.8343    11.0227    10.6065
  518.0000     7.4494  -999.2500     2.5191     0.0947     0.0606   -39.2092    10.9153    10.4749
  518.5000     7.4496  -999.2500     2.5190     0.0956     0.0597   -39.5308    10.8089    10.3450
  519.0000     7.4499  -999.2500     2.5159     0.0972     0.0551   -35.9504    10.7035    10.2169
  519.5000     7.4469  -999.2500     2.5125     0.0995     0.0509   -36.3529    10.5991    10.0887
  520.0000     7.4261  -999.2500     2.5091     0.1017     0.0501   -38.0570    10.5330    10.0333
  520.5000     7.4053  -999.2500     2.5058     0.1040     0.0494   -39.1266    10.5330     9.9858
  521.0000     7.3845  -999.2500     2.5024     0.1040     0.0564   -39.0619    10.6304     9.9394
  521.5000     7.3638  -999.2500     2.5010     0.1040     0.0639   -39.0063    10.7555     9.8937
  522.0000     7.3431  -999.2500     2.5014     0.1025     0.0714   -39.1304    10.8821     9.8755
  522.5000     7.3224  -999.2500     2.5040     0.1009     0.0776   -39.2645    11.0292     9.7176
  523.0000     7.3096  -999.2500     2.5065     0.0993     0.0785   -38.9891    10.1833     9.5672
  523.5000     7.3183  -999.2500     2.5091     0.0984     0.0792   -38.0223     9.9668     9.4311
  524.0000     7.3286  -999.2500     2.5112     0.0996     0.0759   -35.9038     9.8755     9.4311
  524.5000     7.3390  -999.2500     2.5077     0.1018     0.0725  -999.2500  -999.2500  -999.2500
  525.0000     7.3493  -999.2500     2.5036     0.1040     0.0693  -999.2500  -999.2500  -999.2500
  525.5000     7.3596  -999.2500     2.4995     0.1060     0.0698  -999.2500  -999.2500  -999.2500
  526.0000     7.3700  -999.2500     2.5003     0.1020     0.0829  -999.2500  -999.2500  -999.2500
