~VERSION INFORMATION
 VERS.                2.0:   CWLS LOG ASCII STANDARD - VERSION 2.0
 WRAP.                 NO:   ONE LINE PER DEPTH STEP
~WELL INFORMATION
#MNEM.UNIT      DATA TYPE    INFORMATION
#----------   ------------   ------------------------------
 STRT.F          390.0000:   START DEPTH
 STOP.F         2628.0000:   STOP DEPTH
 STEP.F            0.5000:   STEP LENGTH
 NULL.          -999.2500:   NO VALUE
 COMP. FENIX & SCISSON INC:   COMPANY
 WELL.    25 SHX 11 #3-11:   WELL
 FLD .             TEAPOT:   FIELD
 LOC .      S11 T38N R78W:   LOCATION
 CNTY.            NATRONA:   COUNTY
 STAT.            WYOMING:   STATE
 CTRY. UNITED STATES OF AMERICA:   COUNTRY
 SRVC.              Welex:   SERVICE COMPANY
 DATE.        15-MAY-1980:   LOGDATE
 API .       490251081900:   API NUMBER
~CURVE INFORMATION
#MNEM.UNIT       API CODE    CURVE DESCRIPTION
#----------   ------------   ------------------------------
 DEPT.F                  :   
 CALD.IN     45 280 60 00:   CALIPER
 GRD .GAPI   45 310 01 00:   GAMMA RAY FROM DENSITY LOG
 RHOB.G/C3   45 350 01 00:   BULK DENSITY
 DPHI.DEC    45 890 12 00:   DENSITY POROSITY SANDSTONE
 CORR.G/C3   45 356 01 00:   DENSITY CORRECTION
~PARAMETER INFORMATION
#MNEM.UNIT          VALUE    DESCRIPTION
#----------   ------------   ------------------------------
 PD  .                 GL:   PERMANENT DATUM
 EPD .F              5163:   ELEVATION PERMANENT DATUM
 LMF .                 KB:   LOG MEASURED FROM
 DAPD.F                10:   FEET ABOVE PERMANENT DATUM
 DMF .                 KB:   DRILLING MEASURED FROM
 EKB .F              5173:   KELLING BUSHING
 EGL .F              5163:   GROUND LEVEL
 DATE.            5-15-80:   RUN DATE
 RUN .                  1:   RUN NUMBER
 DD  .F              2625:   DEPTH DRILLER
 DL  .F              2630:   DEPTH LOGGER
 BLI .F              2628:   BOTTOM LOG INTERVAL
 TLI .F               400:   TOP LOG INTERVAL
 CS  .IN            9.625:   CASING SIZE
 CBD .F               645:   CASING BOTTOM DRILLER
 BS  .IN             8.75:   BIT SIZE
 BSD .F              2625:   BIT SIZE AT DEPTH
 DFT .        AIR DRILLED:   DRILLING FLUID TYPE
 TCS .HRS               2:   TIME CURCULATED STOPPED
 MRT .F               116:   MAXIMUM RECORDED TEMPERATURE
 ENGI.            BENTSEN:   RECORDING ENGINEER
 WITN.           DINSMORE:   WITNESSED BY
 CLNT.            A2DTECH:   CLIENT CODE
 ORIG.           5" PRINT:   ORIGIN OF DATA
 UWI .       490251081900:   UNIQUE WELL ID
 DICO. A2D Technologies, Inc.:   DIGITIZING COMPANY
~OTHER INFORMATION
~A   DEPT     CALD         GRD      RHOB       DPHI       CORR   
# ...
 1183.0000     8.9938    92.0137     2.4561     0.0602     0.0322
 1183.5000     8.9643    91.0237     2.4444     0.0669     0.0187
 1184.0000     8.9368    91.8104     2.4606     0.0578     0.0329
 1184.5000     8.9091    92.9733     2.4615     0.0536     0.0486
 1185.0000     8.8836    94.1504     2.4684     0.0507     0.0463
 1185.5000     8.8612    95.2690     2.4810     0.0415     0.0537
 1186.0000     8.8755    95.3294     2.4794     0.0399     0.0617
 1186.5000     8.9094    94.9781     2.4716     0.0467     0.0548
 1187.0000     8.9419    95.1652     2.4749     0.0471     0.0492
 1187.5000     8.9631    95.3320     2.4797     0.0450     0.0538
 1188.0000     8.9823    94.3846     2.4846     0.0416     0.0591
 1188.5000     8.9593    93.3037     2.4829     0.0407     0.0525
 1189.0000     8.9327    92.2324     2.4909     0.0395     0.0626
 1189.5000     8.9061    91.8984     2.4805     0.0362     0.0558
 1190.0000     8.8802    92.2521     2.4729     0.0479     0.0405
 1190.5000     8.8764    92.7985     2.4773     0.0455     0.0408
 1191.0000     8.9431    93.1974     2.4836     0.0423     0.0446
 1191.5000     8.9624    92.7173     2.4771     0.0426     0.0487
 1192.0000     8.9333    92.0924     2.4615     0.0543     0.0351
 1192.5000     8.8942    91.7895     2.4482     0.0589     0.0212
 1193.0000     8.8596    92.1844     2.4542     0.0604     0.0223
 1193.5000     8.9047    92.5630     2.4639     0.0503     0.0328
 1194.0000     8.9598    92.2898     2.4653     0.0537     0.0426
 1194.5000     8.9623    92.1691     2.4529     0.0592     0.0415
 1195.0000     8.9579    92.7132     2.4565     0.0596     0.0367
 1195.5000     8.9528    93.2503     2.4633     0.0547     0.0453
 1196.0000     8.9476    93.7926     2.4437     0.0553     0.0196
 1196.5000     8.9428    94.4079     2.4198     0.0826    -0.0043
 1197.0000     8.9139    94.1381     2.4163     0.0797     0.0026
 1197.5000     8.8834    93.8737     2.4508     0.0695     0.0112
 1198.0000     8.8963    93.7896     2.4664     0.0534     0.0390
 1198.5000     8.9084    93.7937     2.4690     0.0507     0.0411
 1199.0000     8.9202    93.4761     2.4614     0.0543     0.0347
 1199.5000     8.9229    93.9308     2.4763     0.0455     0.0463
 1200.0000     8.9242    94.4400     2.4940     0.0327     0.0638
 1200.5000     8.9255    94.9504     2.5010     0.0296     0.0777
 1201.0000     8.9269    95.4600     2.4874     0.0382     0.0750
 1201.5000     8.9282    95.9729     2.4878     0.0382     0.0670
 1202.0000     8.9295    96.4857     2.4789     0.0413     0.0540
 1202.5000     8.9308    96.3551     2.4658     0.0516     0.0396
 1203.0000     8.9322    96.0074     2.4725     0.0489     0.0483
 1203.5000     8.9335    96.8557     2.4607     0.0542     0.0395
 1204.0000     8.9348    97.6880     2.4592     0.0567     0.0361
 1204.5000     8.9362    97.4730     2.4655     0.0536     0.0389
 1205.0000     8.9375    96.7088     2.4644     0.0548     0.0355
 1205.5000     8.9388    96.1880     2.4538     0.0616     0.0260
 1206.0000     8.9402    95.4620     2.4423     0.0664     0.0165
 1206.5000     8.9415    95.3123     2.4304     0.0716     0.0084
 1207.0000     8.9418    95.2463     2.4290     0.0733     0.0084
 1207.5000     8.9418    94.1850     2.4501     0.0672     0.0206
 1208.0000     8.9418    93.1312     2.4657     0.0566     0.0408
 1208.5000     8.9418    92.0701     2.4794     0.0439     0.0574
 1209.0000     8.9418    92.0136     2.4669     0.0503     0.0540
 1209.5000     8.9417    92.5501     2.4748     0.0499     0.0509
 1210.0000     8.9508    92.7287     2.4829     0.0395     0.0606
 1210.5000     8.9651    91.9922     2.4733     0.0463     0.0539
 1211.0000     8.9797    92.2020     2.4529     0.0581     0.0362
 1211.5000     8.9802    92.7615     2.4326     0.0705     0.0189
 1212.0000     8.9776    93.1937     2.4123     0.0825     0.0015
 1212.5000     8.9749    93.1994     2.4021     0.0915    -0.0119
 1213.0000     8.9723    92.5939     2.4005     0.0923    -0.0118
 1213.5000     8.9696    91.9010     2.4117     0.0859    -0.0041
 1214.0000     8.9670    91.2066     2.4089     0.0883     0.0019
 1214.5000     8.9643    90.5133     2.4067     0.0903    -0.0012
 1215.0000     8.9619    90.1430     2.4181     0.0850     0.0055
 1215.5000     8.9618    90.3952     2.4337     0.0751     0.0181
 1216.0000     8.9619    90.6790     2.4420     0.0659     0.0301
 1216.5000     8.9619    90.7817     2.4541     0.0567     0.0391
 1217.0000     8.9619    89.9382     2.4672     0.0475     0.0498
 1217.5000     8.9619    89.0126     2.4884     0.0383     0.0600
 1218.0000     8.9619    88.0823     2.5047     0.0291     0.0681
 1218.5000     8.9619    88.7195     2.5159     0.0197     0.0767
 1219.0000     8.9619    89.4904     2.5278     0.0137     0.0866
 1219.5000     8.9619    90.2411     2.5033     0.0261     0.0729
 1220.0000     8.9619    90.4760     2.4930     0.0281     0.0646
 1220.5000     8.9619    89.5897     2.4866     0.0336     0.0534
 1221.0000     8.9619    89.5134     2.4928     0.0348     0.0537
 1221.5000     8.9619    88.1002     2.4971     0.0318     0.0498
 1222.0000     8.9619    86.5719     2.5059     0.0276     0.0540
 1222.5000     8.9618    85.0419     2.5187     0.0185     0.0683
 1223.0000     8.9620    83.4788     2.5217     0.0169     0.0766
 1223.5000     8.9365    83.1886     2.4991     0.0332     0.0504
 1224.0000     8.9005    83.5497     2.4600     0.0568     0.0235
 1224.5000     8.9023    84.0955     2.4722     0.0463     0.0323
 1225.0000     8.9283    84.2015     2.4621     0.0521     0.0384
 1225.5000     8.9556    84.4098     2.4601     0.0556     0.0364
 1226.0000     8.9799    84.8928     2.4553     0.0585     0.0237
 1226.5000     9.0035    85.3242     2.4419     0.0698     0.0104
 1227.0000     8.9968    85.4233     2.4286     0.0747    -0.0030
 1227.5000     8.9889    85.9363     2.4271     0.0766    -0.0063
 1228.0000     8.9808    85.2781     2.4574     0.0557     0.0253
 1228.5000     8.9728    84.5158     2.4697     0.0503     0.0385
 1229.0000     8.9647    83.7505     2.4605     0.0549     0.0324
 1229.5000     8.9566    82.9844     2.4649     0.0537     0.0338
 1230.0000     8.9485    82.2884     2.4598     0.0541     0.0299
 1230.5000     8.9404    82.2988     2.4482     0.0591     0.0226
 1231.0000     8.9324    82.4987     2.4430     0.0637     0.0184
 1231.5000     8.9241    83.5991     2.4306     0.0742     0.0089
 1232.0000     8.9287    84.4198     2.4474     0.0621     0.0144
 1232.5000     8.9390    83.7566     2.4407     0.0680     0.0203
 1233.0000     8.9428    82.8469     2.4303     0.0758     0.0096
 1233.5000     8.9582    82.8708     2.4247     0.0759     0.0000
 1234.0000     8.9438    83.4538     2.4436     0.0689     0.0119
 1234.5000     8.9448    84.1371     2.4579     0.0568     0.0288
 1235.0000     8.9471    83.9439     2.4529     0.0543     0.0345
 1235.5000     8.9493    83.0902     2.4687     0.0516     0.0483
 1236.0000     8.9515    82.2274     2.4542     0.0591     0.0332
 1236.5000     8.9536    81.3630     2.4447     0.0655     0.0284
 1237.0000     8.9558    80.4176     2.4512     0.0613     0.0352
 1237.5000     8.9579    80.1606     2.4489     0.0597     0.0421
 1238.0000     8.9601    80.1267     2.4674     0.0516     0.0490
 1238.5000     8.9588    79.0227     2.4697     0.0499     0.0560
 1239.0000     8.9384    77.8330     2.4785     0.0464     0.0628
 1239.5000     8.9207    76.6554     2.4810     0.0430     0.0632
 1240.0000     8.9453    75.8247     2.4916     0.0399     0.0601
 1240.5000     8.9765    75.6439     2.4803     0.0422     0.0551
 1241.0000     8.9771    74.7334     2.4626     0.0526     0.0453
 1241.5000     8.9578    74.8153     2.4445     0.0668     0.0326
 1242.0000     8.9511    75.1521     2.4375     0.0693     0.0287
 1242.5000     8.9452    75.4848     2.4436     0.0641     0.0390
 1243.0000     8.9393    75.4594     2.4537     0.0585     0.0490
 1243.5000     8.9334    75.0631     2.4597     0.0559     0.0550
