~VERSION INFORMATION
 VERS.                2.0:   CWLS LOG ASCII STANDARD - VERSION 2.0
 WRAP.                 NO:   ONE LINE PER DEPTH STEP
~WELL INFORMATION
#MNEM.UNIT      DATA TYPE    INFORMATION
#----------   ------------   ------------------------------
 STRT.F           12.0000:   START DEPTH
 STOP.F          793.0000:   STOP DEPTH
 STEP.F            0.5000:   STEP LENGTH
 NULL.          -999.2500:   NO VALUE
 COMP.   FLUOR DANIEL INC:   COMPANY
 WELL.   35-1-X-10 #35-10:   WELL
 FLD .            WILDCAT:   FIELD
 LOC .      S10 T38N R78W:   LOCATION
 CNTY.            NATRONA:   COUNTY
 STAT.            WYOMING:   STATE
 CTRY. UNITED STATES OF AMERICA:   COUNTRY
 SRVC.      Western Atlas:   SERVICE COMPANY
 DATE.        20-AUG-1996:   LOGDATE
 API .       490252282200:   API NUMBER
~CURVE INFORMATION
#MNEM.UNIT       API CODE    CURVE DESCRIPTION
#----------   ------------   ------------------------------
 DEPT.F                  :   
 RFOC.OHMM   07 220 04 00:   RESISTIVITY FOCUSED LOG
 RILD.OHMM   07 120 46 00:   INDUCTION LOG DEEP RESISTIVITY
 RILM.OHMM   07 120 44 00:   INDUCTION LOG MEDIUM RESISTIVITY
 SPR .MV     07 010 01 00:   SPONTANEOUS POTENTIAL
 CALD.IN     45 280 60 00:   CALIPER FROM DENSITY LOG
 GRD .GAPI   45 310 01 00:   GAMMA RAY FROM DENSITY LOG
 ZCOR.G/C3   45 356 01 00:   DENSITY CORRECTION
 ZDEN.G/C3   45 350 01 00:   BULK DENSITY
 PORZ.DEC    45 890 12 00:   DENSITY POROSITY SANDSTONE
 CNC .DEC    42 890 03 00:   NEUTRON POROSITY SANDSTONE
~PARAMETER INFORMATION
#MNEM.UNIT          VALUE    DESCRIPTION
#----------   ------------   ------------------------------
 PD  .                 GL:   PERMANENT DATUM
 EPD .F              5228:   ELEVATION PERMANENT DATUM
 LMF .                 KB:   LOG MEASURED FROM
 DAPD.F                10:   FEET ABOVE PERMANENT DATUM
 DMF .                 KB:   DRILLING MEASURED FROM
 EKB .F              5238:   KELLING BUSHING
 EGL .F              5228:   GROUND LEVEL
 DATE.        20-AUG-1996:   RUN DATE
 RUN .                  1:   RUN NUMBER
 DD  .F               794:   DEPTH DRILLER
 DL  .F               794:   DEPTH LOGGER
 BLI .F               793:   BOTTOM LOG INTERVAL
 TLI .F                12:   TOP LOG INTERVAL
 CS  .IN           13.375:   CASING SIZE
 CBD .F                58:   CASING BOTTOM DRILLER
 CBL .F                59:   CASING BOTTOM LOGGER
 BS  .IN            12.25:   BIT SIZE
 BSD .F               794:   BIT SIZE AT DEPTH
 DFT .           SPUD MUD:   DRILLING FLUID TYPE
 DFD .                9.2:   DRILLING FLUID DENSITY
 DFV .                 50:   DRILLING FLUID VISCOSITY
 DFPH.                  9:   DRILLING FLUID PH
 DFL .               13.8:   DRILLING FLUID LOSS
 MSS .              CIRC.:   MUD SAMPLE SOURCE
 RMS .OHMM           1.14:   RESISTIVITY MUD SAMPLE
 MST .F                77:   MUD SAMPLE TEMPERATURE
 RMF .OHMM           0.90:   RESISTIVITY MUD FILTRATE SAMPLE
 MFST.F                77:   MUD FILTRATE SAMPLE TEMPERATURE
 RMC .OHMM            1.4:   RESISTIVITY MUD CAKE
 MCST.F                77:   MUD CAKE SAMPLE TEMPERATURE
 MFSS.               CALC:   MUD FILTRATE SAMPLE SOURCE
 MCSS.               CALC:   MUD CAKE SAMPLE SOURCE
 RMB .OHMM            .84:   RESISTIVITY MUD AT BHT
 BHT .F               104:   BOTTOM HOLE TEMPERATURE
 TCS .HRS               3:   TIME CURCULATED STOPPED
 MRT .F               104:   MAXIMUM RECORDED TEMPERATURE
 LUN .            HL-6530:   LOGGING UNIT NUMBER
 LUL .             CASPER:   LOGGING UNIT LOCATION
 ENGI.           BROWNLOW:   RECORDING ENGINEER
 WITN.      SCHULTE/HARDY:   WITNESSED BY
 CLNT.            A2DTECH:   CLIENT CODE
 ORIG.           5" PRINT:   ORIGIN OF DATA
 UWI .       490252282200:   UNIQUE WELL ID
 DICO. A2D Technologies, Inc.:   DIGITIZING COMPANY
~OTHER INFORMATION
~A   DEPT     RFOC       RILD       RILM        SPR       CALD        GRD       ZCOR       ZDEN       PORZ        CNC   
# ...
  313.5000     6.7677     6.5538     6.5601    -9.9849    11.7715    92.0072     0.1342     2.4551     0.1172     0.3391
  314.0000     6.7209     6.8734     6.7920    -9.8336    12.2701    92.6158     0.1296     2.4544     0.1184     0.3368
  314.5000     6.7209     7.0668     6.8873    -9.6823    12.8805    88.0913     0.1236     2.4559     0.1187     0.3292
  315.0000     6.7209     7.2154     6.8878    -9.5310    13.0861    86.2844     0.1176     2.4612     0.1160     0.3243
  315.5000     6.7677     7.2656     6.8882    -9.5310    13.1769    85.3838     0.1070     2.4672     0.1115     0.3258
  316.0000     6.8149     7.3162     6.8888    -9.5310    13.2073    85.0875     0.1010     2.4725     0.1066     0.3268
  316.5000     6.8624     7.4183     6.9855    -9.8336    13.2225    84.7911     0.0980     2.4763     0.1039     0.3201
  317.0000     7.1544     7.5220     7.1328   -10.1362    13.2378    84.1941     0.0935     2.4786     0.1030     0.3129
  317.5000     7.2545     7.6270     7.2329   -10.4387    13.2379    83.5957     0.0827     2.4794     0.1027     0.3108
  318.0000     7.2565     7.7336     7.2838   -10.8926    13.2381    82.0909     0.0647     2.4734     0.1051     0.3186
  318.5000     7.2545     7.8962     7.2843   -11.3510    13.2382    79.6798     0.0693     2.4598     0.1124     0.3325
  319.0000     7.2545     8.0064     7.3355   -11.9516    13.2384    77.2701     0.0936     2.4409     0.1219     0.3636
  319.5000     7.2545     8.0622     7.3360   -12.2542    13.2385    76.3681     0.1360     2.4183     0.1416     0.3672
  320.0000     7.3051     8.0622     7.4390   -12.4054    13.2538    75.7696     0.1482     2.4122     0.1456     0.3690
  320.5000     7.3560     8.0064     7.6488   -12.4054    13.2842    75.4733     0.1416     2.4289     0.1413     0.3756
  321.0000     7.4073     8.0102     7.7089   -12.4054    13.3145    75.1782     0.1225     2.4440     0.1256     0.3919
  321.5000     7.4589     8.0622     7.8107   -12.2542    13.3449    75.1843     0.1119     2.4584     0.1169     0.4024
  322.0000     7.4589     8.1183     7.9204   -12.2542    13.3601    76.3999     0.0953     2.4742     0.1049     0.4033
  322.5000     7.4589     8.1748     7.9209   -12.1029    13.3603    78.8226     0.0877     2.4965     0.0900     0.4043
  323.0000     7.4589     8.2317     7.9214   -11.9516    13.3604    80.9432     0.0832     2.5309     0.0765     0.4088
  323.5000     7.5154     8.3466     7.9219   -11.9516    13.3606    80.0426     0.0755     2.5438     0.0644     0.4139
  324.0000     7.6159     8.3466     7.9226   -11.9516    13.3607    77.3293     0.0409     2.5317     0.0653     0.4130
  324.5000     7.6159     8.3466     7.9231   -11.9516    13.3609    76.7309     0.0363     2.5068     0.0810     0.4024
  325.0000     7.6159     8.4047     7.9236   -11.9516    13.3610    78.8529     0.0758     2.4811     0.0952     0.3940
  325.5000     7.6159     8.4047     7.9241   -11.9516    13.3612    80.9735     0.1364     2.4675     0.1078     0.3753
  326.0000     7.5632     8.4009     7.8699   -11.8003    13.3765    80.6757     0.1470     2.4638     0.1121     0.3747
  326.5000     7.5632     8.3466     7.8706   -11.7897    13.4219    80.0787     0.1243     2.4880     0.1051     0.3789
  327.0000     7.5109     8.2890     7.8165   -11.6490    13.4523    79.7664     0.1028     2.5084     0.0867     0.3798
  327.5000     7.4589     8.2890     7.8172   -11.4977    13.4826    78.2791     0.0835     2.5205     0.0795     0.3692
  328.0000     7.4073     8.2890     7.7637   -11.3464    13.5130    77.0764     0.0714     2.5157     0.0786     0.3638
  328.5000     7.3560     8.2851     7.6562   -11.0439    13.5132    76.7786     0.0578     2.5077     0.0828     0.3662
  329.0000     7.2545     8.1748     7.5523   -10.7413    13.5133    77.6922     0.0412     2.5024     0.0870     0.3701
  329.5000     7.2043     8.1183     7.4487   -10.4387    13.5135    78.3022     0.0366     2.4979     0.0922     0.3696
  330.0000     7.1049     8.0622     7.3977   -10.1362    13.5136    78.9124     0.0336     2.4926     0.0940     0.3644
  330.5000     7.0069     8.0622     7.3471    -9.9849    13.5137    79.2215     0.0534     2.4873     0.0989     0.3668
  331.0000     6.9102     8.0064     7.1964    -9.9849    13.5139    79.8316     0.0655     2.4813     0.1027     0.3713
  331.5000     6.7677     7.8416     6.8559    -9.9849    13.5292    80.1394     0.0716     2.4768     0.1062     0.3758
  332.0000     6.7209     7.5743     6.7152    -9.9849    13.5444    80.1452     0.0686     2.4738     0.1068     0.3761
  332.5000     6.6743     7.2154     6.5319   -10.1362    13.5446    80.1511     0.0595     2.4738     0.1065     0.3746
  333.0000     6.4915     6.9213     6.2661   -10.2874    13.5598    79.5540     0.0474     2.4753     0.1047     0.3743
  333.5000     6.2699     6.5872     5.9695   -10.4387    13.5751    78.9541     0.0351     2.4791     0.1020     0.3770
  334.0000     6.0078     6.1515     5.6755   -10.4387    13.5752    78.0536     0.0293     2.4814     0.1005     0.3840
  334.5000     5.7285     5.8600     5.2697   -10.4387    13.5754    78.3629     0.0339     2.4822     0.1037     0.3936
  335.0000     5.4947     5.3178     4.9512   -10.4387    13.5755    78.6708     0.0355     2.4708     0.1135     0.4120
  335.5000     5.2704     4.4096     4.5561   -10.4387    13.5908    77.7362     0.0370     2.4565     0.1247     0.4283
  336.0000     5.0553     3.8298     4.0216   -10.2874    13.6077    75.9648     0.0385     2.4399     0.1402     0.4467
  336.5000     4.7378     3.1830     3.4901   -10.1362    13.6364    74.1579     0.0462     2.3712     0.1760     0.5001
  337.0000     4.2494     2.9086     2.9644    -9.9849    13.6970    72.6531     0.0522     2.3236     0.2267     0.5354
  337.5000     3.9643     2.6578     2.6532    -9.9849    13.8029    72.6589     0.0689     2.2594     0.2741     0.5538
  338.0000     3.6220     2.4626     2.3097    -9.9849    13.9239    72.6646     0.1220     2.1303     0.3341     0.5839
  338.5000     3.2410     2.3787     2.2157    -9.9849    13.6612    71.4634     0.1478     2.0993     0.3335     0.5975
  339.0000     3.1742     2.3787     2.3113   -10.1362    13.0179    69.9586     0.1448     2.0971     0.3329     0.5987
  339.5000     3.2864     2.3952     2.4084   -10.4387    12.8518    69.0581     0.1433     2.0994     0.3317     0.5984
  340.0000     3.4984     2.4456     2.4935   -10.7413    12.8520    68.7603     0.1782     2.1334     0.3263     0.5818
  340.5000     3.9643     2.5319     2.5997   -11.0439    12.8823    69.6738     0.1737     2.1840     0.3038     0.5495
  341.0000     4.3089     2.7175     2.7292   -11.3464    12.8674    73.1159     0.1025     2.2641     0.2551     0.5054
  341.5000     4.3089     3.2499     3.0136   -11.4977    12.8826    78.4482     0.0949     2.3513     0.2117     0.4409
  342.0000     4.5236     3.8120     3.7294   -11.9516    12.9130    83.5899     0.0950     2.3827     0.1705     0.4165
  342.5000     5.3814     4.3489     4.4977   -12.1255    12.9283    87.2211     0.0950     2.4031     0.1577     0.3996
  343.0000     6.1406     4.9272     5.1316   -12.4054    12.9435    88.7374     0.0890     2.4243     0.1463     0.3815
  343.5000     6.3136     5.2884     5.3872   -12.4054    12.9588    87.5348     0.0829     2.4620     0.1285     0.3736
  344.0000     6.1828     5.7393     5.6175   -12.4054    12.9740    83.9166     0.0784     2.4819     0.1062     0.3824
  344.5000     5.9310     6.1090     6.1044   -12.4054    12.9742    83.3167     0.0709     2.4862     0.1005     0.3966
  345.0000     5.8492     6.4129     6.3642   -12.2542    12.9592    83.3239     0.0588     2.4885     0.0999     0.3972
  345.5000     5.9310     6.5025     6.4535   -12.2542    12.9594    83.6318     0.0376     2.4900     0.0990     0.3902
  346.0000     6.0981     6.4546     6.3651   -12.2542    12.9444    83.3355     0.0452     2.4916     0.0969     0.3872
  346.5000     6.2265     6.1943     6.1913   -12.1029    12.9446    82.1328     0.0468     2.4915     0.0963     0.3905
