~VERSION INFORMATION
 VERS.                2.0:   CWLS LOG ASCII STANDARD - VERSION 2.0
 WRAP.                 NO:   ONE LINE PER DEPTH STEP
~WELL INFORMATION
#MNEM.UNIT      DATA TYPE    INFORMATION
#----------   ------------   ------------------------------
 STRT.F         1596.0000:   START DEPTH
 STOP.F         3210.0000:   STOP DEPTH
 STEP.F            0.5000:   STEP LENGTH
 NULL.          -999.2500:   NO VALUE
 COMP.   FLUOR DANIEL INC:   COMPANY
 WELL. NAVAL PETROLEUM RESERVE 3 X-23 #73-23:   WELL
 FLD .             TEAPOT:   FIELD
 LOC .      S23 T38N R78W:   LOCATION
 CNTY.            NATRONA:   COUNTY
 STAT.            WYOMING:   STATE
 CTRY. UNITED STATES OF AMERICA:   COUNTRY
 SRVC.            Unknown:   SERVICE COMPANY
 DATE.        29-JAN-1995:   LOGDATE
 API .       490252265000:   API NUMBER
~CURVE INFORMATION
#MNEM.UNIT       API CODE    CURVE DESCRIPTION
#----------   ------------   ------------------------------
 DEPT.F                  :   
 TGAS.TC/CC  91 830 01 00:   TOTAL GAS UNIT
 ROP .FT/HR  91 810 01 00:   RAT OF DRILLING PENETRATION
~PARAMETER INFORMATION
#MNEM.UNIT          VALUE    DESCRIPTION
#----------   ------------   ------------------------------
 EKB .F              5433:   KELLING BUSHING
 EGL .F              5423:   GROUND LEVEL
 DATE.        29-JAN-1995:   RUN DATE
 RUN .                  1:   RUN NUMBER
 BLI .F              3210:   BOTTOM LOG INTERVAL
 TLI .F              1600:   TOP LOG INTERVAL
 WITN.     C.TOWER/R.HUSK:   WITNESSED BY
 CLNT.            A2DTECH:   CLIENT CODE
 ORIG.           5" PRINT:   ORIGIN OF DATA
 UWI .       490252265000:   UNIQUE WELL ID
 DICO. A2D Technologies, Inc.:   DIGITIZING COMPANY
~OTHER INFORMATION
~A  DEPT        TGAS        ROP 
# ...
 1960.5000     2.2689     0.4286
 1961.0000     2.2736     0.4241
 1961.5000     2.2785     0.4238
 1962.0000     2.0943     0.4330
 1962.5000     1.9104     0.4327
 1963.0000     1.7264     0.4379
 1963.5000     1.5283     0.4434
 1964.0000     1.5472     0.4434
 1964.5000     1.7415     0.4340
 1965.0000     1.5575     0.4340
 1965.5000     1.5613     0.4245
 1966.0000     1.5660     0.4340
 1966.5000     1.5714     0.4340
 1967.0000     1.5761     0.5189
 1967.5000     1.5807     0.5189
 1968.0000     1.5854     0.5189
 1968.5000     1.5900     0.5189
 1969.0000     1.5947     0.5283
 1969.5000     1.5993     0.4434
 1970.0000     1.7926     0.4340
 1970.5000     1.7973     0.4340
 1971.0000     1.9906     0.4340
 1971.5000     1.9953     0.4340
 1972.0000     2.1887     0.4340
 1972.5000     2.1934     0.4340
 1973.0000     2.1981     0.4245
 1973.5000     2.2037     0.4245
 1974.0000     2.2084     0.4245
 1974.5000     2.2130     0.4245
 1975.0000     2.0278     0.4245
 1975.5000     2.0336     0.4245
 1976.0000     2.0383     0.4245
 1976.5000     2.0429     0.4340
 1977.0000     2.0476     0.4340
 1977.5000     2.0583     0.4340
 1978.0000     2.0755     0.4340
 1978.5000     1.8868     0.4340
 1979.0000     1.8868     0.4245
 1979.5000     2.0755     0.4340
 1980.0000     2.0755     0.4340
 1980.5000     2.0755     0.4434
 1981.0000     2.2642     0.4434
 1981.5000     2.2642     0.4434
 1982.0000     2.4528     0.4340
 1982.5000     2.4528     0.4340
 1983.0000     2.4528     0.4434
 1983.5000     2.4528     0.4340
 1984.0000     2.2642     0.4434
 1984.5000     2.2705     0.4434
 1985.0000     2.2642     0.4340
 1985.5000     2.0755     0.4434
 1986.0000     1.8868     0.4340
 1986.5000     1.8868     0.4434
 1987.0000     1.8868     0.4434
 1987.5000     1.8554     0.4434
 1988.0000     1.6981     0.4434
 1988.5000     1.5094     0.4434
 1989.0000     1.5094     0.4434
 1989.5000     1.5094     0.4340
 1990.0000     1.6981     0.4340
 1990.5000     1.6981     0.4340
 1991.0000     1.8868     0.4245
 1991.5000     2.0755     0.4245
 1992.0000     2.0755     0.4245
 1992.5000     2.0755     0.4245
 1993.0000     2.2642     0.4340
 1993.5000     2.2642     0.4340
 1994.0000     2.2642     0.4340
 1994.5000     2.4528     0.4340
 1995.0000     2.4528     0.4245
 1995.5000     2.2642     0.4340
 1996.0000     2.2642     0.4340
 1996.5000     2.2642     0.4434
 1997.0000     2.2642     0.4434
 1997.5000     2.2642     0.4434
 1998.0000     2.0755     0.4434
 1998.5000     2.0755     0.4434
 1999.0000     2.0755     0.4434
 1999.5000     2.0755     0.4340
 2000.0000     2.0755     0.4340
 2000.5000     2.0755     0.5189
 2001.0000     2.0755     0.5094
 2001.5000     2.0755     0.5094
 2002.0000     2.0755     0.5094
 2002.5000     2.2642     0.5189
 2003.0000     2.2642     0.5189
 2003.5000     2.2642     0.5189
 2004.0000     2.2642     0.5189
 2004.5000     2.2642     0.5189
 2005.0000     2.4528     0.5189
 2005.5000     2.4528     0.5189
 2006.0000     2.4528     0.5189
 2006.5000     2.4528     0.5125
 2007.0000     2.4528     0.5033
 2007.5000     2.4528     0.5036
 2008.0000     2.4528     0.4944
 2008.5000     2.3751     0.5040
 2009.0000     2.2814     0.5137
 2009.5000     2.0835     0.5045
 2010.0000     2.0743     0.4953
 2010.5000     2.0660     0.4861
 2011.0000     1.8672     0.4848
 2011.5000     1.8580     0.4771
 2012.0000     1.8487     0.6000
 2012.5000     1.8395     0.6003
 2013.0000     1.8302     0.6005
 2013.5000     1.8208     0.6007
 2014.0000     1.8096     0.4783
 2014.5000     1.8003     0.4596
 2015.0000     1.7911     0.4630
 2015.5000     1.7819     0.4676
 2016.0000     1.9623     0.4722
 2016.5000     1.9521     0.4769
 2017.0000     1.9429     0.4815
 2017.5000     1.9337     0.4862
 2018.0000     1.9245     0.4908
 2018.5000     2.1039     0.4954
 2019.0000     2.0943     0.4996
 2019.5000     2.0832     0.5092
 2020.0000     2.0739     0.5189
 2020.5000     1.8760     0.5191
 2021.0000     1.8668     0.5193
 2021.5000     1.8576     0.5196
 2022.0000     1.6597     0.5198
 2022.5000     1.6505     0.5200
 2023.0000     1.4526     0.5203
 2023.5000     1.4433     0.5206
 2024.0000     1.4340     0.5208
 2024.5000     1.6136     0.5210
 2025.0000     1.7930     0.5213
 2025.5000     1.8784     0.5215
 2026.0000     1.9858     0.5217
 2026.5000     2.0142     0.5219
 2027.0000     2.1981     0.5222
 2027.5000     2.1934     0.5224
 2028.0000     2.1887     0.5226
 2028.5000     2.3728     0.5134
 2029.0000     2.3670     0.5042
 2029.5000     2.5522     0.5045
 2030.0000     2.5464     0.5048
 2030.5000     2.5418     0.5050
 2031.0000     2.5371     0.5052
 2031.5000     2.7223     0.5054
 2032.0000     2.3392     0.5717
 2032.5000     2.3345     0.5719
 2033.0000     2.7072     0.5722
 2033.5000     2.7026     0.5724
 2034.0000     2.6980     0.5632
 2034.5000     2.6933     0.5634
 2035.0000     2.5000     0.5637
 2035.5000     2.3066     0.5640
 2036.0000     2.3019     0.5442
 2036.5000     2.1076     0.5283
 2037.0000     2.1029     0.5283
 2037.5000     2.0991     0.5283
 2038.0000     2.0936     0.5283
 2038.5000     2.0890     0.5283
 2039.0000     2.0844     0.5283
 2039.5000     2.2696     0.5283
 2040.0000     2.2638     0.5283
 2040.5000     2.2591     0.5283
 2041.0000     2.2545     0.5283
 2041.5000     2.4387     0.5189
 2042.0000     2.4339     0.5189
 2042.5000     2.4292     0.5189
 2043.0000     2.6133     0.5189
 2043.5000     2.6085     0.5189
 2044.0000     2.6028     0.5189
 2044.5000     2.4095     0.5193
 2045.0000     2.3742     0.5283
 2045.5000     2.2116     0.5283
 2046.0000     2.0177     0.5283
 2046.5000     2.0030     0.5283
 2047.0000     1.9883     0.5283
 2047.5000     1.9736     0.5377
 2048.0000     1.9589     0.5472
 2048.5000     1.9442     0.5466
 2049.0000     1.9295     0.5456
 2049.5000     1.9148     0.5446
 2050.0000     1.9001     0.5436
 2050.5000     1.8868     0.5426
 2051.0000     2.0755     0.5416
 2051.5000     2.1258     0.5407
 2052.0000     2.2642     0.5397
 2052.5000     2.4528     0.5387
 2053.0000     2.4528     0.5360
 2053.5000     2.4528     0.5283
 2054.0000     2.6415     0.5283
 2054.5000     2.6415     0.5283
 2055.0000     2.6415     0.5377
 2055.5000     2.6415     0.5377
 2056.0000     2.6415     0.5377
 2056.5000     2.6415     0.5472
 2057.0000     2.6415     0.5472
 2057.5000     2.8302     0.5566
 2058.0000     2.8302     0.5566
 2058.5000     2.8302     0.5566
 2059.0000     2.8302     0.5566
 2059.5000     2.8302     0.5566
 2060.0000     2.8302     0.5564
 2060.5000     2.8302     0.5555
 2061.0000     2.8302     0.5547
 2061.5000     2.8302     0.5538
 2062.0000     2.8302     0.5530
 2062.5000     2.8302     0.5521
 2063.0000     2.2518     0.5513
 2063.5000     1.8868     0.5034
 2064.0000     1.8868     0.4943
 2064.5000     1.8868     0.4949
 2065.0000     1.8029     0.4954
 2065.5000     1.6981     0.5052
 2066.0000     1.6981     0.5057
 2066.5000     1.6981     0.5062
 2067.0000     1.3208     0.5066
 2067.5000     1.5094     0.5071
 2068.0000     1.5094     0.5076
 2068.5000     1.6981     0.5080
 2069.0000     1.6981     0.5085
 2069.5000     1.5094     0.4995
 2070.0000     1.5094     0.5000
 2070.5000     1.5094     0.5006
 2071.0000     1.5094     0.5009
 2071.5000     1.5094     0.5014
 2072.0000     1.6981     0.5019
 2072.5000     1.6981     0.5024
 2073.0000     1.6981     0.5028
 2073.5000     1.6981     0.5033
 2074.0000     1.8868     0.5132
 2074.5000     1.8868     0.5137
 2075.0000     1.8868     0.5142
 2075.5000     1.8868     0.5146
 2076.0000     1.8868     0.5151
 2076.5000     1.8051     0.5142
 2077.0000     1.6981     0.5066
 2077.5000     1.6981     0.4976
 2078.0000     1.7024     0.4982
 2078.5000     1.8868     0.4986
 2079.0000     1.8868     0.5085
 2079.5000     2.0755     0.5090
 2080.0000     2.0755     0.5189
 2080.5000     2.2642     0.5382
 2081.0000     2.2642     0.5387
 2081.5000     2.4528     0.5392
