~VERSION INFORMATION
 VERS.                2.0:   CWLS LOG ASCII STANDARD - VERSION 2.0
 WRAP.                 NO:   ONE LINE PER DEPTH STEP
~WELL INFORMATION
#MNEM.UNIT      DATA TYPE    INFORMATION
#----------   ------------   ------------------------------
 STRT.F           10.0000:   START DEPTH
 STOP.F          756.0000:   STOP DEPTH
 STEP.F            0.1000:   STEP LENGTH
 NULL.          -999.2500:   NO VALUE
 COMP. BROWN JOHN E&C INC:   COMPANY
 WELL. N P R 3 SHX- #31-1-X-14:   WELL
 FLD .             TEAPOT:   FIELD
 LOC .      S14 T38N R78W:   LOCATION
 CNTY.            NATRONA:   COUNTY
 STAT.            WYOMING:   STATE
 CTRY. UNITED STATES OF AMERICA:   COUNTRY
 SRVC.     Atlas Wireline:   SERVICE COMPANY
 DATE.        07-JAN-1992:   LOGDATE
 API .       490252249700:   API NUMBER
~CURVE INFORMATION
#MNEM.UNIT       API CODE    CURVE DESCRIPTION
#----------   ------------   ------------------------------
 DEPT.F                  :   
 GRR .GAPI   07 310 01 00:   GAMMA RAY
 RFOC.OHMM   07 220 04 00:   RESISTIVITY FOCUSED LOG RES.
 RILD.OHMM   07 120 46 00:   INDUCTION LOG DEEP RESISTIVITY
 RILM.OHMM   07 120 44 00:   INDUCTION LOG MEDIUM  RESISTIVITY
~PARAMETER INFORMATION
#MNEM.UNIT          VALUE    DESCRIPTION
#----------   ------------   ------------------------------
 PD  .                 GL:   PERMANENT DATUM
 EPD .F              5210:   ELEVATION PERMANENT DATUM
 LMF .                 KB:   LOG MEASURED FROM
 DAPD.F                10:   FEET ABOVE PERMANENT DATUM
 DMF .                 KB:   DRILLING MEASURED FROM
 EKB .F              5220:   KELLING BUSHING
 EDF .F              5219:   DRILLING FLOOR
 EGL .F              5210:   GROUND LEVEL
 DATE.        07-JAN-1992:   RUN DATE
 RUN .                  1:   RUN NUMBER
 DD  .F               762:   DEPTH DRILLER
 DL  .F               760:   DEPTH LOGGER
 BLI .F               758:   BOTTOM LOG INTERVAL
 CS  .IN            9.625:   CASING SIZE
 CBD .F                48:   CASING BOTTOM DRILLER
 CBL .F                50:   CASING BOTTOM LOGGER
 BS  .IN             8.75:   BIT SIZE
 BSD .F               762:   BIT SIZE AT DEPTH
 DFT .    FORMATION FLUID:   DRILLING FLUID TYPE
 MRT .F                90:   MAXIMUM RECORDED TEMPERATURE
 LUN .            HL-6274:   LOGGING UNIT NUMBER
 LUL .             CASPER:   LOGGING UNIT LOCATION
 ENGI.             RAUTIC:   RECORDING ENGINEER
 WITN.        GARY STRONG:   WITNESSED BY
 CLNT.            A2DTECH:   CLIENT CODE
 ORIG.           5" PRINT:   ORIGIN OF DATA
 UWI .       490252249700:   UNIQUE WELL ID
 DICO. A2D Technologies, Inc.:   DIGITIZING COMPANY
~OTHER INFORMATION
~A   DEPT       GRR      RFOC       RILD       RILM   
# ...
  506.4000   122.4210     7.0588     5.5463     5.6546
  506.5000   121.9335     7.0589     5.4703     5.5867
  506.6000   121.6500     7.0198     5.4185     5.5254
  506.7000   121.4340     6.9792     5.3557     5.4619
  506.8000   121.1843     6.9387     5.2937     5.4166
  506.9000   120.8147     6.8840     5.2250     5.3855
  507.0000   120.3827     6.8043     5.1343     5.3494
  507.1000   120.1329     6.7232     5.0325     5.2860
  507.2000   119.8553     6.6854     4.9580     5.2566
  507.3000   119.6335     6.6170     4.8721     5.2031
  507.4000   119.3837     6.5404     4.7876     5.1433
  507.5000   119.1339     6.4648     4.7045     5.0841
  507.6000   118.8076     6.3966     4.6229     5.0204
  507.7000   118.3323     6.3590     4.5342     4.9326
  507.8000   118.0607     6.2508     4.4641     4.8216
  507.9000   117.8328     6.1991     4.3868     4.7113
  508.0000   117.5830     6.1212     4.3107     4.6034
  508.1000   117.3333     6.0289     4.2436     4.4980
  508.2000   117.0010     5.9591     4.1944     4.3948
  508.3000   116.5646     5.8900     4.1424     4.2939
  508.4000   116.8703     5.7682     4.0756     4.2055
  508.5000   117.1098     5.6620     4.0222     4.1476
  508.6000   117.3656     5.5126     3.9756     4.1047
  508.7000   117.6213     5.3794     3.9376     4.0811
  508.8000   117.9657     5.2862     3.9110     4.0577
  508.9000   118.5134     5.1946     3.8643     4.0344
  509.0000   119.3053     5.0883     3.8425     4.0069
  509.1000   120.0363     4.9929     3.8202     4.0071
  509.2000   120.6042     4.8608     3.8109     3.9929
  509.3000   121.2567     4.7100     3.8109     3.9700
  509.4000   121.9235     4.5538     3.8109     3.9523
  509.5000   122.4774     4.4242     3.8111     3.9525
  509.6000   123.2508     4.3348     3.8375     3.9526
  509.7000   123.7512     4.2931     3.8375     3.9528
  509.8000   124.2598     4.3227     3.8515     3.9530
  509.9000   124.6183     4.3989     3.8643     3.9531
  510.0000   124.8741     4.4828     3.8697     3.9588
  510.1000   124.9758     4.5895     3.8923     3.9820
  510.2000   124.4734     4.7464     3.9184     4.0089
  510.3000   123.8767     4.8653     3.9379     4.0487
  510.4000   123.2628     5.0093     3.9763     4.0961
  510.5000   122.5075     5.1853     4.0119     4.1441
  510.6000   121.7523     5.4006     4.0419     4.1926
  510.7000   120.9971     5.6305     4.0893     4.2431
  510.8000   120.2497     6.0166     4.1424     4.3283
  510.9000   119.6651     6.2012     4.2077     4.3720
  511.0000   119.4562     6.4221     4.2645     4.4404
  511.1000   119.2064     6.6322     4.3274     4.5185
  511.2000   118.9567     6.8170     4.4037     4.6053
  511.3000   118.7070     6.9746     4.4813     4.7134
  511.4000   118.4711     7.1131     4.5658     4.8383
  511.5000   119.0790     7.1861     4.6662     4.9129
  511.6000   119.5167     7.2705     4.7765     4.9994
  511.7000   120.0252     7.3351     4.8892     5.1018
  511.8000   120.5337     7.3903     5.0044     5.2129
  511.9000   120.9728     7.4732     5.1273     5.3099
  512.0000   121.2287     7.5218     5.2834     5.4841
  512.1000   121.5139     7.6003     5.4352     5.5989
  512.2000   121.7402     7.6584     5.5706     5.7541
  512.3000   121.9960     7.7033     5.7218     5.9064
  512.4000   122.1269     7.7484     5.8773     6.0452
  512.5000   122.2054     7.7892     6.0087     6.1835
  512.6000   122.4351     7.7893     6.1141     6.3029
  512.7000   122.4383     7.7894     6.1565     6.3363
  512.8000   122.4411     7.7895     6.2153     6.3734
  512.9000   122.6244     7.7896     6.2654     6.4108
  513.0000   122.7492     7.7897     6.3179     6.4483
  513.1000   122.8338     7.7898     6.3830     6.4861
  513.2000   123.0574     7.7899     6.4203     6.5273
  513.3000   123.0606     7.7900     6.4634     6.5275
  513.4000   123.0634     7.7576     6.4634     6.5552
  513.5000   123.0665     7.6894     6.4884     6.5736
  513.6000   123.0695     7.6147     6.5263     6.5863
  513.7000   123.1602     7.5706     6.5539     6.6249
  513.8000   123.3776     7.5237     6.5571     6.6664
  513.9000   123.3808     7.5238     6.5996     6.6667
  514.0000   123.3837     7.5239     6.5996     6.6954
  514.1000   123.3867     7.5005     6.6266     6.7137
  514.2000   123.3897     7.4867     6.6457     6.7140
  514.3000   123.3928     7.5242     6.6579     6.7198
  514.4000   123.4400     7.5243     6.6920     6.7613
  514.5000   123.7010     7.6079     6.6920     6.7616
  514.6000   123.7039     7.6636     6.7284     6.7914
  514.7000   123.7069     7.7084     6.7387     6.8093
  514.8000   123.7100     7.7697     6.7387     6.8096
  514.9000   123.7130     7.8608     6.7526     6.8161
  515.0000   123.6657     7.9566     6.7857     6.8576
  515.1000   123.4169     8.0013     6.7857     6.8579
  515.2000   123.4205     8.0125     6.8241     6.8582
  515.3000   123.4230     8.0126     6.8331     6.8585
  515.4000   123.2709     8.0127     6.8331     6.8588
  515.5000   123.1269     8.0128     6.8331     6.8590
  515.6000   123.0735     8.0129     6.8331     6.8593
  515.7000   122.8238     8.0587     6.8332     6.8596
  515.8000   122.5322     8.0692     6.8807     6.8599
  515.9000   122.3243     8.0693     6.8807     6.8602
  516.0000   122.2356     8.0694     6.8807     6.8605
  516.1000   122.1269     8.0696     6.8636     6.8608
  516.2000   121.9396     8.0697     6.8331     6.8611
  516.3000   121.9295     8.0698     6.8348     6.8613
  516.4000   121.6439     8.0699     6.8807     6.8933
  516.5000   121.6465     8.0700     6.8807     6.9097
  516.6000   121.6495     8.0701     6.8807     6.9100
  516.7000   121.6526     8.0702     6.8807     6.9103
  516.8000   121.7241     8.0703     6.8807     6.9107
  516.9000   121.9607     8.0144     6.8807     6.9591
  517.0000   121.9641     8.0145     6.8807     6.9593
  517.1000   121.9668     8.0146     6.8807     6.9596
  517.2000   121.9698     8.0147     6.8807     6.9599
  517.3000   121.9728     8.0148     6.8807     6.9602
  517.4000   121.9012     8.0149     6.8807     6.9605
  517.5000   121.6764     8.0151     6.8760     6.9608
  517.6000   121.6800     8.0152     6.8331     6.9944
  517.7000   121.4541     8.0153     6.8331     7.0099
  517.8000   121.3837     8.0154     6.8331     7.0102
  517.9000   121.2569     8.0155     6.8331     7.0105
  518.0000   121.0071     8.0156     6.8331     7.0108
  518.1000   120.7574     8.0157     6.8331     7.0111
  518.2000   120.4896     8.0158     6.8331     7.0114
  518.3000   120.2577     8.0160     6.8331     6.9858
  518.4000   120.0080     7.9956     6.8331     6.9634
  518.5000   119.8943     7.9605     6.8331     6.9637
  518.6000   119.9839     7.9606     6.8331     6.9640
  518.7000   120.2397     7.9607     6.8331     6.9643
  518.8000   120.5077     7.9608     6.8331     6.9646
  518.9000   120.7512     7.9609     6.8331     6.9649
  519.0000   121.1984     7.9610     6.8331     6.9651
  519.1000   121.8490     7.9611     6.8085     6.9654
  519.2000   122.5177     7.9613     6.7857     6.9657
  519.3000   123.0263     7.9614     6.7857     6.9661
  519.4000   123.5469     7.9615     6.7857     6.9315
  519.5000   124.0433     7.9616     6.7857     6.9184
  519.6000   124.5519     7.9617     6.7857     6.9187
  519.7000   124.9124     7.9618     6.8118     6.9190
  519.8000   125.1681     7.9619     6.8331     6.9192
  519.9000   125.3746     7.9620     6.8439     6.9196
  520.0000   125.3776     7.9621     6.8807     6.9198
  520.1000   125.0791     7.9623     6.8807     6.8929
  520.2000   124.8781     7.9624     6.8807     6.8725
  520.3000   124.4743     7.9625     6.8807     6.8614
  520.4000   123.9719     7.9626     6.8807     6.8255
  520.5000   123.4693     7.9627     6.8807     6.8258
  520.6000   122.9670     7.9628     6.8807     6.8261
  520.7000   122.3782     7.9629     6.8807     6.7989
  520.8000   121.9616     7.9630     6.8437     6.7794
  520.9000   121.6193     7.9631     6.8331     6.7797
