~VERSION INFORMATION
 VERS.                2.0:   CWLS LOG ASCII STANDARD - VERSION 2.0
 WRAP.                 NO:   ONE LINE PER DEPTH STEP
~WELL INFORMATION
#MNEM.UNIT      DATA TYPE    INFORMATION
#----------   ------------   ------------------------------
 STRT.F           50.0000:   START DEPTH
 STOP.F         1152.0000:   STOP DEPTH
 STEP.F            0.5000:   STEP LENGTH
 NULL.          -999.2500:   NO VALUE
 COMP. FENIX & SCISSON INC:   COMPANY
 WELL.  NPR 3 #65 SX14-14:   WELL
 FLD .             TEAPOT:   FIELD
 LOC .      S14 T38N R78W:   LOCATION
 CNTY.            NATRONA:   COUNTY
 STAT.            WYOMING:   STATE
 CTRY. UNITED STATES OF AMERICA:   COUNTRY
 SRVC.              Welex:   SERVICE COMPANY
 DATE.        13-JAN-1979:   LOGDATE
 API .       490251073800:   API NUMBER
~CURVE INFORMATION
#MNEM.UNIT       API CODE    CURVE DESCRIPTION
#----------   ------------   ------------------------------
 DEPT.F                  :   
 SPR .MV     07 010 01 00:   SPONTANEOUS POTENTIAL
 SGRD.OHMM   07 220 05 00:   SHALLOW GUARD RESISTIVITY
 ILD .OHMM   07 120 46 00:   INDUCTION LOG DEEP
 ILM .OHMM   07 120 44 00:   INDUCTION LOG MEDIUM
 CALD.IN     45 280 60 00:   CALIPER
 GRD .GAPI   45 310 01 00:   GAMMA RAY FROM DENSITY LOG
 RHOB.G/C3   45 350 01 00:   BULK DENSITY
 DPHI.DEC    45 890 12 00:   DENSITY POROSITY SANDSTONE
 CORR.G/C3   45 356 01 00:   DENSITY CORRECTION
~PARAMETER INFORMATION
#MNEM.UNIT          VALUE    DESCRIPTION
#----------   ------------   ------------------------------
 PD  .                 GL:   PERMANENT DATUM
 EPD .F              5312:   ELEVATION PERMANENT DATUM
 LMF .                 KB:   LOG MEASURED FROM
 DAPD.F                 4:   FEET ABOVE PERMANENT DATUM
 DMF .                 KB:   DRILLING MEASURED FROM
 EKB .F              5316:   KELLING BUSHING
 EGL .F              5312:   GROUND LEVEL
 DATE.            1-13-79:   RUN DATE
 RUN .                  1:   RUN NUMBER
 DD  .F              1167:   DEPTH DRILLER
 DL  .F              1154:   DEPTH LOGGER
 BLI .F              1152:   BOTTOM LOG INTERVAL
 TLI .F                50:   TOP LOG INTERVAL
 CS  .IN            8.625:   CASING SIZE
 CBD .F                40:   CASING BOTTOM DRILLER
 CBL .F                60:   CASING BOTTOM LOGGER
 BS  .IN            7.875:   BIT SIZE
 BSD .F              1167:   BIT SIZE AT DEPTH
 DFT .            KCL MUD:   DRILLING FLUID TYPE
 DFD .                8.8:   DRILLING FLUID DENSITY
 DFV .                 42:   DRILLING FLUID VISCOSITY
 DFPH.                8.2:   DRILLING FLUID PH
 DFL .                7.7:   DRILLING FLUID LOSS
 MSS .                PIT:   MUD SAMPLE SOURCE
 RMS .OHMM            .29:   RESISTIVITY MUD SAMPLE
 MST .F                40:   MUD SAMPLE TEMPERATURE
 RMF .OHMM            .19:   RESISTIVITY MUD FILTRATE SAMPLE
 MFST.F                40:   MUD FILTRATE SAMPLE TEMPERATURE
 RMC .OHMM            .87:   RESISTIVITY MUD CAKE
 MCST.F                40:   MUD CAKE SAMPLE TEMPERATURE
 MFSS.           MEASURED:   MUD FILTRATE SAMPLE SOURCE
 MCSS.           MEASURED:   MUD CAKE SAMPLE SOURCE
 RMB .OHMM           .119:   RESISTIVITY MUD AT BHT
 BHT .F                97:   BOTTOM HOLE TEMPERATURE
 TCS .HRS              30:   TIME CURCULATED STOPPED
 MRT .F                97:   MAXIMUM RECORDED TEMPERATURE
 LUN .               8611:   LOGGING UNIT NUMBER
 LUL .             CASPER:   LOGGING UNIT LOCATION
 ENGI.            BENTSEN:   RECORDING ENGINEER
 WITN.              AMEND:   WITNESSED BY
 CLNT.            A2DTECH:   CLIENT CODE
 ORIG.       2", 5" PRINT:   ORIGIN OF DATA
 UWI .       490251073800:   UNIQUE WELL ID
 DICO. A2D Technologies, Inc.:   DIGITIZING COMPANY
~OTHER INFORMATION
~A   DEPT      SPR       SGRD        ILD        ILM       CALD        GRD       RHOB       DPHI       CORR   
# ...
  670.5000   -30.0444     8.0287     6.8924     7.5045     7.6404   121.1749     2.5287     0.0910     0.0631
  671.0000   -29.9506     8.3212     6.9730     7.6734     7.5683   119.0314     2.5367     0.0840     0.0563
  671.5000   -29.8571     8.6244     7.0547     7.8463     7.4961   117.5841     2.5217     0.0887     0.0435
  672.0000   -29.7629     9.0020     7.1372     8.0218     7.5388   119.5127     2.5113     0.0922     0.0310
  672.5000   -29.6021     8.9528     7.2208     8.3224     7.6097   120.0451     2.5263     0.0856     0.0206
  673.0000   -29.2949     8.8373     7.3053     8.6636     7.6842   119.1079     2.5464     0.0759     0.0162
  673.5000   -28.9898     9.9611     7.4172     9.0188     7.7217   118.1858     2.5444     0.0788     0.0117
  674.0000   -28.6848    11.2462     7.3951     9.4271     7.7592   116.5429     2.5385     0.0814     0.0072
  674.5000   -28.3799    11.2441     7.3317     9.4271     7.7955   114.6167     2.5436     0.0790     0.0027
  675.0000   -28.0750     8.9143     7.2682     9.2121     7.8318   115.3230     2.5548     0.0742    -0.0007
  675.5000   -27.7699     9.1596     7.2054     8.9951     7.8684   116.5628     2.5665     0.0693     0.0020
  676.0000   -27.4643     9.5657     7.1431     8.7832     7.9051   117.8297     2.5841     0.0548     0.0126
  676.5000   -27.1515     9.7816     7.0814     8.5763     7.9414   119.6423     2.6099     0.0419     0.0230
  677.0000   -27.1966     9.0428     7.0203     8.3613     7.9363   121.8206     2.6017     0.0470     0.0309
  677.5000   -27.3177     8.2914     6.9596     7.8183     7.9290   119.0266     2.5804     0.0561     0.0237
  678.0000   -27.4401     8.0507     6.8995     7.2783     7.9219   114.2936     2.5642     0.0652     0.0165
  678.5000   -27.5616     8.0316     6.8399     6.8856     7.9148   119.3677     2.5614     0.0694     0.0123
  679.0000   -27.6825     8.0124     6.7622     6.9481     7.9077   118.0589     2.5584     0.0715     0.0092
  679.5000   -27.8041     7.9933     6.7990     7.0069     7.9007   118.0989     2.5554     0.0734     0.0060
  680.0000   -27.9618     7.9842     6.8533     7.0666     7.8936   122.3421     2.5461     0.0779     0.0029
  680.5000   -28.2808     7.9842     6.9080     7.1263     7.8865   121.1815     2.5337     0.0831    -0.0003
  681.0000   -28.5951     8.2424     6.9632     7.1866     7.8795   119.5378     2.5315     0.0867    -0.0035
  681.5000   -28.9095     8.5159     7.0188     7.2455     7.8724   120.7098     2.5345     0.0851    -0.0026
  682.0000   -29.2335     8.7985     7.0748     7.4026     7.8651   121.9310     2.5315     0.0868    -0.0054
  682.5000   -29.2877     8.9763     7.1313     7.6703     7.8688   121.7499     2.5196     0.0930    -0.0110
  683.0000   -29.2718     8.6731     7.1882     7.9511     7.8748   123.3137     2.5265     0.0899    -0.0091
  683.5000   -29.2542     8.4284     7.2456     8.2399     7.8809   124.3115     2.5348     0.0874    -0.0056
  684.0000   -29.2375     8.2845     7.2971     8.3636     7.8870   121.6619     2.5216     0.0932    -0.0068
  684.5000   -29.2208     8.6523     7.3795     8.3644     7.8931   118.8620     2.5071     0.1009    -0.0148
  685.0000   -29.2042     9.0020     7.4628     7.8817     7.8991   117.0945     2.4927     0.1086    -0.0228
  685.5000   -29.1875     8.9904     7.5471     7.4847     7.9014   118.5741     2.4839     0.1170    -0.0298
  686.0000   -29.1709     8.9673     7.6323     7.6798     7.8937   121.4436     2.4928     0.1075    -0.0217
  686.5000   -29.1543     8.9442     7.7186     7.8984     7.8864   124.8832     2.5131     0.0971    -0.0124
  687.0000   -29.1376     8.9211     7.8056     8.1233     7.8791   126.2695     2.5331     0.0866    -0.0033
  687.5000   -29.1209     8.8982     7.8387     8.2084     7.8717   123.5572     2.5491     0.0837     0.0005
  688.0000   -29.1026     8.8752     7.8382     8.0733     7.8644   119.8993     2.5508     0.0846     0.0032
  688.5000   -29.1490     8.8524     7.8038     7.9662     7.8570   119.9394     2.5631     0.0800     0.0137
  689.0000   -29.2149     8.6949     7.6929     7.8604     7.8497   118.8189     2.5794     0.0756     0.0254
  689.5000   -29.2812     8.2845     7.5835     7.7561     7.8424   117.6268     2.5750     0.0751     0.0298
  690.0000   -29.3474     8.5040     7.4758     7.6323     7.8351   119.3152     2.5674     0.0772     0.0281
  690.5000   -29.4136     8.6757     7.3695     7.4805     7.8278   119.7308     2.5627     0.0794     0.0211
  691.0000   -29.4797     8.1751     7.2648     7.3317     7.8330   117.9442     2.5649     0.0785     0.0143
  691.5000   -29.5459     7.9842     7.1814     7.1472     7.8479   119.8307     2.5671     0.0773     0.0177
  692.0000   -29.6120     8.0579     7.1182     7.2098     7.8628   122.2529     2.5691     0.0761     0.0220
  692.5000   -29.6782     8.1384     7.0556     7.2963     7.8777   123.4086     2.5570     0.0798     0.0139
  693.0000   -29.7444     8.2197     6.9935     7.3839     7.8925   120.6326     2.5435     0.0852     0.0041
  693.5000   -29.8105     8.3018     6.9320     7.4725     7.9021   123.6279     2.5365     0.0872     0.0043
  694.0000   -29.8767     8.3613     6.8882     7.5622     7.8960   124.5271     2.5364     0.0886     0.0128
  694.5000   -29.9429     8.2284     6.9215     7.6948     7.8903   119.8808     2.5518     0.0827     0.0214
  695.0000   -30.0089     8.0582     6.9476     7.6618     7.8846   118.2007     2.5799     0.0759     0.0243
  695.5000   -30.0761     8.3965     6.9738     7.6002     7.8788   118.1385     2.5747     0.0751     0.0158
  696.0000   -30.0651     9.0020     7.0001     7.5524     7.8731   118.4495     2.5647     0.0777     0.0068
  696.5000   -30.0111     9.0020     7.0265     7.7881     7.8674   123.1049     2.5546     0.0804    -0.0024
  697.0000   -29.9561     8.5773     7.0530     8.0248     7.8650   124.3203     2.5477     0.0830    -0.0097
  697.5000   -29.9011     8.4388     7.0796     8.2845     7.8713   123.3375     2.5526     0.0831    -0.0098
  698.0000   -29.8462     8.8004     7.1063     8.3262     7.8776   122.3714     2.5584     0.0782    -0.0027
  698.5000   -29.7913     8.9193     7.1331     8.3830     7.8839   122.1504     2.5519     0.0809    -0.0051
  699.0000   -29.7364     8.5170     7.1600     8.4402     7.8901   123.6509     2.5420     0.0844    -0.0076
  699.5000   -29.6815     8.7586     7.1870     8.4978     7.8964   121.5340     2.5367     0.0879    -0.0055
  700.0000   -29.6266     9.0613     7.2141     8.5558     7.9026   122.2392     2.5329     0.0910    -0.0047
  700.5000   -29.5717     8.8672     7.2412     8.6142     7.9089   120.9082     2.5297     0.0891    -0.0037
  701.0000   -29.5168     8.7539     7.2687     8.6730     7.9152   121.4848     2.5340     0.0874    -0.0029
  701.5000   -29.4619     8.9432     7.3363     8.7322     7.9214   124.1779     2.5380     0.0857    -0.0018
  702.0000   -29.4070     9.1080     7.4357     8.7918     7.9277   126.8398     2.5407     0.0879    -0.0064
  702.5000   -29.3521     9.1697     7.5363     8.8518     7.9339   125.8221     2.5254     0.0935    -0.0072
  703.0000   -29.2972     9.0806     7.6382     8.9193     7.9402   124.4811     2.5320     0.0910    -0.0073
  703.5000   -29.2424     9.0010     7.7415     8.8236     7.9386   131.0464     2.5326     0.0893    -0.0036
  704.0000   -29.1876     9.1057     7.8462     8.6839     7.9318   129.8404     2.5286     0.0907    -0.0061
  704.5000   -29.1320     9.3077     7.9523     8.5183     7.9249   128.1078     2.5244     0.0922    -0.0129
  705.0000   -29.0383     9.5145     8.0600     8.6547     7.9180   126.8318     2.5204     0.0934    -0.0196
  705.5000   -28.8848     9.7255     8.1689     8.7580     7.9111   124.1933     2.5219     0.0890    -0.0117
  706.0000   -28.7321     9.9412     8.2159     8.6355     7.9042   123.3272     2.5377     0.0806    -0.0024
  706.5000   -28.5791    10.1494     8.2267     8.5172     7.8973   124.7625     2.5514     0.0746     0.0000
