~VERSION INFORMATION
 VERS.                2.0:   CWLS LOG ASCII STANDARD - VERSION 2.0
 WRAP.                 NO:   ONE LINE PER DEPTH STEP
~WELL INFORMATION
#MNEM.UNIT      DATA TYPE    INFORMATION
#----------   ------------   ------------------------------
 STRT.F          298.0000:   START DEPTH
 STOP.F         1126.0000:   STOP DEPTH
 STEP.F            0.5000:   STEP LENGTH
 NULL.          -999.2500:   NO VALUE
 COMP. BROWN JOHN E&C INC:   COMPANY
 WELL.   52 SHX 15 #52-15:   WELL
 FLD .             TEAPOT:   FIELD
 LOC .      S15 T38N R78W:   LOCATION
 CNTY.            NATRONA:   COUNTY
 STAT.            WYOMING:   STATE
 CTRY. UNITED STATES OF AMERICA:   COUNTRY
 SRVC.              Welex:   SERVICE COMPANY
 DATE.        09-AUG-1979:   LOGDATE
 API .       490251078900:   API NUMBER
~CURVE INFORMATION
#MNEM.UNIT       API CODE    CURVE DESCRIPTION
#----------   ------------   ------------------------------
 DEPT.F                  :   
 CALD.IN     45 280 60 00:   CALIPER
 GRD .GAPI   45 310 01 00:   GAMMA RAY FROM DENSITY LOG
 RHOB.G/C3   45 350 01 00:   BULK DENSITY
 CORR.G/C3   45 356 01 00:   DENSITY CORRECTION
 DPHI.DEC    45 890 12 00:   DENSITY POROSITY SANDSTONE
~PARAMETER INFORMATION
#MNEM.UNIT          VALUE    DESCRIPTION
#----------   ------------   ------------------------------
 PD  .                 GL:   PERMANENT DATUM
 EPD .F              5222:   ELEVATION PERMANENT DATUM
 LMF .                 KB:   LOG MEASURED FROM
 DAPD.F                10:   FEET ABOVE PERMANENT DATUM
 DMF .                 KB:   DRILLING MEASURED FROM
 EKB .F              5232:   KELLING BUSHING
 EGL .F              5222:   GROUND LEVEL
 DATE.             8-9-79:   RUN DATE
 RUN .                  1:   RUN NUMBER
 DD  .F              1130:   DEPTH DRILLER
 DL  .F              1128:   DEPTH LOGGER
 BLI .F              1126:   BOTTOM LOG INTERVAL
 TLI .F               300:   TOP LOG INTERVAL
 CS  .IN            9.625:   CASING SIZE
 CBD .F               676:   CASING BOTTOM DRILLER
 BS  .IN             8.75:   BIT SIZE
 BSD .F              1130:   BIT SIZE AT DEPTH
 DFT .                OIL:   DRILLING FLUID TYPE
 DFD .                9.1:   DRILLING FLUID DENSITY
 TCS .HRS             2.5:   TIME CURCULATED STOPPED
 MRT .F               102:   MAXIMUM RECORDED TEMPERATURE
 ENGI.               REIN:   RECORDING ENGINEER
 WITN.           DINSMORE:   WITNESSED BY
 CLNT.            A2DTECH:   CLIENT CODE
 ORIG.         2.5" PRINT:   ORIGIN OF DATA
 UWI .       490251078900:   UNIQUE WELL ID
 DICO. A2D Technologies, Inc.:   DIGITIZING COMPANY
~OTHER INFORMATION
~A   DEPT     CALD         GRD      RHOB       CORR       DPHI   
# ...
  725.0000     9.2800   100.3666     2.5425     0.0526     0.0008
  725.5000     9.2857   100.3748     2.5438     0.0526    -0.0013
  726.0000     9.2749   100.3641     2.5460     0.0526    -0.0027
  726.5000     9.2609   100.3524     2.5480     0.0526    -0.0038
  727.0000     9.2467    99.9933     2.5504     0.0526    -0.0058
  727.5000     9.2326    99.5706     2.5481     0.0526    -0.0058
  728.0000     9.2186    99.1086     2.5433     0.0526    -0.0008
  728.5000     9.2047    98.7081     2.5389     0.0526     0.0042
  729.0000     9.1901    98.4153     2.5347     0.0526     0.0079
  729.5000     9.1766    99.5823     2.5302     0.0526     0.0105
  730.0000     9.1670   100.5323     2.5273     0.0526     0.0132
  730.5000     9.1896   101.5011     2.5254     0.0526     0.0158
  731.0000     9.2081   100.7404     2.5236     0.0526     0.0173
  731.5000     9.2285   100.3709     2.5217     0.0526     0.0154
  732.0000     9.2483   100.7402     2.5182     0.0526     0.0212
  732.5000     9.2680   101.0846     2.5106     0.0526     0.0266
  733.0000     9.2879   101.0766     2.5031     0.0526     0.0321
  733.5000     9.3076   100.7778     2.4954     0.0526     0.0376
  734.0000     9.3277   100.3975     2.4880     0.0526     0.0430
  734.5000     9.3470    99.8670     2.4816     0.0526     0.0485
  735.0000     9.3664    99.3399     2.4798     0.0526     0.0518
  735.5000     9.3640    99.1418     2.4932     0.0526     0.0443
  736.0000     9.3589    99.5667     2.5046     0.0526     0.0367
  736.5000     9.3534    99.9727     2.5028     0.0526     0.0347
  737.0000     9.3484    99.7825     2.5021     0.0526     0.0356
  737.5000     9.3432    99.2963     2.5050     0.0526     0.0347
  738.0000     9.3377    99.5589     2.5071     0.0526     0.0322
  738.5000     9.3332   100.5548     2.5087     0.0526     0.0297
  739.0000     9.3279   101.4765     2.5148     0.0526     0.0275
  739.5000     9.3542   102.3330     2.5217     0.0526     0.0216
  740.0000     9.3916   102.2946     2.5174     0.0526     0.0202
  740.5000     9.4290   100.9593     2.5122     0.0526     0.0216
  741.0000     9.4658    99.8186     2.5092     0.0526     0.0248
  741.5000     9.5032    98.6053     2.5089     0.0526     0.0281
  742.0000     9.5401    97.4325     2.5030     0.0526     0.0336
  742.5000     9.5770    96.2389     2.4934     0.0526     0.0402
  743.0000     9.6153    95.5498     2.4852     0.0526     0.0468
  743.5000     9.6504    95.1392     2.4787     0.0526     0.0542
  744.0000     9.6861    94.6876     2.4903     0.0526     0.0495
  744.5000     9.6515    94.8812     2.5006     0.0526     0.0361
  745.0000     9.6139    95.1158     2.5115     0.0526     0.0261
  745.5000     9.5734    96.3349     2.5235     0.0526     0.0154
  746.0000     9.5345    97.5563     2.5276     0.0526     0.0154
  746.5000     9.4953    98.8138     2.5231     0.0526     0.0162
  747.0000     9.4557   100.0668     2.5187     0.0526     0.0193
  747.5000     9.4171   101.3117     2.5214     0.0526     0.0194
  748.0000     9.3774   102.4058     2.5203     0.0526     0.0181
  748.5000     9.3708   103.3578     2.5145     0.0526     0.0217
  749.0000     9.3781   103.0829     2.5093     0.0526     0.0270
  749.5000     9.3850   101.8036     2.5057     0.0526     0.0324
  750.0000     9.3914   100.7053     2.5022     0.0526     0.0300
  750.5000     9.3983    99.6586     2.4985     0.0526     0.0341
  751.0000     9.4050   100.4926     2.4937     0.0526     0.0393
  751.5000     9.4117   101.3676     2.4895     0.0526     0.0461
  752.0000     9.4183   101.6931     2.4874     0.0526     0.0420
  752.5000     9.4251   100.6383     2.4978     0.0526     0.0358
  753.0000     9.4317    99.5923     2.5085     0.0526     0.0296
  753.5000     9.4382    98.5213     2.5194     0.0526     0.0234
  754.0000     9.4459    97.9409     2.5259     0.0526     0.0194
  754.5000     9.4401    99.4997     2.5214     0.0526     0.0192
  755.0000     9.4246   101.0311     2.5168     0.0526     0.0190
  755.5000     9.4103   102.5923     2.5188     0.0526     0.0189
  756.0000     9.3961   104.1446     2.5215     0.0526     0.0187
  756.5000     9.3816   105.8182     2.5215     0.0526     0.0192
  757.0000     9.3673   106.0908     2.5194     0.0525     0.0200
  757.5000     9.3530   105.0377     2.5174     0.0523     0.0208
  758.0000     9.3386   104.1358     2.5146     0.0522     0.0216
  758.5000     9.3242   103.2681     2.5184     0.0520     0.0191
  759.0000     9.3099   103.0972     2.5253     0.0519     0.0153
  759.5000     9.2954   102.9664     2.5309     0.0517     0.0113
  760.0000     9.2812   102.8886     2.5303     0.0516     0.0105
  760.5000     9.2670   102.5433     2.5247     0.0514     0.0179
  761.0000     9.2514   102.0330     2.5178     0.0513     0.0241
  761.5000     9.2516   101.6661     2.5107     0.0511     0.0303
  762.0000     9.2659   102.8355     2.5034     0.0510     0.0332
  762.5000     9.2787   103.7740     2.4981     0.0508     0.0361
  763.0000     9.2914   104.7591     2.4945     0.0507     0.0396
  763.5000     9.3045   104.0542     2.4974     0.0505     0.0396
  764.0000     9.3174   103.3227     2.4994     0.0504     0.0396
  764.5000     9.3303   103.0157     2.4935     0.0502     0.0426
  765.0000     9.3433   103.8316     2.4869     0.0501     0.0480
  765.5000     9.3562   104.5866     2.4800     0.0499     0.0534
  766.0000     9.3691   105.2186     2.4733     0.0498     0.0587
  766.5000     9.3823   105.0611     2.4667     0.0496     0.0641
  767.0000     9.3947   104.8905     2.4598     0.0495     0.0694
  767.5000     9.4063   105.2489     2.4531     0.0493     0.0753
  768.0000     9.3973   106.3188     2.4474     0.0492     0.0772
  768.5000     9.3885   107.4159     2.4426     0.0490     0.0810
  769.0000     9.3787   107.2294     2.4502     0.0489     0.0772
  769.5000     9.3694   106.4832     2.4569     0.0487     0.0742
  770.0000     9.3599   106.8391     2.4530     0.0486     0.0769
  770.5000     9.3506   107.4302     2.4555     0.0486     0.0695
  771.0000     9.3412   107.4318     2.4676     0.0486     0.0633
  771.5000     9.3311   106.6231     2.4789     0.0486     0.0571
  772.0000     9.3280   105.8808     2.4905     0.0486     0.0478
  772.5000     9.3331   105.1271     2.5016     0.0486     0.0370
  773.0000     9.3376   104.3788     2.5136     0.0486     0.0261
  773.5000     9.3420   103.6199     2.5182     0.0486     0.0202
  774.0000     9.3465   102.8273     2.5185     0.0486     0.0183
  774.5000     9.3510   102.3773     2.5186     0.0486     0.0169
  775.0000     9.3555   102.9873     2.5245     0.0486     0.0154
  775.5000     9.3600   103.5640     2.5280     0.0486     0.0141
  776.0000     9.3645   104.1637     2.5257     0.0486     0.0121
  776.5000     9.3690   104.7628     2.5263     0.0486     0.0146
  777.0000     9.3735   105.3567     2.5336     0.0486     0.0095
  777.5000     9.3780   105.9586     2.5416     0.0486     0.0037
  778.0000     9.3825   106.5430     2.5411     0.0486     0.0008
  778.5000     9.3870   107.1366     2.5323     0.0486     0.0036
  779.0000     9.3915   107.1028     2.5252     0.0486     0.0118
  779.5000     9.3959   106.8512     2.5180     0.0486     0.0201
  780.0000     9.4004   106.6005     2.5120     0.0486     0.0235
  780.5000     9.4053   106.3872     2.5150     0.0486     0.0207
  781.0000     9.4053   106.1151     2.5220     0.0486     0.0173
  781.5000     9.3999   105.9986     2.5280     0.0486     0.0144
  782.0000     9.3949   105.6406     2.5280     0.0486     0.0130
  782.5000     9.3900   107.4679     2.5202     0.0486     0.0182
  783.0000     9.3849   109.9460     2.5104     0.0486     0.0242
  783.5000     9.3799   111.0533     2.5045     0.0486     0.0302
  784.0000     9.3749   109.7802     2.5025     0.0486     0.0340
  784.5000     9.3699   107.5526     2.5001     0.0486     0.0356
  785.0000     9.3649   105.4995     2.4976     0.0486     0.0371
  785.5000     9.3599   103.4153     2.4952     0.0486     0.0385
