~VERSION INFORMATION
 VERS.                2.0:   CWLS LOG ASCII STANDARD - VERSION 2.0
 WRAP.                 NO:   ONE LINE PER DEPTH STEP
~WELL INFORMATION
#MNEM.UNIT      DATA TYPE    INFORMATION
#----------   ------------   ------------------------------
 STRT.F           10.0000:   START DEPTH
 STOP.F          580.0000:   STOP DEPTH
 STEP.F            0.5000:   STEP LENGTH
 NULL.          -999.2500:   NO VALUE
 COMP. FENIX & SCISSON INC:   COMPANY
 WELL.     NPR 3 #28-S-34:   WELL
 FLD .        TEAPOT DOME:   FIELD
 LOC .      S34 T39N R78W:   LOCATION
 CNTY.            NATRONA:   COUNTY
 STAT.            WYOMING:   STATE
 CTRY. UNITED STATES OF AMERICA:   COUNTRY
 SRVC.           BIRDWELL:   SERVICE COMPANY
 DATE.        05-AUG-1978:   LOGDATE
 API .       490251068200:   API NUMBER
~CURVE INFORMATION
#MNEM.UNIT       API CODE    CURVE DESCRIPTION
#----------   ------------   ------------------------------
 DEPT.F                  :   
 SPR .MV     05 010 01 00:   SPONTANEOUS POTENTIAL FROM RES.
 IL  .OHMM   05 120 00 00:   INDUCTION LOG
 SN  .OHMM   05 040 16 00:   SHORT NORMAL 16"
 GRD .GAPI   45 310 01 00:   GAMMA RAY FROM DENSITY LOG
 CALD.IN     45 280 60 00:   CALIPER
 RHOB.G/C3   45 350 01 00:   BULK DENSITY
 DPHI.DEC    45 890 12 00:   DENSITY POROSITY SANDSTONE
 CORR.G/C3   45 356 01 00:   DENSITY CORRECTION
~PARAMETER INFORMATION
#MNEM.UNIT          VALUE    DESCRIPTION
#----------   ------------   ------------------------------
 PD  .                 GL:   PERMANENT DATUM
 EPD .F              5191:   ELEVATION PERMANENT DATUM
 LMF .                 KB:   LOG MEASURED FROM
 DAPD.F                 4:   FEET ABOVE PERMANENT DATUM
 DMF .                 KB:   DRILLING MEASURED FROM
 EKB .F              5195:   KELLING BUSHING
 EGL .F              5191:   GROUND LEVEL
 DATE.             8-5-78:   RUN DATE
 RUN .                  1:   RUN NUMBER
 DD  .F               570:   DEPTH DRILLER
 DL  .F               586:   DEPTH LOGGER
 BLI .F               580:   BOTTOM LOG INTERVAL
 TLI .F                30:   TOP LOG INTERVAL
 CS  .IN            8.625:   CASING SIZE
 BS  .IN            7.875:   BIT SIZE
 BSD .F               570:   BIT SIZE AT DEPTH
 DFT .                KCL:   DRILLING FLUID TYPE
 DFD .                8.6:   DRILLING FLUID DENSITY
 DFV .                 32:   DRILLING FLUID VISCOSITY
 DFPH.                9.5:   DRILLING FLUID PH
 MSS .          FLOW LINE:   MUD SAMPLE SOURCE
 RMS .OHMM             .9:   RESISTIVITY MUD SAMPLE
 MST .F                74:   MUD SAMPLE TEMPERATURE
 RMF .OHMM            .17:   RESISTIVITY MUD FILTRATE SAMPLE
 MFST.F                79:   MUD FILTRATE SAMPLE TEMPERATURE
 RMC .OHMM            .42:   RESISTIVITY MUD CAKE
 MCST.F                80:   MUD CAKE SAMPLE TEMPERATURE
 MFSS.               MEAS:   MUD FILTRATE SAMPLE SOURCE
 TCS .HRS               3:   TIME CURCULATED STOPPED
 LUN .               3006:   LOGGING UNIT NUMBER
 LUL .               CASP:   LOGGING UNIT LOCATION
 ENGI.             MILLER:   RECORDING ENGINEER
 WITN.           MCGINLEY:   WITNESSED BY
 CLNT.            A2DTECH:   CLIENT CODE
 ORIG.           5" PRINT:   ORIGIN OF DATA
 UWI .       490251068200:   UNIQUE WELL ID
 DICO. A2D Technologies, Inc.:   DIGITIZING COMPANY
~OTHER INFORMATION
~A   DEPT      SPR         IL         SN         GRD      CALD       RHOB       DPHI       CORR   
# ...
  212.5000   -13.4160     6.8540     6.0710    92.2380     7.6850     2.4860     0.1170    -0.0050
  213.0000   -13.3440     6.9190     6.1100    92.5480     7.6610     2.4880     0.1160    -0.0050
  213.5000   -13.2710     6.9770     6.1760    92.8290     7.6380     2.4900     0.1150    -0.0050
  214.0000   -13.1990     7.0350     6.2180    91.9090     7.6150     2.4900     0.1170    -0.0040
  214.5000   -13.1230     7.0940     6.2590    88.0930     7.5920     2.4880     0.1190    -0.0040
  215.0000   -13.1350     7.1520     6.3010    86.5970     7.5650     2.4860     0.1210    -0.0040
  215.5000   -13.1870     7.2100     6.3420    86.3520     7.5950     2.4840     0.1190    -0.0040
  216.0000   -13.2390     7.2690     6.3840    87.4040     7.6270     2.4820     0.1170    -0.0030
  216.5000   -13.2910     7.3100     6.4260    96.6770     7.6580     2.4810     0.1180    -0.0030
  217.0000   -13.3440     7.2980     6.4670   101.3750     7.6850     2.4790     0.1200    -0.0030
  217.5000   -13.3960     7.2860     6.5090   100.9110     7.6760     2.4770     0.1220    -0.0030
  218.0000   -13.4490     7.2730     6.6070    96.8650     7.6670     2.4750     0.1230    -0.0020
  218.5000   -13.5010     7.2610     6.5980    97.4320     7.6570     2.4790     0.1210    -0.0020
  219.0000   -13.5540     7.2480     6.5790    98.3110     7.6480     2.4850     0.1170    -0.0020
  219.5000   -13.6060     7.2360     6.5610    98.0950     7.6390     2.4900     0.1130    -0.0020
  220.0000   -13.6580     7.2230     6.5430    94.5700     7.6300     2.4930     0.1210    -0.0010
  220.5000   -13.6980     7.2100     6.5250    91.3010     7.6210     2.4780     0.1190    -0.0010
  221.0000   -13.6810     7.1980     6.5070    92.1420     7.6040     2.4850     0.1150    -0.0010
  221.5000   -13.6650     7.1850     6.4860    93.5100     7.5870     2.4890     0.1200    -0.0010
  222.0000   -13.6500     7.1730     6.4810    94.5610     7.5700     2.4760     0.1250     0.0000
  222.5000   -13.6340     7.1600     6.4750    94.7280     7.5320     2.4720     0.1160     0.0000
  223.0000   -13.6190     7.1470     6.4690    94.5890     7.4820     2.4920     0.1180     0.0000
  223.5000   -13.6030     7.1350     6.4630    94.4620     7.4310     2.4880     0.1210     0.0010
  224.0000   -13.5870     7.1220     6.4570    94.3620     7.3800     2.4820     0.1240     0.0010
  224.5000   -13.5720     7.1110     6.4510    95.4070     7.3420     2.4760     0.1240     0.0010
  225.0000   -13.5560     7.1930     6.4450    96.6180     7.3070     2.4700     0.1240     0.0000
  225.5000   -13.5410     7.3110     6.4400    96.6830     7.3130     2.4670     0.1230    -0.0010
  226.0000   -13.5250     7.4290     6.4340    94.3050     7.3230     2.4700     0.1220    -0.0020
  226.5000   -13.5090     7.5470     6.4270    91.7060     7.3340     2.4770     0.1220    -0.0030
  227.0000   -13.4940     7.6650     6.5110    89.0990     7.3460     2.4820     0.1220    -0.0010
  227.5000   -13.4780     7.7830     6.5940    86.4940     7.3870     2.4740     0.1200     0.0020
  228.0000   -13.4630     7.9010     6.6770    86.4100     7.4320     2.4820     0.1180     0.0050
  228.5000   -13.4470     8.0190     6.7600    91.1770     7.4760     2.4910     0.1160     0.0080
  229.0000   -13.4320     8.1370     6.8430    90.4230     7.5210     2.4860     0.1140     0.0090
  229.5000   -13.4160     8.3140     6.9260    89.3000     7.5660     2.4910     0.1120     0.0070
  230.0000   -13.4000     8.3050     7.0080    89.1570     7.6110     2.5000     0.1140     0.0050
  230.5000   -13.3850     8.2880     7.0910    90.8110     7.6550     2.4990     0.1160     0.0020
  231.0000   -13.3690     8.2700     7.1740    89.5320     7.7000     2.4920     0.1190     0.0000
  231.5000   -13.3540     8.2530     7.2570    87.7810     7.7430     2.4840     0.1180    -0.0020
  232.0000   -13.3380     8.2380     7.3400    89.3730     7.7450     2.4810     0.1150    -0.0050
  232.5000   -13.3230     8.5290     7.4230    89.9590     7.7450     2.4980     0.1100    -0.0030
  233.0000   -13.3070     8.7940     7.5060    89.3190     7.7440     2.5000     0.1130     0.0030
  233.5000   -13.3150     9.0580     7.5880    88.3200     7.7450     2.4890     0.1160     0.0040
  234.0000   -13.3390     9.4550     7.6710    86.7760     7.7450     2.4890     0.1100     0.0030
  234.5000   -13.3640     9.4390     7.7540    84.5060     7.7440     2.4960     0.1090     0.0050
  235.0000   -13.3890     9.4060     7.8740    82.3820     7.7440     2.5030     0.1080     0.0130
  235.5000   -13.4140     9.3730     7.8940    83.9970     7.7440     2.5080     0.1090     0.0220
  236.0000   -13.4390     9.3400     7.9140    86.0680     7.7350     2.5020     0.1130     0.0190
  236.5000   -13.4640     9.3070     7.9400    86.5050     7.7140     2.4930     0.1190     0.0140
  237.0000   -13.4890     9.2740     7.9150    86.4990     7.6930     2.4840     0.1220     0.0100
  237.5000   -13.5000     9.2410     7.8780    84.4280     7.6730     2.4760     0.1220     0.0050
  238.0000   -13.5000     9.2080     7.8100    81.7250     7.6520     2.4770     0.1230     0.0000
  238.5000   -13.5000     9.1600     7.7280    79.0250     7.6320     2.4810     0.1240     0.0000
  239.0000   -13.5000     9.1050     7.6450    76.8110     7.6110     2.4760     0.1240     0.0010
  239.5000   -13.5000     9.0490     7.5630    76.3920     7.5900     2.4710     0.1260     0.0030
  240.0000   -13.5000     8.9940     7.4810    77.8070     7.6000     2.4660     0.1310    -0.0020
  240.5000   -13.5000     8.9390     7.3990    80.4680     7.6270     2.4610     0.1350    -0.0080
  241.0000   -13.5000     8.8840     7.3160    83.0360     7.6540     2.4560     0.1340    -0.0110
  241.5000   -13.5000     8.8290     7.2340    83.6160     7.6810     2.4500     0.1300    -0.0080
  242.0000   -13.5000     8.7740     7.1770    80.0850     7.7030     2.4540     0.1310    -0.0050
  242.5000   -13.5000     8.7190     7.1830    78.2290     7.6920     2.4590     0.1300    -0.0020
  243.0000   -13.5000     8.6640     7.1890    79.4870     7.6800     2.4640     0.1280     0.0010
  243.5000   -13.5000     8.5460     7.1940    80.8020     7.6690     2.4690     0.1250     0.0020
  244.0000   -13.5000     8.6100     7.1990    82.1130     7.6640     2.4720     0.1260    -0.0050
  244.5000   -13.5070     8.7370     7.2050    82.5000     7.6620     2.4670     0.1290    -0.0130
  245.0000   -13.8270     8.8650     7.2100    80.2350     7.6600     2.4650     0.1290    -0.0120
  245.5000   -14.1810     9.0310     7.2150    77.7020     7.6570     2.4660     0.1290    -0.0110
  246.0000   -14.5350     8.9310     7.2200    76.4340     7.6550     2.4660     0.1300    -0.0090
  246.5000   -14.8880     8.7880     7.2260    76.4090     7.6530     2.4610     0.1320    -0.0080
  247.0000   -15.2430     8.6450     7.2310    79.0850     7.6500     2.4560     0.1340    -0.0060
  247.5000   -15.6070     8.5020     7.2360    81.7830     7.6480     2.4560     0.1340    -0.0050
  248.0000   -15.6900     8.3590     7.2450    84.5930     7.6460     2.4570     0.1330    -0.0060
  248.5000   -15.6830     8.2160     7.1820    85.3040     7.6410     2.4550     0.1350    -0.0070
  249.0000   -15.6740     8.0510     7.0610    81.6400     7.6330     2.4530     0.1360    -0.0080
  249.5000   -15.6640     7.9840     6.9390    78.7270     7.6250     2.4520     0.1370    -0.0080
  250.0000   -15.6540     7.9410     6.8540    78.2320     7.6170     2.4500     0.1350    -0.0020
  250.5000   -15.6440     7.8990     6.9080    77.8170     7.6090     2.4540     0.1320     0.0030
  251.0000   -15.6330     7.8560     6.9680    77.7440     7.6140     2.4580     0.1290     0.0090
  251.5000   -15.6230     7.8140     7.0280    77.6060     7.6440     2.4620     0.1290     0.0080
  252.0000   -15.6130     7.7710     7.0460    78.1210     7.6400     2.4600     0.1330     0.0050
  252.5000   -15.6030     7.7240     6.9850    82.4090     7.6210     2.4540     0.1380     0.0010
