~VERSION INFORMATION
 VERS.                2.0:   CWLS LOG ASCII STANDARD - VERSION 2.0
 WRAP.                 NO:   ONE LINE PER DEPTH STEP
~WELL INFORMATION
#MNEM.UNIT      DATA TYPE    INFORMATION
#----------   ------------   ------------------------------
 STRT.F          371.0000:   START DEPTH
 STOP.F         1998.0000:   STOP DEPTH
 STEP.F            0.5000:   STEP LENGTH
 NULL.          -999.2500:   NO VALUE
 COMP.       ANADARKO PET:   COMPANY
 WELL. StX-21 NPR #3 #17-21:   WELL
 FLD .             TEAPOT:   FIELD
 LOC .      S21 T39N R78W:   LOCATION
 CNTY.            NATRONA:   COUNTY
 STAT.            WYOMING:   STATE
 CTRY. UNITED STATES OF AMERICA:   COUNTRY
 SRVC.            Unknown:   SERVICE COMPANY
 DATE.        11-OCT-1994:   LOGDATE
 API .       490252266400:   API NUMBER
~CURVE INFORMATION
#MNEM.UNIT       API CODE    CURVE DESCRIPTION
#----------   ------------   ------------------------------
 DEPT.F                  :   
 ROP .MIN/FT 91 810 01 00:   RATE OF DRILLING PENETRATION
 TGAS.UNITS  91 830 01 00:   TOTAL GAS FROM HOTWIRE
~PARAMETER INFORMATION
#MNEM.UNIT          VALUE    DESCRIPTION
#----------   ------------   ------------------------------
 DATE.         10-11-1994:   RUN DATE
 RUN .                  1:   RUN NUMBER
 DD  .F              1997:   DEPTH DRILLER
 BLI .F              2000:   BOTTOM LOG INTERVAL
 TLI .F               360:   TOP LOG INTERVAL
 CS  .IN                7:   CASING SIZE
 CBD .F               344:   CASING BOTTOM DRILLER
 ENGI.   C. TOWER R. HUSK:   RECORDING ENGINEER
 CLNT.            A2DTECH:   CLIENT CODE
 ORIG.         2.5" PRINT:   ORIGIN OF DATA
 UWI .       490252266400:   UNIQUE WELL ID
 DICO. A2D Technologies, Inc.:   DIGITIZING COMPANY
~OTHER INFORMATION
~A   DEPT        ROP       TGAS 
# ...
  857.0000     0.5252     0.0000
  857.5000     0.5253     0.0000
  858.0000     0.5254     0.0000
  858.5000     0.5255     0.0000
  859.0000     0.5256     0.0000
  859.5000     0.5257     0.0000
  860.0000     0.5258     0.0000
  860.5000     0.5442     0.0000
  861.0000     0.5443     0.0000
  861.5000     0.5444     0.0000
  862.0000     0.5629     0.0000
  862.5000     0.5813     0.0000
  863.0000     0.5814     0.0000
  863.5000     0.5815     0.0000
  864.0000     0.5816     0.0000
  864.5000     0.5817     0.0000
  865.0000     0.5818     0.0000
  865.5000     0.5819     0.0000
  866.0000     0.5820     0.0000
  866.5000     0.5763     0.0000
  867.0000     0.5638     0.0000
  867.5000     0.5639     0.0000
  868.0000     0.5456     0.0000
  868.5000     0.5457     0.0000
  869.0000     0.5458     0.0000
  869.5000     0.5275     0.0000
  870.0000     0.5276     0.0000
  870.5000     0.5277     0.0000
  871.0000     0.5278     0.0000
  871.5000     0.5095     0.0000
  872.0000     0.5096     0.0000
  872.5000     0.5097     0.0000
  873.0000     0.5097     0.0000
  873.5000     0.5098     0.0000
  874.0000     0.5099     0.0000
  874.5000     0.5100     0.0000
  875.0000     0.5101     0.0000
  875.5000     0.5062     0.0000
  876.0000     0.4919     0.0000
  876.5000     0.5104     0.0000
  877.0000     0.5105     0.0000
  877.5000     0.5106     0.0000
  878.0000     0.5107     0.0000
  878.5000     0.5108     0.0000
  879.0000     0.5004     0.0000
  879.5000     0.4926     0.0000
  880.0000     0.4927     0.0000
  880.5000     0.4928     0.0000
  881.0000     0.4928     0.0000
  881.5000     0.4929     0.0000
  882.0000     0.4930     0.0000
  882.5000     0.4931     0.0000
  883.0000     0.4932     0.0000
  883.5000     0.4933     0.0000
  884.0000     0.4934     0.0000
  884.5000     0.4956     0.0000
  885.0000     0.5119     0.0000
  885.5000     0.5120     0.0000
  886.0000     0.5121     0.0000
  886.5000     0.5064     0.0000
  887.0000     0.4939     0.0000
  887.5000     0.4940     0.0000
  888.0000     0.4941     0.0000
  888.5000     0.4942     0.0000
  889.0000     0.4943     0.0000
  889.5000     0.4944     0.0000
  890.0000     0.4945     0.0000
  890.5000     0.4946     0.0000
  891.0000     0.4947     0.0000
  891.5000     0.4948     0.0000
  892.0000     0.4949     0.0000
  892.5000     0.4949     0.0000
  893.0000     0.4951     0.0000
  893.5000     0.4951     0.0000
  894.0000     0.4952     0.0000
  894.5000     0.4953     0.0000
  895.0000     0.4954     0.0000
  895.5000     0.4771     0.0000
  896.0000     0.4772     0.0000
  896.5000     0.4773     0.0000
  897.0000     0.4774     0.0000
  897.5000     0.4775     0.0000
  898.0000     0.4776     0.0000
  898.5000     0.4777     0.0000
  899.0000     0.4882     0.0000
  899.5000     0.4962     0.0000
  900.0000     0.4963     0.0000
  900.5000     0.4785     0.0000
  901.0000     0.4789     0.0000
  901.5000     0.4793     0.0000
  902.0000     0.4798     0.0000
  902.5000     0.4802     0.0000
  903.0000     0.4807     0.0000
  903.5000     0.4812     0.0000
  904.0000     0.4777     0.0000
  904.5000     0.4636     0.0000
  905.0000     0.4642     0.0000
  905.5000     0.4646     0.0000
  906.0000     0.4561     0.0000
  906.5000     0.4002     0.0000
  907.0000     0.3925     0.0000
  907.5000     0.3930     0.0000
  908.0000     0.3934     0.0000
  908.5000     0.3939     0.0000
  909.0000     0.3943     0.0000
  909.5000     0.3764     0.0000
  910.0000     0.3768     0.0000
  910.5000     0.3773     0.0000
  911.0000     0.3778     0.0000
  911.5000     0.3782     0.0000
  912.0000     0.3787     0.0000
  912.5000     0.3791     0.0000
  913.0000     0.3796     0.0000
  913.5000     0.3801     0.0000
  914.0000     0.3805     0.0000
  914.5000     0.3811     0.0000
  915.0000     0.3815     0.0000
  915.5000     0.3819     0.0000
  916.0000     0.3824     0.0000
  916.5000     0.3828     0.0000
  917.0000     0.3833     0.0000
  917.5000     0.3837     0.0000
  918.0000     0.3842     0.0000
  918.5000     0.3847     0.0000
  919.0000     0.3900     0.0000
  919.5000     0.4040     0.0000
  920.0000     0.4044     0.0000
  920.5000     0.4049     0.0000
  921.0000     0.4053     0.0000
  921.5000     0.4059     0.0000
  922.0000     0.4063     0.0000
  922.5000     0.4068     0.0000
  923.0000     0.4072     0.0000
  923.5000     0.4077     0.0000
  924.0000     0.4081     0.0000
  924.5000     0.4085     0.0000
  925.0000     0.4090     0.0000
  925.5000     0.4095     0.0000
  926.0000     0.4099     0.0000
  926.5000     0.4104     0.0000
  927.0000     0.4108     0.0000
  927.5000     0.4113     0.0000
  928.0000     0.4208     0.0000
  928.5000     0.4306     0.0000
  929.0000     0.4311     0.0000
  929.5000     0.4316     0.0000
  930.0000     0.4320     0.0000
  930.5000     0.4509     0.0000
  931.0000     0.4513     0.0000
  931.5000     0.4701     0.0000
  932.0000     0.4706     0.0000
  932.5000     0.4710     0.0000
  933.0000     0.4748     0.0000
  933.5000     0.4903     0.0000
  934.0000     0.4908     0.0000
  934.5000     0.4913     0.0000
  935.0000     0.4917     0.0000
  935.5000     0.4922     0.0000
  936.0000     0.4927     0.0000
  936.5000     0.4932     0.0000
  937.0000     0.4936     0.0000
  937.5000     0.4941     0.0000
  938.0000     0.4945     0.0000
  938.5000     0.4950     0.0000
  939.0000     0.4955     0.0000
  939.5000     0.4959     0.0000
  940.0000     0.4963     0.0000
  940.5000     0.4968     0.0000
  941.0000     0.4972     0.0000
  941.5000     0.4977     0.0000
  942.0000     0.4982     0.0000
  942.5000     0.4986     0.0000
  943.0000     0.4991     0.0000
  943.5000     0.4996     0.0000
  944.0000     0.5001     0.0000
  944.5000     0.5005     0.0000
  945.0000     0.5010     0.0000
  945.5000     0.5014     0.0000
  946.0000     0.5018     0.0000
  946.5000     0.5023     0.0000
  947.0000     0.5028     0.0000
  947.5000     0.5032     0.0000
  948.0000     0.4995     0.0000
  948.5000     0.4857     0.0000
  949.0000     0.4862     0.0000
  949.5000     0.4867     0.0000
  950.0000     0.4871     0.0000
  950.5000     0.4876     0.0000
  951.0000     0.4881     0.0000
  951.5000     0.4886     0.0000
  952.0000     0.4890     0.0000
  952.5000     0.4895     0.0000
  953.0000     0.4899     0.0000
  953.5000     0.4904     0.0000
  954.0000     0.4908     0.0000
  954.5000     0.4729     0.0000
  955.0000     0.4733     0.0000
  955.5000     0.4738     0.0000
  956.0000     0.4684     0.0000
  956.5000     0.4563     0.0000
  957.0000     0.4568     0.0000
  957.5000     0.4389     0.0000
  958.0000     0.4394     0.0000
  958.5000     0.4399     0.0000
  959.0000     0.4403     0.0000
  959.5000     0.4408     0.0000
  960.0000     0.4412     0.0000
  960.5000     0.4417     0.0000
  961.0000     0.4421     0.0000
  961.5000     0.4426     0.0000
  962.0000     0.4430     0.0000
  962.5000     0.4435     0.0000
  963.0000     0.4439     0.0000
  963.5000     0.4444     0.0000
  964.0000     0.4449     0.0000
  964.5000     0.4453     0.0000
  965.0000     0.4458     0.0000
  965.5000     0.4463     0.0000
  966.0000     0.4467     0.2108
  966.5000     0.4472     1.4876
  967.0000     0.4476     1.8595
  967.5000     0.4665     2.6033
  968.0000     0.4669     2.9752
  968.5000     0.4674     3.3471
  969.0000     0.4678     4.0971
  969.5000     0.4683     4.4628
  970.0000     0.4687     4.4628
  970.5000     0.4692     4.4628
  971.0000     0.4697     4.4628
  971.5000     0.4701     4.4628
  972.0000     0.4706     4.4628
  972.5000     0.4710     4.4628
  973.0000     0.4900     4.4628
  973.5000     0.4904     4.4628
  974.0000     0.4909     4.4628
  974.5000     0.4913     4.4628
  975.0000     0.4917     4.4628
  975.5000     0.4922     4.4628
  976.0000     0.4926     4.0661
  976.5000     0.4931     3.2944
  977.0000     0.4971     2.8947
  977.5000     0.5124     2.2314
  978.0000     0.5129     2.2314
