~VERSION INFORMATION
 VERS.                2.0:   CWLS LOG ASCII STANDARD - VERSION 2.0
 WRAP.                 NO:   ONE LINE PER DEPTH STEP
~WELL INFORMATION
#MNEM.UNIT      DATA TYPE    INFORMATION
#----------   ------------   ------------------------------
 STRT.F            0.0000:   START DEPTH
 STOP.F          533.0000:   STOP DEPTH
 STEP.F            0.1000:   STEP LENGTH
 NULL.          -999.2500:   NO VALUE
 COMP.   FLUOR DANIEL INC:   COMPANY
 WELL.   84-4 X 10 #81-10:   WELL
 FLD .             TEAPOT:   FIELD
 LOC .      S10 T38N R78W:   LOCATION
 CNTY.            NATRONA:   COUNTY
 STAT.            WYOMING:   STATE
 CTRY. UNITED STATES OF AMERICA:   COUNTRY
 SRVC.     Atlas Wireline:   SERVICE COMPANY
 DATE.        25-SEP-1994:   LOGDATE
 API .       490252264000:   API NUMBER
~CURVE INFORMATION
#MNEM.UNIT       API CODE    CURVE DESCRIPTION
#----------   ------------   ------------------------------
 DEPT.F                  :   
 GRR .GAPI   07 310 01 00:   GAMMA RAY
 RILD.OHMM   07 120 46 00:   INDUCTION LOG DEEP RESISTIVITY
 RILM.OHMM   07 120 44 00:   INDUCTION LOG MEDIUM RESISTIVITY
~PARAMETER INFORMATION
#MNEM.UNIT          VALUE    DESCRIPTION
#----------   ------------   ------------------------------
 PD  .                 GL:   PERMANENT DATUM
 EPD .F              5150:   ELEVATION PERMANENT DATUM
 LMF .                 KB:   LOG MEASURED FROM
 DAPD.F                10:   FEET ABOVE PERMANENT DATUM
 DMF .                 KB:   DRILLING MEASURED FROM
 EKB .F              5160:   KELLING BUSHING
 EDF .F              5159:   DRILLING FLOOR
 EGL .F              5150:   GROUND LEVEL
 DATE.        25-SEP-1994:   RUN DATE
 RUN .                  1:   RUN NUMBER
 DD  .F               545:   DEPTH DRILLER
 DL  .F               541:   DEPTH LOGGER
 BLI .F               533:   BOTTOM LOG INTERVAL
 CS  .IN            9.625:   CASING SIZE
 CBD .F                76:   CASING BOTTOM DRILLER
 CBL .F                76:   CASING BOTTOM LOGGER
 BS  .IN             8.75:   BIT SIZE
 BSD .F               545:   BIT SIZE AT DEPTH
 DFT .                AIR:   DRILLING FLUID TYPE
 MRT .F                85:   MAXIMUM RECORDED TEMPERATURE
 LUN .            HL 6401:   LOGGING UNIT NUMBER
 LUL .         FT. MORGAN:   LOGGING UNIT LOCATION
 ENGI.    DAVE FREDERICKS:   RECORDING ENGINEER
 WITN.        GARY STRONG:   WITNESSED BY
 CLNT.            A2DTECH:   CLIENT CODE
 ORIG.           5' PRINT:   ORIGIN OF DATA
 UWI .       490252264000:   UNIQUE WELL ID
 DICO. A2D Technologies, Inc.:   DIGITIZING COMPANY
~OTHER INFORMATION
~A    DEPT      GRR      RILD       RILM   
# ...
  400.4000   113.8014    13.0859    13.0686
  400.5000   113.4380    12.9970    13.0688
  400.6000   112.6961    12.9361    13.0690
  400.7000   112.4040    12.8618    13.0692
  400.8000   112.1950    12.7880    13.0694
  400.9000   111.9444    12.7313    13.0696
  401.0000   111.6938    12.7297    13.0697
  401.1000   111.4433    12.6446    13.0699
  401.2000   111.2071    12.6452    13.0701
  401.3000   111.2100    12.5990    13.0026
  401.4000   111.2121    12.5266    12.9803
  401.5000   111.0453    12.4725    12.9805
  401.6000   111.0348    12.4732    12.9530
  401.7000   111.2193    12.4740    12.8769
  401.8000   111.2217    12.4746    12.8026
  401.9000   111.2244    12.4277    12.8028
  402.0000   111.4521    12.3895    12.7394
  402.1000   111.5311    12.3902    12.7149
  402.2000   111.6608    12.3909    12.7150
  402.3000   111.9162    12.3917    12.7152
  402.4000   112.2337    12.3923    12.7154
  402.5000   112.8197    12.4420    12.7156
  402.6000   113.0788    12.4802    12.7158
  402.7000   113.3378    12.4809    12.7159
  402.8000   113.6292    12.4881    12.7639
  402.9000   113.8558    12.5695    12.8396
  403.0000   113.9335    12.6356    12.9157
  403.1000   114.0717    12.6585    12.9923
  403.2000   114.2381    12.7622    13.0737
  403.3000   114.1909    12.8359    13.1469
  403.4000   113.9343    12.9735    13.2249
  403.5000   113.6377    13.0795    13.3507
  403.6000   113.2036    13.1929    13.4752
  403.7000   112.6892    13.3277    13.5755
  403.8000   112.1748    13.4070    13.7367
  403.9000   111.6604    13.4918    13.9152
  404.0000   111.1863    13.6427    14.0653
  404.1000   110.9257    13.8054    14.2948
  404.2000   110.6250    13.9208    14.5017
  404.3000   110.4165    14.0388    14.6741
  404.4000   110.1599    14.1849    14.8869
  404.5000   110.0242    14.2760    15.2340
  404.6000   109.9488    14.4621    15.4387
  404.7000   109.7243    14.6184    15.7604
  404.8000   109.7257    14.7927    16.0703
  404.9000   109.7269    14.9690    16.4089
  405.0000   109.7281    15.1828    16.8008
  405.1000   109.7293    15.4545    17.2019
  405.2000   109.7305    15.7310    17.6128
  405.3000   109.7317    16.0483    18.2297
  405.4000   109.7088    16.3852    18.6860
  405.5000   109.4321    16.7780    19.3226
  405.6000   109.4332    17.2901    19.9604
  405.7000   109.2411    17.8751    20.5970
  405.8000   108.8354    18.4107    21.3379
  405.9000   108.4258    18.9602    22.1290
  406.0000   108.0483    19.4860    22.7733
  406.1000   107.2761    19.9808    23.5684
  406.2000   106.4195    20.4985    24.3273
  406.3000   105.2725    20.9894    24.9879
  406.4000   103.7994    21.4493    25.5845
  406.5000   102.1128    21.8537    26.1950
  406.6000   100.2127    22.3843    26.8628
  406.7000    98.2562    23.1737    27.4628
  406.8000    96.6945    23.7404    28.1197
  406.9000    94.3434    24.4535    28.6912
  407.0000    92.7936    25.2589    29.2764
  407.1000    89.2177    26.1229    29.9753
  407.2000    86.0326    26.9055    30.6775
  407.3000    84.4145    27.7499    31.2830
  407.4000    83.6423    28.5459    31.7848
  407.5000    82.8701    29.5418    32.4929
  407.6000    81.6630    30.4976    33.1602
  407.7000    80.8101    31.4960    33.6766
  407.8000    80.1184    32.5793    34.0766
  407.9000    79.6040    33.5551    34.4879
  408.0000    79.2508    34.6408    35.1917
  408.1000    79.2157    35.4071    35.7330
  408.2000    78.9511    36.2559    36.0769
  408.3000    78.9523    37.1244    36.4017
  408.4000    79.1589    37.9205    36.7596
  408.5000    79.4179    38.5993    37.0146
  408.6000    79.5601    39.2898    37.4561
  408.7000    79.6338    40.0710    37.4567
  408.8000    79.8928    40.7113    37.4572
  408.9000    80.1681    41.2643    37.6018
  409.0000    80.4109    41.7561    37.7183
  409.1000    80.8673    42.2535    37.7188
  409.2000    81.3841    42.7568    37.7193
  409.3000    81.6834    43.2497    37.7199
  409.4000    81.7490    43.2511    37.7204
  409.5000    82.0282    43.4725    37.8964
  409.6000    82.5935    43.7315    37.9834
  409.7000    82.5946    43.9919    38.0829
  409.8000    82.7851    44.1638    38.2482
  409.9000    82.8991    44.1650    38.2487
  410.0000    82.7996    44.1662    38.2493
  410.1000    82.5994    43.8628    38.4585
  410.2000    82.6006    43.8638    38.5159
  410.3000    82.6020    43.6955    38.5164
  410.4000    82.6030    43.4393    38.5170
  410.5000    82.4230    43.2641    38.5175
  410.6000    82.3033    43.2295    38.5180
  410.7000    82.2119    42.9680    38.5186
  410.8000    82.0034    42.7240    38.5191
  410.9000    82.0008    42.4735    38.5196
  411.0000    81.7041    42.3804    38.6432
  411.1000    81.7051    42.3816    38.7882
  411.2000    81.7063    42.3126    38.7887
  411.3000    81.7076    42.0913    38.7893
  411.4000    81.7088    42.0927    38.7899
  411.5000    81.7100    42.0938    38.9852
  411.6000    81.7112    42.0950    39.0602
  411.7000    82.0147    42.0961    39.0608
  411.8000    82.2252    42.0973    39.0613
  411.9000    82.4842    42.0984    39.0618
  412.0000    82.8641    42.0996    39.0624
  412.1000    83.3043    42.1009    39.0630
  412.2000    83.5956    42.1019    38.8770
  412.3000    84.1366    41.9210    38.7946
  412.4000    84.3835    41.8137    38.6888
  412.5000    84.6425    41.7187    38.5282
  412.6000    85.0586    41.4740    38.5014
  412.7000    85.5754    41.2306    38.2636
  412.8000    86.0922    40.9587    37.8391
  412.9000    86.5849    40.9597    37.5667
  413.0000    86.8641    40.7912    37.4789
  413.1000    87.1029    40.5520    37.3849
  413.2000    87.1686    40.3141    37.0544
  413.3000    87.3188    40.0776    36.4394
  413.4000    87.4731    39.8461    36.2064
  413.5000    87.4743    39.8474    35.6291
  413.6000    87.4916    39.6504    34.7044
  413.7000    87.7790    39.4179    33.6963
  413.8000    87.7801    39.0718    32.8658
  413.9000    87.7813    38.6880    32.2891
  414.0000    87.7825    38.4259    31.7222
  414.1000    87.7837    37.9680    31.0965
  414.2000    87.7849    37.7072    30.7783
  414.3000    87.7861    37.3485    30.5434
  414.4000    87.7875    36.9108    30.2702
  414.5000    87.5670    36.4781    30.0406
  414.6000    87.3104    36.0504    30.0088
  414.7000    87.0538    35.6535    29.8326
  414.8000    86.7972    35.4346    29.6290
  414.9000    86.5847    35.2366    29.4835
  415.0000    86.5861    34.8693    29.4255
  415.1000    86.5875    34.5843    29.3408
  415.2000    86.8020    34.2933    29.2234
  415.3000    87.2302    33.8911    29.2238
  415.4000    87.8719    33.4935    29.2242
  415.5000    88.6465    33.0702    29.2247
  415.6000    89.4574    32.8915    29.2250
  415.7000    90.5221    32.5546    29.2254
  415.8000    92.0218    32.1731    29.2258
  415.9000    93.1589    31.8718    29.2262
  416.0000    94.1913    31.6413    29.2266
  416.1000    94.9901    31.2815    29.2270
  416.2000    95.4344    31.0781    29.2274
  416.3000    95.6935    30.7539    29.2278
  416.4000    95.9687    30.5225    29.2282
  416.5000    95.9698    30.3435    29.3010
  416.6000    95.9710    30.2323    29.4748
  416.7000    95.6661    30.1969    29.6495
  416.8000    95.1517    30.0253    29.8430
  416.9000    94.5728    30.0262    30.0024
  417.0000    93.8006    29.8750    30.0510
  417.1000    92.9560    29.8206    30.1501
  417.2000    92.7235    29.8214    30.3289
  417.3000    92.4669    29.8222    30.5088
  417.4000    92.5003    29.8534    30.6896
  417.5000    92.8600    30.0311    30.8966
  417.6000    93.3204    30.0321    31.0549
  417.7000    93.5795    30.1803    31.2391
  417.8000    93.8708    30.2423    31.4245
  417.9000    94.0975    30.3300    31.6109
  418.0000    94.1752    30.5106    31.7983
  418.1000    94.1764    30.6922    31.9870
  418.2000    94.0850    30.8806    32.2096
  418.3000    93.8765    30.8814    32.3676
  418.4000    93.8699    31.0282    32.4341
  418.5000    93.2751    31.0978    32.5269
