~VERSION INFORMATION
 VERS.                2.0:   CWLS LOG ASCII STANDARD - VERSION 2.0
 WRAP.                 NO:   ONE LINE PER DEPTH STEP
~WELL INFORMATION
#MNEM.UNIT      DATA TYPE    INFORMATION
#----------   ------------   ------------------------------
 STRT.F            5.0000:   START DEPTH
 STOP.F          640.0000:   STOP DEPTH
 STEP.F            0.5000:   STEP LENGTH
 NULL.          -999.2500:   NO VALUE
 COMP. BROWN JOHN E&C INC:   COMPANY
 WELL.     85-1 X 3 #85-3:   WELL
 FLD .             TEAPOT:   FIELD
 LOC .       S3 T38N R78W:   LOCATION
 CNTY.            NATRONA:   COUNTY
 STAT.            WYOMING:   STATE
 CTRY. UNITED STATES OF AMERICA:   COUNTRY
 SRVC.     Atlas Wireline:   SERVICE COMPANY
 DATE.        30-DEC-1991:   LOGDATE
 API .       490252249400:   API NUMBER
~CURVE INFORMATION
#MNEM.UNIT       API CODE    CURVE DESCRIPTION
#----------   ------------   ------------------------------
 DEPT.F                  :   
 GRR .GAPI   06 310 01 00:   GAMMA RAY FROM RESISTIVITY
 RFOC.OHMM   06 220 04 00:   RESISTIVITY FOCUSED LOG RES.
 RILD.OHMM   06 120 46 00:   DEEP INDUCTION RESISTIVITY
 RILM.OHMM   06 120 44 00:   INDUCTION LOG MEDIUM RESISTIVITY
 SPR .MV     06 010 01 00:   SPONTANEOUS POTENTIAL FROM RES.
 CALD.IN     45 280 60 00:   CALIPER FROM DENSITY LOG
 CORR.G/C3   45 356 01 00:   DENSITY CORRECTION
 DEN .G/C3   45 350 01 00:   COMPENSATED BULK DENSTIY
 PORD.DEC    45 890 12 00:   POROSITY DENSITY SANDSTONE
 CNC .DEC    42 890 03 00:   NEUTRON POROSITY SANDSTONE
~PARAMETER INFORMATION
#MNEM.UNIT          VALUE    DESCRIPTION
#----------   ------------   ------------------------------
 PD  .                 GL:   PERMANENT DATUM
 EPD .F              5156:   ELEVATION PERMANENT DATUM
 LMF .                 KB:   LOG MEASURED FROM
 DAPD.F                10:   FEET ABOVE PERMANENT DATUM
 DMF .                 KB:   DRILLING MEASURED FROM
 EKB .F              5166:   KELLING BUSHING
 EGL .F              5156:   GROUND LEVEL
 DATE.        30-DEC-1991:   RUN DATE
 RUN .                  1:   RUN NUMBER
 DD  .F               641:   DEPTH DRILLER
 DL  .F               642:   DEPTH LOGGER
 BLI .F               261:   BOTTOM LOG INTERVAL
 TLI .F               172:   TOP LOG INTERVAL
 CS  .IN            8.625:   CASING SIZE
 CBD .F               163:   CASING BOTTOM DRILLER
 CBL .F               172:   CASING BOTTOM LOGGER
 BS  .IN            7.875:   BIT SIZE
 BSD .F               641:   BIT SIZE AT DEPTH
 DFT .               CHEM:   DRILLING FLUID TYPE
 DFD .               17.1:   DRILLING FLUID DENSITY
 DFV .                 47:   DRILLING FLUID VISCOSITY
 DFPH.                9.0:   DRILLING FLUID PH
 DFL .                6.8:   DRILLING FLUID LOSS
 MSS .                PIT:   MUD SAMPLE SOURCE
 RMS .OHMM           1.40:   RESISTIVITY MUD SAMPLE
 MST .F               100:   MUD SAMPLE TEMPERATURE
 RMF .OHMM           1.12:   RESISTIVITY MUD FILTRATE SAMPLE
 MFST.F               100:   MUD FILTRATE SAMPLE TEMPERATURE
 RMC .OHMM           1.75:   RESISTIVITY MUD CAKE
 MCST.F               100:   MUD CAKE SAMPLE TEMPERATURE
 MFSS.               MEAS:   MUD FILTRATE SAMPLE SOURCE
 MCSS.               CALC:   MUD CAKE SAMPLE SOURCE
 RMB .OHMM           .536:   RESISTIVITY MUD AT BHT
 BHT .F               261:   BOTTOM HOLE TEMPERATURE
 TCS .HRS               4:   TIME CURCULATED STOPPED
 MRT .F               261:   MAXIMUM RECORDED TEMPERATURE
 LUN .            HL-6387:   LOGGING UNIT NUMBER
 LUL .          CASPER/WT:   LOGGING UNIT LOCATION
 ENGI.             ZIEGER:   RECORDING ENGINEER
 WITN.         LOFRENIERI:   WITNESSED BY
 CLNT.            A2DTECH:   CLIENT CODE
 ORIG.           5" PRINT:   ORIGIN OF DATA
 UWI .       490252249400:   UNIQUE WELL ID
 DICO. A2D Technologies, Inc.:   DIGITIZING COMPANY
~OTHER INFORMATION
~A    DEPT      GRR      RFOC       RILD       RILM        SPR       CALD       CORR        DEN       PORD        CNC   
# ...
  541.0000    67.8631    10.9777     9.9292     9.8434   -58.4322     8.9498     0.0168     2.4491     0.1373     0.2412
  541.5000    69.0850    10.9799     9.9306     9.9129   -58.2822     8.9505     0.0153     2.4507     0.1379     0.2406
  542.0000    71.2146    10.9821     9.9319     9.9136   -58.2840     8.9360     0.0170     2.4555     0.1352     0.2384
  542.5000    73.3442    10.9843     9.9332     9.9144   -58.1344     8.9369     0.0199     2.4643     0.1303     0.2376
  543.0000    74.5661    10.9871     9.9349     9.9151   -58.2873     8.9375     0.0169     2.4696     0.1267     0.2424
  543.5000    72.7141    10.9893     9.9362     9.8467   -58.1373     8.9382     0.0109     2.4734     0.1245     0.2454
  544.0000    69.7510    10.9915     9.9376     9.7789   -58.2902     8.9388     0.0155     2.4764     0.1219     0.2451
  544.5000    69.1546    10.9937     9.9389     9.7797   -58.5938     8.9395     0.0170     2.4779     0.1200     0.2463
  545.0000    69.7742    10.9959     9.9402     9.7804   -58.8974     8.9553     0.0095     2.4779     0.1197     0.2490
  545.5000    71.9038    10.8458     9.9416     9.7812   -59.0499     8.9571     0.0065     2.4749     0.1200     0.2511
  546.0000    73.4283    10.7647    10.0126     9.8503   -59.0514     8.9871     0.0096     2.4704     0.1224     0.2496
  546.5000    72.8348    10.6999    10.0843     9.8510   -59.0531     9.0029     0.0141     2.4689     0.1254     0.2475
  547.0000    71.9415    10.7026    10.0156     9.8516   -58.7525     9.0036     0.0202     2.4720     0.1270     0.2484
  547.5000    71.6477    10.8551     9.9469     9.8523   -58.6025     9.0042     0.0278     2.4795     0.1272     0.2505
  548.0000    71.6622    10.8573     9.8107     9.8529   -58.4529     8.9746     0.0353     2.4856     0.1215     0.2511
  548.5000    71.6738    10.8595     9.6088     9.7851   -58.4547     8.9298     0.0384     2.4856     0.1157     0.2499
  549.0000    72.8957    10.6368     9.4093     9.6504   -58.4522     8.8850     0.0307     2.4841     0.1145     0.2483
  549.5000    74.8199    10.4193     9.2818     9.3857   -58.3066     8.8705     0.0218     2.4766     0.1175     0.2480
  550.0000    77.2715    10.2766     9.2834     9.2561   -58.0059     8.8713     0.0143     2.4758     0.1202     0.2480
  550.5000    76.3477    10.1363     9.3496     9.3217   -57.4035     8.8871     0.0128     2.4766     0.1211     0.2492
  551.0000    73.6058    10.1388     9.3509     9.3875   -57.1025     8.8878     0.0159     2.4819     0.1208     0.2516
  551.5000    74.5342    10.0699     9.4176     9.5202   -56.8018     8.8884     0.0189     2.4902     0.1202     0.2538
  552.0000    76.0007    10.0025     9.4189     9.7220   -56.5015     8.8891     0.0235     2.4978     0.1146     0.2492
  552.5000    75.9823    10.0045     9.4862     9.9977   -56.5030     8.8746     0.0296     2.5099     0.1076     0.2432
  553.0000    76.2707    10.4344     9.4877    10.0683   -56.6559     8.8754     0.0402     2.5161     0.1003     0.2395
  553.5000    75.6500    10.9585     9.4230    10.0690   -56.6573     8.8608     0.0447     2.5160     0.0982     0.2371
  554.0000    73.5141    11.2707     9.4243    10.0696   -57.1120     8.8311     0.0342     2.5091     0.1024     0.2365
  554.5000    69.8630    11.1947     9.3597    10.0703   -57.2645     8.8017     0.0254     2.4925     0.1091     0.2377
  555.0000    72.8787    10.9626     9.4006     9.5180   -57.5681     8.8023     0.0195     2.4857     0.1130     0.2401
  555.5000    75.3465    10.6532     9.3337     9.0017   -57.8717     8.8030     0.0135     2.4850     0.1142     0.2440
  556.0000    77.0881    10.3029     9.3324     8.9391   -58.1752     8.8036     0.0151     2.4817     0.1158     0.2474
  556.5000    76.4673    10.2329     9.2663     8.9391   -58.1601     8.8043     0.0196     2.4737     0.1202     0.2483
  557.0000    74.6345    10.1644     9.2006     8.9391   -57.7253     8.8203     0.0257     2.4729     0.1233     0.2480
  557.5000    72.4986    10.0953     9.1930     8.9391   -57.5754     8.8361     0.0318     2.4775     0.1230     0.2470
  558.0000    71.5748    10.0978     9.0704     9.0017   -57.7283     8.8367     0.0274     2.4790     0.1205     0.2485
  558.5000    71.2202    10.0297     8.9435     9.0646   -57.7297     8.8374     0.0244     2.4767     0.1196     0.2500
  559.0000    72.7616     9.9620     8.8801     9.1281   -57.4291     8.8381     0.0215     2.4760     0.1215     0.2482
  559.5000    73.9550     9.8948     8.6950     9.1281   -57.2795     8.8387     0.0215     2.4782     0.1218     0.2479
  560.0000    73.0276     9.8280     8.5733     9.0646   -56.9788     8.7939     0.0231     2.4790     0.1202     0.2497
  560.5000    72.7099     9.7617     8.5125     8.9391   -56.5275     8.7794     0.0262     2.4752     0.1205     0.2518
  561.0000    73.9074     9.6959     8.4522     8.8153   -56.3775     8.8106     0.0307     2.4737     0.1224     0.2515
  561.5000    75.7109     9.5640     8.3920     8.6933   -56.0769     8.8415     0.0323     2.4768     0.1215     0.2509
  562.0000    77.5144     9.5660     8.3326     8.5729   -55.9273     8.8876     0.0339     2.4813     0.1181     0.2515
  562.5000    76.8936     9.4960     8.2735     8.3954   -55.7777     8.8883     0.0324     2.4843     0.1163     0.2524
  563.0000    75.3496     9.3717     8.2149     8.1645   -55.7795     8.8435     0.0265     2.4851     0.1184     0.2539
  563.5000    73.5273     9.2443     8.1566     8.1078   -55.7810     8.8138     0.0175     2.4821     0.1196     0.2551
  564.0000    71.9975     9.1177     8.0988     8.0515   -55.7825     8.8147     0.0145     2.4806     0.1196     0.2569
  564.5000    73.4979     9.0566     7.9855     7.9955   -55.7842     8.8153     0.0162     2.4821     0.1187     0.2587
  565.0000    73.7900     8.9950     7.8735     7.8848   -55.7857     8.8311     0.0222     2.4844     0.1175     0.2611
  565.5000    74.3813     8.8110     7.8177     7.8228   -55.7872     8.8318     0.0222     2.4866     0.1163     0.2636
  566.0000    76.1812     8.6281     7.7084     7.7216   -55.7886     8.8325     0.0208     2.4874     0.1154     0.2648
  566.5000    79.8029     8.4535     7.5477     7.5618   -55.6390     8.8331     0.0209     2.4867     0.1157     0.2657
  567.0000    80.0912     8.3965     7.3389     7.2519   -55.3384     8.8338     0.0179     2.4844     0.1163     0.2660
  567.5000    79.4668     8.3398     6.9396     6.9065   -55.0201     8.8346     0.0149     2.4791     0.1184     0.2672
  568.0000    80.3612     8.2264     6.4207     6.1775   -54.4353     8.8353     0.0134     2.4721     0.1251     0.2693
  568.5000    84.2860     8.0578     5.4342     5.3734   -54.1343     8.8359     0.0120     2.4603     0.1295     0.2750
  569.0000    87.9076     7.8377     4.8258     4.6655   -53.6830     8.8366     0.0136     2.4429     0.1432     0.2961
  569.5000    89.1051     7.5707     4.5631     4.0374   -53.2312     8.8372     0.0137     2.4217     0.1568     0.3009
  570.0000    89.3934     6.3704     4.4993     3.8451   -52.7792     8.8379     0.0137     2.3931     0.1725     0.3191
  570.5000    95.4394     4.9502     4.4987     4.3289   -52.3278     8.8386     0.0123     2.3757     0.1819     0.3524
  571.0000    98.1520     3.9336     4.5613     5.1533   -52.3293     8.8241     0.0093     2.4187     0.1613     0.3457
  571.5000    94.8003     4.8497     4.6254     5.6030   -52.4822     8.8249     0.0064     2.4407     0.1378     0.3272
  572.0000    85.3917     6.6384     4.7937     5.9244   -52.9368     8.8104     0.0034     2.4742     0.1245     0.3000
  572.5000    79.9225     8.5939     5.2788     6.2642   -53.3914     8.7957     0.0035     2.4860     0.1174     0.2541
  573.0000    77.1805     9.6773     5.9428     6.7291   -53.5439     8.7966     0.0111     2.4875     0.1154     0.2553
  573.5000    76.5598     9.1485     6.8797     7.4052   -53.6965     8.7820     0.0141     2.4853     0.1157     0.2571
  574.0000    77.1512     8.5996     7.6377     7.8300   -54.0000     8.7676     0.0082     2.4807     0.1181     0.2586
