~VERSION INFORMATION
 VERS.                2.0:   CWLS LOG ASCII STANDARD - VERSION 2.0
 WRAP.                 NO:   ONE LINE PER DEPTH STEP
~WELL INFORMATION
#MNEM.UNIT      DATA TYPE    INFORMATION
#----------   ------------   ------------------------------
 STRT.F            2.0000:   START DEPTH
 STOP.F          548.0000:   STOP DEPTH
 STEP.F            0.1000:   STEP LENGTH
 NULL.          -999.2500:   NO VALUE
 COMP.       F D SERV INC:   COMPANY
 WELL. NAVAL PETROLEUM RESERVE 3 SX-3 #88-10-3:   WELL
 FLD .             TEAPOT:   FIELD
 LOC .       S3 T38N R78W:   LOCATION
 CNTY.            NATRONA:   COUNTY
 STAT.            WYOMING:   STATE
 CTRY. UNITED STATES OF AMERICA:   COUNTRY
 SRVC.     Atlas Wireline:   SERVICE COMPANY
 DATE.        19-OCT-1992:   LOGDATE
 API .       490252254600:   API NUMBER
~CURVE INFORMATION
#MNEM.UNIT       API CODE    CURVE DESCRIPTION
#----------   ------------   ------------------------------
 DEPT.F                  :   
 GRR .GAPI   07 310 01 00:   GAMMA RAY
 ILD .OHMM   07 120 46 00:   INDUCTION LOG DEEP
 ILM .OHMM   07 120 44 00:   INDUCTION LOG MEDIUM
~PARAMETER INFORMATION
#MNEM.UNIT          VALUE    DESCRIPTION
#----------   ------------   ------------------------------
 PD  .                 GL:   PERMANENT DATUM
 EPD .F              5126:   ELEVATION PERMANENT DATUM
 LMF .                 KB:   LOG MEASURED FROM
 DAPD.F                10:   FEET ABOVE PERMANENT DATUM
 DMF .                 KB:   DRILLING MEASURED FROM
 EKB .F              5136:   KELLING BUSHING
 EDF .F              5135:   DRILLING FLOOR
 EGL .F              5126:   GROUND LEVEL
 DATE.        19-OCT-1992:   RUN DATE
 RUN .                  1:   RUN NUMBER
 DD  .F               566:   DEPTH DRILLER
 DL  .F               558:   DEPTH LOGGER
 BLI .F               550:   BOTTOM LOG INTERVAL
 TLI .F                98:   TOP LOG INTERVAL
 CS  .IN            8.625:   CASING SIZE
 CBD .F                85:   CASING BOTTOM DRILLER
 CBL .F                98:   CASING BOTTOM LOGGER
 BS  .IN            7.875:   BIT SIZE
 BSD .F               566:   BIT SIZE AT DEPTH
 DFT .           AIR FOAM:   DRILLING FLUID TYPE
 TCS .HRS               2:   TIME CURCULATED STOPPED
 MRT .F                73:   MAXIMUM RECORDED TEMPERATURE
 LUN .            HL-6274:   LOGGING UNIT NUMBER
 LUL .             CASPER:   LOGGING UNIT LOCATION
 ENGI.             RAUTIO:   RECORDING ENGINEER
 WITN.        GARY STRONG:   WITNESSED BY
 CLNT.            A2DTECH:   CLIENT CODE
 ORIG.           5" PRINT:   ORIGIN OF DATA
 UWI .       490252254600:   UNIQUE WELL ID
 DICO. A2D Technologies, Inc.:   DIGITIZING COMPANY
~OTHER INFORMATION
~A    DEPT     GRR        ILD        ILM   
# ...
  475.2000   111.7289    10.1984    10.1978
  475.3000   111.9446    10.1590    10.1401
  475.4000   111.9416    10.1588    10.0870
  475.5000   111.9395    10.1587    10.0865
  475.6000   111.9371    10.1107    10.0862
  475.7000   111.9346    10.0877    10.0517
  475.8000   111.9685    10.0671    10.0151
  475.9000   112.2322    10.0103    10.0147
  476.0000   112.2300     9.9474    10.0143
  476.1000   112.2275     9.9473     9.9641
  476.2000   112.3300     9.9110     9.9438
  476.3000   112.6181     9.8778     9.8980
  476.4000   113.1279     9.8776     9.7958
  476.5000   113.8214     9.8775     9.7364
  476.6000   114.5513     9.8258     9.7360
  476.7000   115.1661     9.8085     9.6978
  476.8000   115.7084     9.7587     9.6185
  476.9000   116.4442     9.6606     9.5215
  477.0000   116.6838     9.6047     9.4662
  477.1000   116.9255     9.5520     9.4140
  477.2000   117.2922     9.4590     9.3996
  477.3000   117.7113     9.3789     9.3468
  477.4000   117.9530     9.3260     9.2685
  477.5000   118.1947     9.2735     9.2670
  477.6000   118.4363     9.2212     9.2145
  477.7000   118.6780     9.1693     9.2028
  477.8000   118.9196     9.1176     9.1743
  477.9000   119.1433     9.0662     9.1223
  478.0000   119.1403     9.0118     9.0707
  478.1000   119.3420     8.8932     9.0104
  478.2000   119.4384     8.8518     8.9683
  478.3000   119.4360     8.8311     8.9471
  478.4000   119.4336     8.7964     8.9291
  478.5000   119.4309     8.7029     8.8730
  478.6000   119.2150     8.6477     8.7604
  478.7000   118.9685     8.6052     8.7172
  478.8000   118.6251     8.5567     8.6065
  478.9000   118.1345     8.5084     8.4804
  479.0000   117.6034     8.4531     8.3849
  479.1000   116.9295     8.3504     8.2828
  479.2000   116.6911     8.3072     8.1551
  479.3000   116.6887     8.2289     8.0181
  479.4000   116.6862     8.1366     7.8833
  479.5000   116.6837     8.0361     7.7506
  479.6000   116.4474     7.8961     7.6154
  479.7000   116.3764     7.7687     7.5329
  479.8000   116.4910     7.6076     7.4181
  479.9000   116.8496     7.4378     7.2737
  480.0000   117.5794     7.2617     7.1207
  480.1000   118.3092     7.0595     7.0008
  480.2000   118.8535     6.9024     6.8833
  480.3000   119.2121     6.7197     6.7098
  480.4000   119.4537     6.5329     6.5231
  480.5000   119.6854     6.3510     6.3412
  480.6000   119.6824     6.1739     6.1661
  480.7000   119.6805     5.9709     6.0032
  480.8000   119.8152     5.8626     5.8941
  480.9000   120.0568     5.7502     5.7625
  481.0000   120.3187     5.6643     5.6442
  481.1000   120.8807     5.5976     5.5522
  481.2000   121.4959     5.4906     5.4811
  481.3000   122.3730     5.3854     5.4281
  481.4000   123.2582     5.2836     5.3858
  481.5000   124.0483     5.1838     5.3438
  481.6000   125.4073     5.0761     5.2836
  481.7000   126.2685     5.0138     5.2186
  481.8000   127.5571     4.9629     5.1654
  481.9000   129.1179     4.9441     5.1458
  482.0000   130.7834     4.9441     5.1456
  482.1000   132.3544     4.9493     5.1453
  482.2000   133.4819     4.9786     5.1451
  482.3000   134.0301     5.0053     5.1449
  482.4000   134.1628     5.0336     5.1864
  482.5000   134.0595     5.0619     5.2308
  482.6000   133.5527     5.0973     5.2602
  482.7000   132.8423     5.1551     5.2897
  482.8000   131.7528     5.1841     5.3494
  482.9000   130.6489     5.2134     5.4099
  483.0000   129.6701     5.2583     5.4873
  483.1000   128.6856     5.3093     5.5896
  483.2000   126.9746     5.3392     5.7208
  483.3000   125.6387     5.3752     5.9967
  483.4000   124.5450     5.3996     6.0512
  483.5000   123.6369     5.4301     6.1592
  483.6000   122.9143     5.4607     6.2874
  483.7000   122.3306     5.4887     6.3942
  483.8000   121.9332     5.4886     6.5194
  483.9000   121.5818     5.5415     6.5505
  484.0000   121.4160     5.6043     6.6332
  484.1000   121.4136     5.6798     6.7460
  484.2000   121.4108     5.7765     6.8553
  484.3000   121.4088     5.8852     6.9409
  484.4000   121.4063     5.9751     7.0827
  484.5000   121.4039     6.0770     7.2170
  484.6000   121.3693     6.1954     7.3222
  484.7000   121.0963     6.3364     7.4125
  484.8000   120.4405     6.4891     7.5460
  484.9000   119.8653     6.6286     7.7079
  485.0000   119.3747     6.7799     7.8522
  485.1000   118.9265     6.9529     7.9857
  485.2000   118.6637     7.1326     8.1214
  485.3000   118.2056     7.2557     8.2613
  485.4000   117.8845     7.4192     8.4002
  485.5000   117.6379     7.5563     8.4711
  485.6000   117.3389     7.7074     8.5433
  485.7000   116.8363     7.8829     8.6397
  485.8000   116.5959     8.0621     8.7372
  485.9000   116.3494     8.2462     8.8360
  486.0000   116.1029     8.3965     8.8959
  486.1000   115.7938     8.5128     8.9458
  486.2000   115.3113     8.6246     9.0121
  486.3000   115.3089     8.7675     9.1098
  486.4000   115.1169     8.8829     9.1693
  486.5000   115.1326     9.0101     9.1689
  486.6000   115.3017     9.1015     9.1996
  486.7000   115.2992     9.1905     9.2702
  486.8000   115.2964     9.3339     9.3683
  486.9000   115.2944     9.3926     9.4270
  487.0000   115.1508     9.4867     9.4267
  487.1000   114.8216     9.5245     9.4607
  487.2000   114.3552     9.5243     9.4919
  487.3000   114.0741     9.5242     9.5005
  487.4000   113.8622     9.5241     9.5576
  487.5000   113.9183     9.5239     9.6075
  487.6000   114.2527     9.5238     9.6238
  487.7000   114.7042     9.5237     9.6480
  487.8000   114.9698     9.5235     9.6904
  487.9000   114.9676     9.5234     9.6900
  488.0000   114.8038     9.5233     9.6896
  488.1000   114.5573     9.5231     9.7295
  488.2000   114.3109     9.5230     9.7567
  488.3000   114.0501     9.5368     9.7705
  488.4000   113.8179     9.5895     9.8253
  488.5000   113.3999     9.5893     9.8805
  488.6000   113.0223     9.5892     9.9360
  488.7000   112.8303     9.5891     9.9612
  488.8000   112.8278     9.6054     9.9607
  488.9000   112.5853     9.6560     9.9640
  489.0000   112.3389     9.6558    10.0296
  489.1000   112.0924     9.7463    10.0293
  489.2000   112.0395     9.8239    10.0958
  489.3000   112.5192     9.8598    10.1695
  489.4000   112.7609     9.8659    10.1754
  489.5000   113.1941     9.9286    10.2398
  489.6000   113.8129    10.0268    10.2394
  489.7000   114.6174    10.1041    10.2757
  489.8000   115.5753    10.1384    10.3334
  489.9000   116.4316    10.1472    10.3913
  490.0000   117.6399    10.2092    10.4544
  490.1000   118.6723    10.3154    10.5083
  490.2000   119.4022    10.3922    10.5672
  490.3000   120.1582    10.4508    10.6531
  490.4000   121.2608    10.5218    10.7610
  490.5000   122.1060    10.6452    10.8236
  490.6000   122.9265    10.7031    10.8232
  490.7000   123.4667    10.7635    10.8671
  490.8000   123.6724    10.8540    10.9582
  490.9000   123.6694    10.9615    11.0509
  491.0000   123.6672    11.0237    11.0505
  491.1000   123.5013    11.1488    11.1130
  491.2000   123.0451    11.2751    11.1754
  491.3000   122.4033    11.3685    11.2381
  491.4000   122.1445    11.4516    11.3012
  491.5000   121.4463    11.5776    11.3645
  491.6000   120.8851    11.6550    11.4401
  491.7000   120.2797    11.7086    11.4925
  491.8000   119.3758    11.8132    11.5570
  491.9000   117.8965    11.9240    11.6218
  492.0000   117.4099    11.9912    11.6870
  492.1000   116.9194    12.0683    11.7617
  492.2000   116.4288    12.1269    11.8185
  492.3000   115.8716    12.2383    11.8849
  492.4000   115.1613    12.3232    11.9776
  492.5000   115.1588    12.3331    12.0930
  492.6000   115.1564    12.4092    12.0924
  492.7000   115.4243    12.4727    12.2163
  492.8000   115.9100    12.5430    12.3077
  492.9000   116.4138    12.6138    12.3768
  493.0000   117.2644    12.6849    12.4462
  493.1000   117.6699    12.7598    12.5194
  493.2000   118.3008    12.8283    12.6541
  493.3000   118.9438    12.9007    12.7456
