~VERSION INFORMATION
 VERS.                2.0:   CWLS LOG ASCII STANDARD - VERSION 2.0
 WRAP.                 NO:   ONE LINE PER DEPTH STEP
~WELL INFORMATION
#MNEM.UNIT      DATA TYPE    INFORMATION
#----------   ------------   ------------------------------
 STRT.F           40.0000:   START DEPTH
 STOP.F          821.0000:   STOP DEPTH
 STEP.F            0.5000:   STEP LENGTH
 NULL.          -999.2500:   NO VALUE
 COMP. FENIX & SCISSON INC:   COMPANY
 WELL. NPR 3 -68 SX #68-27:   WELL
 FLD .             TEAPOT:   FIELD
 LOC .      S27 T39N R78W:   LOCATION
 CNTY.            NATRONA:   COUNTY
 STAT.            WYOMING:   STATE
 CTRY. UNITED STATES OF AMERICA:   COUNTRY
 SRVC.           BIRDWELL:   SERVICE COMPANY
 DATE.        11-SEP-1978:   LOGDATE
 API .       490251069500:   API NUMBER
~CURVE INFORMATION
#MNEM.UNIT       API CODE    CURVE DESCRIPTION
#----------   ------------   ------------------------------
 DEPT.F                  :   
 SPR .MV     05 010 01 00:   SPONTANEOUS POTENTIAL FROM RES.
 SN  .OHMM   05 040 16 00:   SHORT NORMAL 16"
 ILD .OHMM   05 120 46 00:   INDUCTION LOG DEEP
 GRD .GAPI   45 310 01 00:   GAMMA RAY FROM DENSITY LOG
 CALD.IN     45 280 60 00:   CALIPER
 RHOB.G/C3   45 350 01 00:   BULK DENSITY
 CORR.G/C3   45 356 01 00:   DENSITY CORRECTION
 DPHI.DEC    45 890 12 00:   DENSITY POROSITY SANDSTONE
~PARAMETER INFORMATION
#MNEM.UNIT          VALUE    DESCRIPTION
#----------   ------------   ------------------------------
 PD  .                 GL:   PERMANENT DATUM
 EPD .F              5032:   ELEVATION PERMANENT DATUM
 LMF .                 GL:   LOG MEASURED FROM
 DAPD.F                 4:   FEET ABOVE PERMANENT DATUM
 DMF .                 GL:   DRILLING MEASURED FROM
 EKB .F              5036:   KELLING BUSHING
 EGL .F              5032:   GROUND LEVEL
 DATE.            9-11-78:   RUN DATE
 RUN .                  1:   RUN NUMBER
 DD  .F               820:   DEPTH DRILLER
 DL  .F               822:   DEPTH LOGGER
 BLI .F               818:   BOTTOM LOG INTERVAL
 TLI .F                40:   TOP LOG INTERVAL
 CS  .IN            8.625:   CASING SIZE
 CBD .F                40:   CASING BOTTOM DRILLER
 CBL .F                40:   CASING BOTTOM LOGGER
 BS  .IN            7.875:   BIT SIZE
 BSD .F               820:   BIT SIZE AT DEPTH
 DFT .                KCL:   DRILLING FLUID TYPE
 DFD .                8.6:   DRILLING FLUID DENSITY
 DFV .                 34:   DRILLING FLUID VISCOSITY
 DFPH.                  9:   DRILLING FLUID PH
 DFL .                  8:   DRILLING FLUID LOSS
 MSS .           FLOWLINE:   MUD SAMPLE SOURCE
 RMS .OHMM            .24:   RESISTIVITY MUD SAMPLE
 MST .F                62:   MUD SAMPLE TEMPERATURE
 RMF .OHMM            .18:   RESISTIVITY MUD FILTRATE SAMPLE
 MFST.F                64:   MUD FILTRATE SAMPLE TEMPERATURE
 RMC .OHMM             .3:   RESISTIVITY MUD CAKE
 MCST.F                66:   MUD CAKE SAMPLE TEMPERATURE
 MFSS.               MEAS:   MUD FILTRATE SAMPLE SOURCE
 MCSS.               MEAS:   MUD CAKE SAMPLE SOURCE
 RMB .OHMM            .22:   RESISTIVITY MUD AT BHT
 BHT .F                68:   BOTTOM HOLE TEMPERATURE
 TCS .HRS               1:   TIME CURCULATED STOPPED
 MRT .F                68:   MAXIMUM RECORDED TEMPERATURE
 LUN .               3006:   LOGGING UNIT NUMBER
 LUL .               CASP:   LOGGING UNIT LOCATION
 ENGI.            POINTER:   RECORDING ENGINEER
 WITN.              AMEND:   WITNESSED BY
 CLNT.            A2DTECH:   CLIENT CODE
 ORIG.           5" PRINT:   ORIGIN OF DATA
 UWI .       490251069500:   UNIQUE WELL ID
 DICO. A2D Technologies, Inc.:   DIGITIZING COMPANY
~OTHER INFORMATION
~A   DEPT       SPR        SN        ILD         GRD        CALD     RHOB       CORR       DPHI   
# ...
  485.5000   -37.8758     9.8349     9.3084   102.4078     7.9643     2.4846     0.0410     0.1275
  486.0000   -37.8907     9.8478     9.3164    96.6083     7.9282     2.4797     0.0424     0.1328
  486.5000   -37.9057     9.6527     9.3188    97.5246     7.9272     2.4748     0.0437     0.1359
  487.0000   -37.9206     9.4948     9.0761   101.1109     7.9248     2.4700     0.0451     0.1391
  487.5000   -37.9359     9.3394     8.8415   103.1288     7.9226     2.4670     0.0464     0.1423
  488.0000   -37.9510     9.1866     8.6136   104.1285     7.9203     2.4676     0.0473     0.1421
  488.5000   -37.9625     9.0651     8.3883   105.5519     7.9181     2.4711     0.0461     0.1370
  489.0000   -37.7927     9.0540     8.1911   114.0311     7.9159     2.4769     0.0449     0.1318
  489.5000   -37.3891     9.0254     8.2080   115.7881     7.9136     2.4829     0.0437     0.1268
  490.0000   -35.5738     8.9969     8.2235   126.2029     7.9114     2.4887     0.0425     0.1259
  490.5000   -34.9538     8.9684     8.2394   136.8963     7.9091     2.4946     0.0417     0.1253
  491.0000   -34.8521     8.9392     8.2551   134.9906     7.9069     2.4980     0.0486     0.1247
  491.5000   -34.8455     8.9135     8.2683   129.8216     7.9047     2.4980     0.0557     0.1240
  492.0000   -35.5712     8.8221     8.3683   111.3240     7.9024     2.4977     0.0627     0.1235
  492.5000   -36.3085     8.9421     8.5134    92.7668     7.9002     2.4974     0.0694     0.1228
  493.0000   -36.7368     9.0353     8.6609    95.4301     7.8980     2.4970     0.0725     0.1220
  493.5000   -36.7526     9.1289     8.8183   100.6446     7.8957     2.4991     0.0687     0.1195
  494.0000   -36.7176     9.2233     8.8183   111.8777     7.8934     2.5069     0.0616     0.1165
  494.5000   -36.6896     9.3187     8.8183   123.1294     7.8920     2.5146     0.0544     0.1136
  495.0000   -36.6625     9.4150     8.8183   129.5596     7.9036     2.5164     0.0547     0.1140
  495.5000   -36.6352     9.5124     8.8183   125.5102     7.9308     2.5045     0.0562     0.1216
  496.0000   -36.6080     9.6108     8.8182   119.9793     7.9608     2.4927     0.0577     0.1276
  496.5000   -36.5807     9.7101     8.8189   115.9396     7.9975     2.4846     0.0592     0.1264
  497.0000   -36.7731     9.7576     8.8168   115.1854     8.0342     2.4929     0.0606     0.1192
  497.5000   -37.4468     9.7576     8.8142   117.8665     8.0705     2.5068     0.0586     0.1125
  498.0000   -38.3939     9.7575     8.9550   126.2110     8.0893     2.5211     0.0527     0.1058
  498.5000   -39.3436     9.7576     9.0282   132.1545     8.1000     2.5353     0.0467     0.0990
  499.0000   -40.2820     9.7576     9.1037   118.4309     8.1238     2.5408     0.0408     0.0923
  499.5000   -40.3965     9.7576     9.1799   105.8618     8.1181     2.5370     0.0355     0.0912
  500.0000   -40.4092     9.7576     9.2335   101.5685     8.1107     2.5288     0.0365     0.1071
  500.5000   -40.4216     9.7576     9.2122   112.5280     8.1034     2.5201     0.0374     0.1096
  501.0000   -40.4355     9.7576     9.1819   118.1355     8.0962     2.5186     0.0337     0.1072
  501.5000   -40.4496     9.7484     9.1517   110.0906     8.0890     2.5180     0.0294     0.1048
  502.0000   -40.4636     9.7185     9.1219    99.6204     8.0817     2.5180     0.0252     0.1028
  502.5000   -40.4776     9.6887     9.0921    97.5071     8.0744     2.5180     0.0210     0.1033
  503.0000   -40.4917     9.6589     9.0398   104.6749     8.0618     2.5179     0.0168     0.1040
  503.5000   -40.5057     9.6293     8.8152   129.7229     8.0396     2.5145     0.0126     0.1052
  504.0000   -40.5198     9.5998     8.5782   129.1095     8.0176     2.5108     0.0082     0.1072
  504.5000   -40.5338     9.5703     8.5750   120.6843     7.9955     2.5072     0.0097     0.1092
  505.0000   -40.5478     9.5409     8.5649   112.1723     7.9735     2.5049     0.0099     0.1112
  505.5000   -40.5619     9.5117     8.5548   106.2623     7.9514     2.5048     0.0103     0.1132
  506.0000   -40.5759     9.4825     8.5447   101.1869     7.9294     2.5047     0.0106     0.1152
  506.5000   -40.5900     9.4534     8.5346   100.9187     7.9073     2.5046     0.0110     0.1164
  507.0000   -40.6040     9.4244     8.5244   101.8035     7.8856     2.5045     0.0113     0.1168
  507.5000   -40.6180     9.3955     8.5145   106.6034     7.8705     2.5043     0.0117     0.1158
  508.0000   -40.6321     9.3666     8.4995   123.9809     7.8778     2.5042     0.0121     0.1149
  508.5000   -40.6461     9.3379     8.5442   136.6281     7.8847     2.5041     0.0124     0.1148
  509.0000   -40.6602     9.3092     8.6302   125.8903     7.8917     2.5040     0.0128     0.1160
  509.5000   -40.6742     9.2807     8.7121   104.4292     7.8987     2.5045     0.0131     0.1171
  510.0000   -40.6882     9.2522     8.8183   104.8047     7.9057     2.5050     0.0135     0.1182
  510.5000   -40.7023     9.2238     8.6855   110.0613     7.9127     2.5056     0.0138     0.1186
  511.0000   -40.7163     9.1956     8.5094   114.7601     7.9197     2.5062     0.0142     0.1179
  511.5000   -40.7304     9.1661     8.3368   112.0464     7.9267     2.5067     0.0145     0.1172
  512.0000   -40.7444     9.1470     8.1925   107.6582     7.9337     2.5073     0.0149     0.1165
  512.5000   -40.7584     8.9805     8.2287   106.6415     7.9407     2.5079     0.0153     0.1158
  513.0000   -40.7726     8.9840     8.2604   101.2346     7.9477     2.5079     0.0155     0.1146
  513.5000   -40.8008     8.9201     8.2922    95.0965     7.9513     2.5038     0.0140     0.1136
  514.0000   -40.8571     8.8207     8.3241    96.0843     7.9533     2.4994     0.0122     0.1126
  514.5000   -40.9129     8.6017     8.3447    96.9512     7.9553     2.4950     0.0103     0.1116
  515.0000   -40.9706     8.3447     8.0893    96.5885     7.9573     2.4907     0.0094     0.1160
  515.5000   -40.9441     8.3273     7.7646    93.9923     7.9593     2.4863     0.0092     0.1204
  516.0000   -40.8774     8.2795     7.4528    91.7961     7.9613     2.4819     0.0090     0.1248
  516.5000   -40.8102     8.1889     7.2023    92.2626     7.9633     2.4810     0.0088     0.1291
  517.0000   -40.8091     8.0949     7.1346    92.5430     7.9653     2.4849     0.0086     0.1324
  517.5000   -40.9759     7.9925     7.1240    90.2800     7.9672     2.4910     0.0083     0.1320
  518.0000   -41.0128     7.8922     7.1134    88.9720     7.9692     2.4971     0.0081     0.1263
  518.5000   -41.0430     7.7940     7.1028    89.8118     7.9695     2.5032     0.0079     0.1182
  519.0000   -41.0737     7.7525     7.0923    89.5426     7.9892     2.5047     0.0077     0.1152
  519.5000   -41.1046     7.8938     7.0819    89.5512     8.0124     2.5056     0.0075     0.1153
  520.0000   -41.1355     8.0161     7.0693    93.8635     8.0311     2.5064     0.0074     0.1154
  520.5000   -41.1664     8.1402     7.1833   136.7555     8.0478     2.5073     0.0072     0.1155
  521.0000   -41.1973     8.2662     7.3807   133.1796     8.0648     2.5080     0.0071     0.1156
  521.5000   -41.2282     8.3447     7.5836   117.8755     8.0817     2.5075     0.0070     0.1157
  522.0000   -41.2591     8.3246     7.8242   106.9740     8.0986     2.5064     0.0068     0.1158
  522.5000   -41.2900     8.3101     7.7812   105.8291     8.1155     2.5055     0.0067     0.1160
  523.0000   -41.3212     8.2957     7.7270   102.2775     8.1324     2.5044     0.0066     0.1161
  523.5000   -41.3484     8.2813     7.6733    98.0107     8.1493     2.5034     0.0064     0.1162
  524.0000   -41.3684     8.2669     7.6198    99.1933     8.1662     2.5024     0.0063     0.1163
  524.5000   -41.5770     8.2525     7.5668    97.5460     8.1832     2.5027     0.0062     0.1164
  525.0000   -41.5816     8.2382     7.5141    95.6600     8.1899     2.5039     0.0060     0.1160
  525.5000   -41.5835     8.2239     7.4724    97.1200     8.1900     2.5051     0.0059     0.1150
