~VERSION INFORMATION
 VERS.                2.0:   CWLS LOG ASCII STANDARD - VERSION 2.0
 WRAP.                 NO:   ONE LINE PER DEPTH STEP
~WELL INFORMATION
#MNEM.UNIT      DATA TYPE    INFORMATION
#----------   ------------   ------------------------------
 STRT.F           28.0000:   START DEPTH
 STOP.F          546.5000:   STOP DEPTH
 STEP.F            0.5000:   STEP LENGTH
 NULL.          -999.2500:   NO VALUE
 COMP. LAWRENCE/ALLISON INC:   COMPANY
 WELL.    55-66 SX #10-10:   WELL
 FLD .            WILDCAT:   FIELD
 LOC .      S10 T38N R78W:   LOCATION
 CNTY.            NATRONA:   COUNTY
 STAT.            WYOMING:   STATE
 CTRY. UNITED STATES OF AMERICA:   COUNTRY
 SRVC.            Unknown:   SERVICE COMPANY
 DATE.        20-AUG-1984:   LOGDATE
 API .       490251098000:   API NUMBER
~CURVE INFORMATION
#MNEM.UNIT       API CODE    CURVE DESCRIPTION
#----------   ------------   ------------------------------
 DEPT.F                  :   
 CNC .DEC    42 890 03 00:   NEUTRON POROSITY SANDSTONE
 CALD.IN     45 280 60 00:   CALIPER FROM DENSITY LOG
 DEN .G/C3   45 350 01 00:   COMPENSATED BULK DENSTIY
 PORD.DEC    45 890 12 00:   POROSITY DENSITY STONESTONE
 CORR.G/C3   45 356 01 00:   DENSITY CORRECTION
 SPR .MV     07 010 01 00:   SPONTANEOUS POTENTIAL
 RFOC.OHMM   07 220 04 00:   RESISTIVITY FOCUSED LOG
 RILD.OHMM   07 120 46 00:   INDUCTION LOG DEEP RESISTIVITY
 RILM.OHMM   07 120 44 00:   INDUCTION LOG MEDIUM RESISTIVITY
 AC  .US/F   60 520 00 00:   ACCOUSTIC
 GRD .GAPI   45 310 01 00:   GAMMA RAY FROM DENSITY LOG
~PARAMETER INFORMATION
#MNEM.UNIT          VALUE    DESCRIPTION
#----------   ------------   ------------------------------
 PD  .                 GL:   PERMANENT DATUM
 EPD .F              5200:   ELEVATION PERMANENT DATUM
 LMF .                 GL:   LOG MEASURED FROM
 DMF .                 GL:   DRILLING MEASURED FROM
 EGL .F              5200:   GROUND LEVEL
 DATE.        20-AUG-1984:   RUN DATE
 RUN .                  1:   RUN NUMBER
 DD  .F               554:   DEPTH DRILLER
 DL  .F               548:   DEPTH LOGGER
 BLI .F               546:   BOTTOM LOG INTERVAL
 TLI .F                30:   TOP LOG INTERVAL
 CS  .IN            9.625:   CASING SIZE
 CBD .F                46:   CASING BOTTOM DRILLER
 CBL .F                41:   CASING BOTTOM LOGGER
 BS  .IN            7.875:   BIT SIZE
 BSD .F               554:   BIT SIZE AT DEPTH
 DFT .          KCL WATER:   DRILLING FLUID TYPE
 MSS .           FLOWLINE:   MUD SAMPLE SOURCE
 RMS .OHMM           .691:   RESISTIVITY MUD SAMPLE
 MST .F                82:   MUD SAMPLE TEMPERATURE
 MRT .F               100:   MAXIMUM RECORDED TEMPERATURE
 LUN .               6307:   LOGGING UNIT NUMBER
 LUL .               GLTE:   LOGGING UNIT LOCATION
 ENGI.           FAHLSING:   RECORDING ENGINEER
 WITN.           JENNINGS:   WITNESSED BY
 CLNT.            A2DTECH:   CLIENT CODE
 ORIG.       2", 5" PRINT:   ORIGIN OF DATA
 UWI .       490251098000:   UNIQUE WELL ID
 DICO. A2D Technologies, Inc.:   DIGITIZING COMPANY
~OTHER INFORMATION
~A   DEPT      CNC       CALD        DEN       PORD       CORR        SPR       RFOC       RILD       RILM         AC        GRD   
# ...
   89.0000     0.0405     7.9020     2.4570     0.1340     0.0260   -54.6120  9732.5273     7.1770     9.3120  -999.2500   199.6400
   89.5000     0.0404     7.9020     2.4520     0.1360     0.0230   -51.7140  9725.2266     7.1770     9.1980  -999.2500   197.5290
   90.0000     0.0404     7.9020     2.4540     0.1360     0.0200   -48.8200  9717.9248     7.1770     9.2830  -999.2500   193.2460
   90.5000     0.0413     7.9020     2.4550     0.1360     0.0180   -45.9700  9710.6240     7.2710     9.4150  -999.2500   188.9500
   91.0000     0.0431     7.9020     2.4570     0.1340     0.0150   -45.8200  9703.3223     7.4060     9.5690  -999.2500   189.1510
   91.5000     0.0434     7.9020     2.4630     0.1310     0.0220   -48.1960  9696.0215     7.5410     9.7230  -999.2500   190.1580
   92.0000     0.0431     7.9020     2.4720     0.1240     0.0320   -50.1450  9688.7197     7.6760     9.8770  -999.2500   191.1870
   92.5000     0.0424     7.9020     2.4800     0.1180     0.0420   -52.0870  1755.4764     7.8110    10.0310  -999.2500   192.1960
   93.0000     0.0424     7.9020     2.4880     0.1120     0.0520   -54.0030   486.7254     7.9450    10.1850  -999.2500   192.4170
   93.5000     0.0423     7.9080     2.4970     0.1110     0.0600   -55.0030   291.9786     8.0800    10.3380  -999.2500   189.5540
   94.0000     0.0435     7.9170     2.4970     0.1140     0.0370   -52.2070   372.0306     8.2150    10.4920  -999.2500   186.7460
   94.5000     0.0444     7.9230     2.4880     0.1180     0.0110   -49.5740   477.4112     8.3900    10.6460  -999.2500   183.9530
   95.0000     0.0444     7.8880     2.4790     0.1230    -0.0160   -46.9810   459.1470     8.3800    10.7540  -999.2500   181.1750
   95.5000     0.0446     7.8500     2.4700     0.1270    -0.0200   -44.3990   432.2530     8.3650    10.7540  -999.2500   179.1440
   96.0000     0.0446     7.8110     2.4610     0.1310    -0.0060   -41.8080   413.4270     8.3510    10.7540  -999.2500   182.7180
   96.5000     0.0446     7.7720     2.4570     0.1350     0.0080   -38.5360   470.2050     8.3360    10.7330  -999.2500   187.2890
   97.0000     0.0442     7.7560     2.4570     0.1330     0.0210   -40.7780   444.9750     8.3210    10.7140  -999.2500   189.3810
   97.5000     0.0442     7.8100     2.4600     0.1310     0.0300   -45.7280   371.5860     8.3010    10.6940  -999.2500   186.8870
   98.0000     0.0445     7.8640     2.4600     0.1320     0.0130   -50.8450   304.8690     8.2760    10.6750  -999.2500   184.3990
   98.5000     0.0444     7.9200     2.4560     0.1340    -0.0030   -51.2190   242.5840     8.2510    10.6560  -999.2500   184.0520
   99.0000     0.0444     7.9330     2.4550     0.1360    -0.0170   -50.5190   243.9840     8.2260    10.6370  -999.2500   187.4290
   99.5000     0.0444     7.9190     2.4580     0.1330    -0.0060   -47.3590   286.5030     8.2000    10.6180  -999.2500   191.5790
  100.0000     0.0443     7.9040     2.4580     0.1310     0.0070   -42.2120   346.0450     8.1750    10.5980  -999.2500   195.6400
  100.5000     0.0443     7.8890     2.4570     0.1340     0.0100   -36.9660   405.5860     8.1500    10.5790  -999.2500   197.5250
  101.0000     0.0448     7.8740     2.4540     0.1370     0.0040   -35.6380   465.1270     8.1250    10.5590  -999.2500   193.1620
  101.5000     0.0439     7.8630     2.4490     0.1400     0.0010   -33.8680   529.8880     8.1000    10.5580  -999.2500   188.8600
  102.0000     0.0429     7.9000     2.4500     0.1370     0.0040   -30.8080   508.3770     8.0880    10.5580  -999.2500   188.6670
  102.5000     0.0425     7.9030     2.4510     0.1370     0.0170   -24.0710   478.2150     8.1620    10.5580  -999.2500   190.2800
  103.0000     0.0428     7.9030     2.4510     0.1380     0.0170   -20.9130   448.0530     8.2630    10.7440  -999.2500   192.2860
  103.5000     0.0440     7.9020     2.4510     0.1390     0.0110   -22.5670   417.8910     8.4720    11.0010  -999.2500   195.8360
  104.0000     0.0452     7.9020     2.4540     0.1360     0.0050   -24.7290   387.7290     8.6810    11.2590  -999.2500   197.7300
  104.5000     0.0454     7.9020     2.4580     0.1310     0.0100   -26.9180   373.6690     8.8900    11.5160  -999.2500   195.0530
  105.0000     0.0463     7.9020     2.4640     0.1260     0.0250   -29.1620   406.0370     9.0990    11.7890  -999.2500   191.1290
  105.5000     0.0466     7.9020     2.4730     0.1210     0.0370   -29.3500   434.5440     9.3070    11.9540  -999.2500   186.7910
  106.0000     0.0465     7.9020     2.4780     0.1210     0.0330   -26.9870   463.0500     9.5160    12.1760  -999.2500   187.5650
  106.5000     0.0465     7.9020     2.4750     0.1240     0.0230   -24.4880   478.9290     9.7250    12.3980  -999.2500   189.7580
  107.0000     0.0464     7.9020     2.4710     0.1270     0.0180   -22.1170   655.5650     9.9340    12.6200  -999.2500   190.2710
  107.5000     0.0467     7.9020     2.4670     0.1290     0.0290   -21.3020  1055.8080    10.1430    12.8730  -999.2500   188.2650
  108.0000     0.0466     7.9020     2.4630     0.1310     0.0320   -20.7350   923.7930    10.3520    13.2940  -999.2500   185.7220
  108.5000     0.0472     7.9020     2.4620     0.1290     0.0250   -21.1350   688.7870    10.5600    13.7140  -999.2500   183.0440
  109.0000     0.0484     7.9020     2.4690     0.1220     0.0170   -22.5130   453.7810    10.7690    14.1340  -999.2500   181.6800
  109.5000     0.0489     7.9020     2.4830     0.1120     0.0220   -24.2010   218.7750    10.9780    14.5550  -999.2500   182.2710
  110.0000     0.0492     7.9020     2.4980     0.1020     0.0320   -25.8910   113.1160    11.1870    14.9750  -999.2500   179.7140
  110.5000     0.0498     7.9020     2.5120     0.0980     0.0410   -27.5800   133.4730    11.3960    15.3960  -999.2500   175.3030
  111.0000     0.0510     7.9020     2.5200     0.1040     0.0500   -29.2560   159.5430    11.6050    15.9670  -999.2500   173.8940
  111.5000     0.0528     7.9020     2.5070     0.1100     0.0530   -30.8150   185.8210    11.8130    15.8720  -999.2500   177.9300
  112.0000     0.0518     7.9020     2.4980     0.1160     0.0370   -34.1500   187.5370    12.2310    15.7520  -999.2500   180.9390
  112.5000     0.0502     7.9020     2.4880     0.1230     0.0220   -37.6660   170.5460    12.1470    15.6310  -999.2500   179.9290
  113.0000     0.0492     7.9020     2.4780     0.1290     0.0070   -41.1830   153.4450    12.0410    15.5110  -999.2500   180.0840
  113.5000     0.0498     7.9020     2.4680     0.1320     0.0110   -44.6940   136.3430    11.9350    15.3900  -999.2500   180.9330
  114.0000     0.0510     7.9020     2.4600     0.1320     0.0190   -48.2050   119.2410    11.8290    15.2700  -999.2500   179.9530
  114.5000     0.0515     7.9020     2.4630     0.1310     0.0260   -50.1460   102.1390    11.7240    15.1490  -999.2500   178.1550
  115.0000     0.0518     7.9020     2.4650     0.1300     0.0260   -47.1060    85.0380    11.6180    15.0290  -999.2500   177.1310
  115.5000     0.0530     7.9020     2.4660     0.1290     0.0200   -44.4200    67.9360    11.5120    14.9080  -999.2500   177.3450
  116.0000     0.0529     7.9020     2.4670     0.1280     0.0140   -41.7240    51.3110    11.4070    14.7880  -999.2500   177.4180
  116.5000     0.0520     7.9020     2.4680     0.1310     0.0110   -39.0360    52.9330    11.3010    14.6670  -999.2500   175.4560
  117.0000     0.0510     7.9020     2.4620     0.1350     0.0110   -38.6050    54.8910    11.1950    14.5470  -999.2500   173.4750
  117.5000     0.0491     7.9020     2.4550     0.1380     0.0170   -38.5780    56.7710    11.1570    14.4260  -999.2500   171.4790
  118.0000     0.0484     7.9020     2.4500     0.1340     0.0250   -37.2730    47.7280    11.1570    14.3060  -999.2500   173.0330
  118.5000     0.0477     7.9020     2.4530     0.1320     0.0330   -35.1880    46.3770    11.1570    14.1860  -999.2500   179.2310
  119.0000     0.0486     7.9020     2.4570     0.1340     0.0290   -33.0540    47.2370    11.2600    14.0650  -999.2500   184.9470
