~VERSION INFORMATION
 VERS.                2.0:   CWLS LOG ASCII STANDARD - VERSION 2.0
 WRAP.                 NO:   ONE LINE PER DEPTH STEP
~WELL INFORMATION
#MNEM.UNIT      DATA TYPE    INFORMATION
#----------   ------------   ------------------------------
 STRT.F            9.0000:   START DEPTH
 STOP.F          512.0000:   STOP DEPTH
 STEP.F            0.5000:   STEP LENGTH
 NULL.          -999.2500:   NO VALUE
 COMP. LAWRENCE-ALLISON &AS:   COMPANY
 WELL. NPR 3 #61-21SX10UP2:   WELL
 FLD .             TEAPOT:   FIELD
 LOC .      S10 T38N R78W:   LOCATION
 CNTY.            NATRONA:   COUNTY
 STAT.            WYOMING:   STATE
 CTRY. UNITED STATES OF AMERICA:   COUNTRY
 SRVC.      Dresser Atlas:   SERVICE COMPANY
 DATE.        13-DEC-1984:   LOGDATE
 API .       490251100500:   API NUMBER
~CURVE INFORMATION
#MNEM.UNIT       API CODE    CURVE DESCRIPTION
#----------   ------------   ------------------------------
 DEPT.F                  :   
 PORD.DEC    45 890 12 00:   POROSITY DENSITY SANDSTONE
 CNCF.DEC    42 890 03 00:   NEUTRON POROSITY SANDSTONE
 GRD .GAPI   45 310 01 00:   GAMMA RAY FROM DENSITY LOG
 CALD.IN     45 280 60 00:   CALIPER FROM DENSITY LOG
 CORR.G/C3   45 356 01 00:   DENSITY CORRECTION
 DEN .G/C3   45 350 01 00:   COMPENSATED BULK DENSTIY
 AC  .US/F   60 520 00 00:   ACCOUSTIC
 RILD.OHMM   07 120 46 00:   INDUCTION LOG DEEP RESISTIVITY
 RILM.OHMM   07 120 44 00:   INDUCTION LOG MEDIUM RESISTIVITY
 RFOC.OHMM   07 220 04 00:   RESISTIVITY FOCUSED LOG
 SPR .MV     11 010 01 00:   SPONTANEOUS POTENTIAL FROM RES.
 RS  .OHMM   11 220 09 00:   RESISTIVITY SHALLOW
 RD  .OHMM   11 220 10 00:   RESISTIVITY DEEP
~PARAMETER INFORMATION
#MNEM.UNIT          VALUE    DESCRIPTION
#----------   ------------   ------------------------------
 PD  .                 GL:   PERMANENT DATUM
 EPD .F              5157:   ELEVATION PERMANENT DATUM
 LMF .                 GL:   LOG MEASURED FROM
 DMF .                 GL:   DRILLING MEASURED FROM
 EGL .F              5157:   GROUND LEVEL
 DATE.         12-13-1984:   RUN DATE
 RUN .                  1:   RUN NUMBER
 DD  .F               514:   DEPTH DRILLER
 DL  .F               513:   DEPTH LOGGER
 BLI .F               512:   BOTTOM LOG INTERVAL
 TLI .F                20:   TOP LOG INTERVAL
 CS  .IN            8.625:   CASING SIZE
 CBD .F                20:   CASING BOTTOM DRILLER
 CBL .F                20:   CASING BOTTOM LOGGER
 BS  .IN            7.875:   BIT SIZE
 BSD .F               514:   BIT SIZE AT DEPTH
 DFT .          KCL WATER:   DRILLING FLUID TYPE
 MSS .           FLOWLINE:   MUD SAMPLE SOURCE
 RMS .OHMM            .17:   RESISTIVITY MUD SAMPLE
 MST .F                95:   MUD SAMPLE TEMPERATURE
 RMF .OHMM            .08:   RESISTIVITY MUD FILTRATE SAMPLE
 MFST.F                95:   MUD FILTRATE SAMPLE TEMPERATURE
 RMC .OHMM            .14:   RESISTIVITY MUD CAKE
 MCST.F                95:   MUD CAKE SAMPLE TEMPERATURE
 MFSS.               CALC:   MUD FILTRATE SAMPLE SOURCE
 MCSS.               CALC:   MUD CAKE SAMPLE SOURCE
 TCS .HRS              10:   TIME CURCULATED STOPPED
 MRT .F               100:   MAXIMUM RECORDED TEMPERATURE
 LUN .               6270:   LOGGING UNIT NUMBER
 LUL .                 FM:   LOGGING UNIT LOCATION
 ENGI.            LEBSOCK:   RECORDING ENGINEER
 WITN.        GREG GROOMS:   WITNESSED BY
 CLNT.            A2DTECH:   CLIENT CODE
 ORIG.           5" PRINT:   ORIGIN OF DATA
 UWI .       490251100500:   UNIQUE WELL ID
 DICO. A2D Technologies, Inc.:   DIGITIZING COMPANY
~OTHER INFORMATION
~A    DEPT    PORD       CNCF        GRD       CALD       CORR        DEN          AC      RILD       RILM       RFOC        SPR         RS         RD   
    9.0000  -999.2500  -999.2500  -999.2500  -999.2500  -999.2500  -999.2500   155.4296  -999.2500  -999.2500  -999.2500  -999.2500  -999.2500  -999.2500
    9.5000  -999.2500  -999.2500  -999.2500  -999.2500  -999.2500  -999.2500   153.7752  -999.2500  -999.2500  -999.2500  -999.2500  -999.2500  -999.2500
   10.0000  -999.2500  -999.2500  -999.2500  -999.2500  -999.2500  -999.2500   153.9322  -999.2500  -999.2500  -999.2500  -999.2500  -999.2500  -999.2500
   10.5000  -999.2500  -999.2500  -999.2500  -999.2500  -999.2500  -999.2500   154.6929  -999.2500  -999.2500  -999.2500  -999.2500  -999.2500  -999.2500
   11.0000  -999.2500  -999.2500  -999.2500  -999.2500  -999.2500  -999.2500   157.2650  -999.2500  -999.2500  -999.2500  -999.2500  -999.2500  -999.2500
   11.5000  -999.2500     0.2997    81.2189  -999.2500  -999.2500  -999.2500   167.0068  -999.2500  -999.2500  -999.2500  -999.2500  -999.2500  -999.2500
   12.0000  -999.2500     0.3061    79.5651  -999.2500  -999.2500  -999.2500   179.0128  -999.2500  -999.2500  -999.2500  -999.2500  -999.2500  -999.2500
   12.5000  -999.2500     0.3052    80.7607  -999.2500  -999.2500  -999.2500   189.6604  -999.2500  -999.2500  -999.2500  -999.2500  -999.2500  -999.2500
   13.0000  -999.2500     0.3010    82.2563  -999.2500  -999.2500  -999.2500   205.0688  -999.2500  -999.2500  -999.2500  -999.2500  -999.2500  -999.2500
   13.5000  -999.2500     0.3080    83.9018  -999.2500  -999.2500  -999.2500   154.8035  -999.2500  -999.2500  -999.2500  -999.2500  -999.2500  -999.2500
   14.0000  -999.2500     0.3189    86.1469  -999.2500  -999.2500  -999.2500   173.6035  -999.2500  -999.2500  -999.2500  -999.2500  -999.2500  -999.2500
   14.5000  -999.2500     0.3261    88.5545  -999.2500  -999.2500  -999.2500   187.4963  -999.2500  -999.2500  -999.2500  -999.2500  -999.2500  -999.2500
   15.0000  -999.2500     0.3235    89.7377  -999.2500  -999.2500  -999.2500   195.7287  -999.2500  -999.2500  -999.2500  -999.2500  -999.2500  -999.2500
   15.5000  -999.2500     0.3196    87.5975  -999.2500  -999.2500  -999.2500   203.1309  -999.2500  -999.2500  -999.2500  -999.2500  -999.2500  -999.2500
   16.0000  -999.2500     0.3169    81.9590  -999.2500  -999.2500  -999.2500   207.6653  -999.2500  -999.2500  -999.2500  -999.2500  -999.2500  -999.2500
   16.5000  -999.2500     0.3169    80.4303  -999.2500  -999.2500  -999.2500   211.5958  -999.2500  -999.2500  -999.2500  -999.2500  -999.2500  -999.2500
   17.0000  -999.2500     0.3193    80.2767  -999.2500  -999.2500  -999.2500   213.1867  -999.2500  -999.2500  -999.2500  -999.2500  -999.2500  -999.2500
   17.5000  -999.2500     0.3245    82.2220  -999.2500  -999.2500  -999.2500   213.1927  -999.2500  -999.2500  -999.2500  -999.2500  -999.2500  -999.2500
   18.0000  -999.2500     0.3263    91.5136  -999.2500  -999.2500  -999.2500   214.3308  -999.2500  -999.2500  -999.2500  -999.2500  -999.2500  -999.2500
   18.5000  -999.2500     0.3161    97.2071  -999.2500  -999.2500  -999.2500   218.7142  -999.2500  -999.2500  -999.2500  -999.2500  -999.2500  -999.2500
   19.0000  -999.2500     0.3131    99.6022  -999.2500  -999.2500  -999.2500   222.9467  -999.2500  -999.2500  -999.2500  -999.2500  -999.2500  -999.2500
   19.5000  -999.2500     0.3086   101.0977  -999.2500  -999.2500  -999.2500   227.1791  -999.2500  -999.2500  -999.2500  -999.2500  -999.2500  -999.2500
   20.0000  -999.2500     0.3022   101.9935  -999.2500  -999.2500  -999.2500   233.9021    20.7349    30.9162   138.6151  -999.2500  -999.2500  -999.2500
   20.5000     0.1914     0.3037   102.8894     7.7851    -0.0054     2.3582   239.7949     1.6821     1.8857   104.1527   -64.8364    10.0292  1288.6819
   21.0000     0.1775     0.3190   103.4854     7.8901     0.0066     2.3793   239.3481     1.4731     2.0777    51.5376   -65.2953    12.9723  1296.9480
   21.5000     0.1691     0.3347   103.6325     7.9649     0.0608     2.3973   232.8635     1.5140     2.3868    23.1340   -65.6042    15.0092  1306.5750
   22.0000     0.1791     0.3282   101.6788     7.9946     0.1029     2.3958   203.4356     2.4455     2.8989     6.6047   -65.9130    17.3658  1324.3623
   22.5000     0.2009     0.3251    99.4263     7.9336     0.1074     2.3580   180.8756     3.6592     3.8274     5.1384   -65.9238    19.2699  1340.5602
   23.0000     0.2045     0.3203   100.1722     7.8575     0.0771     2.3399   162.6929     4.5062     4.7465     4.9953   -66.0827    21.0869  1358.3756
   23.5000     0.1870     0.3025   103.9166     7.8117     0.0438     2.3519   157.4914     4.7624     4.9125     4.8900   -66.0916    23.7274  1376.6176
   24.0000     0.1578     0.2913   104.8376     7.7809     0.0241     2.3909   149.8748     4.5333     4.7730     5.1321   -66.1006    25.6054  1454.4752
   24.5000     0.1278     0.2998   103.1596     7.7652     0.0237     2.4446   144.0695     4.4685     4.6711     5.8148   -66.4093    26.2019  1572.2246
   25.0000     0.1173     0.3155   100.4572     7.7495     0.0450     2.4777   127.5482     4.4976     4.6086     6.1027   -66.8681    24.8787  1740.4366
   25.5000     0.1196     0.3259    99.5539     7.7339     0.0615     2.4845   123.4032     4.5584     4.7034     6.3162   -67.4767    24.8672  1851.6880
   26.0000     0.1316     0.3337    99.4003     7.7333     0.0569     2.4784   122.2017     4.8169     5.0402     6.4475   -68.3852    25.3807  1956.4142
   26.5000     0.1364     0.3305    99.8526     7.7327     0.0444     2.4610   123.0379     5.2338     5.6706     6.4899   -69.1437    25.5466  2000.5992
   27.0000     0.1373     0.3068   100.7671     7.7473     0.0309     2.4482   124.1760     5.7663     6.5143     6.5775   -69.7524    25.7133  2053.3064
   27.5000     0.1328     0.3000   102.9498     7.7618     0.0229     2.4527   124.9368     6.4421     7.0295     6.6670   -70.3610    26.0620  2093.8594
   28.0000     0.1322     0.3018   108.8056     7.7610     0.0142     2.4594   125.3201     6.8075     7.2753     6.9003   -70.8197    26.4152  2124.2976
   28.5000     0.1353     0.3102   112.1245     7.7604     0.0081     2.4571   125.6280     6.8517     7.4264     7.0430   -70.9786    26.4030  2153.2170
   29.0000     0.1353     0.3127   113.1702     7.7749     0.0035     2.4526   126.3888     6.8010     7.3711     7.0893   -71.4373    26.5754  2209.5361
   29.5000     0.1353     0.3082   113.9161     7.7743     0.0018     2.4533   127.3759     6.6573     7.3170     6.9841   -71.5962    26.7487  2239.2087
   30.0000     0.1465     0.2811   114.3631     7.7737     0.0017     2.4510   127.5314     6.5166     7.3650     6.7935   -71.7550    26.9232  2301.0242
   30.5000     0.1541     0.2751   113.3090     7.8033     0.0167     2.4274   126.7842     6.4684     7.5173     6.7436   -72.0638    26.9107  2381.0276
   31.0000     0.1517     0.2709   110.1569     7.8027     0.0468     2.4185   124.2996     6.8088     7.8891     6.8825   -72.0727    27.0864  2446.7581
   31.5000     0.1365     0.2697   106.1052     7.8021     0.0769     2.4330   120.6830     7.4558     8.2220     6.9761   -72.2316    27.0737  2531.8284
   32.0000     0.1112     0.2803   104.7522     7.8015     0.0843     2.4944   119.0286     8.1248     8.4505     7.0717   -72.5404    27.2505  2638.1172
   32.5000     0.0916     0.2867   103.5490     7.8009     0.0767     2.5224   118.5064     8.2356     8.7460     7.2172   -72.8492    27.4273  2748.8682
   33.0000     0.0995     0.2819   101.8962     7.7852     0.0539     2.5247   117.3803     8.2307     9.1150     7.3665   -73.3079    27.4154  2864.2686
   33.5000     0.1065     0.2795   100.9938     7.7846     0.0312     2.5050   115.4995     8.2851     9.4337     7.7312   -73.4667    27.5946  2984.5137
   34.0000     0.1089     0.2892   103.0881     7.7689     0.0145     2.4967   113.8452     8.4547     9.8317     8.1706   -73.9255    27.5814  3153.3091
   34.5000     0.1095     0.2928   105.0335     7.7381    -0.0007     2.4959   112.4927     8.6891     9.9660     8.5751   -74.2342    27.5686  3285.6885
