~VERSION INFORMATION
 VERS.                2.0:   CWLS LOG ASCII STANDARD - VERSION 2.0
 WRAP.                 NO:   ONE LINE PER DEPTH STEP
~WELL INFORMATION
#MNEM.UNIT      DATA TYPE    INFORMATION
#----------   ------------   ------------------------------
 STRT.F           28.5000:   START DEPTH
 STOP.F          516.0000:   STOP DEPTH
 STEP.F            0.5000:   STEP LENGTH
 NULL.          -999.2500:   NO VALUE
 COMP. FENIX & SCISSON INC:   COMPANY
 WELL.         SX 3 #54-3:   WELL
 FLD .            WILDCAT:   FIELD
 LOC .       S3 T38N R78W:   LOCATION
 CNTY.            NATRONA:   COUNTY
 STAT.            WYOMING:   STATE
 CTRY. UNITED STATES OF AMERICA:   COUNTRY
 SRVC.            Unknown:   SERVICE COMPANY
 DATE.        22-SEP-1978:   LOGDATE
 API .       490251069000:   API NUMBER
~CURVE INFORMATION
#MNEM.UNIT       API CODE    CURVE DESCRIPTION
#----------   ------------   ------------------------------
 DEPT.F                  :   
 SPR .MV     05 010 01 00:   SPONTANEOUS POTENTIAL FROM RES.
 ILD .OHMM   05 120 46 00:   INDUCTION LOG DEEP
 SN  .OHMM   05 040 16 00:   SHORT NORMAL 16"
 CALD.IN     45 280 60 00:   CALIPER
 GRD .GAPI   45 310 01 00:   GAMMA RAY FROM DENSITY LOG
 CORR.G/C3   45 356 01 00:   DENSITY CORRECTION
 DEN .G/C3   45 350 01 00:   COMPENSATED BULK DENSTIY
 DPHI.DEC    45 890 12 00:   DENSITY POROSITY SANDSTONE
~PARAMETER INFORMATION
#MNEM.UNIT          VALUE    DESCRIPTION
#----------   ------------   ------------------------------
 PD  .                 GL:   PERMANENT DATUM
 EPD .F              5168:   ELEVATION PERMANENT DATUM
 LMF .                 KB:   LOG MEASURED FROM
 DAPD.F                 4:   FEET ABOVE PERMANENT DATUM
 DMF .                 KB:   DRILLING MEASURED FROM
 EKB .F              5172:   KELLING BUSHING
 EGL .F              5168:   GROUND LEVEL
 DATE.            9-22-78:   RUN DATE
 RUN .                  1:   RUN NUMBER
 DD  .F               510:   DEPTH DRILLER
 DL  .F               517:   DEPTH LOGGER
 BLI .F               510:   BOTTOM LOG INTERVAL
 TLI .F                40:   TOP LOG INTERVAL
 CS  .IN            8.625:   CASING SIZE
 CBD .F                40:   CASING BOTTOM DRILLER
 CBL .F                48:   CASING BOTTOM LOGGER
 BS  .IN            7.875:   BIT SIZE
 BSD .F               510:   BIT SIZE AT DEPTH
 DFT .            KCL MUD:   DRILLING FLUID TYPE
 DFD .                8.7:   DRILLING FLUID DENSITY
 DFV .                 39:   DRILLING FLUID VISCOSITY
 DFPH.                  9:   DRILLING FLUID PH
 DFL .                8.9:   DRILLING FLUID LOSS
 MSS .          FLOW LINE:   MUD SAMPLE SOURCE
 RMS .OHMM            .32:   RESISTIVITY MUD SAMPLE
 MST .F                68:   MUD SAMPLE TEMPERATURE
 RMF .OHMM            .26:   RESISTIVITY MUD FILTRATE SAMPLE
 MFST.F                72:   MUD FILTRATE SAMPLE TEMPERATURE
 RMC .OHMM            .28:   RESISTIVITY MUD CAKE
 MCST.F                75:   MUD CAKE SAMPLE TEMPERATURE
 MFSS.               MEAS:   MUD FILTRATE SAMPLE SOURCE
 MCSS.               MEAS:   MUD CAKE SAMPLE SOURCE
 RMB .OHMM            .32:   RESISTIVITY MUD AT BHT
 BHT .F                69:   BOTTOM HOLE TEMPERATURE
 TCS .HRS               3:   TIME CURCULATED STOPPED
 MRT .F                69:   MAXIMUM RECORDED TEMPERATURE
 LUN .               2958:   LOGGING UNIT NUMBER
 LUL .               CASP:   LOGGING UNIT LOCATION
 ENGI.           REYNOLDS:   RECORDING ENGINEER
 WITN.              AMEND:   WITNESSED BY
 CLNT.            A2DTECH:   CLIENT CODE
 ORIG.           5" PRINT:   ORIGIN OF DATA
 UWI .       490251069000:   UNIQUE WELL ID
 DICO. A2D Technologies, Inc.:   DIGITIZING COMPANY
~OTHER INFORMATION
~A   DEPT      SPR        ILD         SN       CALD         GRD      CORR        DEN       DPHI   
   28.5000  -999.2500  -999.2500  -999.2500  -999.2500    97.7756  -999.2500  -999.2500  -999.2500
   29.0000  -999.2500  -999.2500  -999.2500  -999.2500    98.2250  -999.2500  -999.2500  -999.2500
   29.5000  -999.2500  -999.2500  -999.2500  -999.2500    99.2928  -999.2500  -999.2500  -999.2500
   30.0000  -999.2500  -999.2500  -999.2500  -999.2500   100.4239  -999.2500  -999.2500  -999.2500
   30.5000  -999.2500  -999.2500  -999.2500  -999.2500   105.5506  -999.2500  -999.2500  -999.2500
   31.0000  -999.2500  -999.2500  -999.2500  -999.2500   104.6358  -999.2500  -999.2500  -999.2500
   31.5000  -999.2500  -999.2500  -999.2500  -999.2500    96.9382  -999.2500  -999.2500  -999.2500
   32.0000  -999.2500  -999.2500  -999.2500  -999.2500    88.4818  -999.2500  -999.2500  -999.2500
   32.5000  -999.2500  -999.2500  -999.2500  -999.2500    84.5010  -999.2500  -999.2500  -999.2500
   33.0000  -999.2500  -999.2500  -999.2500  -999.2500    91.3667  -999.2500  -999.2500  -999.2500
   33.5000  -999.2500  -999.2500  -999.2500  -999.2500    96.9274  -999.2500  -999.2500  -999.2500
   34.0000  -999.2500  -999.2500  -999.2500  -999.2500    97.7753  -999.2500  -999.2500  -999.2500
   34.5000  -999.2500  -999.2500  -999.2500  -999.2500    97.5967  -999.2500  -999.2500  -999.2500
   35.0000  -999.2500  -999.2500  -999.2500  -999.2500    96.0158  -999.2500  -999.2500  -999.2500
   35.5000  -999.2500  -999.2500  -999.2500  -999.2500    94.4276  -999.2500  -999.2500  -999.2500
   36.0000  -999.2500  -999.2500  -999.2500  -999.2500    94.1618  -999.2500  -999.2500  -999.2500
   36.5000  -999.2500  -999.2500  -999.2500  -999.2500    94.1752  -999.2500  -999.2500  -999.2500
   37.0000  -999.2500  -999.2500  -999.2500  -999.2500    93.9509  -999.2500  -999.2500  -999.2500
   37.5000  -999.2500  -999.2500  -999.2500  -999.2500    94.0011  -999.2500  -999.2500  -999.2500
   38.0000  -999.2500  -999.2500  -999.2500  -999.2500    94.6274  -999.2500  -999.2500  -999.2500
   38.5000  -999.2500  -999.2500  -999.2500  -999.2500    95.1873  -999.2500  -999.2500  -999.2500
   39.0000  -999.2500  -999.2500  -999.2500  -999.2500    95.0382  -999.2500  -999.2500  -999.2500
   39.5000  -999.2500  -999.2500  -999.2500  -999.2500    94.7839  -999.2500  -999.2500  -999.2500
   40.0000  -999.2500  -999.2500  -999.2500  -999.2500    94.5935  -999.2500  -999.2500  -999.2500
   40.5000  -999.2500  -999.2500  -999.2500  -999.2500    93.1526  -999.2500  -999.2500  -999.2500
   41.0000  -999.2500  -999.2500  -999.2500  -999.2500    91.4595  -999.2500  -999.2500  -999.2500
   41.5000  -999.2500  -999.2500  -999.2500  -999.2500    92.1338  -999.2500  -999.2500  -999.2500
   42.0000  -999.2500  -999.2500  -999.2500  -999.2500    95.1274  -999.2500  -999.2500  -999.2500
   42.5000  -999.2500  -999.2500  -999.2500  -999.2500    95.6374  -999.2500  -999.2500  -999.2500
   43.0000  -999.2500  -999.2500  -999.2500  -999.2500    89.5515  -999.2500  -999.2500  -999.2500
   43.5000  -999.2500  -999.2500  -999.2500  -999.2500    89.0338  -999.2500  -999.2500  -999.2500
   44.0000  -999.2500  -999.2500  -999.2500  -999.2500    93.7813  -999.2500  -999.2500  -999.2500
   44.5000  -999.2500  -999.2500  -999.2500  -999.2500    97.7297  -999.2500  -999.2500  -999.2500
   45.0000  -999.2500  -999.2500  -999.2500  -999.2500    96.2507  -999.2500  -999.2500  -999.2500
   45.5000  -999.2500  -999.2500  -999.2500  -999.2500    95.4715  -999.2500  -999.2500  -999.2500
   46.0000  -999.2500  -999.2500  -999.2500  -999.2500   100.9067  -999.2500  -999.2500  -999.2500
   46.5000  -999.2500  -999.2500  -999.2500  -999.2500   115.1361  -999.2500  -999.2500  -999.2500
   47.0000  -999.2500  -999.2500  -999.2500  -999.2500   120.9190  -999.2500  -999.2500  -999.2500
   47.5000  -999.2500  -999.2500   747.7358  -999.2500   119.4762  -999.2500  -999.2500  -999.2500
   48.0000   -50.0996  -999.2500    10.0911     8.5972   122.3790     0.0250     2.4322     0.1494
   48.5000   -56.9402  -999.2500     0.9934     8.4835   126.7663     0.0370     2.4292     0.1498
   49.0000   -61.6932     0.4447     1.8339     8.3738   126.9944     0.0586     2.4265     0.1472
   49.5000   -66.8995     0.4447     3.4988     8.3160   123.9299     0.0853     2.4272     0.1417
   50.0000   -70.6295     1.7298     4.1247     8.2935   116.3478     0.1145     2.4449     0.1285
   50.5000   -72.2226     3.4919     4.5483     8.2197   109.1436     0.1089     2.4675     0.1152
   51.0000   -73.6236     4.3291     4.9980     8.0427   104.7525     0.0903     2.4905     0.1196
   51.5000   -77.6397     5.7430     6.4798     7.8670   102.8056     0.0682     2.4939     0.1242
   52.0000   -78.1567     6.9768     6.9341     7.7435   104.1444     0.0463     2.4760     0.1340
   52.5000   -78.2026     6.9768     7.5255     7.7363   104.9075     0.0285     2.4609     0.1434
   53.0000   -78.1393     6.9599     8.0594     7.7141   105.1067     0.0269     2.4457     0.1511
   53.5000   -77.8674     6.9281     8.4154     7.7156   110.7291     0.0270     2.4306     0.1557
   54.0000   -77.6271     6.8965     8.7824     7.7150   111.3584     0.0270     2.4164     0.1571
   54.5000   -77.3943     6.8651     8.9533     7.7168   110.9716     0.0270     2.4161     0.1526
   55.0000   -77.1605     6.8338     8.9475     7.7951   111.4551     0.0270     2.4218     0.1480
   55.5000   -76.9272     6.8026     8.9116     7.8797   114.0002     0.0270     2.4299     0.1463
   56.0000   -76.6921     6.7716     8.8755     7.9640   116.9070     0.0278     2.4344     0.1452
   56.5000   -76.5953     6.7407     8.8396     8.0483   127.6112     0.0295     2.4334     0.1418
   57.0000   -76.5034     6.7100     8.8041     8.1325   131.6699     0.0312     2.4372     0.1361
   57.5000   -76.4134     6.6794     8.7894     8.2009   129.9471     0.0330     2.4490     0.1303
   58.0000   -77.3960     6.6489     8.7894     8.0847   128.0809     0.0347     2.4611     0.1245
   58.5000   -79.7477     6.6186     8.8506     8.1662   127.7494     0.0365     2.4730     0.1188
   59.0000   -81.6335     6.6006     8.9125     8.3117   128.1167     0.0382     2.4818     0.1126
   59.5000   -83.2398     6.6048     8.9749     8.3180   128.1750     0.0399     2.4835     0.1115
   60.0000   -83.9280     6.6151     9.0364     8.3280   120.6578     0.0417     2.4891     0.1094
   60.5000   -84.3529     6.6253     9.3809     8.3362   112.2147     0.0435     2.5007     0.1074
   61.0000   -84.7654     6.6356     9.7314     8.2898   108.3730     0.0509     2.5066     0.1089
   61.5000   -85.1514     6.6459    10.0950     8.2402   117.4756     0.0606     2.4827     0.1272
   62.0000   -85.1618     6.6562    10.3795     8.1891   122.1679     0.0784     2.4611     0.1450
   62.5000   -85.1598     6.6620    10.4424     8.1543   120.9862     0.0839     2.4394     0.1406
   63.0000   -85.1594     6.6608    10.5176     8.0779   120.2620     0.0818     2.4376     0.1351
   63.5000   -85.1594     6.7400    10.5728     7.9216   120.2288     0.0703     2.4477     0.1296
   64.0000   -85.1594     6.8029    10.5741     7.7663   118.4886     0.0554     2.4674     0.1241
   64.5000   -85.1591     6.8665    10.4905     7.6122   111.8630     0.0403     2.4829     0.1178
   65.0000   -85.1579     6.9305    10.4138     7.5139   110.9724     0.0255     2.4794     0.1299
   65.5000   -85.1602     6.9951    10.3377     7.5151   116.0615     0.0144     2.4652     0.1429
   66.0000   -85.2733     7.0606    10.1280     7.5150   116.7073     0.0131     2.4387     0.1457
   66.5000   -85.7481     7.1619     9.6084     7.5278   114.8067     0.0129     2.4374     0.1484
   67.0000   -86.1802     7.3507     9.1155     7.5676   109.0978     0.0170     2.4324     0.1514
   67.5000   -86.2843     7.5445     8.7894     7.6071   103.8701     0.0177     2.4228     0.1658
   68.0000   -86.3985     7.7434     8.7086     7.6466   104.0936     0.0244     2.4038     0.1794
   68.5000   -86.5143     7.9476     8.6224     7.6861   108.0958     0.0308     2.3833     0.1822
