~VERSION INFORMATION
 VERS.                2.0:   CWLS LOG ASCII STANDARD - VERSION 2.0
 WRAP.                 NO:   ONE LINE PER DEPTH STEP
~WELL INFORMATION
#MNEM.UNIT      DATA TYPE    INFORMATION
#----------   ------------   ------------------------------
 STRT.F         1596.0000:   START DEPTH
 STOP.F         3210.0000:   STOP DEPTH
 STEP.F            0.5000:   STEP LENGTH
 NULL.          -999.2500:   NO VALUE
 COMP.   FLUOR DANIEL INC:   COMPANY
 WELL. NAVAL PETROLEUM RESERVE 3 X-23 #73-23:   WELL
 FLD .             TEAPOT:   FIELD
 LOC .      S23 T38N R78W:   LOCATION
 CNTY.            NATRONA:   COUNTY
 STAT.            WYOMING:   STATE
 CTRY. UNITED STATES OF AMERICA:   COUNTRY
 SRVC.            Unknown:   SERVICE COMPANY
 DATE.        29-JAN-1995:   LOGDATE
 API .       490252265000:   API NUMBER
~CURVE INFORMATION
#MNEM.UNIT       API CODE    CURVE DESCRIPTION
#----------   ------------   ------------------------------
 DEPT.F                  :   
 TGAS.TC/CC  91 830 01 00:   TOTAL GAS UNIT
 ROP .FT/HR  91 810 01 00:   RAT OF DRILLING PENETRATION
~PARAMETER INFORMATION
#MNEM.UNIT          VALUE    DESCRIPTION
#----------   ------------   ------------------------------
 EKB .F              5433:   KELLING BUSHING
 EGL .F              5423:   GROUND LEVEL
 DATE.        29-JAN-1995:   RUN DATE
 RUN .                  1:   RUN NUMBER
 BLI .F              3210:   BOTTOM LOG INTERVAL
 TLI .F              1600:   TOP LOG INTERVAL
 WITN.     C.TOWER/R.HUSK:   WITNESSED BY
 CLNT.            A2DTECH:   CLIENT CODE
 ORIG.           5" PRINT:   ORIGIN OF DATA
 UWI .       490252265000:   UNIQUE WELL ID
 DICO. A2D Technologies, Inc.:   DIGITIZING COMPANY
~OTHER INFORMATION
~A  DEPT        TGAS        ROP 
# ...
 1717.5000     1.1321     0.6698
 1718.0000     1.3208     0.6698
 1718.5000     1.3208     0.6698
 1719.0000     1.3208     0.6698
 1719.5000     1.3208     0.6698
 1720.0000     1.3208     0.6698
 1720.5000     1.3208     0.6698
 1721.0000     1.3208     0.6698
 1721.5000     1.3208     0.6613
 1722.0000     1.1321     0.5566
 1722.5000     1.1321     0.5660
 1723.0000     1.3208     0.5660
 1723.5000     1.3208     0.5660
 1724.0000     1.1321     0.5660
 1724.5000     1.1321     0.5660
 1725.0000     0.9434     0.5660
 1725.5000     0.7547     0.5660
 1726.0000     0.7547     0.5566
 1726.5000     0.5660     0.5591
 1727.0000     0.5660     0.5654
 1727.5000     0.5808     0.5716
 1728.0000     0.5983     0.5778
 1728.5000     0.6157     0.5841
 1729.0000     0.6332     0.5903
 1729.5000     0.6507     0.5965
 1730.0000     0.6610     0.5991
 1730.5000     0.6656     0.5993
 1731.0000     0.4803     0.6090
 1731.5000     0.4861     0.6092
 1732.0000     0.4907     0.6094
 1732.5000     0.4953     0.6097
 1733.0000     0.6887     0.6099
 1733.5000     0.6934     0.6007
 1734.0000     0.6990     0.6009
 1734.5000     0.5138     0.5917
 1735.0000     0.5195     0.5920
 1735.5000     0.5242     0.5828
 1736.0000     0.7174     0.5831
 1736.5000     0.7217     0.5738
 1737.0000     0.7267     0.5741
 1737.5000     0.7313     0.5743
 1738.0000     0.9246     0.5745
 1738.5000     0.9292     0.5748
 1739.0000     1.1226     0.5844
 1739.5000     1.3169     0.5847
 1740.0000     1.3215     0.5849
 1740.5000     1.1375     0.5851
 1741.0000     0.9522     0.5759
 1741.5000     0.9580     0.5668
 1742.0000     0.9626     0.8123
 1742.5000     0.9672     0.8030
 1743.0000     0.7832     0.7938
 1743.5000     0.9764     0.8036
 1744.0000     0.7924     0.6151
 1744.5000     0.7972     0.5776
 1745.0000     0.8028     0.5778
 1745.5000     0.8074     0.5686
 1746.0000     0.8120     0.5689
 1746.5000     1.0053     0.5691
 1747.0000     1.0099     0.5689
 1747.5000     1.0145     0.5495
 1748.0000     1.0191     0.7585
 1748.5000     1.0237     0.7305
 1749.0000     1.0283     0.7307
 1749.5000     1.0330     0.7309
 1750.0000     1.0622     0.7453
 1750.5000     1.1527     0.7358
 1751.0000     1.2432     0.7371
 1751.5000     1.3208     0.7453
 1752.0000     1.3208     1.0000
 1752.5000     1.3208     1.0094
 1753.0000     1.3208     1.0000
 1753.5000     1.3208     1.0000
 1754.0000     1.3208     0.8208
 1754.5000     1.1321     0.8113
 1755.0000     1.1321     0.8019
 1755.5000     0.9434     0.8019
 1756.0000     0.7547     0.8019
 1756.5000     0.9434     0.5660
 1757.0000     1.1321     0.5660
 1757.5000     1.3208     0.5660
 1758.0000     1.3208     0.5660
 1758.5000     1.1321     0.5660
 1759.0000     1.1321     0.5660
 1759.5000     1.3208     0.5660
 1760.0000     1.3208     0.5660
 1760.5000     1.5094     0.5660
 1761.0000     1.5094     0.5660
 1761.5000     1.5094     0.5660
 1762.0000     1.5094     0.5660
 1762.5000     1.5094     0.5660
 1763.0000     1.6981     0.5660
 1763.5000     1.6981     0.5660
 1764.0000     1.5094     0.5358
 1764.5000     1.5094     0.5356
 1765.0000     1.3208     0.5354
 1765.5000     1.3208     0.5351
 1766.0000     1.3208     0.5349
 1766.5000     1.3208     0.5346
 1767.0000     1.3208     0.5344
 1767.5000     1.3208     0.5342
 1768.0000     1.3208     0.5245
 1768.5000     1.2856     0.5243
 1769.0000     1.2437     0.5240
 1769.5000     1.2017     0.5238
 1770.0000     1.1597     0.5236
 1770.5000     1.1321     0.5328
 1771.0000     0.9434     0.5325
 1771.5000     0.9434     0.5417
 1772.0000     0.7547     0.5415
 1772.5000     0.7547     0.5413
 1773.0000     0.5660     0.5505
 1773.5000     0.5660     0.5502
 1774.0000     0.5660     0.5500
 1774.5000     0.5660     0.5592
 1775.0000     0.7547     0.5589
 1775.5000     0.7547     0.5587
 1776.0000     0.9434     0.5680
 1776.5000     0.9434     0.5677
 1777.0000     0.9434     0.5674
 1777.5000     0.7547     0.5672
 1778.0000     0.9434     0.5670
 1778.5000     0.9434     0.5667
 1779.0000     0.9434     0.5665
 1779.5000     0.9434     0.5663
 1780.0000     0.9434     0.5660
 1780.5000     0.9434     0.6696
 1781.0000     0.9434     0.6681
 1781.5000     0.9434     0.6596
 1782.0000     0.7547     0.6689
 1782.5000     0.7547     0.6686
 1783.0000     0.7547     0.6684
 1783.5000     0.7547     0.6681
 1784.0000     0.7547     0.5264
 1784.5000     0.5660     0.5167
 1785.0000     0.5660     0.5165
 1785.5000     0.5660     0.5172
 1786.0000     0.5660     0.5178
 1786.5000     0.7547     0.5184
 1787.0000     0.7547     0.5190
 1787.5000     0.7547     0.5196
 1788.0000     0.7547     0.5202
 1788.5000     0.7547     0.5208
 1789.0000     0.7547     0.5214
 1789.5000     0.7547     0.5219
 1790.0000     0.5660     0.5225
 1790.5000     0.5660     0.5231
 1791.0000     0.5660     0.5237
 1791.5000     0.7547     0.5244
 1792.0000     0.7547     0.5340
 1792.5000     0.7547     0.5436
 1793.0000     0.7547     0.5439
 1793.5000     0.7547     0.5441
 1794.0000     0.9434     0.5443
 1794.5000     0.9434     0.5446
 1795.0000     0.9434     0.5354
 1795.5000     1.1321     0.5356
 1796.0000     1.3208     0.5453
 1796.5000     1.3208     0.5361
 1797.0000     1.3208     0.5371
 1797.5000     1.1321     0.5460
 1798.0000     1.1321     0.5462
 1798.5000     1.1321     0.5465
 1799.0000     0.9434     0.5467
 1799.5000     0.9434     0.5470
 1800.0000     0.9434     0.5472
 1800.5000     0.7547     0.5474
 1801.0000     0.5660     0.5477
 1801.5000     0.5660     0.5479
 1802.0000     0.5660     0.5481
 1802.5000     0.7547     0.5483
 1803.0000     0.7547     0.5486
 1803.5000     0.7547     0.5464
 1804.0000     0.7547     0.5251
 1804.5000     0.7547     0.5000
 1805.0000     0.7547     0.5000
 1805.5000     0.9434     0.5094
 1806.0000     1.1321     0.5094
 1806.5000     1.3208     0.5189
 1807.0000     1.3208     0.5189
 1807.5000     1.3208     0.5236
 1808.0000     1.3208     0.5283
 1808.5000     1.3208     0.5283
 1809.0000     1.3208     0.5377
 1809.5000     1.1321     0.5377
 1810.0000     1.1321     0.5377
 1810.5000     0.9434     0.5377
 1811.0000     0.9434     0.5377
 1811.5000     0.9434     0.5377
 1812.0000     0.9434     0.5377
 1812.5000     0.7547     0.5377
 1813.0000     0.7547     0.5377
 1813.5000     0.7547     0.5377
 1814.0000     0.7547     0.5377
 1814.5000     0.5660     0.5377
 1815.0000     0.5660     0.5472
 1815.5000     0.3774     0.5472
 1816.0000     0.5660     0.5472
 1816.5000     0.5660     0.5472
 1817.0000     0.7547     0.5459
 1817.5000     0.7547     0.5377
 1818.0000     0.5660     0.5472
 1818.5000     0.5660     0.5566
 1819.0000     0.5660     0.5566
 1819.5000     0.5660     0.5660
 1820.0000     0.5660     0.5660
 1820.5000     0.7547     0.5660
 1821.0000     0.9434     0.5660
 1821.5000     1.1321     0.5660
 1822.0000     1.1321     0.5660
 1822.5000     1.3208     0.5660
 1823.0000     1.1321     0.5660
 1823.5000     1.1321     0.5660
 1824.0000     1.1321     0.5566
 1824.5000     1.1321     0.5566
 1825.0000     1.3208     0.5472
 1825.5000     1.1321     0.5472
 1826.0000     1.1321     0.5472
 1826.5000     1.1321     0.5472
 1827.0000     1.1321     0.5472
 1827.5000     1.1321     0.5472
 1828.0000     1.1321     0.5472
 1828.5000     1.1321     0.5472
 1829.0000     0.9434     0.5465
 1829.5000     0.9434     0.5472
 1830.0000     0.9295     0.5472
 1830.5000     0.8612     0.5472
 1831.0000     0.7930     0.5468
 1831.5000     0.7248     0.5455
 1832.0000     0.6566     0.5442
 1832.5000     0.5884     0.5428
 1833.0000     0.5660     0.5415
 1833.5000     0.5660     0.5402
 1834.0000     0.5660     0.5389
 1834.5000     0.5660     0.5377
 1835.0000     0.5660     0.5377
 1835.5000     0.7547     0.5472
 1836.0000     0.7547     0.5472
 1836.5000     0.7547     0.5283
 1837.0000     0.9434     0.5283
 1837.5000     0.9434     0.5189
 1838.0000     1.1321     0.5189
 1838.5000     1.3208     0.5189
