~VERSION INFORMATION
 VERS.                2.0:   CWLS LOG ASCII STANDARD - VERSION 2.0
 WRAP.                 NO:   ONE LINE PER DEPTH STEP
~WELL INFORMATION
#MNEM.UNIT      DATA TYPE    INFORMATION
#----------   ------------   ------------------------------
 STRT.F           20.0000:   START DEPTH
 STOP.F          626.0000:   STOP DEPTH
 STEP.F            0.5000:   STEP LENGTH
 NULL.          -999.2500:   NO VALUE
 COMP. FENIX & SCISSON INC:   COMPANY
 WELL. NPR-3  38-S-34 #38-34:   WELL
 FLD .             TEAPOT:   FIELD
 LOC .      S34 T39N R78W:   LOCATION
 CNTY.            NATRONA:   COUNTY
 STAT.            WYOMING:   STATE
 CTRY. UNITED STATES OF AMERICA:   COUNTRY
 SRVC.           BIRDWELL:   SERVICE COMPANY
 DATE.        08-AUG-1978:   LOGDATE
 API .       490251068300:   API NUMBER
~CURVE INFORMATION
#MNEM.UNIT       API CODE    CURVE DESCRIPTION
#----------   ------------   ------------------------------
 DEPT.F                  :   
 SPR .MV     05 010 01 00:   SPONTANEOUS POTENTIAL FROM RES.
 SN  .OHMM   05 040 16 00:   SHORT NORMAL 16"
 IL  .OHMM   05 120 00 00:   INDUCTION LOG
 RHOB.G/C3   45 350 01 00:   BULK DENSITY
 DPHI.DEC    45 890 12 00:   DENSITY POROSITY SANDSTONE
 CORR.G/C3   45 356 01 00:   DENSITY CORRECTION
 GRD .GAPI   45 310 01 00:   GAMMA RAY FROM DENSITY LOG
 CALD.IN     45 280 60 00:   CALIPER
~PARAMETER INFORMATION
#MNEM.UNIT          VALUE    DESCRIPTION
#----------   ------------   ------------------------------
 PD  .                 GL:   PERMANENT DATUM
 EPD .F              5213:   ELEVATION PERMANENT DATUM
 LMF .                 KB:   LOG MEASURED FROM
 DAPD.F                 4:   FEET ABOVE PERMANENT DATUM
 DMF .                 KB:   DRILLING MEASURED FROM
 EKB .F              5217:   KELLING BUSHING
 EGL .F              5213:   GROUND LEVEL
 DATE.             8-8-78:   RUN DATE
 RUN .                  1:   RUN NUMBER
 DD  .F               620:   DEPTH DRILLER
 DL  .F               632:   DEPTH LOGGER
 BLI .F               626:   BOTTOM LOG INTERVAL
 TLI .F                35:   TOP LOG INTERVAL
 CS  .IN            8.625:   CASING SIZE
 CBL .F                35:   CASING BOTTOM LOGGER
 BS  .IN            7.875:   BIT SIZE
 BSD .F               620:   BIT SIZE AT DEPTH
 DFT .                KCL:   DRILLING FLUID TYPE
 DFD .                8.7:   DRILLING FLUID DENSITY
 DFV .                 33:   DRILLING FLUID VISCOSITY
 DFPH.                  9:   DRILLING FLUID PH
 DFL .                  5:   DRILLING FLUID LOSS
 MSS .          FLOW LINE:   MUD SAMPLE SOURCE
 RMS .OHMM            .12:   RESISTIVITY MUD SAMPLE
 MST .F                80:   MUD SAMPLE TEMPERATURE
 RMF .OHMM            .13:   RESISTIVITY MUD FILTRATE SAMPLE
 MFST.F                83:   MUD FILTRATE SAMPLE TEMPERATURE
 RMC .OHMM            .16:   RESISTIVITY MUD CAKE
 MCST.F                84:   MUD CAKE SAMPLE TEMPERATURE
 MFSS.               MEAS:   MUD FILTRATE SAMPLE SOURCE
 TCS .HRS               1:   TIME CURCULATED STOPPED
 LUN .               3006:   LOGGING UNIT NUMBER
 LUL .               CASP:   LOGGING UNIT LOCATION
 ENGI.             MILLER:   RECORDING ENGINEER
 WITN.           MCGINLEY:   WITNESSED BY
 CLNT.            A2DTECH:   CLIENT CODE
 ORIG.           5" PRINT:   ORIGIN OF DATA
 UWI .       490251068300:   UNIQUE WELL ID
 DICO. A2D Technologies, Inc.:   DIGITIZING COMPANY
~OTHER INFORMATION
~A   DEPT      SPR         SN         IL       RHOB       DPHI       CORR         GRD      CALD   
# ...
  303.5000   -33.5378     6.2533     5.9805     2.4805     0.1146     0.0353    94.1656     7.7014
  304.0000   -33.5229     6.2235     5.9713     2.4878     0.1119     0.0321    95.4471     7.7042
  304.5000   -33.5086     6.1951     5.9714     2.4881     0.1181     0.0289    96.7584     7.7071
  305.0000   -33.5190     6.1799     5.9714     2.4813     0.1233     0.0258    98.0508     7.7099
  305.5000   -33.5624     6.1653     5.9677     2.4649     0.1276     0.0236    98.1842     7.7130
  306.0000   -33.6054     6.1508     5.9551     2.4601     0.1293     0.0244    94.6642     7.7021
  306.5000   -33.6487     6.1363     5.9426     2.4599     0.1303     0.0252    91.7469     7.6855
  307.0000   -33.6918     6.1218     5.9302     2.4593     0.1303     0.0260    94.5023     7.6687
  307.5000   -33.7350     6.1073     5.9178     2.4587     0.1302     0.0268    97.2557     7.6519
  308.0000   -33.7782     6.0929     5.9054     2.4581     0.1302     0.0274    96.9414     7.6351
  308.5000   -33.8214     6.0786     5.8930     2.4578     0.1301     0.0262    97.1577     7.6183
  309.0000   -33.8646     6.0642     5.8807     2.4574     0.1300     0.0249    99.8977     7.6015
  309.5000   -33.9010     6.0499     5.8683     2.4570     0.1295     0.0236   100.6550     7.5847
  310.0000   -33.9001     6.0356     5.8561     2.4609     0.1277     0.0224    99.8273     7.5679
  310.5000   -33.9000     6.0214     5.8438     2.4618     0.1330     0.0211    99.1326     7.5569
  311.0000   -33.9000     6.0072     5.8315     2.4559     0.1330     0.0199    99.2061     7.5712
  311.5000   -33.9000     5.9930     5.8193     2.4542     0.1318     0.0186    99.2748     7.5849
  312.0000   -33.9000     5.9789     5.8071     2.4543     0.1314     0.0175    99.3094     7.5986
  312.5000   -33.9000     5.9648     5.7950     2.4545     0.1319     0.0215    98.6429     7.6123
  313.0000   -33.9000     5.9507     5.7828     2.4547     0.1324     0.0258    95.8048     7.6260
  313.5000   -33.9000     5.9367     5.7707     2.4549     0.1324     0.0302    93.0441     7.6397
  314.0000   -33.9000     5.9227     5.7586     2.4550     0.1327     0.0335    92.3710     7.6534
  314.5000   -33.9000     5.8787     5.6975     2.4530     0.1343     0.0327   102.2663     7.6671
  315.0000   -33.9000     5.8137     5.5982     2.4511     0.1358     0.0320   102.1804     7.6809
  315.5000   -33.9000     5.7493     5.5007     2.4491     0.1373     0.0313    99.7844     7.6945
  316.0000   -33.9000     5.6856     5.3972     2.4472     0.1379     0.0305    96.6281     7.7085
  316.5000   -33.9000     5.6227     5.3824     2.4463     0.1376     0.0298    96.1591     7.6989
  317.0000   -33.9000     5.5605     5.3664     2.4471     0.1373     0.0291    95.7600     7.6750
  317.5000   -33.9000     5.5481     5.3504     2.4478     0.1370     0.0284    94.8779     7.6511
  318.0000   -33.9000     5.5730     5.3345     2.4485     0.1369     0.0276    93.8560     7.6378
  318.5000   -33.9000     5.5935     5.3186     2.4447     0.1449     0.0291    92.8241     7.6511
  319.0000   -33.9000     5.6716     5.2990     2.4338     0.1441     0.0312    91.7765     7.6639
  319.5000   -33.9000     5.7740     5.3660     2.4339     0.1444     0.0334    91.3443     7.6767
  320.0000   -33.9000     5.9167     5.4563     2.4304     0.1465     0.0355    95.1421     7.6901
  320.5000   -33.9000     5.9095     5.5482     2.4269     0.1419     0.0374    99.6417     7.6734
  321.0000   -33.9000     5.8964     5.6491     2.4373     0.1347     0.0303   101.1622     7.6438
  321.5000   -33.9000     5.8839     5.6337     2.4522     0.1343     0.0224   101.9726     7.6137
  322.0000   -33.9000     5.8714     5.6146     2.4501     0.1364     0.0182   102.5663     7.5836
  322.5000   -33.9000     5.8590     5.5955     2.4451     0.1368     0.0229    98.3330     7.5552
  323.0000   -33.9002     5.8465     5.5764     2.4461     0.1347     0.0275    94.9964     7.5525
  323.5000   -33.9001     5.8341     5.5575     2.4470     0.1323     0.0323    95.9701     7.5506
  324.0000   -33.8864     5.8215     5.5223     2.4577     0.1298     0.0315    97.0957     7.5487
  324.5000   -33.8153     5.8090     5.4716     2.4628     0.1309     0.0276    89.0873     7.5467
  325.0000   -33.7478     5.7207     5.4213     2.4588     0.1348     0.0237    86.9699     7.5447
  325.5000   -33.7479     5.6305     5.3715     2.4508     0.1348     0.0198    91.4318     7.5428
  326.0000   -33.9060     5.5481     5.3222     2.4553     0.1340     0.0159    96.1369     7.5408
  326.5000   -34.0613     5.4652     5.2735     2.4437     0.1407     0.0188    98.4858     7.5388
  327.0000   -34.2159     5.3890     5.1587     2.4401     0.1406     0.0228    98.3475     7.5368
  327.5000   -34.2764     5.3142     4.9902     2.4400     0.1405     0.0199    98.2048     7.5349
  328.0000   -34.2242     5.2037     4.8273     2.4401     0.1404     0.0168    98.9094     7.5375
  328.5000   -34.1725     5.0868     4.6697     2.4401     0.1415     0.0137   100.1866     7.5403
  329.0000   -34.1209     4.9727     4.4886     2.4399     0.1433     0.0117   101.4760     7.5430
  329.5000   -34.0430     4.8339     4.4891     2.4357     0.1461     0.0182   102.1198     7.5458
  330.0000   -33.9491     4.8773     4.5034     2.4278     0.1491     0.0246   101.1771     7.5486
  330.5000   -33.8547     4.9340     4.5150     2.4288     0.1521     0.0248    98.1502     7.5514
  331.0000   -33.7616     5.0640     4.5264     2.4252     0.1550     0.0217    95.1541     7.5542
  331.5000   -33.7073     5.2850     4.6809     2.4185     0.1610     0.0185    92.1442     7.5560
  332.0000   -33.7320     5.5177     5.0093     2.4061     0.1678     0.0232    89.1327     7.5590
  332.5000   -33.7554     5.7593     5.3606     2.3857     0.1751     0.0486    89.4427     7.5620
  333.0000   -33.7790     5.8879     5.7366     2.3802     0.1755     0.0681    93.4620     7.5650
  333.5000   -33.8026     5.9313     5.8090     2.4236     0.1595     0.0432    97.5512     7.5681
  334.0000   -33.8261     5.9750     5.8090     2.4330     0.1476     0.0170   101.4877     7.5711
  334.5000   -33.8497     6.0190     5.8090     2.4252     0.1427     0.0095   101.9628     7.5743
  335.0000   -33.8736     6.0634     5.8090     2.4360     0.1384     0.0138   100.9566     7.5686
  335.5000   -33.8998     6.1045     5.8090     2.4468     0.1387     0.0183    99.2855     7.5615
  336.0000   -33.8009     6.1631     5.8565     2.4454     0.1392     0.0227    97.6281     7.5543
  336.5000   -33.6845     6.2523     6.1384     2.4458     0.1360     0.0244    96.9749     7.5472
  337.0000   -33.5755     6.2603     6.0839     2.4507     0.1327     0.0174    97.1806     7.5402
  337.5000   -33.7864     6.2693     6.0052     2.4555     0.1309     0.0105    97.4304     7.5360
  338.0000   -34.5445     6.2784     5.9714     2.4575     0.1312     0.0034    97.8576     7.5429
  338.5000   -35.1336     6.2875     5.9714     2.4564     0.1315     0.0078    99.1445     7.5495
  339.0000   -35.2234     6.2966     5.9714     2.4553     0.1318     0.0165    98.4389     7.5561
  339.5000   -35.3201     6.3056     5.9714     2.4540     0.1303     0.0252    94.4950     7.5626
  340.0000   -35.4169     6.3105     5.9714     2.4641     0.1279     0.0255    90.6143     7.5692
  340.5000   -35.5142     6.2857     5.9714     2.4644     0.1255     0.0255    88.4417     7.5757
  341.0000   -35.6116     6.2643     5.9715     2.4629     0.1231     0.0256    91.7569     7.5824
  341.5000   -35.6993     6.2430     5.9711     2.4699     0.1207     0.0274    94.4430     7.5890
  342.0000   -35.7004     6.2217     5.9724     2.4790     0.1192     0.0253    97.1388     7.5908
  342.5000   -35.7001     6.2006     5.9213     2.4802     0.1196     0.0233    99.8249     7.5634
  343.0000   -35.7000     6.1795     5.8762     2.4768     0.1200     0.0213   102.1629     7.5362
  343.5000   -35.7000     6.1585     5.8312     2.4731     0.1204     0.0194   102.9958     7.5093
