~VERSION INFORMATION
 VERS.                2.0:   CWLS LOG ASCII STANDARD - VERSION 2.0
 WRAP.                 NO:   ONE LINE PER DEPTH STEP
~WELL INFORMATION
#MNEM.UNIT      DATA TYPE    INFORMATION
#----------   ------------   ------------------------------
 STRT.F            0.0000:   START DEPTH
 STOP.F         4113.0000:   STOP DEPTH
 STEP.F            0.5000:   STEP LENGTH
 NULL.          -999.2500:   NO VALUE
 COMP. LAWRENCE/ALLISON INC:   COMPANY
 WELL.  NPR # #3 76 -MX-3:   WELL
 FLD .             TEAPOT:   FIELD
 LOC .       S3 T38N R78W:   LOCATION
 CNTY.            NATRONA:   COUNTY
 STAT.            WYOMING:   STATE
 CTRY. UNITED STATES OF AMERICA:   COUNTRY
 SRVC.      Dresser Atlas:   SERVICE COMPANY
 DATE.        04-SEP-1983:   LOGDATE
 API .       490251094300:   API NUMBER
~CURVE INFORMATION
#MNEM.UNIT       API CODE    CURVE DESCRIPTION
#----------   ------------   ------------------------------
 DEPT.F                  :   
 GRR .GAPI   07 310 01 00:   GAMMA RAY
 SPR .MV     07 010 01 00:   SPONTANEOUS POTENTIAL
 RILD.OHMM   07 120 46 00:   INDUCTION LOG DEEP RESISTIVITY
 RILM.OHMM   07 120 44 00:   INDUCTION LOG MEDIUM RESISTIVITY
 RFOC.OHMM   07 220 04 00:   RESISTIVITY FOCUSED LOG
 CNCF.DEC    42 890 03 00:   NEUTRON POROSITY SANDSTONE
 PORD.DEC    45 890 12 00:   POROSITY DENSITY SANDSTONE
 CALD.IN     45 280 60 00:   CALIPER FROM DENSITY LOG
 CORR.G/C3   45 356 01 00:   DENSITY CORRECTION
 DEN .G/C3   45 350 01 00:   COMPENSATED BULK DENSTIY
 AC  .US/F   60 520 00 00:   ACCOUSTIC
~PARAMETER INFORMATION
#MNEM.UNIT          VALUE    DESCRIPTION
#----------   ------------   ------------------------------
 PD  .                 GL:   PERMANENT DATUM
 EPD .F              5147:   ELEVATION PERMANENT DATUM
 LMF .                 KB:   LOG MEASURED FROM
 DAPD.F                10:   FEET ABOVE PERMANENT DATUM
 DMF .                 KB:   DRILLING MEASURED FROM
 EKB .F              5157:   KELLING BUSHING
 EGL .F              5147:   GROUND LEVEL
 DATE.        04-SEP-1983:   RUN DATE
 RUN .                  1:   RUN NUMBER
 DD  .F              4119:   DEPTH DRILLER
 DL  .F              4115:   DEPTH LOGGER
 BLI .F              4112:   BOTTOM LOG INTERVAL
 CS  .IN            9.625:   CASING SIZE
 CBD .F               491:   CASING BOTTOM DRILLER
 CBL .F               494:   CASING BOTTOM LOGGER
 BS  .IN             8.75:   BIT SIZE
 BSD .F              4119:   BIT SIZE AT DEPTH
 DFT .            KCL GEL:   DRILLING FLUID TYPE
 DFD .                8.9:   DRILLING FLUID DENSITY
 DFV .                 46:   DRILLING FLUID VISCOSITY
 DFPH.                9.0:   DRILLING FLUID PH
 DFL .               13.6:   DRILLING FLUID LOSS
 MSS .           MUD TANK:   MUD SAMPLE SOURCE
 RMS .OHMM           .315:   RESISTIVITY MUD SAMPLE
 MST .F                92:   MUD SAMPLE TEMPERATURE
 RMF .OHMM            .25:   RESISTIVITY MUD FILTRATE SAMPLE
 MFST.F                84:   MUD FILTRATE SAMPLE TEMPERATURE
 RMC .OHMM             .4:   RESISTIVITY MUD CAKE
 MCST.F                92:   MUD CAKE SAMPLE TEMPERATURE
 MFSS.               MEAS:   MUD FILTRATE SAMPLE SOURCE
 MCSS.               CALC:   MUD CAKE SAMPLE SOURCE
 RMB .OHMM            .22:   RESISTIVITY MUD AT BHT
 BHT .F               132:   BOTTOM HOLE TEMPERATURE
 TCS .HRS               4:   TIME CURCULATED STOPPED
 MRT .F               132:   MAXIMUM RECORDED TEMPERATURE
 LUN .               6274:   LOGGING UNIT NUMBER
 LUL .              GLTE.:   LOGGING UNIT LOCATION
 ENGI.             RAUTIO:   RECORDING ENGINEER
 WITN.             STRONG:   WITNESSED BY
 CLNT.            A2DTECH:   CLIENT CODE
 ORIG.        2" 5" PRINT:   ORIGIN OF DATA
 UWI .       490251094300:   UNIQUE WELL ID
 DICO. A2D Technologies, Inc.:   DIGITIZING COMPANY
~OTHER INFORMATION
~A    DEPT     GRR        SPR       RILD       RILM       RFOC       CNCF       PORD       CALD       CORR        DEN         AC   
# ...
 2897.5000   146.1738   -38.7670     2.9123     2.9135     2.5448     0.2346     0.2028     9.8247     0.1734     2.3328   101.5099
 2898.0000   123.5845   -40.3639     3.1284     3.2919     3.2052     0.2292     0.1398     9.8237     0.0845     2.3749    94.7349
 2898.5000   113.8478   -42.2635     3.3849     3.6660     5.6722     0.2127     0.0897     9.8227    -0.0120     2.4983    84.8100
 2899.0000   113.8291   -43.0660     3.7972     4.3258     6.3174     0.2109     0.0780     9.8217    -0.0122     2.5246    79.4537
 2899.5000   113.8103   -43.3982     4.3848     4.8524     6.1769     0.2104     0.0735     9.8204    -0.0033     2.5343    78.7781
 2900.0000   114.2410   -43.7304     4.9260     5.2013     6.0395     0.2143     0.0688     9.8196     0.0237     2.5410    79.2322
 2900.5000   118.2690   -44.1432     5.5185     5.5810     5.9666     0.2204     0.0673     9.8224     0.0329     2.5357    79.6101
 2901.0000   125.4269   -44.3968     5.5958     5.6766     5.9021     0.2220     0.0713     9.8250     0.0281     2.5312    79.9881
 2901.5000   130.7068   -44.7291     5.6731     5.6724     5.8982     0.2232     0.0729     9.8276     0.0129     2.5304    80.2154
 2902.0000   131.3352   -45.0615     5.7101     5.7096     5.8518     0.2244     0.0693     9.8146     0.0068     2.5371    80.5180
 2902.5000   123.1134   -45.3939     5.7049     5.7468     5.8480     0.2281     0.0663     9.7984     0.0203     2.5401    80.7457
 2903.0000   120.5686   -45.5695     5.7008     5.7425     5.8442     0.2284     0.0673     9.7671     0.0277     2.5400    81.0484
 2903.5000   119.5888   -45.5884     5.6966     5.7810     5.8829     0.2354     0.0682     9.7660     0.0110     2.5362    81.1251
 2904.0000   118.9220   -45.6073     5.6931     5.8187     5.9218     0.2405     0.0695     9.7648     0.0049     2.5339    80.9007
 2904.5000   119.8201   -45.7830     5.6890     5.8567     6.0486     0.2382     0.0719     9.7634     0.0169     2.5293    80.8236
 2905.0000   124.4740   -45.8019     5.7677     5.8949     6.1327     0.2259     0.0741     9.7776     0.0213     2.5263    80.7529
 2905.5000   127.2501   -45.8208     5.8053     5.9333     6.2180     0.2223     0.0747     9.7761     0.0258     2.5263    80.8300
 2906.0000   127.5242   -45.8397     5.8432     6.0153     6.2591     0.2254     0.0727     9.7750     0.0347     2.5285    80.9068
 2906.5000   129.0463   -45.8586     5.9239     6.0974     6.3912     0.2236     0.0704     9.7738     0.0437     2.5315    81.1341
 2907.0000   131.8223   -45.8775     5.9627     6.2265     6.4801     0.2189     0.0691     9.7724     0.0405     2.5330    81.0602
 2907.5000   133.3566   -45.8964     5.9582     6.3584     6.6179     0.2153     0.0701     9.7562     0.0329     2.5329    80.5349
 2908.0000   128.9237   -46.2288     5.9539     6.4931     6.8089     0.2174     0.0713     9.7551     0.0162     2.5321    80.0846
 2908.5000   128.2569   -46.4044     5.9067     6.5841     7.0043     0.2310     0.0711     9.7539     0.0071     2.5313    79.7095
 2909.0000   131.3459   -46.7368     5.8177     6.2988     6.8483     0.2352     0.0699     9.7528     0.0266     2.5321    79.3344
 2909.5000   133.4960   -47.0692     5.7716     6.0708     6.6006     0.2359     0.0691     9.7666     0.0461     2.5328    79.8630
 2910.0000   133.7783   -47.4016     5.6846     5.8510     6.2253     0.2383     0.0700     9.7652     0.0444     2.5275    80.9587
 2910.5000   128.4064   -47.7340     5.5989     5.6801     6.0438     0.2528     0.0752     9.7641     0.0294     2.5213    82.3511
 2911.0000   123.3578   -47.7529     5.5545     5.5542     5.9531     0.2613     0.0788     9.7782     0.0097     2.5199    83.5574
 2911.5000   122.3779   -47.7718     5.5505     5.3919     5.9924     0.2604     0.0786     9.7768    -0.0010     2.5221    84.5378
 2912.0000   122.3371   -47.6292     5.5464     5.3492     5.9884     0.2421     0.0750     9.7756    -0.0086     2.5266    84.5552
 2912.5000   122.2962   -47.3095     5.5836     5.3453     6.0280     0.2289     0.0730     9.7742    -0.0177     2.5258    83.8444
 2913.0000   120.6904   -46.8611     5.7009     5.4585     6.1562     0.2269     0.0742     9.7580    -0.0223     2.5227    82.9611
 2913.5000   114.7028   -46.5887     5.8216     5.6718     6.3328     0.2296     0.0755     9.7569    -0.0119     2.5219    82.4351
 2914.0000   111.8552   -46.4347     5.9880     6.0095     6.5145     0.2327     0.0755     9.7557     0.0167     2.5264    82.4369
 2914.5000   113.6821   -46.1563     6.2490     6.4918     6.7501     0.2324     0.0717     9.7546     0.0392     2.5309    82.2877
 2915.0000   114.2774   -46.1752     6.5685     6.9152     7.0449     0.2294     0.0675     9.7534     0.0406     2.5399    81.7546
 2915.5000   113.9133   -46.0303     6.9045     7.1630     7.4061     0.2259     0.0652     9.7369     0.0300     2.5466    80.3331
 2916.0000   117.6284   -45.7428     7.2576     7.3685     7.8423     0.2219     0.0652     9.7358     0.0081     2.5345    78.2261
 2916.5000   118.2237   -45.6050     7.5738     7.5752     8.2443     0.2079     0.0671     9.7346    -0.0079     2.5277    76.6462
 2917.0000   115.6687   -45.6239     7.6799     7.7913     8.4808     0.1985     0.0722     9.7335    -0.0125     2.5269    75.5934
 2917.5000   113.7499   -45.6428     7.6729     7.8990     8.4764     0.1885     0.0735     9.7173    -0.0126     2.5292    74.9172
 2918.0000   114.0220   -45.5047     7.6673     7.9506     8.4709     0.1864     0.0720     9.7161    -0.0067     2.5314    74.3166
 2918.5000   117.7370   -45.6806     7.6618     7.9447     8.4653     0.1879     0.0709     9.7147     0.0053     2.5313    74.4686
 2919.0000   121.7650   -45.6995     7.6021     7.8818     8.4529     0.1973     0.0703     9.7289     0.0128     2.5275    74.9218
 2919.5000   125.4801   -45.7184     7.4876     7.7070     8.2674     0.2028     0.0712     9.7274     0.0066     2.5244    75.9775
 2920.0000   127.9431   -45.7373     7.4283     7.5362     8.0859     0.2067     0.0719     9.7263    -0.0115     2.5214    76.8826
 2920.5000   128.2254   -46.0697     7.3695     7.3691     7.8515     0.2116     0.0741     9.7251    -0.0252     2.5199    77.6648
 2921.0000   123.1666   -46.7156     7.3111     7.2581     7.6792     0.2146     0.0765     9.7237    -0.0223     2.5176    78.3918
 2921.5000   117.4919   -47.3614     7.2532     7.0461     7.5106     0.2150     0.0786     9.7225    -0.0133     2.5176    78.6945
 2922.0000   113.0692   -47.8505     7.1957     6.9399     7.3445     0.2132     0.0805     9.7214     0.0086     2.5205    78.5453
 2922.5000   112.4024   -48.4964     7.1387     6.8848     7.2342     0.2123     0.0790     9.7202     0.0392     2.5204    78.4714
 2923.0000   121.1252   -48.9855     7.1335     6.8798     7.2295     0.2109     0.0764     9.7191     0.0467     2.5159    78.4785
 2923.5000   125.7792   -49.6314     7.1283     6.8748     7.1727     0.2106     0.0767     9.7330     0.0376     2.5114    79.0018
 2924.0000   126.3745   -49.9638     7.1231     6.8698     7.1680     0.2119     0.0801     9.7469     0.0104     2.5083    79.5303
 2924.5000   126.9596   -50.1394     7.1179     6.9159     7.1633     0.2134     0.0849     9.7454     0.0012     2.5173    79.7577
 2925.0000   124.6214   -50.3150     7.1127     6.9610     7.2629     0.2168     0.0838     9.7443     0.0190     2.5211    79.6834
 2925.5000   121.1019   -50.6474     7.1076     7.0064     7.4174     0.2229     0.0793     9.7582     0.0447     2.5298    79.1564
 2926.0000   118.9690   -50.8231     7.1552     7.0000     7.6302     0.2334     0.0707     9.7420     0.0386     2.5428    78.3316
 2926.5000   120.9943   -50.9987     7.2019     7.0457     7.6819     0.2373     0.0628     9.7405     0.0220     2.5450    77.8809
 2927.0000   121.4345   -51.1744     7.3531     7.0405     7.6756     0.2286     0.0612     9.7394     0.0128     2.5457    78.0333
 2927.5000   119.1506   -51.5067     7.5102     7.0877     7.6706     0.2158     0.0609     9.7382     0.0112     2.5465    78.1853
