~VERSION INFORMATION
 VERS.                2.0:   CWLS LOG ASCII STANDARD - VERSION 2.0
 WRAP.                 NO:   ONE LINE PER DEPTH STEP
~WELL INFORMATION
#MNEM.UNIT      DATA TYPE    INFORMATION
#----------   ------------   ------------------------------
 STRT.F            1.0000:   START DEPTH
 STOP.F          524.0000:   STOP DEPTH
 STEP.F            0.1000:   STEP LENGTH
 NULL.          -999.2500:   NO VALUE
 COMP.       F D SERV INC:   COMPANY
 WELL.    87-2 SX-3 #87-3:   WELL
 FLD .             TEAPOT:   FIELD
 LOC .       S3 T38N R78W:   LOCATION
 CNTY.            NATRONA:   COUNTY
 STAT.            WYOMING:   STATE
 CTRY. UNITED STATES OF AMERICA:   COUNTRY
 SRVC.     Atlas Wireline:   SERVICE COMPANY
 DATE.        20-OCT-1992:   LOGDATE
 API .       490252254700:   API NUMBER
~CURVE INFORMATION
#MNEM.UNIT       API CODE    CURVE DESCRIPTION
#----------   ------------   ------------------------------
 DEPT.F                  :   
 GRR .GAPI   07 310 01 00:   GAMMA RAY
 RILD.OHMM   07 120 46 00:   INDUCTION LOG DEEP RESISTIVITY
 RILM.OHMM   07 120 44 00:   INDUCTION LOG MEDIUM RESISTIVITY
~PARAMETER INFORMATION
#MNEM.UNIT          VALUE    DESCRIPTION
#----------   ------------   ------------------------------
 PD  .                 GL:   PERMANENT DATUM
 EPD .F              5124:   ELEVATION PERMANENT DATUM
 LMF .                 KB:   LOG MEASURED FROM
 DAPD.F                10:   FEET ABOVE PERMANENT DATUM
 DMF .                 KB:   DRILLING MEASURED FROM
 EKB .F              5134:   KELLING BUSHING
 EDF .F              5133:   DRILLING FLOOR
 EGL .F              5124:   GROUND LEVEL
 DATE.        20-OCT-1992:   RUN DATE
 RUN .                  1:   RUN NUMBER
 DD  .F               533:   DEPTH DRILLER
 DL  .F               532:   DEPTH LOGGER
 BLI .F               524:   BOTTOM LOG INTERVAL
 TLI .F                74:   TOP LOG INTERVAL
 CS  .IN            8.625:   CASING SIZE
 CBD .F                85:   CASING BOTTOM DRILLER
 CBL .F                74:   CASING BOTTOM LOGGER
 BS  .IN            7.875:   BIT SIZE
 BSD .F               533:   BIT SIZE AT DEPTH
 DFT .           AIR FOAM:   DRILLING FLUID TYPE
 TCS .HRS               3:   TIME CURCULATED STOPPED
 MRT .F                70:   MAXIMUM RECORDED TEMPERATURE
 LUN .            HL-6274:   LOGGING UNIT NUMBER
 LUL .             CASPER:   LOGGING UNIT LOCATION
 ENGI.             RAUTIO:   RECORDING ENGINEER
 WITN.        GARY STRONG:   WITNESSED BY
 CLNT.            A2DTECH:   CLIENT CODE
 ORIG.           5" PRINT:   ORIGIN OF DATA
 UWI .       490252254700:   UNIQUE WELL ID
 DICO. A2D Technologies, Inc.:   DIGITIZING COMPANY
~OTHER INFORMATION
~A    DEPT     GRR       RILD       RILM   
# ...
  419.6000    90.6384    18.4439    16.9046
  419.7000    90.2313    18.4443    16.8087
  419.8000    89.9656    18.3530    16.7133
  419.9000    89.3965    18.3165    16.6404
  420.0000    89.5960    18.2743    16.6399
  420.1000    89.9768    18.1896    16.5455
  420.2000    90.3778    18.1899    16.4517
  420.3000    90.6373    18.0936    16.3583
  420.4000    91.1995    17.9919    16.2654
  420.5000    91.6011    17.8907    16.1786
  420.6000    92.2242    17.8141    16.1781
  420.7000    92.8676    17.8143    16.1022
  420.8000    93.3293    17.7138    16.0108
  420.9000    93.6086    17.5381    15.9521
  421.0000    93.8081    17.3935    15.9517
  421.1000    93.9061    17.2956    15.9512
  421.2000    93.9030    17.1920    15.9508
  421.3000    93.8798    16.9666    15.8915
  421.4000    93.5934    16.8874    15.8388
  421.5000    93.5909    16.7924    15.8218
  421.6000    93.5879    16.6980    15.7275
  421.7000    93.5040    16.6041    15.7271
  421.8000    93.2385    16.5007    15.6630
  421.9000    92.6692    16.5009    15.6166
  422.0000    92.2626    16.4400    15.5944
  422.1000    91.6334    16.3867    15.5069
  422.2000    90.9839    16.3694    15.5064
  422.3000    90.5161    16.2732    15.4379
  422.4000    90.2298    16.2734    15.3503
  422.5000    90.2273    16.2736    15.2898
  422.6000    90.2242    16.2294    15.2830
  422.7000    90.3020    16.1381    15.1823
  422.8000    90.5414    16.0488    15.1820
  422.9000    90.8207    16.0490    15.1815
  423.0000    90.8182    16.0492    15.1494
  423.1000    90.8151    16.0000    15.0749
  423.2000    90.8929    15.9381    15.0744
  423.3000    91.1124    15.9383    15.0740
  423.4000    91.1086    15.9386    15.0736
  423.5000    91.1061    15.8630    15.0732
  423.6000    91.1030    15.8281    15.0728
  423.7000    91.0192    15.7950    15.0723
  423.8000    90.7536    15.7185    14.9900
  423.9000    90.1843    15.7188    14.9665
  424.0000    90.1818    15.6388    14.9661
  424.1000    90.0374    15.6099    14.9656
  424.2000    89.7919    15.5718    14.9631
  424.3000    89.5262    15.5018    14.8783
  424.4000    88.9571    15.5020    14.8601
  424.5000    88.7526    15.4178    14.8131
  424.6000    88.2243    15.3946    14.7290
  424.7000    87.3322    15.3517    14.6525
  424.8000    86.1575    15.2653    14.6520
  424.9000    85.3056    15.1819    14.6516
  425.0000    85.3030    15.1821    14.6512
  425.1000    85.3000    15.1144    14.6508
  425.2000    85.3778    15.0770    14.6382
  425.3000    85.6373    15.0496    14.5479
  425.4000    86.1995    14.9726    14.5475
  425.5000    86.8031    14.9728    14.5471
  425.6000    87.6686    14.9730    14.5102
  425.7000    88.4737    14.9732    14.4449
  425.8000    88.9961    14.9408    14.4445
  425.9000    90.1237    14.8695    14.2856
  426.0000    90.1212    14.8697    14.1835
  426.1000    90.1182    14.8699    14.1030
  426.2000    90.0343    14.8129    14.0015
  426.3000    89.7889    14.7669    13.8461
  426.4000    89.5025    14.7671    13.7520
  426.5000    89.2980    14.7674    13.6894
  426.6000    88.7696    14.6861    13.6555
  426.7000    88.1202    14.6651    13.6294
  426.8000    87.6727    14.6653    13.5596
  426.9000    87.6692    14.6427    13.5592
  427.0000    87.2626    14.5637    13.4927
  427.1000    87.1990    14.5640    13.4640
  427.2000    87.4383    14.5641    13.4336
  427.3000    87.6578    14.5174    13.3573
  427.4000    87.6540    14.4358    13.2758
  427.5000    87.8536    14.3546    13.2061
  427.6000    88.0929    14.2633    13.1311
  427.7000    88.3323    14.2634    13.0903
  427.8000    88.5518    14.2127    13.0900
  427.9000    88.5480    14.1328    13.0896
  428.0000    88.3435    14.0533    13.0163
  428.1000    87.9566    13.9688    12.9977
  428.2000    87.4686    13.8958    12.9973
  428.3000    87.0010    13.8177    12.9969
  428.4000    86.7146    13.7757    12.9929
  428.5000    86.5101    13.7759    12.9056
  428.6000    86.4061    13.7761    12.9053
  428.7000    86.4838    13.7763    12.9049
  428.8000    86.7033    13.7765    12.9046
  428.9000    86.6995    13.7767    12.9042
  429.0000    86.8990    13.7769    12.9038
  429.1000    86.9970    13.7771    12.9035
  429.2000    86.9939    13.7773    12.9031
  429.3000    87.0111    13.7775    12.8731
  429.4000    87.2904    13.7777    12.8000
  429.5000    87.4899    13.7507    12.7228
  429.6000    87.8707    13.6734    12.7225
  429.7000    88.2717    13.5873    12.6716
  429.8000    88.5111    13.5201    12.5996
  429.9000    88.7904    13.4932    12.5447
  430.0000    88.7879    13.4621    12.5444
  430.1000    88.7849    13.3997    12.5440
  430.2000    88.7818    13.3999    12.5437
  430.3000    88.7788    13.4001    12.5433
  430.4000    88.7753    13.4003    12.5220
  430.5000    88.5707    13.3337    12.4552
  430.6000    88.3253    13.3075    12.4548
  430.7000    87.9990    13.3077    12.4545
  430.8000    87.5515    13.2943    12.4541
  430.9000    87.5480    13.2155    12.4538
  431.0000    87.5454    13.2157    12.4534
  431.1000    87.5424    13.2159    12.4531
  431.2000    87.5394    13.1805    12.5157
  431.3000    87.5768    13.1244    12.5398
  431.4000    88.1389    13.1246    12.5394
  431.5000    88.1364    13.1247    12.5260
  431.6000    88.2747    13.1249    12.4513
  431.7000    88.4333    13.1251    12.4510
  431.8000    88.4303    13.1028    12.4507
  431.9000    88.4268    13.0342    12.4165
  432.0000    88.4242    13.0344    12.3632
  432.1000    88.2798    13.0346    12.3629
  432.2000    88.0343    13.0347    12.3625
  432.3000    87.7889    13.0349    12.3622
  432.4000    87.5025    13.0351    12.3618
  432.5000    87.2980    13.0353    12.3615
  432.6000    87.0525    13.0355    12.3560
  432.7000    86.7712    13.0357    12.2746
  432.8000    86.4179    13.0358    12.2743
  432.9000    86.0646    13.0360    12.2740
  433.0000    85.7113    13.0362    12.2479
  433.1000    85.3580    13.0364    12.1877
  433.2000    85.0492    13.0366    12.1874
  433.3000    84.7575    13.0368    12.1871
  433.4000    84.2424    13.0369    12.1867
  433.5000    84.0074    13.0371    12.2163
  433.6000    83.7612    13.0373    12.2716
  433.7000    83.6364    12.9798    12.2712
  433.8000    83.6364    12.9470    12.2709
  433.9000    83.6601    12.9472    12.3213
  434.0000    84.5455    12.9474    12.3563
  434.1000    84.9401    12.9476    12.3559
  434.2000    85.4327    12.9477    12.3556
  434.3000    85.9252    12.9479    12.3553
  434.4000    86.3906    12.9481    12.3549
  434.5000    86.6667    12.9378    12.3546
  434.6000    87.0997    12.8584    12.3542
  434.7000    87.7520    12.8586    12.3539
  434.8000    88.3878    12.8588    12.3535
  434.9000    88.8802    12.8590    12.3532
  435.0000    89.3939    12.8591    12.3098
  435.1000    89.8653    12.8593    12.2664
  435.2000    90.5366    12.8595    12.2764
  435.3000    91.1533    12.8597    12.3518
  435.4000    91.5805    12.8599    12.3514
  435.5000    91.8182    12.8600    12.3511
  435.6000    91.8182    12.8602    12.3508
  435.7000    91.6202    12.8604    12.3358
  435.8000    91.2327    12.8606    12.2640
  435.9000    90.8246    12.8608    12.2637
  436.0000    90.5231    12.8609    12.2633
  436.1000    89.6970    12.8611    12.2630
  436.2000    89.2626    12.8613    12.2626
  436.3000    88.7702    12.8615    12.2623
  436.4000    88.3813    12.8616    12.2619
  436.5000    88.0882    12.8618    12.2616
  436.6000    87.5758    12.8620    12.2219
  436.7000    87.1032    12.8622    12.1755
  436.8000    86.7902    12.8624    12.1751
  436.9000    86.6667    12.8625    12.1747
  437.0000    86.7326    12.8627    12.1744
  437.1000    86.9697    12.8629    12.1741
  437.2000    86.9697    12.8631    12.1738
  437.3000    86.9697    12.8633    12.1734
  437.4000    87.1116    12.8634    12.1731
  437.5000    87.3578    12.8636    12.1727
  437.6000    87.6324    12.8435    12.1724
  437.7000    88.1818    12.7745    12.1407
