~VERSION INFORMATION
 VERS.                2.0:   CWLS LOG ASCII STANDARD - VERSION 2.0
 WRAP.                 NO:   ONE LINE PER DEPTH STEP
~WELL INFORMATION
#MNEM.UNIT      DATA TYPE    INFORMATION
#----------   ------------   ------------------------------
 STRT.F            0.0000:   START DEPTH
 STOP.F          649.0000:   STOP DEPTH
 STEP.F            0.1000:   STEP LENGTH
 NULL.          -999.2500:   NO VALUE
 COMP.   FLUOR DANIEL INC:   COMPANY
 WELL.     17-1 X 2 #17-2:   WELL
 FLD .             TEAPOT:   FIELD
 LOC .       S2 T38N R78W:   LOCATION
 CNTY.            NATRONA:   COUNTY
 STAT.            WYOMING:   STATE
 CTRY. UNITED STATES OF AMERICA:   COUNTRY
 SRVC.      Western Atlas:   SERVICE COMPANY
 DATE.        20-MAY-1995:   LOGDATE
 API .       490252271000:   API NUMBER
~CURVE INFORMATION
#MNEM.UNIT       API CODE    CURVE DESCRIPTION
#----------   ------------   ------------------------------
 DEPT.F                  :   
 GRR .GAPI   07 310 01 00:   GAMMA RAY
 RILD.OHMM   07 120 46 00:   INDUCTION LOG DEEP RESISTIVITY
 RILM.OHMM   07 120 44 00:   RESITIVITY LOG MEDIUM
~PARAMETER INFORMATION
#MNEM.UNIT          VALUE    DESCRIPTION
#----------   ------------   ------------------------------
 PD  .                 GL:   PERMANENT DATUM
 EPD .F              5145:   ELEVATION PERMANENT DATUM
 LMF .                 KB:   LOG MEASURED FROM
 DAPD.F                10:   FEET ABOVE PERMANENT DATUM
 DMF .                 KB:   DRILLING MEASURED FROM
 EKB .F              5155:   KELLING BUSHING
 EDF .F              5154:   DRILLING FLOOR
 EGL .F              5145:   GROUND LEVEL
 DATE.        20-MAY-1995:   RUN DATE
 RUN .                  1:   RUN NUMBER
 DD  .F               657:   DEPTH DRILLER
 DL  .F               657:   DEPTH LOGGER
 BLI .F               649:   BOTTOM LOG INTERVAL
 CS  .IN            9.625:   CASING SIZE
 CBD .F                82:   CASING BOTTOM DRILLER
 CBL .F                82:   CASING BOTTOM LOGGER
 BS  .IN             8.75:   BIT SIZE
 BSD .F               657:   BIT SIZE AT DEPTH
 DFT .                AIR:   DRILLING FLUID TYPE
 MRT .F                92:   MAXIMUM RECORDED TEMPERATURE
 LUN .            HL 6530:   LOGGING UNIT NUMBER
 LUL .             CASPER:   LOGGING UNIT LOCATION
 ENGI.        VERN RAUTIO:   RECORDING ENGINEER
 WITN.        STEVE HARDY:   WITNESSED BY
 CLNT.            A2DTECH:   CLIENT CODE
 ORIG.           5" PRINT:   ORIGIN OF DATA
 UWI .       490252271000:   UNIQUE WELL ID
 DICO. A2D Technologies, Inc.:   DIGITIZING COMPANY
~OTHER INFORMATION
~A    DEPT      GRR      RILD       RILM   
# ...
  455.0000   109.2911    10.6620    10.3220
  455.1000   109.2929    10.6625    10.3223
  455.2000   109.1539    10.6629    10.3226
  455.3000   108.9949    10.7053    10.3295
  455.4000   108.9363    10.7380    10.3951
  455.5000   108.3954    10.7384    10.4482
  455.6000   107.9546    10.7412    10.4681
  455.7000   107.4637    10.8141    10.4952
  455.8000   106.9728    10.8145    10.5554
  455.9000   106.4819    10.8524    10.6153
  456.0000   105.9910    10.9149    10.6156
  456.1000   105.5000    10.9778    10.6636
  456.2000   105.3913    11.0437    10.7248
  456.3000   105.1216    11.1046    10.8077
  456.4000   104.7112    11.1685    10.9156
  456.5000   104.4915    11.2329    10.9160
  456.6000   104.4937    11.2975    11.0296
  456.7000   104.2791    11.3684    11.1561
  456.8000   104.1955    11.5159    11.2540
  456.9000   104.1973    11.5739    11.3344
  457.0000   104.1991    11.6405    11.4626
  457.1000   104.2009    11.7372    11.5412
  457.2000   103.9614    11.8722    11.7014
  457.3000   103.9029    12.0087    11.8633
  457.4000   103.7740    12.1470    11.9993
  457.5000   103.6048    12.3427    12.1368
  457.6000   103.6066    12.5563    12.2868
  457.7000   103.6087    12.7733    12.4824
  457.8000   103.3991    12.9833    12.5962
  457.9000   103.1545    13.1439    12.7385
  458.0000   103.0106    13.3545    12.9774
  458.1000   102.9671    13.6411    13.2837
  458.2000   102.7126    13.9563    13.7926
  458.3000   102.4781    14.2784    14.3014
  458.4000   102.2335    14.6126    14.8103
  458.5000   101.9889    15.1034    15.3192
  458.6000   101.1898    15.3979    15.8281
  458.7000   100.9446    15.8111    16.3369
  458.8000   100.7177    16.2687    16.8458
  458.9000   100.7214    16.7201    17.3547
  459.0000   100.7240    17.1151    17.8636
  459.1000   100.4076    17.6002    18.3724
  459.2000   100.0205    18.0316    18.8813
  459.3000    99.7753    18.5065    19.3902
  459.4000    99.5294    19.0418    19.8991
  459.5000    98.5430    19.5792    20.4079
  459.6000    97.5533    20.0801    20.9168
  459.7000    96.2829    20.4955    21.4257
  459.8000    94.6232    20.9695    21.9346
  459.9000    92.8080    21.3404    22.4434
  460.0000    92.0063    21.6469    22.9523
  460.1000    89.5001    22.1459    23.4612
  460.2000    85.8999    22.7559    23.9700
  460.3000    82.4171    23.2914    24.4789
  460.4000    79.9831    24.0492    24.9878
  460.5000    78.9653    24.8314    25.4967
  460.6000    77.2433    25.5731    26.0992
  460.7000    76.6197    26.5123    26.7166
  460.8000    76.1887    27.3876    27.5843
  460.9000    75.9435    28.2243    28.6688
  461.0000    75.6984    29.0416    29.9179
  461.1000    75.4480    29.8303    30.8382
  461.2000    75.2080    30.5044    31.5043
  461.3000    74.9629    31.1053    32.0998
  461.4000    74.9897    31.7258    32.6539
  461.5000    75.2409    32.3391    33.2172
  461.6000    75.4920    32.8983    33.7795
  461.7000    75.7680    33.4255    34.2335
  461.8000    75.9943    33.8116    34.5611
  461.9000    76.0754    34.0056    34.9585
  462.0000    76.0784    34.2015    35.2027
  462.1000    76.0814    34.2882    35.2389
  462.2000    76.0845    34.2896    35.4520
  462.3000    76.0880    34.2910    35.4538
  462.4000    76.0905    34.2926    35.4558
  462.5000    75.9426    34.2939    35.3556
  462.6000    75.7949    34.1597    35.2145
  462.7000    75.7979    33.9669    35.1895
  462.8000    75.8010    33.7752    34.7332
  462.9000    75.5654    33.5845    34.4025
  463.0000    75.6903    33.3628    33.7763
  463.1000    75.8100    33.2066    33.0932
  463.2000    75.9690    33.0193    32.5685
  463.3000    76.4684    32.9071    32.1888
  463.4000    77.0260    32.8413    31.6661
  463.5000    77.6864    32.4565    31.0024
  463.6000    78.7653    32.2801    30.4858
  463.7000    79.8968    32.0980    30.0402
  463.8000    80.8925    31.8211    29.3648
  463.9000    81.8830    31.5173    28.6160
  464.0000    82.7759    31.3394    28.3386
  464.1000    83.5778    31.1415    27.9185
  464.2000    84.4270    30.8321    27.5783
  464.3000    85.0817    30.4839    27.3923
  464.4000    85.5812    30.1395    27.0777
  464.5000    86.1088    29.7989    26.7792
  464.6000    86.5798    29.4618    26.7073
  464.7000    87.0792    29.1293    26.5461
  464.8000    87.4514    28.6706    26.2945
  464.9000    87.7762    28.2785    26.1468
  465.0000    88.2554    27.9589    25.9820
  465.1000    88.5404    27.6428    25.8540
  465.2000    88.5430    27.3092    25.6134
  465.3000    88.5460    27.0220    25.3877
  465.4000    88.4412    26.6089    25.2142
  465.5000    88.1418    26.2326    24.9290
  465.6000    87.6493    25.9361    24.6499
  465.7000    87.4041    25.6429    24.4800
  465.8000    87.1589    25.3096    24.2663
  465.9000    86.9138    24.9467    24.0384
  466.0000    86.7572    24.7013    23.8728
  466.1000    86.7602    24.5041    23.4273
  466.2000    86.7634    24.2271    23.3099
  466.3000    86.9959    23.9484    23.0034
  466.4000    87.2470    23.6829    22.7311
  466.5000    87.6209    23.4155    22.6034
  466.6000    88.2587    23.1510    22.4749
  466.7000    89.2702    22.9326    22.2223
  466.8000    90.7033    22.8032    22.0711
  466.9000    91.7577    22.6616    21.9472
  467.0000    93.0014    22.5465    21.8672
  467.1000    94.1420    22.5068    21.8685
  467.2000    94.9382    22.5077    21.8698
  467.3000    94.9412    22.5086    21.7582
  467.4000    95.1887    22.5096    21.7208
  467.5000    95.2489    22.5107    21.7220
  467.6000    95.2519    22.5114    21.7232
  467.7000    95.2549    22.5124    21.7244
  467.8000    95.2274    22.5133    21.7259
  467.9000    94.9595    22.5143    21.7269
  468.0000    94.7370    22.5152    21.7281
  468.1000    94.1484    22.5161    21.7746
  468.2000    93.5252    22.5171    21.8818
  468.3000    93.0320    22.5180    21.8831
  468.4000    92.5610    22.5189    21.9997
  468.5000    92.5646    22.5199    22.0379
  468.6000    91.9492    22.5209    22.0391
  468.7000    91.2078    22.5218    22.0403
  468.8000    90.4664    22.5227    22.0469
  468.9000    89.7703    22.5798    22.1965
  469.0000    89.2610    22.6813    22.1975
  469.1000    88.7837    22.6823    22.2750
  469.2000    88.4770    22.6832    22.3546
  469.3000    88.0988    22.6842    22.3559
  469.4000    87.7647    22.6851    22.3572
  469.5000    87.7416    22.6861    22.3584
  469.6000    87.4694    22.6870    22.3596
  469.7000    87.4721    22.6880    22.2976
  469.8000    87.4751    22.8083    22.2074
  469.9000    87.3643    22.8477    22.2014
  470.0000    87.1795    22.8487    22.0565
  470.1000    87.1894    22.8496    22.0575
  470.2000    87.4877    22.8506    22.0587
  470.3000    87.4902    22.8517    22.0599
  470.4000    87.6412    22.8525    22.0612
  470.5000    87.7979    22.8534    22.0624
  470.6000    87.8009    22.8544    22.0636
  470.7000    87.8041    22.8553    22.0648
  470.8000    87.8069    22.8563    22.0661
  470.9000    87.8100    22.8572    22.0306
  471.0000    87.8130    22.8582    21.9158
  471.1000    87.8160    22.8592    21.9173
  471.2000    87.8190    22.9021    21.9183
  471.3000    87.8224    23.0202    21.9195
  471.4000    88.2578    23.0212    21.9207
  471.5000    88.7571    23.0221    21.8982
  471.6000    89.4751    23.0230    21.7716
  471.7000    90.4150    23.0240    21.6530
  471.8000    91.1627    23.0249    21.6234
  471.9000    91.9103    23.0259    21.5596
  472.0000    92.6576    23.0271    21.4762
  472.1000    93.4051    23.0278    21.4774
  472.2000    94.1526    23.0288    21.4787
  472.3000    94.8270    22.9810    21.4798
  472.4000    95.0952    22.8714    21.4809
  472.5000    95.0980    22.8725    21.4821
  472.6000    95.1011    22.8734    21.4833
  472.7000    94.9798    22.8744    21.4845
  472.8000    94.7346    22.8753    21.6066
  472.9000    94.4894    22.8763    21.6366
  473.0000    94.2086    22.8772    21.7051
  473.1000    93.9992    22.8783    21.7897
