~VERSION INFORMATION
 VERS.                2.0:   CWLS LOG ASCII STANDARD - VERSION 2.0
 WRAP.                 NO:   ONE LINE PER DEPTH STEP
~WELL INFORMATION
#MNEM.UNIT      DATA TYPE    INFORMATION
#----------   ------------   ------------------------------
 STRT.F           33.5000:   START DEPTH
 STOP.F          692.0000:   STOP DEPTH
 STEP.F            0.5000:   STEP LENGTH
 NULL.          -999.2500:   NO VALUE
 COMP. FENIX & SCISSON INC:   COMPANY
 WELL.       NPR-3 #65-34:   WELL
 FLD .  TEAPOT DOME NPR-3:   FIELD
 LOC .      S34 T39N R78W:   LOCATION
 CNTY.            NATRONA:   COUNTY
 STAT.            WYOMING:   STATE
 CTRY. UNITED STATES OF AMERICA:   COUNTRY
 SRVC.           BIRDWELL:   SERVICE COMPANY
 DATE.        14-AUG-1978:   LOGDATE
 API .       490251070400:   API NUMBER
~CURVE INFORMATION
#MNEM.UNIT       API CODE    CURVE DESCRIPTION
#----------   ------------   ------------------------------
 DEPT.F                  :   
 CALD.IN     45 280 60 00:   CALIPER
 GRD .GAPI   45 310 01 00:   GAMMA RAY FROM DENSITY LOG
 RHOB.G/C3   45 350 01 00:   BULK DENSITY
 CORR.G/C3   45 356 01 00:   DENSITY CORRECTION
 DPHI.DEC    45 890 12 00:   DENSITY POROSITY SANDSTONE
 SPR .MV     05 010 01 00:   SPONTANEOUS POTENTIAL
 SN  .OHMM   05 040 16 00:   SHORT NORMAL 16'
 ILD .OHMM   05 120 46 00:   INDUCTION LOG DEEP RESISTIVITY
~PARAMETER INFORMATION
#MNEM.UNIT          VALUE    DESCRIPTION
#----------   ------------   ------------------------------
 PD  .                 GL:   PERMANENT DATUM
 EPD .F              5083:   ELEVATION PERMANENT DATUM
 LMF .                 KB:   LOG MEASURED FROM
 DAPD.F                 4:   FEET ABOVE PERMANENT DATUM
 DMF .                 KB:   DRILLING MEASURED FROM
 EKB .F              5087:   KELLING BUSHING
 EGL .F              5083:   GROUND LEVEL
 DATE.            8-14-78:   RUN DATE
 RUN .                  1:   RUN NUMBER
 DD  .F               675:   DEPTH DRILLER
 DL  .F               682:   DEPTH LOGGER
 BLI .F               676:   BOTTOM LOG INTERVAL
 TLI .F                50:   TOP LOG INTERVAL
 CS  .IN            8.625:   CASING SIZE
 CBD .F                40:   CASING BOTTOM DRILLER
 BS  .IN            7.875:   BIT SIZE
 BSD .F               675:   BIT SIZE AT DEPTH
 DFT .                KCL:   DRILLING FLUID TYPE
 DFD .                8.7:   DRILLING FLUID DENSITY
 DFV .                 31:   DRILLING FLUID VISCOSITY
 DFPH.                  9:   DRILLING FLUID PH
 TCS .HRS               2:   TIME CURCULATED STOPPED
 LUN .               3006:   LOGGING UNIT NUMBER
 LUL .               CASP:   LOGGING UNIT LOCATION
 ENGI.             MILLER:   RECORDING ENGINEER
 WITN.           MCGINLEY:   WITNESSED BY
 CLNT.            A2DTECH:   CLIENT CODE
 ORIG.           5" PRINT:   ORIGIN OF DATA
 UWI .       490251070400:   UNIQUE WELL ID
 DICO. A2D Technologies, Inc.:   DIGITIZING COMPANY
~OTHER INFORMATION
~A   DEPT     CALD         GRD      RHOB       CORR       DPHI        SPR         SN        ILD   
# ...
  641.0000     7.5272    63.0668     2.4382     0.0259     0.1487   -21.7594     7.7225     9.3046
  641.5000     7.5190    65.1363     2.4127     0.0201     0.1661   -21.7911     7.6669     9.3046
  642.0000     7.5111    67.4303     2.4031     0.0213     0.1617   -21.8228     7.6937     9.3046
  642.5000     7.5300    69.7482     2.4120     0.0392     0.1490   -21.8545     7.7154     9.3046
  643.0000     7.5570    70.4713     2.4311     0.0484     0.1458   -21.8862     7.7371     9.3046
  643.5000     7.5905    69.2104     2.4355     0.0524     0.1417   -21.9179     7.7589     9.3046
  644.0000     7.6568    67.8377     2.4416     0.0562     0.1335   -21.9497     7.7810     9.3046
  644.5000     7.7161    67.1924     2.4533     0.0601     0.1253   -21.9814     7.8093     9.3046
  645.0000     7.7755    69.5440     2.4725     0.0639     0.1170   -22.0131     7.7852     9.3047
  645.5000     7.8351    72.3356     2.4874     0.0678     0.1114   -22.0448     7.7494     9.2837
  646.0000     7.8946    75.7715     2.4923     0.0716     0.1102   -22.0765     7.7142     9.2453
  646.5000     7.9544    73.8766     2.4959     0.0756     0.1085   -22.1082     7.6791     9.2069
  647.0000     8.0124    70.6454     2.4979     0.0825     0.1061   -22.1399     7.6668     9.1687
  647.5000     8.0007    69.6678     2.5008     0.0943     0.1038   -22.1716     7.6668     9.1307
  648.0000     7.9779    69.2700     2.5078     0.1060     0.0961   -22.2031     7.6668     9.0928
  648.5000     7.9555    69.5611     2.5191     0.1177     0.0886   -22.2353     7.6668     9.0550
  649.0000     7.9294    69.8425     2.5363     0.1371     0.0826   -22.2652     7.6668     9.0175
  649.5000     7.9128    70.1261     2.5407     0.1558     0.0826   -22.4259     7.6668     8.9800
  650.0000     7.9108    70.4084     2.5412     0.1631     0.0820   -22.6528     7.6668     8.9428
  650.5000     7.9094    70.6794     2.5354     0.1704     0.0801   -22.8821     7.6668     8.9057
  651.0000     7.9079    71.7545     2.5388     0.1777     0.0778   -23.1112     7.6668     8.8687
  651.5000     7.9064    73.0592     2.5446     0.1850     0.0782   -23.3402     7.6672     8.8319
  652.0000     7.9048    73.8035     2.5454     0.1915     0.0785   -23.5693     7.6678     8.7869
  652.5000     7.9033    73.8692     2.5454     0.1905     0.0787   -23.7982     7.6681     8.7153
  653.0000     7.9018    73.9472     2.5456     0.1895     0.0788   -24.0377     7.5130     8.6442
  653.5000     7.9002    73.1776     2.5458     0.1885     0.0789   -24.0300     7.3946     8.5737
  654.0000     7.8987    71.8858     2.5461     0.1875     0.0790   -23.9467     7.2779     8.5038
  654.5000     7.8972    71.0782     2.5463     0.1865     0.0763   -23.9873     7.2450     8.4345
  655.0000     7.8956    71.5741     2.5458     0.1837     0.0784   -24.2397     7.2334     8.3657
  655.5000     7.8945    70.9919     2.5443     0.1723     0.0802   -24.4896     7.2220     8.3095
  656.0000     7.8756    69.7009     2.5437     0.1611     0.0782   -24.7395     7.2105     8.2376
  656.5000     7.8533    68.7303     2.5440     0.1435     0.0861   -24.9905     7.1990     8.1664
  657.0000     7.8309    68.5745     2.5259     0.1200     0.1004   -25.1224     7.1873     8.0958
  657.5000     7.8086    67.6591     2.5022     0.0966     0.1071   -25.1661     7.1472     8.0258
  658.0000     7.7863    67.2960     2.4960     0.0781     0.1034   -25.2072     7.1072     7.9564
  658.5000     7.7639    70.2214     2.5036     0.0722     0.1092   -25.2485     7.0673     7.8876
  659.0000     7.7416    73.0596     2.4964     0.0663     0.1141   -25.2817     7.0277     7.8194
  659.5000     7.7192    75.8540     2.4843     0.0613     0.1150   -25.8249     6.9884     7.7518
  660.0000     7.6969    77.2732     2.4791     0.0588     0.1208   -26.5446     6.9492     7.6522
  660.5000     7.6745    74.7738     2.4736     0.0564     0.1203   -27.1826     6.8958     7.5456
  661.0000     7.6521    73.3768     2.4724     0.0540     0.1202   -27.4261     6.8246     7.4403
  661.5000     7.6327    72.5457     2.4722     0.0515     0.1234   -27.2110     6.7541     7.3365
  662.0000     7.6333    71.1652     2.4720     0.0491     0.1210   -27.2473     6.6843     7.2342
  662.5000     7.6370    71.9815     2.4717     0.0481     0.1205   -27.4515     6.6153     7.1333
  663.0000     7.6458    73.2281     2.4707     0.0483     0.1230   -27.6520     6.3199     6.9309
  663.5000     7.6545    73.6781     2.4562     0.0486     0.1295   -27.8519     6.0377     6.3879
  664.0000     7.6632    74.2076     2.4516     0.0488     0.1364   -27.8734     5.7681     5.9351
  664.5000     7.6720    76.4523     2.4421     0.0491     0.1438   -27.6361     5.5105     5.5715
  665.0000     7.6807    80.0509     2.4316     0.0494     0.1511   -27.4043     5.4008     5.3201
  665.5000     7.6894    83.3498     2.4215     0.0496     0.1584   -27.1752     5.4659     5.2535
  666.0000     7.6933    84.2037     2.4134     0.0503     0.1613   -26.6196     5.5496     5.3735
  666.5000     7.6934    86.7914     2.4145     0.0621     0.1432   -26.0975     5.6345     5.4749
  667.0000     7.6934    89.4345     2.4710     0.0813     0.1188   -26.1084     5.7208     5.5781
  667.5000     7.6934    89.7610     2.5098     0.0925     0.1018   -26.1085     5.8546     5.6834
  668.0000     7.6941    83.6065     2.5101     0.0741     0.0996   -25.7230     6.0320     6.0574
  668.5000     7.6628    73.9392     2.5091     0.0565     0.1009   -24.9726     6.2147     6.5444
  669.0000     7.6229    73.3791     2.4985     0.0525     0.1055   -24.4899     6.4040     7.0704
  669.5000     7.5829    71.2630     2.4884     0.0490     0.1102   -24.4477     6.6141     7.6388
  670.0000     7.5419    71.0008     2.4867     0.0490     0.1113   -24.3967     6.8232     7.8368
  670.5000     7.5243    72.6239     2.4964     0.0507     0.1046   -24.3470     6.9527     7.8762
  671.0000     7.5126    74.3963     2.5069     0.0524     0.1038   -24.2974     6.9942     7.9143
  671.5000     7.5010    75.3990     2.5019     0.0541     0.1031   -24.1129     7.0374     7.9528
  672.0000     7.4894    73.7464     2.4972     0.0558     0.1008   -23.7826     7.0809     7.9918
  672.5000     7.4777    71.3914     2.4925     0.0571     0.0999   -23.4503     7.1246     8.0309
  673.0000     7.4661    72.1190     2.4962     0.0579     0.0991   -23.1196     7.1687     8.0707
  673.5000     7.4545    72.9575     2.5036     0.0588     0.0983   -22.8783     7.2764     8.1404
  674.0000     7.4477    73.0610     2.5030     0.0598     0.0975   -22.8828     7.4345     8.3457
  674.5000     7.4417    73.9907     2.5027     0.0589     0.0970   -22.8829     7.5960     8.5563
  675.0000     7.4357    73.7327     2.5023     0.0574     0.0968   -22.8831     7.7610     8.7722
  675.5000     7.4297    73.1548     2.5019     0.0559     0.0963   -22.8831     7.8095     8.9935
  676.0000     7.4237    73.1598     2.5015     0.0545     0.0958   -22.8831     7.8095  -999.2500
  676.5000     7.4177    73.4382     2.5043     0.0530     0.0985   -22.8831     7.8094  -999.2500
  677.0000     7.4161    73.7248     2.5073     0.0516     0.1011   -22.8831     7.8095  -999.2500
  677.5000     7.4374    74.0130     2.5051     0.0501     0.1030   -22.8831  -999.2500  -999.2500
  678.0000     7.4584    74.5376     2.4994     0.0487     0.1044   -22.8831  -999.2500  -999.2500
  678.5000     7.4794    78.4887     2.4998     0.0472     0.1058   -22.8831  -999.2500  -999.2500
  679.0000     7.5004    82.6205     2.5000     0.0458     0.1054   -22.8831  -999.2500  -999.2500
  679.5000     7.5211    82.4193     2.5002     0.0443     0.1048   -22.8831  -999.2500  -999.2500
  680.0000     7.5227    76.6989     2.5004     0.0429     0.1046   -22.8831  -999.2500  -999.2500
  680.5000     7.4987    75.3634     2.4988     0.0428     0.1080   -22.8831  -999.2500  -999.2500
  681.0000     7.4749    73.6224     2.4935     0.0456     0.1112   -22.8831  -999.2500  -999.2500
