~VERSION INFORMATION
 VERS.                2.0:   CWLS LOG ASCII STANDARD - VERSION 2.0
 WRAP.                 NO:   ONE LINE PER DEPTH STEP
~WELL INFORMATION
#MNEM.UNIT      DATA TYPE    INFORMATION
#----------   ------------   ------------------------------
 STRT.F          248.0000:   START DEPTH
 STOP.F         2495.0000:   STOP DEPTH
 STEP.F            0.5000:   STEP LENGTH
 NULL.          -999.2500:   NO VALUE
 COMP. FENIX & SCISSON INC:   COMPANY
 WELL.      85 SHX #28-28:   WELL
 FLD .             TEAPOT:   FIELD
 LOC .      S28 T39N R78W:   LOCATION
 CNTY.            NATRONA:   COUNTY
 STAT.            WYOMING:   STATE
 CTRY. UNITED STATES OF AMERICA:   COUNTRY
 SRVC.           BIRDWELL:   SERVICE COMPANY
 DATE.        18-AUG-1979:   LOGDATE
 API .       490251079700:   API NUMBER
~CURVE INFORMATION
#MNEM.UNIT       API CODE    CURVE DESCRIPTION
#----------   ------------   ------------------------------
 DEPT.F                  :   
 CALD.IN     45 280 60 00:   CALIPER
 CORR.G/C3   45 356 01 00:   DENSITY CORRECTION
 RHOB.G/C3   45 350 01 00:   BULK DENSITY
 DPHI.DEC    45 890 12 00:   DENSITY POROSITY SANDSTONE
 GRD .GAPI   45 310 01 00:   GAMMA RAY FROM DENSITY LOG
~PARAMETER INFORMATION
#MNEM.UNIT          VALUE    DESCRIPTION
#----------   ------------   ------------------------------
 PD  .                 GL:   PERMANENT DATUM
 EPD .F              5044:   ELEVATION PERMANENT DATUM
 LMF .                 DF:   LOG MEASURED FROM
 DMF .                 KB:   DRILLING MEASURED FROM
 EKB .F              5054:   KELLING BUSHING
 EDF .F              5052:   DRILLING FLOOR
 EGL .F              5044:   GROUND LEVEL
 DATE.            8-18-79:   RUN DATE
 RUN .                  1:   RUN NUMBER
 DD  .F              2500:   DEPTH DRILLER
 DL  .F              2495:   DEPTH LOGGER
 BLI .F              2495:   BOTTOM LOG INTERVAL
 CS  .IN            9.625:   CASING SIZE
 CBD .F               520:   CASING BOTTOM DRILLER
 CBL .F               505:   CASING BOTTOM LOGGER
 BS  .IN             8.75:   BIT SIZE
 BSD .F              2500:   BIT SIZE AT DEPTH
 DFT .                AIR:   DRILLING FLUID TYPE
 TCS .HRS               2:   TIME CURCULATED STOPPED
 ENGI.          B. MILLER:   RECORDING ENGINEER
 WITN.           DINSMORE:   WITNESSED BY
 CLNT.            A2DTECH:   CLIENT CODE
 ORIG.           5" PRINT:   ORIGIN OF DATA
 UWI .       490251079700:   UNIQUE WELL ID
 DICO. A2D Technologies, Inc.:   DIGITIZING COMPANY
~OTHER INFORMATION
~A   DEPT     CALD       CORR       RHOB       DPHI         GRD  
# ...
 2200.0000     9.6393     0.1577     2.4493     0.0443   153.9471
 2200.5000     9.6194     0.1346     2.4685     0.0443   162.3824
 2201.0000     9.5994     0.1079     2.4412     0.0616   171.0945
 2201.5000     9.5795     0.0875     2.4230     0.0689   173.7304
 2202.0000     9.5595     0.0671     2.4296     0.0640   175.3670
 2202.5000     9.5396     0.0467     2.4306     0.0689   174.1424
 2203.0000     9.5193     0.0346     2.4096     0.0760   170.3588
 2203.5000     9.5020     0.0502     2.4059     0.0780   168.6721
 2204.0000     9.4775     0.0683     2.4183     0.0716   169.2867
 2204.5000     9.4533     0.0632     2.4207     0.0692   177.3437
 2205.0000     9.4291     0.0595     2.4164     0.0728   174.7833
 2205.5000     9.4048     0.0802     2.4357     0.0619   171.6148
 2206.0000     9.3806     0.0481     2.4530     0.0493   167.5972
 2206.5000     9.3563     0.0055     2.4600     0.0495   161.7609
 2207.0000     9.3319     0.0007     2.4674     0.0415   155.8865
 2207.5000     9.3079     0.0007     2.4717     0.0411   149.9708
 2208.0000     9.3002     0.0131     2.4550     0.0572   145.1634
 2208.5000     9.3461     0.0296     2.4377     0.0627   143.6939
 2209.0000     9.3912     0.0480     2.4069     0.0760   172.2267
 2209.5000     9.4363     0.0627     2.3734     0.0933   174.6792
 2210.0000     9.4814     0.0727     2.3496     0.1106   173.0888
 2210.5000     9.5265     0.1168     2.3403     0.1164   165.2995
 2211.0000     9.5715     0.1566     2.3816     0.0940   157.7387
 2211.5000     9.6166     0.1193     2.3410     0.1174   154.0124
 2212.0000     9.6617     0.1072     2.3181     0.1276   153.7767
 2212.5000     9.7067     0.2477     2.3742     0.0924   156.1230
 2213.0000     9.7519     0.3366     2.4158     0.0656   160.5059
 2213.5000     9.7701     0.3902     2.4432     0.0564   161.2149
 2214.0000     9.7758     0.4441     2.4789     0.0243   158.9273
 2214.5000     9.7901     0.4910     2.5434    -0.0069   157.3429
 2215.0000     9.8026     0.4447     2.5545     0.0057   157.3608
 2215.5000     9.8166     0.3751     2.5196     0.0195   161.8845
 2216.0000     9.8308     0.3050     2.4923     0.0277   163.7629
 2216.5000     9.8450     0.2359     2.4491     0.0599   167.6541
 2217.0000     9.8591     0.1897     2.3893     0.0960   174.5430
 2217.5000     9.8733     0.2009     2.3746     0.0807   184.1805
 2218.0000     9.8874     0.2125     2.4610     0.0531   183.9563
 2218.5000     9.9015     0.1639     2.4449     0.0476   181.8468
 2219.0000     9.9105     0.1221     2.4238     0.0684   178.1818
 2219.5000     9.9046     0.1243     2.4352     0.0600   175.9671
 2220.0000     9.8950     0.1285     2.4303     0.0649   177.0805
 2220.5000     9.8853     0.1280     2.4259     0.0672   175.2868
 2221.0000     9.8757     0.1249     2.4325     0.0613   169.9956
 2221.5000     9.8660     0.1204     2.4404     0.0591   164.7141
 2222.0000     9.8564     0.1111     2.4537     0.0529   159.4981
 2222.5000     9.8467     0.1046     2.4667     0.0415   155.7383
 2223.0000     9.8371     0.1045     2.4801     0.0352   156.0036
 2223.5000     9.8256     0.0913     2.4792     0.0351   167.5494
 2224.0000     9.8104     0.0769     2.4745     0.0381   176.2409
 2224.5000     9.7952     0.0624     2.4819     0.0327   181.8492
 2225.0000     9.7801     0.0506     2.4839     0.0343   179.2579
 2225.5000     9.7649     0.0404     2.4808     0.0364   174.8009
 2226.0000     9.7498     0.0302     2.4776     0.0384   170.3583
 2226.5000     9.7346     0.0199     2.4730     0.0403   164.9237
 2227.0000     9.7195     0.0150     2.4682     0.0433   159.3541
 2227.5000     9.7043     0.0126     2.4635     0.0461   155.6416
 2228.0000     9.6892     0.0098     2.4616     0.0459   157.5074
 2228.5000     9.6740     0.0036     2.4488     0.0542   158.3223
 2229.0000     9.6589    -0.0026     2.4318     0.0655   157.5869
 2229.5000     9.6437    -0.0090     2.4149     0.0748   157.0475
 2230.0000     9.6286     0.0015     2.4017     0.0796   161.1774
 2230.5000     9.6134     0.0238     2.4162     0.0722   162.9911
 2231.0000     9.5983     0.0545     2.4362     0.0620   161.1201
 2231.5000     9.5835     0.0771     2.4567     0.0483   158.7889
 2232.0000     9.5659     0.0871     2.4763     0.0327   156.4485
 2232.5000     9.5311     0.0790     2.4861     0.0407   154.1155
 2233.0000     9.5157     0.0491     2.4768     0.0371   151.9500
 2233.5000     9.4934     0.0202     2.4688     0.0412   151.7697
 2234.0000     9.4704     0.0070     2.4507     0.0503   152.8197
 2234.5000     9.4474     0.0024     2.4322     0.0641   159.7431
 2235.0000     9.4244     0.0109     2.4181     0.0725   166.5424
 2235.5000     9.4014     0.0345     2.4106     0.0760   173.5648
 2236.0000     9.3784     0.0790     2.4330     0.0684   174.8583
 2236.5000     9.3555     0.1319     2.4699     0.0335   170.1061
 2237.0000     9.3325     0.1820     2.4957     0.0271   169.3241
 2237.5000     9.3095     0.1944     2.4801     0.0383   173.9044
 2238.0000     9.2865     0.2048     2.4785     0.0368   174.4992
 2238.5000     9.2635     0.2263     2.4806     0.0331   173.9854
 2239.0000     9.2405     0.2494     2.5000     0.0238   173.0978
 2239.5000     9.2174     0.2551     2.5205     0.0139   172.2122
 2240.0000     9.1942     0.2517     2.5416    -0.0026   168.0816
 2240.5000     9.1977     0.2112     2.5464     0.0019   160.4574
 2241.0000     9.2114     0.1569     2.5227     0.0103   152.8055
 2241.5000     9.2249     0.1021     2.4729     0.0382   145.1998
 2242.0000     9.2385     0.0470     2.4237     0.0675   140.6438
 2242.5000     9.2519     0.0289     2.3928     0.0838   140.8466
 2243.0000     9.2654     0.0383     2.3971     0.0818   149.1804
 2243.5000     9.2789     0.0399     2.4050     0.0812   154.2083
 2244.0000     9.2924     0.0444     2.4139     0.0735   150.3318
 2244.5000     9.3059     0.0524     2.4262     0.0647   142.7168
 2245.0000     9.3194     0.0604     2.4379     0.0573   138.9034
 2245.5000     9.3329     0.0687     2.4438     0.0575   144.3922
 2246.0000     9.3464     0.0753     2.4359     0.0625   161.4717
 2246.5000     9.3599     0.0724     2.4193     0.0741   178.3245
 2247.0000     9.3734     0.0651     2.4018     0.0829   185.8760
 2247.5000     9.3869     0.0578     2.3954     0.0856   173.6383
 2248.0000     9.4003     0.0502     2.4035     0.0799   161.7079
 2248.5000     9.4138     0.0356     2.4115     0.0746   157.3845
 2249.0000     9.4273     0.0210     2.4190     0.0713   165.3335
 2249.5000     9.4408     0.0064     2.4123     0.0719   171.3768
 2250.0000     9.4543    -0.0080     2.4043     0.0804   173.5985
 2250.5000     9.4678    -0.0042     2.4057     0.0804   175.5986
 2251.0000     9.4813     0.0018     2.4211     0.0693   175.6263
 2251.5000     9.4948     0.0066     2.4313     0.0627   170.8018
 2252.0000     9.5083     0.0063     2.4327     0.0606   164.7563
 2252.5000     9.5218     0.0129     2.4479     0.0562   166.7888
 2253.0000     9.5353     0.0202     2.4641     0.0462   169.9828
 2253.5000     9.5491     0.0172     2.4701     0.0411   172.6432
 2254.0000     9.5527     0.0113     2.4654     0.0439   163.6706
 2254.5000     9.5550     0.0054     2.4564     0.0495   164.6302
 2255.0000     9.5573    -0.0006     2.4421     0.0591   165.6348
 2255.5000     9.5596    -0.0058     2.4279     0.0665   166.6659
 2256.0000     9.5619     0.0005     2.4212     0.0704   168.5267
 2256.5000     9.5642     0.0083     2.4283     0.0650   175.0750
 2257.0000     9.5665     0.0162     2.4357     0.0597   179.5156
 2257.5000     9.5688     0.0192     2.4433     0.0564   180.3798
 2258.0000     9.5711     0.0209     2.4453     0.0563   161.6446
 2258.5000     9.5734     0.0364     2.4457     0.0569   160.3060
 2259.0000     9.5757     0.0616     2.4425     0.0576   151.8707
 2259.5000     9.5780     0.0868     2.4344     0.0630   147.8721
 2260.0000     9.5803     0.1119     2.4265     0.0690   146.3753
 2260.5000     9.5826     0.1368     2.4271     0.0664   145.4890
