~VERSION INFORMATION
 VERS.                2.0:   CWLS LOG ASCII STANDARD - VERSION 2.0
 WRAP.                 NO:   ONE LINE PER DEPTH STEP
~WELL INFORMATION
#MNEM.UNIT      DATA TYPE    INFORMATION
#----------   ------------   ------------------------------
 STRT.F            8.0000:   START DEPTH
 STOP.F          970.0000:   STOP DEPTH
 STEP.F            0.1000:   STEP LENGTH
 NULL.          -999.2500:   NO VALUE
 COMP.       F D SERV INC:   COMPANY
 WELL. N P R 3 STX-35 #15-35:   WELL
 FLD .             TEAPOT:   FIELD
 LOC .      S35 T39N R78W:   LOCATION
 CNTY.            NATRONA:   COUNTY
 STAT.            WYOMING:   STATE
 CTRY. UNITED STATES OF AMERICA:   COUNTRY
 SRVC.     Atlas Wireline:   SERVICE COMPANY
 DATE.        02-FEB-1992:   LOGDATE
 API .       490252250100:   API NUMBER
~CURVE INFORMATION
#MNEM.UNIT       API CODE    CURVE DESCRIPTION
#----------   ------------   ------------------------------
 DEPT.F                  :   
 GRR .GAPI   07 310 01 00:   GAMMA RAY
 RILD.OHMM   07 120 46 00:   INDUCTION LOG DEEP RESISTIVITY
 RILM.OHMM   07 120 44 00:   INDUCTION LOG MEDIUM RESISTIVITY
~PARAMETER INFORMATION
#MNEM.UNIT          VALUE    DESCRIPTION
#----------   ------------   ------------------------------
 PD  .                 GL:   PERMANENT DATUM
 EPD .F              5084:   ELEVATION PERMANENT DATUM
 LMF .                 KB:   LOG MEASURED FROM
 DAPD.F                10:   FEET ABOVE PERMANENT DATUM
 DMF .                 KB:   DRILLING MEASURED FROM
 EKB .F              5094:   KELLING BUSHING
 EDF .F              5093:   DRILLING FLOOR
 EGL .F              5084:   GROUND LEVEL
 DATE.        02-FEB-1982:   RUN DATE
 RUN .                  1:   RUN NUMBER
 DD  .F               980:   DEPTH DRILLER
 CS  .IN            8.625:   CASING SIZE
 BSD .F               980:   BIT SIZE AT DEPTH
 DFT .                AIR:   DRILLING FLUID TYPE
 LUN .            HL-6272:   LOGGING UNIT NUMBER
 LUL .             CASPER:   LOGGING UNIT LOCATION
 ENGI.       R. RASMLSSEN:   RECORDING ENGINEER
 WITN.          G. STRONG:   WITNESSED BY
 CLNT.            A2DTECH:   CLIENT CODE
 ORIG.           5" PRINT:   ORIGIN OF DATA
 UWI .       490252250100:   UNIQUE WELL ID
 DICO. A2D Technologies, Inc.:   DIGITIZING COMPANY
~OTHER INFORMATION
~A    DEPT      GRR      RILD       RILM   
# ...
   99.0000    76.4848  -999.2500  -999.2500
   99.1000    77.2306  -999.2500  -999.2500
   99.2000    77.9757  -999.2500  -999.2500
   99.3000    78.7213  -999.2500  -999.2500
   99.4000    79.3318  -999.2500  -999.2500
   99.5000    79.8303  -999.2500  -999.2500
   99.6000    80.3291  -999.2500  -999.2500
   99.7000    80.8952  -999.2500  -999.2500
   99.8000    81.1128  -999.2500  -999.2500
   99.9000    80.7357  -999.2500  -999.2500
  100.0000    78.4848  -999.2500  -999.2500
  100.1000    77.8846  -999.2500  -999.2500
  100.2000    77.4810  -999.2500  -999.2500
  100.3000    76.9792  -999.2500  -999.2500
  100.4000    76.4775  -999.2500  -999.2500
  100.5000    76.0304  -999.2500  -999.2500
  100.6000    75.7866  -999.2500  -999.2500
  100.7000    76.0954  -999.2500  -999.2500
  100.8000    76.7250  -999.2500  -999.2500
  100.9000    77.8076  -999.2500  -999.2500
  101.0000    79.1880  -999.2500  -999.2500
  101.1000    80.8307  -999.2500  -999.2500
  101.2000    82.8626  -999.2500  -999.2500
  101.3000    85.2153  -999.2500  -999.2500
  101.4000    86.9261  -999.2500  -999.2500
  101.5000    88.9579  -999.2500  -999.2500
  101.6000    90.9897  -999.2500  -999.2500
  101.7000    93.0854  -999.2500  -999.2500
  101.8000    95.3399  -999.2500  -999.2500
  101.9000    97.3655  -999.2500  -999.2500
  102.0000    99.1149  -999.2500  -999.2500
  102.1000   101.6522  -999.2500  -999.2500
  102.2000   104.2065  -999.2500  -999.2500
  102.3000   106.5609  -999.2500  -999.2500
  102.4000   109.0796  -999.2500  -999.2500
  102.5000   111.6369  -999.2500  -999.2500
  102.6000   112.9790  -999.2500  -999.2500
  102.7000   114.6774  -999.2500  -999.2500
  102.8000   116.3322  -999.2500  -999.2500
  102.9000   117.7093  -999.2500  -999.2500
  103.0000   118.7032     2.7362     2.7041
  103.1000   119.5447     2.6211     2.6750
  103.2000   120.0048     2.5060     2.6457
  103.3000   120.1600     2.3674     2.6127
  103.4000   120.2933     2.2497     2.6129
  103.5000   120.4727     2.1546     2.6458
  103.6000   120.4484     2.0137     2.7089
  103.7000   120.1798     1.9485     2.7940
  103.8000   120.1843     1.9390     2.8951
  103.9000   120.3720     1.9281     3.0243
  104.0000   120.4969     1.9224     3.1410
  104.1000   120.5018     1.9377     3.2718
  104.2000   120.5066     2.0022     3.4077
  104.3000   120.5118     2.1945     3.5348
  104.4000   120.5163     2.3452     3.6388
  104.5000   120.8972     2.5503     3.7522
  104.6000   121.4086     2.7346     3.8785
  104.7000   121.9199     2.8958     3.9988
  104.8000   122.4315     3.1021     4.1169
  104.9000   122.9651     3.3319     4.2565
  105.0000   123.6971     3.5634     4.4372
  105.1000   124.2692     3.8436     4.6553
  105.2000   124.7806     4.2070     4.8973
  105.3000   125.4785     4.6768     5.2082
  105.4000   126.4532     5.2110     5.4954
  105.5000   127.2365     5.8128     5.7437
  105.6000   127.7357     6.1881     5.9689
  105.7000   128.4450     6.5277     6.1478
  105.8000   129.0620     6.8185     6.2546
  105.9000   129.4752     7.0519     6.2499
  106.0000   129.6848     7.1644     6.2144
  106.1000   129.6897     7.1655     6.1792
  106.2000   129.4424     7.0192     6.1371
  106.3000   128.9915     6.8047     6.0670
  106.4000   128.6423     6.4995     5.9843
  106.5000   128.1876     6.1234     5.9019
  106.6000   127.5393     5.7311     5.8212
  106.7000   127.2839     5.2101     5.7410
  106.8000   126.3912     4.9975     5.6356
  106.9000   125.7734     4.8696     5.5074
  107.0000   125.3333     4.8145     5.3966
  107.1000   124.9769     4.7960     5.3205
  107.2000   124.5333     4.7999     5.2294
  107.3000   124.2850     4.8308     5.1271
  107.4000   123.9959     4.8314     5.0234
  107.5000   124.0000     4.8321     4.9660
  107.6000   124.0048     4.8327     4.9005
  107.7000   124.0097     4.8334     4.8534
  107.8000   124.0145     4.8306     4.8160
  107.9000   124.0328     4.8014     4.7886
  108.0000   124.3280     4.7254     4.7684
  108.1000   124.3322     4.6641     4.7690
  108.2000   124.1697     4.5970     4.7696
  108.3000   123.9212     4.5269     4.7700
  108.4000   123.5369     4.4754     4.8077
  108.5000   122.7634     4.4211     4.8778
  108.6000   121.6297     4.3977     4.9719
  108.7000   120.7469     4.3729     5.0865
  108.8000   119.7385     4.3619     5.1870
  108.9000   118.6075     4.3625     5.2409
  109.0000   117.4182     4.3631     5.3027
  109.1000   116.4327     4.3637     5.3195
  109.2000   115.5981     4.4125     5.2894
  109.3000   115.3757     4.4646     5.2564
  109.4000   114.9503     4.5465     5.1904
  109.5000   114.5759     4.6441     5.1371
  109.6000   114.4049     4.7347     5.0991
  109.7000   114.4376     4.8807     5.0554
  109.8000   114.7180     4.9910     4.9976
  109.9000   115.1856     5.1090     4.9438
  110.0000   115.8786     5.2124     4.9135
  110.1000   116.5113     5.3046     4.9140
  110.2000   117.1052     5.3932     4.8736
  110.3000   117.8375     5.4590     4.8475
  110.4000   118.3834     5.5213     4.8480
  110.5000   119.0970     5.5616     4.8485
  110.6000   119.6753     5.5762     4.8491
  110.7000   120.1869     5.5770     4.8496
  110.8000   120.6110     5.5777     4.8711
  110.9000   120.8308     5.5786     4.9000
  111.0000   120.5336     5.5479     4.9290
  111.1000   120.5382     5.4674     4.9538
  111.2000   120.1600     5.3918     4.9543
  111.3000   119.6580     5.3303     4.9549
  111.4000   119.2484     5.2696     4.9554
  111.5000   118.9155     5.2086     4.9559
  111.6000   118.1383     5.1797     4.9565
  111.7000   117.8970     5.1271     4.9570
  111.8000   117.4521     5.0859     4.9576
  111.9000   116.9502     5.0459     4.9582
  112.0000   116.5454     4.9939     4.9587
  112.1000   116.2495     4.9655     4.9592
  112.2000   115.7431     4.9093     4.9598
  112.3000   115.7479     4.8758     4.9603
  112.4000   115.7528     4.8651     4.9609
  112.5000   115.7576     4.8545     4.9616
  112.6000   115.7624     4.8328     4.9620
  112.7000   115.7151     4.8335     4.9626
  112.8000   115.4690     4.8343     4.9631
  112.9000   115.4748     4.8348     4.9636
  113.0000   115.2728     4.8355     4.9642
  113.1000   115.0243     4.8362     4.9648
  113.2000   114.7758     4.8368     4.9653
  113.3000   114.5273     4.8375     4.9659
  113.4000   114.2787     4.8383     4.9664
  113.5000   113.9887     4.8388     4.9736
  113.6000   113.7819     4.8395     5.0021
  113.7000   113.5334     4.8402     5.0027
  113.8000   113.3963     4.8408     5.0032
  113.9000   113.4012     4.8415     5.0038
  114.0000   113.4182     4.8423     5.0043
  114.1000   113.7147     4.8661     5.0048
  114.2000   113.9345     4.8773     5.0070
  114.3000   114.3586     4.8780     5.0409
  114.4000   114.7538     4.8787     5.0414
  114.5000   115.1454     4.8802     5.0419
  114.6000   115.8764     4.9141     5.0425
  114.7000   116.1679     4.9147     5.0510
  114.8000   116.6135     4.9154     5.0787
  114.9000   116.9541     4.9161     5.0793
  115.0000   117.3334     4.9236     5.0798
  115.1000   117.8447     4.9517     5.1005
  115.2000   118.3345     4.9525     5.1163
  115.3000   118.6211     4.9774     5.1255
  115.4000   119.3019     5.0071     5.1558
  115.5000   119.8911     5.0238     5.1896
  115.6000   120.4025     5.0318     5.1901
  115.7000   120.8375     5.0617     5.2118
  115.8000   121.1223     5.0963     5.2274
  115.9000   121.6804     5.1222     5.2280
  116.0000   121.9152     5.1331     5.2286
  116.1000   121.9928     5.1338     5.2292
  116.2000   121.9976     5.1346     5.2297
  116.3000   122.0025     5.1352     5.2303
  116.4000   122.0073     5.1361     5.2308
  116.5000   122.0125     5.1367     5.2413
  116.6000   121.7818     5.1374     5.2684
  116.7000   121.5333     5.1381     5.2690
  116.8000   121.2848     5.1388     5.2695
  116.9000   121.1224     5.1395     5.2701
  117.0000   121.0908     5.1403     5.2707
  117.1000   120.8293     5.1410     5.2713
