~VERSION INFORMATION
 VERS.                2.0:   CWLS LOG ASCII STANDARD - VERSION 2.0
 WRAP.                 NO:   ONE LINE PER DEPTH STEP
~WELL INFORMATION
#MNEM.UNIT      DATA TYPE    INFORMATION
#----------   ------------   ------------------------------
 STRT.F           40.0000:   START DEPTH
 STOP.F          821.0000:   STOP DEPTH
 STEP.F            0.5000:   STEP LENGTH
 NULL.          -999.2500:   NO VALUE
 COMP. FENIX & SCISSON INC:   COMPANY
 WELL. NPR 3 -68 SX #68-27:   WELL
 FLD .             TEAPOT:   FIELD
 LOC .      S27 T39N R78W:   LOCATION
 CNTY.            NATRONA:   COUNTY
 STAT.            WYOMING:   STATE
 CTRY. UNITED STATES OF AMERICA:   COUNTRY
 SRVC.           BIRDWELL:   SERVICE COMPANY
 DATE.        11-SEP-1978:   LOGDATE
 API .       490251069500:   API NUMBER
~CURVE INFORMATION
#MNEM.UNIT       API CODE    CURVE DESCRIPTION
#----------   ------------   ------------------------------
 DEPT.F                  :   
 SPR .MV     05 010 01 00:   SPONTANEOUS POTENTIAL FROM RES.
 SN  .OHMM   05 040 16 00:   SHORT NORMAL 16"
 ILD .OHMM   05 120 46 00:   INDUCTION LOG DEEP
 GRD .GAPI   45 310 01 00:   GAMMA RAY FROM DENSITY LOG
 CALD.IN     45 280 60 00:   CALIPER
 RHOB.G/C3   45 350 01 00:   BULK DENSITY
 CORR.G/C3   45 356 01 00:   DENSITY CORRECTION
 DPHI.DEC    45 890 12 00:   DENSITY POROSITY SANDSTONE
~PARAMETER INFORMATION
#MNEM.UNIT          VALUE    DESCRIPTION
#----------   ------------   ------------------------------
 PD  .                 GL:   PERMANENT DATUM
 EPD .F              5032:   ELEVATION PERMANENT DATUM
 LMF .                 GL:   LOG MEASURED FROM
 DAPD.F                 4:   FEET ABOVE PERMANENT DATUM
 DMF .                 GL:   DRILLING MEASURED FROM
 EKB .F              5036:   KELLING BUSHING
 EGL .F              5032:   GROUND LEVEL
 DATE.            9-11-78:   RUN DATE
 RUN .                  1:   RUN NUMBER
 DD  .F               820:   DEPTH DRILLER
 DL  .F               822:   DEPTH LOGGER
 BLI .F               818:   BOTTOM LOG INTERVAL
 TLI .F                40:   TOP LOG INTERVAL
 CS  .IN            8.625:   CASING SIZE
 CBD .F                40:   CASING BOTTOM DRILLER
 CBL .F                40:   CASING BOTTOM LOGGER
 BS  .IN            7.875:   BIT SIZE
 BSD .F               820:   BIT SIZE AT DEPTH
 DFT .                KCL:   DRILLING FLUID TYPE
 DFD .                8.6:   DRILLING FLUID DENSITY
 DFV .                 34:   DRILLING FLUID VISCOSITY
 DFPH.                  9:   DRILLING FLUID PH
 DFL .                  8:   DRILLING FLUID LOSS
 MSS .           FLOWLINE:   MUD SAMPLE SOURCE
 RMS .OHMM            .24:   RESISTIVITY MUD SAMPLE
 MST .F                62:   MUD SAMPLE TEMPERATURE
 RMF .OHMM            .18:   RESISTIVITY MUD FILTRATE SAMPLE
 MFST.F                64:   MUD FILTRATE SAMPLE TEMPERATURE
 RMC .OHMM             .3:   RESISTIVITY MUD CAKE
 MCST.F                66:   MUD CAKE SAMPLE TEMPERATURE
 MFSS.               MEAS:   MUD FILTRATE SAMPLE SOURCE
 MCSS.               MEAS:   MUD CAKE SAMPLE SOURCE
 RMB .OHMM            .22:   RESISTIVITY MUD AT BHT
 BHT .F                68:   BOTTOM HOLE TEMPERATURE
 TCS .HRS               1:   TIME CURCULATED STOPPED
 MRT .F                68:   MAXIMUM RECORDED TEMPERATURE
 LUN .               3006:   LOGGING UNIT NUMBER
 LUL .               CASP:   LOGGING UNIT LOCATION
 ENGI.            POINTER:   RECORDING ENGINEER
 WITN.              AMEND:   WITNESSED BY
 CLNT.            A2DTECH:   CLIENT CODE
 ORIG.           5" PRINT:   ORIGIN OF DATA
 UWI .       490251069500:   UNIQUE WELL ID
 DICO. A2D Technologies, Inc.:   DIGITIZING COMPANY
~OTHER INFORMATION
~A   DEPT       SPR        SN        ILD         GRD        CALD     RHOB       CORR       DPHI   
# ...
  364.0000   -38.8148    10.4513     9.4200   103.1869     8.1349     2.5288     0.0123     0.1000
  364.5000   -38.8321    10.6000     9.5557   107.9731     8.1278     2.5282     0.0119     0.1019
  365.0000   -38.8494    10.6000     9.6934   121.1652     8.1208     2.5278     0.0110     0.1036
  365.5000   -38.8667    10.6000     9.8331   116.3729     8.1138     2.5273     0.0101     0.1027
  366.0000   -38.8840    10.6000     9.9747   110.5646     8.1067     2.5269     0.0108     0.1005
  366.5000   -38.9013    10.8650    10.1185   104.7636     8.0997     2.5284     0.0116     0.0991
  367.0000   -38.9187    11.1468    10.2643    98.9730     8.0927     2.5300     0.0124     0.1002
  367.5000   -38.9360    11.4360    10.4122    93.1724     8.0857     2.5317     0.0131     0.0997
  368.0000   -38.9532    11.6216    10.5623    87.3494     8.0786     2.5334     0.0139     0.0980
  368.5000   -38.9709    11.5825    10.7144    81.8927     8.0714     2.5349     0.0147     0.0963
  369.0000   -38.9578    11.5320    10.8688    82.2091     8.0708     2.5333     0.0154     0.0960
  369.5000   -38.9235    11.4817    10.9974    97.8369     8.0720     2.5312     0.0145     0.0957
  370.0000   -38.8889    11.4317    10.9974   105.1094     8.0733     2.5275     0.0135     0.0964
  370.5000   -38.8542    11.3819    10.9561   106.8775     8.0746     2.5238     0.0124     0.1000
  371.0000   -38.8197    11.3323    10.9141   108.5610     8.0759     2.5206     0.0114     0.1035
  371.5000   -38.7856    11.2829    10.9027   110.4369     8.0772     2.5191     0.0134     0.1049
  372.0000   -38.7166    11.2337    10.7634   117.1042     8.0786     2.5175     0.0138     0.1050
  372.5000   -38.6396    11.1848    10.5526   121.3946     8.0799     2.5159     0.0143     0.1052
  373.0000   -38.5756    11.1361    10.3098   118.0428     8.0812     2.5154     0.0147     0.1053
  373.5000   -38.5771    11.0875    10.3120   108.7637     8.0825     2.5165     0.0151     0.1055
  374.0000   -38.5778    11.0392    10.3111    99.8496     8.0838     2.5176     0.0155     0.1053
  374.5000   -38.5743    10.9911    10.3070    98.0969     8.0851     2.5187     0.0160     0.1046
  375.0000   -38.4776    10.9432    10.2840    96.4491     8.0864     2.5197     0.0164     0.1039
  375.5000   -38.3765    10.8955    10.2612    92.2916     8.0877     2.5208     0.0168     0.1032
  376.0000   -38.2757    10.8480    10.2384    88.2476     8.0890     2.5219     0.0172     0.1025
  376.5000   -38.1781    10.8008    10.2157    86.0421     8.0900     2.5229     0.0177     0.1018
  377.0000   -38.2589    10.7537    10.1930    92.4596     8.0886     2.5201     0.0181     0.1008
  377.5000   -38.3941    10.7068    10.1704    97.7920     8.0872     2.5172     0.0185     0.1026
  378.0000   -38.5299    10.6000    10.1478   101.7711     8.0858     2.5142     0.0190     0.1044
  378.5000   -38.6657    10.6011    10.1253   103.9881     8.0844     2.5113     0.0194     0.1061
  379.0000   -38.8014    10.6002    10.1028   110.0597     8.0830     2.5083     0.0198     0.1078
  379.5000   -38.9374    10.5583    10.0804   127.1082     8.0816     2.5052     0.0202     0.1086
  380.0000   -39.0727    10.5287    10.0581   121.4464     8.0802     2.5062     0.0206     0.1095
  380.5000   -39.1809    10.4993    10.0357   115.9316     8.0789     2.5078     0.0211     0.1104
  381.0000   -39.1787    10.4700    10.0135   112.0433     8.0775     2.5094     0.0215     0.1108
  381.5000   -39.1787    10.4408     9.9912   110.3050     8.0761     2.5110     0.0219     0.1077
  382.0000   -39.1783    10.4117     9.9691   107.3359     8.0747     2.5136     0.0224     0.1044
  382.5000   -39.1507    10.3827     9.9468   104.3864     8.0733     2.5162     0.0228     0.1016
  383.0000   -39.0103    10.3537     9.9115   101.4389     8.0718     2.5173     0.0232     0.1016
  383.5000   -38.8731    10.3248     9.8679    98.8248     8.0710     2.5153     0.0241     0.1040
  384.0000   -38.7357    10.2960     9.8246    97.5988     8.0336     2.5134     0.0262     0.1067
  384.5000   -38.5982    10.2674     9.7816    98.0872     7.9775     2.5114     0.0282     0.1094
  385.0000   -38.5509    10.2384     9.7471   104.9754     7.9208     2.5121     0.0313     0.1100
  385.5000   -38.5111    10.1981     9.7236   118.2694     7.8642     2.5146     0.0366     0.1095
  386.0000   -38.4712    10.1173     9.7000   125.6653     7.8061     2.5192     0.0419     0.1092
  386.5000   -38.4307    10.0380     9.6765   128.7872     7.7898     2.5240     0.0472     0.1074
  387.0000   -38.3926     9.9591     9.6044   114.8484     7.8195     2.5247     0.0525     0.1036
  387.5000   -38.2353     9.8809     9.5065   109.0995     7.8644     2.5243     0.0578     0.0997
  388.0000   -38.0212     9.8033     9.4096   109.4995     7.9097     2.5240     0.0631     0.0968
  388.5000   -37.8034     9.7263     9.3188   107.8182     7.9550     2.5250     0.0646     0.0968
  389.0000   -37.8503     9.6499     9.2827   105.0692     8.0004     2.5259     0.0619     0.0988
  389.5000   -37.9385     9.5741     9.2485    97.3814     8.0462     2.5221     0.0507     0.1011
  390.0000   -38.0274     9.4989     9.2145    92.0414     8.0921     2.5180     0.0395     0.1037
  390.5000   -38.1157     9.4243     9.1806    87.8070     8.1115     2.5139     0.0281     0.1061
  391.0000   -38.2040     9.3503     9.1489    90.9103     8.1184     2.5126     0.0215     0.1086
  391.5000   -38.2923     9.2769     8.7885    91.8925     8.1274     2.5154     0.0161     0.1112
  392.0000   -38.3805     9.2040     8.4997    93.0813     8.1369     2.5198     0.0115     0.1098
  392.5000   -38.4688     9.1317     8.4997   104.2513     8.1463     2.5243     0.0128     0.1071
  393.0000   -38.5571     9.0651     8.4997   114.2480     8.1557     2.5289     0.0141     0.1045
  393.5000   -38.6453     9.0651     8.5810   121.7069     8.1651     2.5315     0.0153     0.1018
  394.0000   -38.7336     9.4421     8.6752   124.2485     8.1700     2.5337     0.0165     0.0991
  394.5000   -38.8219     9.7099     8.7704   117.0565     8.1670     2.5358     0.0178     0.0979
  395.0000   -38.9101     9.9440     8.8667   107.3523     8.1538     2.5338     0.0190     0.0976
  395.5000   -38.9984     9.9352     8.9640   103.8518     8.1411     2.5314     0.0202     0.0974
  396.0000   -39.0867     9.9388     9.0624   105.6169     8.1283     2.5290     0.0214     0.0971
  396.5000   -39.1750     9.9388     9.1619   107.5839     8.1156     2.5266     0.0226     0.0969
  397.0000   -39.2632     9.9388     9.2335   108.3617     8.1029     2.5241     0.0234     0.0966
  397.5000   -39.3522     9.9388     9.1118   107.2822     8.0902     2.5248     0.0231     0.0966
  398.0000   -39.3539     9.9388     9.0777   106.0073     8.0775     2.5257     0.0228     0.0983
  398.5000   -39.3039     9.9388     9.0439   104.7222     8.0648     2.5265     0.0224     0.1000
  399.0000   -39.2538     9.9388     9.0101   103.4372     8.0521     2.5254     0.0221     0.1018
  399.5000   -39.2035     9.9388     8.9765   102.1508     8.0394     2.5221     0.0218     0.1035
  400.0000   -39.1533     9.9388     8.9430   101.5774     8.0266     2.5206     0.0215     0.1040
  400.5000   -39.1030     9.9388     8.8999   103.9135     8.0139     2.5191     0.0189     0.1039
  401.0000   -39.0531     9.9388     8.9399   106.9910     8.0013     2.5180     0.0159     0.1037
  401.5000   -39.0025     9.9388     8.9969   108.3232     7.9895     2.5182     0.0130     0.1036
  402.0000   -39.0420     9.9388     9.0545   108.0103     7.9715     2.5185     0.0101     0.1034
  402.5000   -39.1671     9.9388     9.1125   113.7614     7.9514     2.5187     0.0075     0.1032
  403.0000   -39.2925     9.9388     9.1710   126.8503     7.9313     2.5189     0.0087     0.1031
  403.5000   -39.4181     9.9388     9.2337   124.6546     7.9110     2.5199     0.0098     0.1029
  404.0000   -39.5436     9.9388     9.2304    90.3452     7.8909     2.5188     0.0108     0.1024
