~VERSION INFORMATION
 VERS.                2.0:   CWLS LOG ASCII STANDARD - VERSION 2.0
 WRAP.                 NO:   ONE LINE PER DEPTH STEP
~WELL INFORMATION
#MNEM.UNIT      DATA TYPE    INFORMATION
#----------   ------------   ------------------------------
 STRT.F            2.0000:   START DEPTH
 STOP.F          548.0000:   STOP DEPTH
 STEP.F            0.1000:   STEP LENGTH
 NULL.          -999.2500:   NO VALUE
 COMP.       F D SERV INC:   COMPANY
 WELL. NAVAL PETROLEUM RESERVE 3 SX-3 #88-10-3:   WELL
 FLD .             TEAPOT:   FIELD
 LOC .       S3 T38N R78W:   LOCATION
 CNTY.            NATRONA:   COUNTY
 STAT.            WYOMING:   STATE
 CTRY. UNITED STATES OF AMERICA:   COUNTRY
 SRVC.     Atlas Wireline:   SERVICE COMPANY
 DATE.        19-OCT-1992:   LOGDATE
 API .       490252254600:   API NUMBER
~CURVE INFORMATION
#MNEM.UNIT       API CODE    CURVE DESCRIPTION
#----------   ------------   ------------------------------
 DEPT.F                  :   
 GRR .GAPI   07 310 01 00:   GAMMA RAY
 ILD .OHMM   07 120 46 00:   INDUCTION LOG DEEP
 ILM .OHMM   07 120 44 00:   INDUCTION LOG MEDIUM
~PARAMETER INFORMATION
#MNEM.UNIT          VALUE    DESCRIPTION
#----------   ------------   ------------------------------
 PD  .                 GL:   PERMANENT DATUM
 EPD .F              5126:   ELEVATION PERMANENT DATUM
 LMF .                 KB:   LOG MEASURED FROM
 DAPD.F                10:   FEET ABOVE PERMANENT DATUM
 DMF .                 KB:   DRILLING MEASURED FROM
 EKB .F              5136:   KELLING BUSHING
 EDF .F              5135:   DRILLING FLOOR
 EGL .F              5126:   GROUND LEVEL
 DATE.        19-OCT-1992:   RUN DATE
 RUN .                  1:   RUN NUMBER
 DD  .F               566:   DEPTH DRILLER
 DL  .F               558:   DEPTH LOGGER
 BLI .F               550:   BOTTOM LOG INTERVAL
 TLI .F                98:   TOP LOG INTERVAL
 CS  .IN            8.625:   CASING SIZE
 CBD .F                85:   CASING BOTTOM DRILLER
 CBL .F                98:   CASING BOTTOM LOGGER
 BS  .IN            7.875:   BIT SIZE
 BSD .F               566:   BIT SIZE AT DEPTH
 DFT .           AIR FOAM:   DRILLING FLUID TYPE
 TCS .HRS               2:   TIME CURCULATED STOPPED
 MRT .F                73:   MAXIMUM RECORDED TEMPERATURE
 LUN .            HL-6274:   LOGGING UNIT NUMBER
 LUL .             CASPER:   LOGGING UNIT LOCATION
 ENGI.             RAUTIO:   RECORDING ENGINEER
 WITN.        GARY STRONG:   WITNESSED BY
 CLNT.            A2DTECH:   CLIENT CODE
 ORIG.           5" PRINT:   ORIGIN OF DATA
 UWI .       490252254600:   UNIQUE WELL ID
 DICO. A2D Technologies, Inc.:   DIGITIZING COMPANY
~OTHER INFORMATION
~A    DEPT     GRR        ILD        ILM   
# ...
  347.8000    77.2362    37.4095    33.3707
  347.9000    75.8263    37.4074    32.7594
  348.0000    74.8321    37.3741    32.4185
  348.1000    74.4027    37.1427    31.9271
  348.2000    74.1628    37.1409    31.5483
  348.3000    74.7658    36.9961    31.3279
  348.4000    74.9620    36.7852    30.9710
  348.5000    76.0536    36.6196    30.6215
  348.6000    77.6897    36.6175    30.5381
  348.7000    79.1924    36.6155    30.5364
  348.8000    81.1108    36.4593    30.4820
  348.9000    82.1983    36.3567    30.3205
  349.0000    83.2657    36.3546    30.3186
  349.1000    84.3532    36.3432    30.1724
  349.2000    85.6302    36.0973    30.0000
  349.3000    87.1533    35.9302    29.8933
  349.4000    88.1038    35.7254    29.8659
  349.5000    88.7231    35.5217    29.6819
  349.6000    89.3386    35.3191    29.6803
  349.7000    90.0065    35.0933    29.6787
  349.8000    90.4847    34.9177    29.5996
  349.9000    90.7730    34.7187    29.4689
  350.0000    90.7716    34.4434    29.4672
  350.1000    90.6245    34.0580    29.4361
  350.2000    90.2878    33.6726    29.2597
  350.3000    89.8261    33.2872    29.1014
  350.4000    89.5538    33.0422    28.9356
  350.5000    88.6646    32.7653    28.8503
  350.6000    88.1747    32.4397    28.8491
  350.7000    88.0357    32.2495    28.8435
  350.8000    87.8765    31.7055    28.6791
  350.9000    87.1243    31.4469    28.6448
  351.0000    85.9123    31.1711    28.5519
  351.1000    85.2367    30.8185    28.3891
  351.2000    84.8718    30.4696    28.2272
  351.3000    84.6965    30.0745    28.0461
  351.4000    84.6786    29.7848    27.7686
  351.5000    84.3900    29.4481    27.4542
  351.6000    84.1828    29.1149    27.1432
  351.7000    84.0841    28.7604    26.8355
  351.8000    84.0823    28.2368    26.5168
  351.9000    84.0805    27.9425    26.0903
  352.0000    84.0785    27.6267    25.7538
  352.1000    84.0769    27.3847    25.3919
  352.2000    84.0750    27.2288    24.9983
  352.3000    84.1862    27.0726    24.7148
  352.4000    84.4305    26.9197    24.4351
  352.5000    84.6747    26.7666    24.3783
  352.6000    84.9190    26.6143    24.2209
  352.7000    85.1633    26.5069    23.9464
  352.8000    85.5407    26.4965    23.6894
  352.9000    85.9544    26.3201    23.5378
  353.0000    86.2389    26.3191    23.3041
  353.1000    87.0841    26.2293    23.1246
  353.2000    87.5022    26.0800    22.9928
  353.3000    87.9925    25.9509    22.8377
  353.4000    88.4829    25.9497    22.5674
  353.5000    88.9732    25.8169    22.4445
  353.6000    89.4958    25.6700    22.3166
  353.7000    89.9541    25.4615    22.1276
  353.8000    90.4444    25.2020    21.9093
  353.9000    90.8177    25.0541    21.7844
  354.0000    91.0620    24.6445    21.6358
  354.1000    91.3103    24.4306    21.5369
  354.2000    91.8007    24.1543    21.4141
  354.3000    92.0974    23.7820    21.3333
  354.4000    92.3417    23.5076    21.3189
  354.5000    92.6666    23.0344    21.1829
  354.6000    93.1329    22.8245    21.1822
  354.7000    93.4091    22.5664    21.1813
  354.8000    93.6214    22.3111    21.1804
  354.9000    94.0230    22.0721    21.1795
  355.0000    94.4125    21.9310    21.1786
  355.1000    94.6127    21.8216    21.0629
  355.2000    94.6105    21.6974    21.0295
  355.3000    94.8427    21.5740    21.0286
  355.4000    94.9095    21.4511    21.0277
  355.5000    95.0288    21.3225    21.0268
  355.6000    95.0793    21.2077    21.0258
  355.7000    94.5934    21.1724    20.9292
  355.8000    94.2968    21.1715    20.8779
  355.9000    93.7023    21.1706    20.8770
  356.0000    92.1151    21.1697    20.8761
  356.1000    89.9831    21.1688    20.8752
  356.2000    88.1819    21.2623    20.7700
  356.3000    87.6313    21.3154    20.7283
  356.4000    87.4118    21.3531    20.7274
  356.5000    87.3253    21.4735    20.7265
  356.6000    87.4284    21.6123    20.7256
  356.7000    87.6726    21.6115    20.7248
  356.8000    87.9249    21.6106    20.7239
  356.9000    88.1611    21.6097    20.7231
  357.0000    88.4055    21.6088    20.7222
  357.1000    88.6497    21.6079    20.7166
  357.2000    88.9625    21.7205    20.5761
  357.3000    89.4409    21.7575    20.5754
  357.4000    89.7292    21.7566    20.5745
  357.5000    90.1311    21.7279    20.5737
  357.6000    90.4762    21.6034    20.5728
  357.7000    90.8980    21.6025    20.5719
  357.8000    91.5699    21.6016    20.5711
  357.9000    91.8382    21.5362    20.5702
  358.0000    91.3929    21.4136    20.5694
  358.1000    90.8989    21.2993    20.5685
  358.2000    90.4048    21.2983    20.5676
  358.3000    89.9633    21.1977    20.5668
  358.4000    89.7113    21.1485    20.5659
  358.5000    89.7095    21.1476    20.5651
  358.6000    89.7077    21.1467    20.5642
  358.7000    89.8350    21.1457    20.5633
  358.8000    90.0793    21.1449    20.5623
  358.9000    90.3075    21.1440    20.5616
  359.0000    90.3053    21.0912    20.5608
  359.1000    90.5095    20.9951    20.5599
  359.2000    90.6045    20.9942    20.5590
  359.3000    90.6027    20.9934    20.5581
  359.4000    90.6373    20.9925    20.5573
  359.5000    90.9015    20.9916    20.6338
  359.6000    90.8998    20.9907    20.6996
  359.7000    91.0675    20.9947    20.6988
  359.8000    91.3117    21.1359    20.6979
  359.9000    91.5560    21.1352    20.6970
  360.0000    91.8003    21.1343    20.7832
  360.1000    91.7985    21.1334    20.9006
  360.2000    91.7967    21.1457    20.9855
  360.3000    91.7949    21.2796    20.9902
  360.4000    91.8697    21.3850    21.1306
  360.5000    92.0939    21.5056    21.3270
  360.6000    92.0917    21.6269    21.5696
  360.7000    92.2999    21.7711    21.8593
  360.8000    92.3909    22.0311    22.2013
  360.9000    92.4859    22.2684    22.3400
  361.0000    92.7302    22.5214    22.7990
  361.1000    92.9905    22.7770    23.3219
  361.2000    93.2187    23.0354    23.8561
  361.3000    93.6365    23.2989    24.4018
  361.4000    94.0099    23.6981    24.9755
  361.5000    94.1936    24.4310    25.5333
  361.6000    94.1918    25.0349    26.1192
  361.7000    94.1900    25.4627    26.7178
  361.8000    94.1882    25.8973    27.3294
  361.9000    93.7748    26.4048    27.9706
  362.0000    92.9540    26.9223    29.1152
  362.1000    91.9439    27.4406    29.8032
  362.2000    90.5498    27.7856    30.6602
  362.3000    89.6931    27.9925    31.6063
  362.4000    88.5496    28.5070    32.6718
  362.5000    86.3086    28.8065    33.7066
  362.6000    82.7487    29.2491    34.5788
  362.7000    79.6483    29.7491    35.4372
  362.8000    78.7105    30.2571    36.4329
  362.9000    77.7245    30.7766    37.6449
  363.0000    76.7383    31.3009    38.7505
  363.1000    75.6874    31.8366    39.6189
  363.2000    74.4714    32.3810    40.0138
  363.3000    73.5857    32.8783    40.2399
  363.4000    72.9912    33.2634    40.4018
  363.5000    72.2512    33.9285    40.4001
  363.6000    71.5958    34.4118    40.3981
  363.7000    71.0734    34.8809    40.3967
  363.8000    70.2485    35.2767    40.3950
  363.9000    69.8112    35.6495    40.3933
  364.0000    69.3172    35.8703    40.3916
  364.1000    68.9281    36.0528    40.3898
  364.2000    68.6802    36.1188    40.3883
  364.3000    68.4241    36.1173    40.2335
  364.4000    68.1844    36.1158    39.7092
  364.5000    68.2996    36.1142    38.7700
  364.6000    68.4188    35.9147    37.6579
  364.7000    68.4855    35.8600    36.4276
  364.8000    68.7298    35.6542    35.6546
  364.9000    69.0181    35.2508    34.8493
  365.0000    69.4201    34.8437    33.8716
  365.1000    69.7652    34.1433    32.9199
  365.2000    70.0982    33.8315    31.8392
  365.3000    70.6208    33.3410    31.2493
  365.4000    71.4298    32.9040    30.4456
  365.5000    71.8720    32.6761    29.6520
  365.6000    72.5277    32.0570    29.0057
  365.7000    73.1552    31.7389    28.4676
  365.8000    73.9078    31.3802    28.0329
  365.9000    75.6569    30.8823    27.5590
