~VERSION INFORMATION
 VERS.                2.0:   CWLS LOG ASCII STANDARD - VERSION 2.0
 WRAP.                 NO:   ONE LINE PER DEPTH STEP
~WELL INFORMATION
#MNEM.UNIT      DATA TYPE    INFORMATION
#----------   ------------   ------------------------------
 STRT.F          534.0000:   START DEPTH
 STOP.F         1820.0000:   STOP DEPTH
 STEP.F            0.5000:   STEP LENGTH
 NULL.          -999.2500:   NO VALUE
 COMP.   FLUOR DANIEL INC:   COMPANY
 WELL. NAVAL PETROLEUM RESERVE 3 X-29 #45-29:   WELL
 FLD .             TEAPOT:   FIELD
 LOC .      S29 T39N R78W:   LOCATION
 CNTY.            NATRONA:   COUNTY
 STAT.            WYOMING:   STATE
 CTRY. UNITED STATES OF AMERICA:   COUNTRY
 SRVC.            Unknown:   SERVICE COMPANY
 DATE.        30-SEP-1994:   LOGDATE
 API .       490252265100:   API NUMBER
~CURVE INFORMATION
#MNEM.UNIT       API CODE    CURVE DESCRIPTION
#----------   ------------   ------------------------------
 DEPT.F                  :   
 ROP .FT/HR  91 810 01 00:   RAT OF DRILLING PENETRATION
 TGAS.TC/CC  91 830 01 00:   TOTAL GAS UNIT
~PARAMETER INFORMATION
#MNEM.UNIT          VALUE    DESCRIPTION
#----------   ------------   ------------------------------
 EKB .F              5023:   KELLING BUSHING
 EGL .F              5013:   GROUND LEVEL
 DATE.        30-SEP-1994:   RUN DATE
 RUN .                  1:   RUN NUMBER
 BLI .F              1820:   BOTTOM LOG INTERVAL
 TLI .F               540:   TOP LOG INTERVAL
 WITN.     C.TOWER/R.HUSK:   WITNESSED BY
 CLNT.            A2DTECH:   CLIENT CODE
 ORIG.           5" PRINT:   ORIGIN OF DATA
 UWI .       490252265100:   UNIQUE WELL ID
 DICO. A2D Technologies, Inc.:   DIGITIZING COMPANY
~OTHER INFORMATION
~A   DEPT        ROP       TGAS 
# ...
 1384.5000     0.4991     1.1211
 1385.0000     0.4896     1.1155
 1385.5000     0.4896     1.2991
 1386.0000     0.4896     1.3500
 1386.5000     0.4991     1.5050
 1387.0000     0.4991     1.6606
 1387.5000     0.4991     1.6537
 1388.0000     0.4991     1.6482
 1388.5000     0.4991     1.8331
 1389.0000     0.4991     1.8262
 1389.5000     0.4991     1.8207
 1390.0000     0.4991     1.8151
 1390.5000     0.4991     1.8095
 1391.0000     0.4991     1.8027
 1391.5000     0.4991     1.7981
 1392.0000     0.4991     1.7924
 1392.5000     0.4991     1.7861
 1393.0000     0.4991     1.9696
 1393.5000     0.4991     1.9641
 1394.0000     0.4991     1.9585
 1394.5000     0.4991     1.9530
 1395.0000     0.4991     1.7584
 1395.5000     0.4991     1.5637
 1396.0000     0.4991     1.3678
 1396.5000     0.4991     1.1732
 1397.0000     0.4991     1.1677
 1397.5000     0.4991     1.1621
 1398.0000     0.4991     1.1566
 1398.5000     0.4991     1.1511
 1399.0000     0.4991     1.3360
 1399.5000     0.4991     1.3291
 1400.0000     0.5028     1.1345
 1400.5000     0.5268     0.7403
 1401.0000     0.5358     0.3706
 1401.5000     0.5542     0.3661
 1402.0000     0.5536     0.3623
 1402.5000     0.5532     0.3586
 1403.0000     0.5527     0.5440
 1403.5000     0.5523     0.7303
 1404.0000     0.5518     0.9147
 1404.5000     0.5418     0.7219
 1405.0000     0.5413     1.0963
 1405.5000     0.5410     1.0926
 1406.0000     0.5405     0.7107
 1406.5000     0.5494     0.5179
 1407.0000     0.5490     0.5142
 1407.5000     0.5485     0.3214
 1408.0000     0.5480     0.3176
 1408.5000     0.5476     0.3139
 1409.0000     0.5471     0.4599
 1409.5000     0.5460     0.6837
 1410.0000     0.5366     0.6800
 1410.5000     0.5430     0.8663
 1411.0000     0.5452     1.0517
 1411.5000     0.5447     1.0470
 1412.0000     0.5443     1.0433
 1412.5000     0.5343     1.0399
 1413.0000     0.5339     1.0358
 1413.5000     0.5334     1.0321
 1414.0000     0.5330     1.0284
 1414.5000     0.5324     1.0247
 1415.0000     0.5320     1.0210
 1415.5000     0.5315     1.0172
 1416.0000     0.5340     1.0134
 1416.5000     0.5400     1.0097
 1417.0000     0.5395     1.0051
 1417.5000     0.5390     1.0014
 1418.0000     0.5386     0.9977
 1418.5000     0.5381     0.9945
 1419.0000     0.5377     1.1803
 1419.5000     0.5372     1.1756
 1420.0000     0.5317     1.1719
 1420.5000     0.5173     1.1682
 1421.0000     0.5154     0.9754
 1421.5000     0.4787     0.9717
 1422.0000     0.4689     0.9679
 1422.5000     0.4684     1.1534
 1423.0000     0.4680     1.1496
 1423.5000     0.4633     1.3349
 1424.0000     0.4576     1.3311
 1424.5000     0.4525     1.3273
 1425.0000     0.4473     1.3228
 1425.5000     0.4468     1.3191
 1426.0000     0.4557     1.3154
 1426.5000     0.4552     1.3122
 1427.0000     0.4643     1.3084
 1427.5000     0.4732     1.3042
 1428.0000     0.4727     1.3008
 1428.5000     0.4722     1.4859
 1429.0000     0.4718     1.4821
 1429.5000     0.4830     1.6676
 1430.0000     0.4896     1.8529
 1430.5000     0.5080     1.8491
 1431.0000     0.5075     1.8454
 1431.5000     0.5259     2.0307
 1432.0000     0.5304     2.0269
 1432.5000     0.5344     2.0224
 1433.0000     0.5338     2.0187
 1433.5000     0.5367     2.0149
 1434.0000     0.5425     2.0112
 1434.5000     0.5419     2.0075
 1435.0000     0.5414     2.0042
 1435.5000     0.5410     2.0001
 1436.0000     0.5405     1.9966
 1436.5000     0.5534     1.9926
 1437.0000     0.5678     1.9889
 1437.5000     0.5768     1.9853
 1438.0000     0.5762     1.9815
 1438.5000     0.5758     1.9777
 1439.0000     0.5753     1.9739
 1439.5000     0.5749     1.9702
 1440.0000     0.5744     1.9664
 1440.5000     0.5739     1.9619
 1441.0000     0.5734     1.9582
 1441.5000     0.5730     1.7654
 1442.0000     0.5725     1.7617
 1442.5000     0.5720     1.5689
 1443.0000     0.5716     1.5652
 1443.5000     0.5710     1.5614
 1444.0000     0.5706     1.5577
 1444.5000     0.5702     1.5540
 1445.0000     0.5697     1.6308
 1445.5000     0.5692     1.7357
 1446.0000     0.5687     1.5428
 1446.5000     0.5683     1.7282
 1447.0000     0.5772     1.7244
 1447.5000     0.5767     1.7536
 1448.0000     0.5762     1.7161
 1448.5000     0.5758     1.9024
 1449.0000     0.5848     1.8977
 1449.5000     0.5842     1.8940
 1450.0000     0.5744     1.8908
 1450.5000     0.5739     1.8866
 1451.0000     0.5734     2.0716
 1451.5000     0.5828     2.0682
 1452.0000     0.5913     1.8754
 1452.5000     0.5909     1.8717
 1453.0000     0.5903     1.8681
 1453.5000     0.5899     1.8643
 1454.0000     0.5895     1.8567
 1454.5000     0.5890     1.6676
 1455.0000     0.5885     1.4748
 1455.5000     0.5880     1.0921
 1456.0000     0.5876     1.0884
 1456.5000     0.5871     1.0847
 1457.0000     0.5866     1.0810
 1457.5000     0.5861     1.0772
 1458.0000     0.5857     1.0739
 1458.5000     0.5947     1.0702
 1459.0000     0.5941     1.0661
 1459.5000     0.5936     1.0620
 1460.0000     0.5838     1.0588
 1460.5000     0.5833     1.1905
 1461.0000     0.5829     1.4293
 1461.5000     0.5824     1.6144
 1462.0000     0.5725     1.8000
 1462.5000     0.5719     1.7962
 1463.0000     0.5715     2.1698
 1463.5000     0.5667     2.3552
 1464.0000     0.5517     2.5415
 1464.5000     0.5513     2.5368
 1465.0000     0.5619     2.7231
 1465.5000     0.5693     2.9085
 1466.0000     0.5731     3.0938
 1466.5000     0.5777     3.2792
 1467.0000     0.5844     3.2745
 1467.5000     0.5862     3.2708
 1468.0000     0.5856     2.3217
 1468.5000     0.5757     1.5617
 1469.0000     0.5753     1.5580
 1469.5000     0.5749     1.3651
 1470.0000     0.5838     1.1723
 1470.5000     0.5833     0.9794
 1471.0000     0.5829     0.9749
 1471.5000     0.5824     0.9718
 1472.0000     0.5977     0.9675
 1472.5000     0.6004     0.9638
 1473.0000     0.6102     0.9605
 1473.5000     0.6182     0.9563
 1474.0000     0.6177     0.9526
 1474.5000     0.6266     0.9489
 1475.0000     0.6261     0.9454
 1475.5000     0.6257     0.9414
 1476.0000     0.6252     1.1269
 1476.5000     0.6153     1.1231
 1477.0000     0.6149     1.1193
 1477.5000     0.6144     1.3046
 1478.0000     0.6139     1.3008
 1478.5000     0.6134     1.1072
 1479.0000     0.6129     0.9144
 1479.5000     0.6125     0.9107
 1480.0000     0.6120     0.9070
 1480.5000     0.6116     0.9033
 1481.0000     0.6111     0.8996
 1481.5000     0.6106     0.8958
 1482.0000     0.6102     0.8921
 1482.5000     0.6097     0.8884
 1483.0000     0.6102     1.0747
 1483.5000     0.6747     1.3400
 1484.0000     0.6647     1.6336
 1484.5000     0.6642     1.6298
 1485.0000     0.6638     1.6261
 1485.5000     0.6633     1.6223
 1486.0000     0.6629     1.6185
 1486.5000     0.6624     1.6140
 1487.0000     0.6714     1.6103
 1487.5000     0.6709     1.6066
 1488.0000     0.6704     1.6028
 1488.5000     0.6605     1.5991
 1489.0000     0.5658     1.4063
 1489.5000     0.5749     1.5926
 1490.0000     0.5743     1.5880
 1490.5000     0.5645     1.5842
 1491.0000     0.5670     1.5805
 1491.5000     0.5730     1.5768
 1492.0000     0.5631     1.5731
 1492.5000     0.5626     1.5693
 1493.0000     0.5621     1.5655
 1493.5000     0.5523     1.5618
 1494.0000     0.5517     1.5580
 1494.5000     0.5418     1.5542
 1495.0000     0.5414     1.5498
 1495.5000     0.5409     1.5461
 1496.0000     0.5500     1.5424
 1496.5000     0.5589     1.5387
 1497.0000     0.5584     1.7240
 1497.5000     0.5673     1.7203
 1498.0000     0.5951     1.7166
 1498.5000     0.6520     1.9019
 1499.0000     0.6601     1.8982
 1499.5000     0.6595     2.0836
 1500.0000     0.6591     2.0798
 1500.5000     0.6506     2.0713
 1501.0000     0.6211     2.0612
 1501.5000     0.6209     2.0529
 1502.0000     0.6113     2.0446
 1502.5000     0.6111     2.0363
 1503.0000     0.6203     2.0280
 1503.5000     0.6296     1.8306
 1504.0000     0.6388     1.8223
 1504.5000     0.6386     2.0031
 1505.0000     0.6384     1.9947
 1505.5000     0.6382     1.7972
