~VERSION INFORMATION
 VERS.                2.0:   CWLS LOG ASCII STANDARD - VERSION 2.0
 WRAP.                 NO:   ONE LINE PER DEPTH STEP
~WELL INFORMATION
#MNEM.UNIT      DATA TYPE    INFORMATION
#----------   ------------   ------------------------------
 STRT.M            0.0000:   START DEPTH
 STOP.M          642.0000:   STOP DEPTH
 STEP.M            0.1000:   STEP LENGTH
 NULL.          -999.2500:   NO VALUE
 COMP.   FLUOR DANIEL INC:   COMPANY
 WELL.     71-1 X 3 #71-3:   WELL
 FLD .             TEAPOT:   FIELD
 LOC .       S3 T38N R78W:   LOCATION
 CNTY.            NATRONA:   COUNTY
 STAT.            WYOMING:   STATE
 CTRY. UNITED STATES OF AMERICA:   COUNTRY
 SRVC.      Western Atlas:   SERVICE COMPANY
 DATE.        04-JAN-1995:   LOGDATE
 API .       490252267900:   API NUMBER
~CURVE INFORMATION
#MNEM.UNIT       API CODE    CURVE DESCRIPTION
#----------   ------------   ------------------------------
 DEPT.M                  :   
 RILD.OHMM   07 120 46 00:   INDUCTION LOG DEEP RESISTIVITY
 RILM.OHMM   07 120 44 00:   INDUCTION LOG MEDIUM RESISTIVITY
 GRR .GAPI   07 310 01 00:   GAMMA RAY
~PARAMETER INFORMATION
#MNEM.UNIT          VALUE    DESCRIPTION
#----------   ------------   ------------------------------
 PD  .                 GL:   PERMANENT DATUM
 EPD .F              5123:   ELEVATION PERMANENT DATUM
 LMF .                 KB:   LOG MEASURED FROM
 DAPD.F                10:   FEET ABOVE PERMANENT DATUM
 DMF .                 KB:   DRILLING MEASURED FROM
 EKB .F              5133:   KELLING BUSHING
 EDF .F              5132:   DRILLING FLOOR
 EGL .F              5123:   GROUND LEVEL
 DATE.        04-JAN-1995:   RUN DATE
 RUN .                  1:   RUN NUMBER
 DD  .F               647:   DEPTH DRILLER
 DL  .F               650:   DEPTH LOGGER
 BLI .F               642:   BOTTOM LOG INTERVAL
 TLI .F                96:   TOP LOG INTERVAL
 CS  .IN            9.625:   CASING SIZE
 CBD .F                96:   CASING BOTTOM DRILLER
 CBL .F                96:   CASING BOTTOM LOGGER
 BS  .IN             8.75:   BIT SIZE
 BSD .F               647:   BIT SIZE AT DEPTH
 DFT .                AIR:   DRILLING FLUID TYPE
 MRT .F                91:   MAXIMUM RECORDED TEMPERATURE
 LUN .            HL 6530:   LOGGING UNIT NUMBER
 LUL .             CASPER:   LOGGING UNIT LOCATION
 ENGI.        VERN RAUTIO:   RECORDING ENGINEER
 WITN.        GARY STRONG:   WITNESSED BY
 CLNT.            A2DTECH:   CLIENT CODE
 ORIG.           5" PRINT:   ORIGIN OF DATA
 UWI .       490252267900:   UNIQUE WELL ID
 DICO. A2D Technologies, Inc.:   DIGITIZING COMPANY
~OTHER INFORMATION
~A    DEPT    RILD       RILM        GRR   
# ...
  546.0000    21.0921    20.5863    84.8500
  546.1000    21.0915    20.5858    85.7992
  546.2000    21.0909    20.5852    86.6154
  546.3000    21.0903    20.5846    86.3996
  546.4000    21.0898    20.6223    86.1574
  546.5000    21.0891    20.7270    85.9153
  546.6000    21.0886    20.7263    85.6733
  546.7000    21.0880    20.7258    85.4189
  546.8000    21.0874    20.7252    85.1892
  546.9000    21.0868    20.7246    85.1215
  547.0000    21.0862    20.7241    85.1239
  547.1000    21.0857    20.7235    85.0670
  547.2000    21.0851    20.7229    84.8266
  547.3000    21.0845    20.6339    84.8290
  547.4000    21.0839    20.5783    85.0199
  547.5000    21.0833    20.5778    85.1359
  547.6000    21.0827    20.5677    85.2848
  547.7000    21.0821    20.4341    85.7924
  547.8000    21.0816    20.4336    86.6542
  547.9000    21.0810    20.4330    87.0615
  548.0000    21.0804    20.4325    87.5529
  548.1000    21.0797    20.4319    87.8695
  548.2000    21.0792    20.4313    87.8719
  548.3000    21.0786    20.3200    87.8746
  548.4000    21.0780    20.2888    87.6600
  548.5000    21.0775    20.2882    87.2588
  548.6000    21.0768    20.2877    86.8737
  548.7000    21.0763    20.2871    86.5878
  548.8000    21.0757    20.2864    86.0738
  548.9000    21.0751    20.1900    85.6146
  549.0000    21.0745    20.1450    85.1279
  549.1000    21.0739    20.1444    84.6411
  549.2000    21.0734    20.1439    84.1547
  549.3000    21.0728    20.1433    83.6685
  549.4000    21.0722    20.1428    83.4264
  549.5000    21.0716    20.1422    82.9971
  549.6000    21.0710    20.1416    82.7698
  549.7000    21.0704    20.1411    82.7722
  549.8000    21.0699    20.1405    82.7891
  549.9000    21.0693    20.1399    83.0796
  550.0000    21.0687    20.1166    83.4861
  550.1000    21.0681    20.0880    83.9794
  550.2000    21.0675    20.0595    84.4727
  550.3000    21.0669    20.0310    84.9015
  550.4000    20.9895    20.0025    84.9042
  550.5000    20.8825    19.9739    84.9063
  550.6000    20.7754    19.9454    84.9088
  550.7000    20.6684    19.9169    84.9112
  550.8000    20.5613    19.8883    84.9136
  550.9000    20.4543    19.8598    84.9160
  551.0000    20.3472    19.8313    84.9184
  551.1000    20.2402    19.8027    84.9208
  551.2000    20.1331    19.7742    84.9233
  551.3000    20.0261    19.7457    84.9257
  551.4000    19.9182    19.7172    84.9281
  551.5000    19.7970    19.6886    84.9309
  551.6000    19.6939    19.6601    85.1383
  551.7000    19.5827    19.6316    85.3865
  551.8000    19.4721    19.6030    85.7274
  551.9000    19.3901    19.5927    86.2211
  552.0000    19.3868    19.5478    86.7555
  552.1000    19.2566    19.4374    87.2088
  552.2000    19.1685    19.3232    87.8719
  552.3000    19.0603    19.2187    88.4987
  552.4000    18.9526    19.1103    88.9924
  552.5000    18.8607    19.0025    89.4864
  552.6000    18.8610    18.8952    89.7346
  552.7000    18.7631    18.7950    89.9827
  552.8000    18.6571    18.7954    90.2308
  552.9000    18.6018    18.6184    90.4024
  553.0000    18.5754    18.5365    90.4048
  553.1000    18.4705    18.4962    90.4076
  553.2000    18.3462    18.3918    90.4097
  553.3000    18.3464    18.2816    90.4121
  553.4000    18.2859    18.2818    90.4145
  553.5000    18.2200    18.2083    90.4976
  553.6000    18.2058    18.1055    91.0237
  553.7000    18.0945    18.0304    91.2556
  553.8000    18.0947    18.0306    91.5037
  553.9000    18.0950    18.0309    91.8686
  554.0000    18.0952    18.0311    92.3021
  554.1000    18.0955    18.0314    92.5502
  554.2000    18.0928    18.0316    92.7985
  554.3000    17.9708    18.0319    92.6597
  554.4000    17.9710    18.0321    92.4165
  554.5000    17.9713    18.0324    92.1732
  554.6000    17.9715    18.1038    91.9299
  554.7000    17.9859    18.1586    91.6547
  554.8000    18.0972    18.1841    91.2298
  554.9000    18.0975    18.2856    91.0550
  555.0000    18.0977    18.2859    90.9567
  555.1000    18.0980    18.2861    90.7573
  555.2000    18.0982    18.3459    90.7602
  555.3000    18.1011    18.4141    90.7625
  555.4000    18.2248    18.4272    90.9422
  555.5000    18.2250    18.5430    91.0695
  555.6000    18.2855    18.6380    91.0719
  555.7000    18.3525    18.7443    91.0743
  555.8000    18.3812    18.8032    91.0772
  555.9000    18.6095    18.8275    91.0792
  556.0000    18.6098    18.9347    91.2227
  556.1000    18.6832    19.0428    91.3015
  556.2000    18.7899    19.0672    91.0582
  556.3000    18.8707    19.1273    90.7870
  556.4000    18.8758    19.2363    90.1366
  556.5000    19.1351    19.3348    89.5630
  556.6000    19.1353    19.3351    88.9692
  556.7000    19.1985    19.4319    88.1381
  556.8000    19.3081    19.5427    86.8714
  556.9000    19.4036    19.6063    85.4475
  557.0000    19.4039    19.6066    84.3384
  557.1000    19.6061    19.6069    83.3579
  557.2000    19.6756    19.6072    82.4459
  557.3000    19.7281    19.6074    81.7354
  557.4000    19.8132    19.6077    81.4482
  557.5000    19.8158    19.5740    81.0474
  557.6000    19.9290    19.4725    80.7034
  557.7000    19.9520    19.4728    80.4600
  557.8000    19.8874    19.3787    80.2167
  557.9000    19.7750    19.2007    79.9495
  558.0000    19.6778    19.0280    79.7301
  558.1000    19.6781    18.9206    79.3217
  558.2000    19.4768    18.8094    78.8327
  558.3000    19.3321    18.6064    78.3436
  558.4000    19.2229    18.3970    77.8466
  558.5000    19.0884    18.1897    77.3656
  558.6000    18.8767    17.9845    76.8765
  558.7000    18.8770    17.7818    76.3874
  558.8000    18.7079    17.5488    76.0435
  558.9000    18.5569    17.3836    76.0782
  559.0000    18.4521    17.1877    76.6530
  559.1000    18.3478    16.9940    77.4767
  559.2000    18.2344    16.8024    78.4619
  559.3000    18.1413    16.6014    79.8174
  559.4000    17.9693    16.4260    81.7860
  559.5000    17.8128    16.3067    83.9156
  559.6000    17.7122    16.2146    85.2719
  559.7000    17.6137    16.1231    86.7484
  559.8000    17.6139    16.0321    88.1119
  559.9000    17.4567    15.9251    89.2864
  560.0000    17.3155    15.9252    90.2719
  560.1000    17.2177    15.9255    91.0113
  560.2000    17.1326    15.9257    91.9402
  560.3000    17.1328    15.9130    92.7928
  560.4000    17.0455    15.8159    93.4559
  560.5000    16.9493    15.7340    93.9701
  560.6000    16.8973    15.7068    94.8185
  560.7000    16.8751    15.7071    95.0300
  560.8000    16.7809    15.7073    95.2781
  560.9000    16.7812    15.7075    95.6229
  561.0000    16.7063    15.7077    96.0363
  561.1000    16.6656    15.7079    96.0388
  561.2000    16.6658    15.7081    96.0411
  561.3000    16.6660    15.7084    96.0435
  561.4000    16.6663    15.7086    95.9290
  561.5000    16.5815    15.7088    95.6858
  561.6000    16.4879    15.7090    95.4465
  561.7000    16.4372    15.7092    95.4489
  561.8000    16.4374    15.7496    95.4514
  561.9000    16.4376    15.8192    95.4538
  562.0000    16.4379    15.8194    95.3756
  562.1000    16.3648    15.8196    95.1563
  562.2000    16.3246    15.8897    95.1592
  562.3000    16.2932    15.9303    95.1613
  562.4000    16.2121    15.9305    95.1637
  562.5000    16.2124    15.9308    95.2668
  562.6000    16.2126    15.9310    95.4707
  562.7000    16.1509    15.9312    95.4732
  562.8000    16.1009    15.9906    95.7091
  562.9000    16.0801    16.0427    95.9573
  563.0000    15.9900    16.0429    96.2055
  563.1000    15.9902    16.0431    96.4537
  563.2000    15.9904    16.0434    96.6937
  563.3000    15.9907    16.0436    96.6966
  563.4000    15.9601    16.0923    96.6985
  563.5000    15.8805    16.1559    96.8418
  563.6000    15.8807    16.1561    97.0900
  563.7000    15.8809    16.1563    97.3100
  563.8000    15.8207    16.1565    97.3127
  563.9000    15.7715    16.1568    97.3148
  564.0000    15.7718    16.1570    97.4784
  564.1000    15.7720    16.1572    97.6217
