~VERSION INFORMATION
 VERS.                2.0:   CWLS LOG ASCII STANDARD - VERSION 2.0
 WRAP.                 NO:   ONE LINE PER DEPTH STEP
~WELL INFORMATION
#MNEM.UNIT      DATA TYPE    INFORMATION
#----------   ------------   ------------------------------
 STRT.F            6.0000:   START DEPTH
 STOP.F          528.0000:   STOP DEPTH
 STEP.F            0.5000:   STEP LENGTH
 NULL.          -999.2500:   NO VALUE
 COMP.       F D SERV INC:   COMPANY
 WELL.  82-3 SX-10 #82-10:   WELL
 FLD .             TEAPOT:   FIELD
 LOC .      S10 T38N R78W:   LOCATION
 CNTY.            NATRONA:   COUNTY
 STAT.            WYOMING:   STATE
 CTRY. UNITED STATES OF AMERICA:   COUNTRY
 SRVC.     Atlas Wireline:   SERVICE COMPANY
 DATE.        08-DEC-1992:   LOGDATE
 API .       490252257800:   API NUMBER
~CURVE INFORMATION
#MNEM.UNIT       API CODE    CURVE DESCRIPTION
#----------   ------------   ------------------------------
 DEPT.F                  :   
 GRR .GAPI   07 310 01 00:   GAMMA RAY
 RILD.OHMM   07 120 46 00:   INDUCTION LOG DEEP RESISTIVITY
 RILM.OHMM   07 120 44 00:   INDUCTION LOG MEDIUM RESISTIVITY
~PARAMETER INFORMATION
#MNEM.UNIT          VALUE    DESCRIPTION
#----------   ------------   ------------------------------
 PD  .                 GL:   PERMANENT DATUM
 EPD .F              5168:   ELEVATION PERMANENT DATUM
 LMF .                 KB:   LOG MEASURED FROM
 DAPD.F                10:   FEET ABOVE PERMANENT DATUM
 DMF .                 KB:   DRILLING MEASURED FROM
 EKB .F              5178:   KELLING BUSHING
 EDF .F              5177:   DRILLING FLOOR
 EGL .F              5168:   GROUND LEVEL
 DATE.        08-DEC-1992:   RUN DATE
 RUN .                  1:   RUN NUMBER
 DD  .F               530:   DEPTH DRILLER
 DL  .F               530:   DEPTH LOGGER
 BLI .F               522:   BOTTOM LOG INTERVAL
 CS  .IN            8.625:   CASING SIZE
 CBD .F                97:   CASING BOTTOM DRILLER
 CBL .F                98:   CASING BOTTOM LOGGER
 BS  .IN            7.875:   BIT SIZE
 BSD .F               530:   BIT SIZE AT DEPTH
 DFT .           AIR FOAM:   DRILLING FLUID TYPE
 MRT .F                71:   MAXIMUM RECORDED TEMPERATURE
 LUN .            HL 6321:   LOGGING UNIT NUMBER
 LUL .        RK. SPRINGS:   LOGGING UNIT LOCATION
 ENGI.        J. THOMPSON:   RECORDING ENGINEER
 WITN.          G. STRONG:   WITNESSED BY
 CLNT.            A2DTECH:   CLIENT CODE
 ORIG.           5" PRINT:   ORIGIN OF DATA
 UWI .       490252257800:   UNIQUE WELL ID
 DICO. A2D Technologies, Inc.:   DIGITIZING COMPANY
~OTHER INFORMATION
~A    DEPT     GRR       RILD       RILM   
# ...
  188.0000   177.5223     6.2489     6.0796
  188.5000   180.5327     6.0321     5.6818
  189.0000   181.7386     5.8323     5.5268
  189.5000   181.7414     5.8327     5.6037
  190.0000   177.0525     5.7928     5.6818
  190.5000   172.4239     5.8335     5.8031
  191.0000   176.0365     5.9151     5.9635
  191.5000   178.7461     6.0396     6.0885
  192.0000   179.3505     6.2524     6.2593
  192.5000   178.1203     6.4282     6.4348
  193.0000   172.7404     6.5634     6.6156
  193.5000   169.7357     6.7014     6.8008
  194.0000   169.7386     6.8015     6.8955
  194.5000   170.9445     6.8904     6.9093
  195.0000   169.1127     6.9868     6.9916
  195.5000   166.1382     6.9872     6.9916
  196.0000   166.1418     6.9877     6.9916
  196.5000   173.3627     6.8922     6.9916
  197.0000   181.7866     6.8928     6.9916
  197.5000   185.4035     6.7984     6.8955
  198.0000   179.3870     6.7990     6.8480
  198.5000   172.1718     6.7059     6.7495
  199.0000   171.5725     6.6144     6.6153
  199.5000   175.1851     6.4211     6.4348
  200.0000   179.3985     6.1734     6.2593
  200.5000   182.4096     5.7613     5.9225
  201.0000   183.9162     5.4516     5.5232
  201.5000   184.2198     5.1586     4.9823
  202.0000   180.0122     4.9470     4.6817
  202.5000   180.0150     4.8147     4.4604
  203.0000   178.5149     4.8150     4.4914
  203.5000   175.2095     4.7821     4.5539
  204.0000   165.9376     4.8156     4.6494
  204.5000   166.2470     4.8159     4.7798
  205.0000   173.5339     5.0204     5.0168
  205.5000   178.8979     5.1973     5.2293
  206.0000   178.3050     5.4933     5.5268
  206.5000   175.9075     5.9330     6.0429
  207.0000   172.9086     6.2740     6.3064
  207.5000   170.2104     6.5933     6.5697
  208.0000   174.1309     6.8246     6.8498
  208.5000   175.9440     7.0193     7.0439
  209.0000   177.4564     7.0710     7.1442
  209.5000   178.6680     7.1726     7.2460
  210.0000   179.2982     7.2790     7.2992
  210.5000   179.8903     7.3809     7.3521
  211.0000   178.9966     7.3838     7.4055
  211.5000   171.7872     7.4382     7.4593
  212.0000   167.5852     7.4929     7.4618
  212.5000   168.2958     7.5481     7.5165
  213.0000   175.1233     7.5518     7.5190
  213.5000   177.8387     7.6073     7.6789
  214.0000   178.4466     7.6104     7.5761
  214.5000   177.8556     7.6664     7.6311
  215.0000   177.9248     7.6695     7.6871
  215.5000   179.9804     7.7266     7.6896
  216.0000   182.6958     7.7834     7.7454
  216.5000   185.1104     7.8407     7.7480
  217.0000   186.9235     7.8984     7.9128
  217.5000   187.5338     7.9566     7.8609
  218.0000   185.7398     7.9605     7.8641
  218.5000   180.3349     7.9078     7.7588
  219.0000   180.0405     7.9117     7.7080
  219.5000   180.9535     7.8601     7.6048
  220.0000   179.6391     7.7549     7.5549
  220.5000   178.2639     7.7044     7.5054
  221.0000   179.7784     7.7082     7.4568
  221.5000   180.9900     7.6572     7.3570
  222.0000   180.0964     7.6080     7.2585
  222.5000   177.6091     7.5585     7.1120
  223.0000   176.2038     7.5092     6.9211
  223.5000   177.4175     7.3073     6.7815
  224.0000   179.8321     7.1102     6.6446
  224.5000   185.5550     6.7760     6.4599
  225.0000   190.0770     6.0673     6.0787
  225.5000   186.7773     5.7421     5.7540
  226.0000   184.6785     5.4721     5.3719
  226.5000   185.8922     4.9678     4.9806
  227.0000   187.1038     4.4170     4.2608
  227.5000   186.5130     3.6392     3.6532
  228.0000   182.6118     3.2809     3.1612
  228.5000   181.7160     2.9579     2.7734
  229.0000   181.7268     2.6853     2.5714
  229.5000   178.7278     2.5064     2.5000
  230.0000   169.1145     2.4387     2.4687
  230.5000   160.7020     2.4912     2.4868
  231.0000   160.4077     2.5446     2.5492
  231.5000   161.9222     2.6355     2.8375
  232.0000   164.3529     2.8466     3.3040
  232.5000   170.6633     3.3162     3.7945
  233.0000   176.3862     3.8913     4.4184
  233.5000   183.3121     4.5978     4.9067
  234.0000   189.3357     5.1039     5.2547
  234.5000   192.3609     5.3995     5.4787
  235.0000   188.1520     5.7441     5.6730
  235.5000   185.4538     6.0781     5.8338
  236.0000   185.7632     6.2083     5.8358
  236.5000   184.8695     6.2540     5.8381
  237.0000   184.2766     6.2113     5.8805
  237.5000   185.4903     6.0462     5.7619
  238.0000   187.0027     5.7620     5.4918
  238.5000   189.7180     5.4531     5.1961
  239.0000   195.1402     5.1609     4.9552
  239.5000   207.8946     4.9482     4.8218
  240.0000   213.5053     4.7201     4.6597
  240.5000   213.2110     4.5928     4.5656
  241.0000   207.2067     4.5624     4.5045
  241.5000   191.5762     4.5964     4.5691
  242.0000   184.9682     4.7276     4.6985
  242.5000   189.1895     4.8968     4.7985
  243.0000   193.7094     5.0716     4.9344
  243.5000   194.0166     5.2527     5.2237
  244.0000   194.6288     5.5932     5.6303
  244.5000   196.7719     5.9187     5.8300
  245.0000   197.9542     6.2552     6.0786
  245.5000   193.7544     6.5690     6.4259
  246.0000   191.6556     6.8985     6.6999
  246.5000   197.9821     7.1447     6.9380
  247.0000   201.3674     7.2979     7.1347
  247.5000   200.7082     7.3523     7.2362
  248.0000   193.4988     7.4064     7.2386
  248.5000   188.6953     7.3574     7.1417
  249.0000   189.0047     7.3101     7.0949
  249.5000   190.5955     7.1066     7.0005
  250.0000   193.5353     6.9217     6.8279
  250.5000   192.9424     6.7350     6.6291
  251.0000   190.2442     6.6911     6.5407
  251.5000   189.3504     6.6450     6.4542
  252.0000   189.9609     6.5138     6.3243
  252.5000   190.5728     6.3380     6.1121
  253.0000   191.1829     5.9983     5.7071
  253.5000   192.6953     5.5976     5.4400
  254.0000   197.2151     5.1184     5.1142
  254.5000   206.8499     4.8106     4.8413
  255.0000   208.3623     4.6808     4.5421
  255.5000   203.8596     4.6181     4.3388
  256.0000   192.3308     4.6204     4.3705
  256.5000   187.5188     4.6868     4.4946
  257.0000   191.1278     4.7541     4.7195
  257.5000   195.9398     4.9580     5.0240
  258.0000   188.7218     5.2800     5.4601
  258.5000   187.8195     5.5834     5.8933
  259.0000   192.9483     6.1126     6.3614
  259.5000   195.3383     6.5089     6.6790
  260.0000   189.9248     6.7475     6.7745
  260.5000   188.1203     6.9342     6.8714
  261.0000   191.7934     7.0828     6.9703
  261.5000   197.1429     7.1845     7.0700
  262.0000   198.6466     7.2374     7.1217
  262.5000   197.1429     7.2913     7.1739
  263.0000   196.5414     7.2942     7.2271
  263.5000   197.1429     7.2970     7.1794
  264.0000   197.4436     7.2999     7.1829
  264.5000   198.9474     7.3035     7.1857
  265.0000   200.4511     7.2551     7.1391
  265.5000   196.5414     7.2078     7.0934
  266.0000   191.4286     7.1615     6.9982
  266.5000   197.4436     7.1650     7.0501
  267.0000   204.3609     7.1679     7.0535
  267.5000   204.9624     7.1707     7.0563
  268.0000   201.3534     7.1735     7.0590
  268.5000   201.0526     7.1267     7.0618
  269.0000   198.9474     7.1302     7.0159
  269.5000   194.1353     7.1826     7.0680
  270.0000   195.3383     7.1855     7.0221
  270.5000   201.0526     7.1386     7.0249
  271.0000   204.3609     6.9950     6.8368
  271.5000   205.5639     6.6662     6.5168
  272.0000   206.7669     6.0938     6.1265
  272.5000   207.6793     5.7619     5.5110
  273.0000   209.7744     5.6121     4.9504
  273.5000   212.7820     5.4607     4.9867
  274.0000   215.7895     5.3504     5.0580
  274.5000   214.4321     5.2754     5.1332
  275.0000   207.9699     5.1369     5.2042
  275.5000   208.5714     5.0676     5.2423
  276.0000   210.0752     5.0345     5.2443
  276.5000   210.3759     5.0022     5.1678
  277.0000   202.5564     4.9352     4.8987
  277.5000   199.5489     4.9030     4.5737
  278.0000   199.5489     4.9054     4.5439
  278.5000   197.7444     4.8735     4.5807
