~VERSION INFORMATION
 VERS.                2.0:   CWLS LOG ASCII STANDARD - VERSION 2.0
 WRAP.                 NO:   ONE LINE PER DEPTH STEP
~WELL INFORMATION
#MNEM.UNIT      DATA TYPE    INFORMATION
#----------   ------------   ------------------------------
 STRT.F            0.0000:   START DEPTH
 STOP.F          625.0000:   STOP DEPTH
 STEP.F            0.5000:   STEP LENGTH
 NULL.          -999.2500:   NO VALUE
 COMP.       F D SERV INC:   COMPANY
 WELL.    75-3 SX-3 #72-3:   WELL
 FLD .             TEAPOT:   FIELD
 LOC .       S3 T38N R78W:   LOCATION
 CNTY.            NATRONA:   COUNTY
 STAT.            WYOMING:   STATE
 CTRY. UNITED STATES OF AMERICA:   COUNTRY
 SRVC.     Atlas Wireline:   SERVICE COMPANY
 DATE.        05-MAY-1992:   LOGDATE
 API .       490252251800:   API NUMBER
~CURVE INFORMATION
#MNEM.UNIT       API CODE    CURVE DESCRIPTION
#----------   ------------   ------------------------------
 DEPT.F                  :   
 CALD.IN     45 280 60 00:   CALIPER FROM DENSITY
 CORR.G/C3   45 356 01 00:   DENSITY CORRECTION
 DEN .G/C3   45 350 01 00:   COMPENSATED BULK DENSTIY
 GRD .GAPI   45 310 01 00:   GAMMA RAY FROM DENSITY LOG
 RILD.OHMM   07 120 46 00:   INDUCTION LOG DEEP RESISTIVITY
 RILM.OHMM   07 120 44 00:   INDUCTION LOG MEDIUM RESISTIVITY
 PORD.DEC    45 890 12 00:   POROSITY DENSITY SANDSTONE
~PARAMETER INFORMATION
#MNEM.UNIT          VALUE    DESCRIPTION
#----------   ------------   ------------------------------
 PD  .                 GL:   PERMANENT DATUM
 EPD .F              5148:   ELEVATION PERMANENT DATUM
 LMF .                 KB:   LOG MEASURED FROM
 DAPD.F                 5:   FEET ABOVE PERMANENT DATUM
 DMF .                 KB:   DRILLING MEASURED FROM
 EKB .F              5153:   KELLING BUSHING
 EDF .F              5152:   DRILLING FLOOR
 EGL .F              5148:   GROUND LEVEL
 DATE.        05-MAY-1992:   RUN DATE
 RUN .                  1:   RUN NUMBER
 DD  .F               630:   DEPTH DRILLER
 DL  .F               633:   DEPTH LOGGER
 BLI .F               625:   BOTTOM LOG INTERVAL
 CS  .IN            8.625:   CASING SIZE
 CBD .F                44:   CASING BOTTOM DRILLER
 CBL .F                49:   CASING BOTTOM LOGGER
 BS  .IN            7.875:   BIT SIZE
 BSD .F               630:   BIT SIZE AT DEPTH
 DFT .        AIR DRILLED:   DRILLING FLUID TYPE
 MRT .F                88:   MAXIMUM RECORDED TEMPERATURE
 LUN .           HL- 6274:   LOGGING UNIT NUMBER
 LUL .             CASPER:   LOGGING UNIT LOCATION
 ENGI.       P. RASHUSSEN:   RECORDING ENGINEER
 WITN.          G. STRONG:   WITNESSED BY
 CLNT.            A2DTECH:   CLIENT CODE
 ORIG.           5" PRINT:   ORIGIN OF DATA
 UWI .       490252251800:   UNIQUE WELL ID
 DICO. A2D Technologies, Inc.:   DIGITIZING COMPANY
~OTHER INFORMATION
~A    DEPT    CALD       CORR        DEN         GRD      RILD       RILM       PORD   
# ...
   45.5000  -999.2500  -999.2500  -999.2500   112.8592  -999.2500  -999.2500  -999.2500
   46.0000  -999.2500  -999.2500  -999.2500   117.6700  -999.2500  -999.2500  -999.2500
   46.5000  -999.2500  -999.2500  -999.2500   121.5798  -999.2500  -999.2500  -999.2500
   47.0000  -999.2500  -999.2500  -999.2500   124.5888  -999.2500  -999.2500  -999.2500
   47.5000  -999.2500  -999.2500  -999.2500   129.6999  -999.2500  -999.2500  -999.2500
   48.0000  -999.2500  -999.2500  -999.2500   141.1173  -999.2500  -999.2500  -999.2500
   48.5000  -999.2500  -999.2500  -999.2500   153.7358  -999.2500  -999.2500  -999.2500
   49.0000     8.3986    -0.0159     2.4480   158.8469     1.0228     2.5881     0.1353
   49.5000     8.3237     0.0022     2.4601   163.0571     1.0085     2.0568     0.1145
   50.0000     8.2938    -0.0098     2.4480   165.4655     0.9806    98.3706     0.1257
   50.5000     8.2790    -0.0007     2.4660   163.6706     1.0514     3.9813     0.1181
   51.0000     8.2942     0.0084     2.4811   163.9768     1.4805     2.3624     0.1064
   51.5000     8.2943     0.0114     2.4828   168.1869     2.0905     2.4798     0.1091
   52.0000     8.3095     0.0114     2.4735   174.1988     4.9237     3.0124     0.1115
   52.5000     8.3096     0.0084     2.4659   178.1087     9.0420     3.4422     0.1137
   53.0000     8.3247    -0.0006     2.4582   179.9164    14.9527     3.8550     0.1152
   53.5000     8.3399    -0.0096     2.4568   176.6190    13.3198     4.8650     0.1173
   54.0000     8.3550    -0.0096     2.4613   174.2225     9.2295     5.5901     0.1149
   54.5000     8.3702    -0.0095     2.4688   172.1263     8.8496     5.3233     0.1122
   55.0000     8.3403    -0.0005     2.4778   169.1292     9.2919     5.1403     0.1062
   55.5000     8.3100     0.0026     2.4793   164.6306     9.6882     5.3957     0.1050
   56.0000     8.2807     0.0117     2.4763   167.0552     9.8924     6.2431     0.1074
   56.5000     8.2808     0.0120     2.4672   167.9460    10.1711     6.9767     0.1113
   57.0000     8.2960     0.0087     2.4551   166.9991    10.3855     7.8509     0.1161
   57.5000     8.2961    -0.0003     2.4460   163.7549     9.8880     8.0709     0.1248
   58.0000     8.3113    -0.0123     2.4505   160.7578     9.2193     8.0692     0.1236
   58.5000     8.3114    -0.0153     2.4640   163.1661     8.7168     7.9560     0.1126
   59.0000     8.3116    -0.0123     2.4731   166.1750     8.2996     7.8420     0.1075
   59.5000     8.3117    -0.0122     2.4806   170.3852     7.8472     7.6743     0.1081
   60.0000     8.3269    -0.0062     2.4789   172.4932     7.7915     7.5204     0.1099
   60.5000     8.3270    -0.0001     2.4678   173.0997     7.7362     7.4149     0.1142
   61.0000     8.3421     0.0029     2.4443   172.5050     7.6741     7.3620     0.1244
   61.5000     8.3573    -0.0031     2.4367   168.6070     7.5734     7.2588     0.1305
   62.0000     8.3724    -0.0121     2.4412   165.0094     7.4672     7.2573     0.1281
   62.5000     8.3876    -0.0211     2.4472   161.4117     7.4142     7.2056     0.1236
   63.0000     8.4027    -0.0150     2.4547   160.2164     7.3103     7.2041     0.1166
   63.5000     8.4178    -0.0120     2.4622   159.3214     7.2584     7.2026     0.1151
   64.0000     8.4180    -0.0120     2.4547   157.8258     7.2068     7.2011     0.1145
   64.5000     8.4331    -0.0210     2.4516   157.8538     7.2564     7.1997     0.1164
   65.0000     8.4333    -0.0270     2.4501   158.4784     7.2554     7.1982     0.1212
   65.5000     8.4485    -0.0239     2.4606   163.5507     7.2544     7.1967     0.1188
   66.0000     8.4486    -0.0179     2.4606   169.8630     7.2534     7.1952     0.1167
   66.5000     8.4337    -0.0148     2.4545   176.1752     7.2524     7.1934     0.1171
   67.0000     8.4189    -0.0088     2.4436   176.7817     7.3535     7.2425     0.1216
   67.5000     8.3741     0.0003     2.4364   173.4843     7.4559     7.3421     0.1321
   68.0000     8.3442    -0.0027     2.4469   166.8836     7.5633     7.3922     0.1285
   68.5000     8.3294    -0.0117     2.4589   163.8866     7.6118     7.4938     0.1231
   69.0000     8.3145    -0.0117     2.4649   158.7874     7.6641     7.5450     0.1141
   69.5000     8.3147    -0.0116     2.4724   159.9945     7.6628     7.5431     0.1101
   70.0000     8.2999    -0.0116     2.4739   161.2016     7.6618     7.5415     0.1080
   70.5000     8.2850    -0.0116     2.4784   161.5063     7.6607     7.5400     0.1068
   71.0000     8.2702    -0.0116     2.4829   160.9131     7.6596     7.5384     0.1056
   71.5000     8.2553    -0.0085     2.4844   160.6187     7.6586     7.5368     0.1035
   72.0000     8.2555    -0.0085     2.4859   160.9250     7.6042     7.5353     0.1023
   72.5000     8.2556    -0.0084     2.4858   161.8418     7.6565     7.6394     0.1021
   73.0000     8.2558    -0.0084     2.4843   162.7387     7.7634     7.6374     0.1027
   73.5000     8.2709    -0.0084     2.4797   162.7447     7.8168     7.6895     0.1039
   74.0000     8.2861    -0.0084     2.4675   163.6528     7.9255     7.6343     0.1087
   74.5000     8.2712     0.0007     2.4536   166.0611     7.9244     7.4751     0.1193
   75.0000     8.2564     0.0068     2.4235   167.2682     7.8133     7.3703     0.1284
   75.5000     8.2565     0.0129     2.4238   167.5745     7.5934     7.3177     0.1382
   76.0000     8.2417     0.0129     2.4313   166.9783     7.2198     7.1651     0.1384
   76.5000     8.2418     0.0008     2.4418   165.7845     6.8388     7.1140     0.1285
   77.0000     8.2570    -0.0052     2.4524   165.4886     6.8378     6.9656     0.1191
   77.5000     8.2721    -0.0021     2.4659   166.0966     6.8369     6.8204     0.1134
   78.0000     8.3023     0.0009     2.4810   168.8053     6.8360     6.7247     0.1076
   78.5000     8.3474     0.0010     2.4885   171.8142     6.8350     6.6305     0.1037
   79.0000     8.3925     0.0070     2.4900   173.3216     6.8341     6.5832     0.1025
   79.5000     8.4237     0.0074     2.4839   174.8290     6.8331     6.4905     0.1031
   80.0000     8.4378    -0.0020     2.4778   175.1551     6.7846     6.4892     0.1044
   80.5000     8.4229    -0.0110     2.4808   175.1412     6.7837     6.4879     0.1044
   81.0000     8.3931    -0.0141     2.4823   175.1472     6.7828     6.4866     0.1035
   81.5000     8.3633    -0.0200     2.4808   175.4533     6.7818     6.4852     0.1035
   82.0000     8.3184    -0.0199     2.4807   172.9012     6.7809     6.5295     0.1038
   82.5000     8.3186    -0.0229     2.4762   170.9606     6.7800     6.5737     0.1050
   83.0000     8.3188    -0.0229     2.4656   172.1692     6.8266     6.6183     0.1071
   83.5000     8.3189    -0.0138     2.4595   177.5805     6.8256     6.6631     0.1099
   84.0000     8.3191    -0.0077     2.4580   181.4904     6.8726     6.7547     0.1111
   84.5000     8.3192     0.0043     2.4595   184.1990     6.9196     6.8480     0.1117
   85.0000     8.3193     0.0134     2.4624   180.6013     6.9674     6.8943     0.1117
   85.5000     8.3195    -0.0016     2.4684   171.5982     7.0150     7.0437     0.1117
   86.0000     8.3346    -0.0076     2.4699   168.3008     7.1130     7.2350     0.1121
   86.5000     8.3498    -0.0046     2.4608   169.8082     7.2119     7.3861     0.1136
   87.0000     8.3499    -0.0015     2.4563   173.4178     7.3637     7.4365     0.1157
   87.5000     8.3501     0.0015     2.4532   175.8261     7.4663     7.5392     0.1181
   88.0000     8.3652     0.0106     2.4442   175.8638     7.5706     7.6428     0.1257
   88.5000     8.3804     0.0136     2.4488   172.8349     7.7838     7.6413     0.1218
   89.0000     8.3805     0.0046     2.4579   171.0390     7.8373     7.6934     0.1160
   89.5000     8.3807     0.0016     2.4652   171.0450     7.8912     7.6915     0.1124
   90.0000     8.3958    -0.0044     2.4727   170.6307     7.8352     7.6899     0.1073
   90.5000     8.3960    -0.0013     2.4772   163.8510     7.7796     7.5821     0.1049
