~VERSION INFORMATION
 VERS.                2.0:   CWLS LOG ASCII STANDARD - VERSION 2.0
 WRAP.                 NO:   ONE LINE PER DEPTH STEP
~WELL INFORMATION
#MNEM.UNIT      DATA TYPE    INFORMATION
#----------   ------------   ------------------------------
 STRT.F            0.0000:   START DEPTH
 STOP.F          551.0000:   STOP DEPTH
 STEP.F            0.1000:   STEP LENGTH
 NULL.          -999.2500:   NO VALUE
 COMP.       F D SERV INC:   COMPANY
 WELL.    62-2 SX-3 #62-3:   WELL
 FLD .          N.P.R. #3:   FIELD
 LOC .       S3 T38N R78W:   LOCATION
 CNTY.            NATRONA:   COUNTY
 STAT.            WYOMING:   STATE
 CTRY. UNITED STATES OF AMERICA:   COUNTRY
 SRVC.     Atlas Wireline:   SERVICE COMPANY
 DATE.        17-APR-1992:   LOGDATE
 API .       490252250700:   API NUMBER
~CURVE INFORMATION
#MNEM.UNIT       API CODE    CURVE DESCRIPTION
#----------   ------------   ------------------------------
 DEPT.F                  :   
 GRR .GAPI   07 310 01 00:   GAMMA RAY
 RILD.OHMM   07 120 46 00:   INDUCTION LOG DEEP RESISTIVITY
 RILM.OHMM   07 120 44 00:   INDUCTION LOG MEDIUM RESISTIVITY
~PARAMETER INFORMATION
#MNEM.UNIT          VALUE    DESCRIPTION
#----------   ------------   ------------------------------
 PD  .                 GL:   PERMANENT DATUM
 EPD .F              5130:   ELEVATION PERMANENT DATUM
 LMF .                 KB:   LOG MEASURED FROM
 DAPD.F                 5:   FEET ABOVE PERMANENT DATUM
 DMF .                 KB:   DRILLING MEASURED FROM
 EKB .F              5135:   KELLING BUSHING
 EDF .F              5134:   DRILLING FLOOR
 EGL .F              5130:   GROUND LEVEL
 DATE.        17-APR-1992:   RUN DATE
 RUN .                  1:   RUN NUMBER
 DD  .F               560:   DEPTH DRILLER
 DL  .F               560:   DEPTH LOGGER
 BLI .F               558:   BOTTOM LOG INTERVAL
 CS  .IN            8.625:   CASING SIZE
 CBD .F                47:   CASING BOTTOM DRILLER
 CBL .F                50:   CASING BOTTOM LOGGER
 BS  .IN            7.875:   BIT SIZE
 BSD .F               560:   BIT SIZE AT DEPTH
 DFT .                AIR:   DRILLING FLUID TYPE
 TCS .HRS               2:   TIME CURCULATED STOPPED
 MRT .F                83:   MAXIMUM RECORDED TEMPERATURE
 LUN .           HL- 6274:   LOGGING UNIT NUMBER
 LUL .             CASPER:   LOGGING UNIT LOCATION
 ENGI.            LEBSOCK:   RECORDING ENGINEER
 WITN.        GARY STRONG:   WITNESSED BY
 CLNT.            A2DTECH:   CLIENT CODE
 ORIG.           5" PRINT:   ORIGIN OF DATA
 UWI .       490252250700:   UNIQUE WELL ID
 DICO. A2D Technologies, Inc.:   DIGITIZING COMPANY
~OTHER INFORMATION
~A    DEPT      GRR      RILD       RILM   
# ...
   72.8000   135.1967    10.0730     9.7743
   72.9000   134.9836    10.0730     9.7742
   73.0000   134.8986    10.0730     9.7741
   73.1000   134.5908    10.0730     9.7739
   73.2000   133.9482    10.0730     9.7738
   73.3000   133.6957    10.0730     9.7737
   73.4000   133.2212    10.0730     9.7735
   73.5000   132.7303    10.0730     9.7733
   73.6000   132.1127    10.0730     9.7315
   73.7000   131.4456    10.0730     9.7050
   73.8000   130.9545    10.0730     9.6887
   73.9000   130.3822    10.0730     9.6372
   74.0000   130.1786    10.0730     9.6370
   74.1000   130.0841    10.0624     9.5912
   74.2000   130.0865    10.0027     9.5697
   74.3000   130.0890    10.0027     9.5695
   74.4000   130.0916    10.0027     9.5614
   74.5000   130.0938     9.9737     9.5026
   74.6000   130.0962     9.9330     9.5025
   74.7000   129.9814     9.9330     9.4653
   74.8000   129.6757     9.9330     9.4360
   74.9000   129.1849     9.9330     9.4359
   75.0000   128.6937     9.9330     9.4358
   75.1000   128.0066     9.9330     9.3822
   75.2000   127.5497     9.9330     9.3289
   75.3000   127.1363     9.9330     9.2760
   75.4000   126.4560     9.9864     9.2233
   75.5000   126.1848    10.0027     9.1751
   75.6000   125.7481    10.0027     9.1749
   75.7000   125.4207     9.9876     9.1748
   75.8000   125.2841     9.9330     9.1423
   75.9000   125.2865     9.9330     9.1106
   76.0000   125.2890     9.9330     9.1105
   76.1000   125.7767     9.9330     9.1104
   76.2000   126.8330     9.9330     9.0621
   76.3000   128.1998     9.9330     9.0467
   76.4000   129.6822     9.9330     9.0466
   76.5000   131.1076     9.8810     9.0465
   76.6000   131.9604     9.8637     9.0463
   76.7000   132.5925     9.8637     9.0462
   76.8000   133.3350     9.8637     9.0461
   76.9000   133.7828     9.8626     9.0459
   77.0000   133.7004     9.8064     9.0458
   77.1000   133.1826     9.7949     9.0457
   77.2000   133.1848     9.7949     9.0455
   77.3000   133.0100     9.7949     9.0454
   77.4000   132.7657     9.7949     9.0453
   77.5000   132.5869     9.7949     9.0452
   77.6000   132.5894     9.7949     9.0451
   77.7000   132.5923     9.7949     9.0449
   77.8000   132.7947     9.7949     9.0448
   77.9000   132.8992     9.7949     9.0447
   78.0000   133.0792     9.7949     9.0445
   78.1000   133.5421     9.7949     9.0444
   78.2000   133.8145     9.7949     9.0443
   78.3000   134.2639     9.7949     9.0441
   78.4000   134.7598     9.7949     9.0440
   78.5000   135.3676     9.7949     9.0439
   78.6000   136.0539     9.7949     9.0438
   78.7000   136.5500     9.7949     9.0437
   78.8000   137.0456     9.7949     9.0435
   78.9000   137.3505     9.7949     9.0434
   79.0000   137.5996     9.7835     9.0433
   79.1000   137.6903     9.7266     9.0431
   79.2000   137.4225     9.7266     9.0329
   79.3000   136.8669     9.7266     8.9799
   79.4000   136.4405     9.6972     8.9798
   79.5000   135.9496     9.6587     8.9797
   79.6000   135.4587     9.6587     8.9796
   79.7000   135.0604     9.6587     8.9795
   79.8000   135.0633     9.6587     8.9793
   79.9000   135.5405     9.6587     8.9792
   80.0000   136.0362     9.6587     8.9791
   80.1000   136.7833     9.6689     8.9789
   80.2000   137.7726     9.7266     8.9788
   80.3000   138.7615     9.7266     8.9787
   80.4000   139.9193     9.7266     8.9785
   80.5000   140.5359     9.7266     8.9784
   80.6000   141.4273     9.7266     8.9783
   80.7000   142.4160     9.7266     8.9782
   80.8000   143.3309     9.7266     8.9781
   80.9000   143.8646     9.7266     8.9779
   81.0000   144.5504     9.7607     8.9778
   81.1000   144.9490     9.7949     8.9777
   81.2000   144.9659     9.7949     8.9776
   81.3000   144.6614     9.7949     8.9775
   81.4000   144.1703     9.7949     8.9773
   81.5000   143.6795     9.7949     8.9771
   81.6000   142.9932     9.7949     8.9770
   81.7000   142.3949     9.7949     8.9769
   81.8000   141.9040     9.7949     8.9576
   81.9000   141.4678     9.7949     8.9142
   82.0000   141.4708     9.7949     8.9140
   82.1000   141.6913     9.7949     8.9139
   82.2000   141.9405     9.7744     8.9138
   82.3000   142.1897     9.7108     8.9137
   82.4000   142.4387     9.5914     8.9136
   82.5000   142.6929     9.5412     8.9134
   82.6000   142.9370     9.5245     8.8628
   82.7000   143.1861     9.4991     8.8511
   82.8000   143.3053     9.4581     8.8510
   82.9000   143.1597     9.4570     8.8508
   83.0000   142.6867     9.4031     8.8466
   83.1000   142.4052     9.3495     8.7889
   83.2000   142.1982     9.3266     8.7888
   83.3000   141.6477     9.3082     8.7577
   83.4000   140.9101     9.2615     8.7079
   83.5000   140.1308     9.2615     8.6665
   83.6000   139.0888     9.2142     8.6664
   83.7000   138.3944     9.1970     8.6204
   83.8000   137.6568     9.1735     8.5715
   83.9000   136.9192     9.1211     8.5227
   84.0000   136.3106     9.0691     8.4743
   84.1000   136.0750     9.0175     8.4261
   84.2000   136.3805     9.0059     8.3783
   84.3000   136.3825     8.9776     8.3307
   84.4000   136.5285     8.9099     8.3096
   84.5000   136.7776     8.8136     8.2940
   84.6000   137.0585     8.7572     8.2469
   84.7000   137.6027     8.7135     8.1939
   84.8000   138.0502     8.6638     8.1535
   84.9000   138.7130     8.6144     8.1366
   85.0000   139.3445     8.5653     8.1177
   85.1000   139.8402     8.5155     8.0798
   85.2000   140.3377     8.4680     8.0796
   85.3000   140.8318     8.3836     8.0795
   85.4000   141.3277     8.3134     8.0464
   85.5000   141.9577     8.2659     8.0007
   85.6000   142.6218     8.2188     7.9552
   85.7000   143.1178     8.1653     7.9100
   85.8000   143.6808     8.1255     7.8562
   85.9000   144.3226     8.0792     7.8561
   86.0000   145.0650     8.0331     7.8051
   86.1000   145.9089     7.9872     7.7318
   86.2000   146.9439     7.9399     7.6878
   86.3000   148.2313     7.8965     7.6391
   86.4000   148.7065     7.8515     7.6390
   86.5000   148.6607     7.8295     7.6106
   86.6000   148.1671     7.8041     7.5492
   86.7000   147.4293     7.7180     7.4719
   86.8000   146.6663     7.6668     7.4281
   86.9000   145.2204     7.6303     7.3468
   87.0000   144.2039     7.6134     7.2941
   87.1000   143.1206     7.5966     7.2527
   87.2000   142.1362     7.5533     7.2115
   87.3000   141.1882     7.5075     7.1705
   87.4000   140.3911     7.4674     7.1224
   87.5000   140.3934     7.4552     7.0893
   87.6000   140.5668     7.4552     7.0727
   87.7000   140.8159     7.4552     7.0581
   87.8000   141.0650     7.4552     7.0232
   87.9000   141.3211     7.4552     7.0231
   88.0000   142.0633     7.4552     7.0230
   88.1000   142.6118     7.4552     7.0229
   88.2000   143.2459     7.4552     7.0228
   88.3000   143.9883     7.4552     7.0312
   88.4000   144.7577     7.4552     7.0719
   88.5000   145.8641     7.4552     7.0717
   88.6000   146.3011     7.4552     7.1327
   88.7000   146.6353     7.4552     7.1925
   88.8000   146.7788     7.4657     7.2457
   88.9000   146.7313     7.5075     7.3255
   89.0000   146.4811     7.5075     7.3740
   89.1000   146.0022     7.5418     7.4091
   89.2000   145.3262     7.5603     7.4771
   89.3000   144.3306     7.5753     7.5462
   89.4000   143.0998     7.6134     7.5955
   89.5000   141.8856     7.6134     7.6893
   89.6000   140.7471     7.6134     7.7295
   89.7000   139.7089     7.6134     7.8040
   89.8000   138.6301     7.6330     7.8724
   89.9000   137.6458     7.6767     7.9171
   90.0000   136.7017     7.7207     7.9621
   90.1000   135.9179     7.7650     8.0074
   90.2000   135.4576     7.8095     8.0529
   90.3000   134.7914     7.8543     8.0988
   90.4000   134.2926     7.9142     8.1448
   90.5000   133.9847     8.0003     8.1911
   90.6000   133.4940     8.0518     8.2446
   90.7000   132.9070     8.1331     8.2845
   90.8000   132.7104     8.2267     8.3021
   90.9000   132.4662     8.3008     8.3207
