~VERSION INFORMATION
 VERS.                2.0:   CWLS LOG ASCII STANDARD - VERSION 2.0
 WRAP.                 NO:   ONE LINE PER DEPTH STEP
~WELL INFORMATION
#MNEM.UNIT      DATA TYPE    INFORMATION
#----------   ------------   ------------------------------
 STRT.F          502.0000:   START DEPTH
 STOP.F         5661.0000:   STOP DEPTH
 STEP.F            0.5000:   STEP LENGTH
 NULL.          -999.2500:   NO VALUE
 COMP. FENIX & SCISSON INC:   COMPANY
 WELL.   NPR 3 #32DX22-22:   WELL
 FLD .             TEAPOT:   FIELD
 LOC .      S22 T38N R78W:   LOCATION
 CNTY.            NATRONA:   COUNTY
 STAT.            WYOMING:   STATE
 CTRY. UNITED STATES OF AMERICA:   COUNTRY
 SRVC.       Schlumberger:   SERVICE COMPANY
 DATE.        29-NOV-1978:   LOGDATE
 API .       490251073100:   API NUMBER
~CURVE INFORMATION
#MNEM.UNIT       API CODE    CURVE DESCRIPTION
#----------   ------------   ------------------------------
 DEPT.F                  :   
 SPR .MV     07 010 01 00:   SPONTANEOUS POTENTIAL
 GRR .GAPI   07 310 01 00:   GAMMA RAY FROM RES. LOG.
 SFL .OHMM   07 220 01 00:   SHALLOW FOCUSED LOG RESISTIVITY
 ILD .OHMM   07 120 46 00:   INDUCTION LOG DEEP
 ILM .OHMM   07 120 44 00:   INDUCTION LOG MEDIUM
 NPHI.DEC    42 890 03 00:   NEUTRON POROSITY SANDSTONE
 DPHI.DEC    45 890 12 00:   DENSITY POROSITY SANDSTONE
 RHOB.G/C3   45 350 01 00:   BULK DENSITY
 CORR.G/C3   45 356 01 00:   DENSITY CORRECTION
 CALD.IN     45 280 60 00:   CALIPER
~PARAMETER INFORMATION
#MNEM.UNIT          VALUE    DESCRIPTION
#----------   ------------   ------------------------------
 PD  .                 GL:   PERMANENT DATUM
 EPD .F              5514:   ELEVATION PERMANENT DATUM
 LMF .                 KB:   LOG MEASURED FROM
 DAPD.F                10:   FEET ABOVE PERMANENT DATUM
 DMF .                 KB:   DRILLING MEASURED FROM
 EKB .F              5524:   KELLING BUSHING
 EGL .F              5514:   GROUND LEVEL
 DATE.           11-29-78:   RUN DATE
 RUN .                  1:   RUN NUMBER
 DD  .F              5680:   DEPTH DRILLER
 DL  .F              5667:   DEPTH LOGGER
 BLI .F              5661:   BOTTOM LOG INTERVAL
 TLI .F               530:   TOP LOG INTERVAL
 CS  .IN            8.625:   CASING SIZE
 CBD .F               513:   CASING BOTTOM DRILLER
 CBL .F               530:   CASING BOTTOM LOGGER
 BS  .IN            7.875:   BIT SIZE
 BSD .F              5680:   BIT SIZE AT DEPTH
 DFT .                FGM:   DRILLING FLUID TYPE
 DFD .                9.2:   DRILLING FLUID DENSITY
 DFV .                 50:   DRILLING FLUID VISCOSITY
 DFPH.               11.5:   DRILLING FLUID PH
 DFL .                6.8:   DRILLING FLUID LOSS
 MSS .               TANK:   MUD SAMPLE SOURCE
 RMS .OHMM           1.45:   RESISTIVITY MUD SAMPLE
 MST .F                56:   MUD SAMPLE TEMPERATURE
 RMF .OHMM           1.16:   RESISTIVITY MUD FILTRATE SAMPLE
 MFST.F                56:   MUD FILTRATE SAMPLE TEMPERATURE
 MFSS.               MEAS:   MUD FILTRATE SAMPLE SOURCE
 RMB .OHMM            .62:   RESISTIVITY MUD AT BHT
 BHT .F               132:   BOTTOM HOLE TEMPERATURE
 TCS .HRS            0700:   TIME CURCULATED STOPPED
 TLAB.HRS            1200:   TIME LOGGER AT BOTTOM
 MRT .F               132:   MAXIMUM RECORDED TEMPERATURE
 LUN .               8039:   LOGGING UNIT NUMBER
 LUL .               CSPR:   LOGGING UNIT LOCATION
 ENGI.           STADULIS:   RECORDING ENGINEER
 WITN.           DINSMORE:   WITNESSED BY
 CLNT.            A2DTECH:   CLIENT CODE
 ORIG.       2", 5" PRINT:   ORIGIN OF DATA
 UWI .       490251073100:   UNIQUE WELL ID
 DICO. A2D Technologies, Inc.:   DIGITIZING COMPANY
~OTHER INFORMATION
~A   DEPT      SPR         GRR       SFL        ILD        ILM       NPHI       DPHI       RHOB       CORR       CALD   
# ...
 1909.0000   -35.4529    71.5632     7.9050     8.9825     8.3792  -999.2500  -999.2500  -999.2500  -999.2500  -999.2500
 1909.5000   -35.2306    71.0736     7.9277     9.0104     8.4458  -999.2500  -999.2500  -999.2500  -999.2500  -999.2500
 1910.0000   -34.9846    73.7424     7.9591     9.1117     8.5142  -999.2500  -999.2500  -999.2500  -999.2500  -999.2500
 1910.5000   -34.7352    78.2152     7.9907     9.2142     8.5142  -999.2500  -999.2500  -999.2500  -999.2500  -999.2500
 1911.0000   -34.7303    77.6777     8.0223     9.3177     8.5142  -999.2500  -999.2500  -999.2500  -999.2500  -999.2500
 1911.5000   -34.8581    74.8732     8.0541     9.4224     8.5142  -999.2500  -999.2500  -999.2500  -999.2500  -999.2500
 1912.0000   -34.9894    72.4180     8.1063     9.5282     8.5140  -999.2500  -999.2500  -999.2500  -999.2500  -999.2500
 1912.5000   -35.1219    72.7731     8.1615     9.6822     8.4923  -999.2500  -999.2500  -999.2500  -999.2500  -999.2500
 1913.0000   -35.2446    73.4797     8.2071     9.6498     8.4686  -999.2500  -999.2500  -999.2500  -999.2500  -999.2500
 1913.5000   -35.0919    73.4480     8.2071     9.5927     8.4357  -999.2500  -999.2500  -999.2500  -999.2500  -999.2500
 1914.0000   -34.9247    73.6388     8.2066     9.5360     8.4675  -999.2500  -999.2500  -999.2500  -999.2500  -999.2500
 1914.5000   -34.7625    77.4865     8.2065     9.5060     8.5368  -999.2500  -999.2500  -999.2500  -999.2500  -999.2500
 1915.0000   -34.6985    81.4848     8.2719     9.5201     8.6078  -999.2500  -999.2500  -999.2500  -999.2500  -999.2500
 1915.5000   -34.8845    83.8985     8.3329     9.5311     8.6793  -999.2500  -999.2500  -999.2500  -999.2500  -999.2500
 1916.0000   -35.0659    82.0878     8.3940     9.5422     8.7519  -999.2500  -999.2500  -999.2500  -999.2500  -999.2500
 1916.5000   -35.2494    78.7667     8.4556     9.5532     8.8083  -999.2500  -999.2500  -999.2500  -999.2500  -999.2500
 1917.0000   -35.4415    79.3540     8.5176     9.5643     8.8654  -999.2500  -999.2500  -999.2500  -999.2500  -999.2500
 1917.5000   -35.0825    81.8873     8.5800     9.5754     8.9230  -999.2500  -999.2500  -999.2500  -999.2500  -999.2500
 1918.0000   -34.6464    84.6439     8.6720     9.5864     8.9964  -999.2500  -999.2500  -999.2500  -999.2500  -999.2500
 1918.5000   -34.2093    85.7722     8.6454     9.5932     8.9704  -999.2500  -999.2500  -999.2500  -999.2500  -999.2500
 1919.0000   -33.7743    85.6251     8.5963     9.5861     8.9351  -999.2500  -999.2500  -999.2500  -999.2500  -999.2500
 1919.5000   -33.3727    86.6414     8.5474     9.5804     8.8997  -999.2500  -999.2500  -999.2500  -999.2500  -999.2500
 1920.0000   -33.0991    89.7129     8.4989     9.5747     8.8644  -999.2500  -999.2500  -999.2500  -999.2500  -999.2500
 1920.5000   -32.8245    92.6493     8.4363     9.5690     8.8331  -999.2500  -999.2500  -999.2500  -999.2500  -999.2500
 1921.0000   -32.5497    91.8897     8.4620     9.5633     8.8503  -999.2500  -999.2500  -999.2500  -999.2500  -999.2500
 1921.5000   -32.2748    90.4503     8.4986     9.5577     8.8665  -999.2500  -999.2500  -999.2500  -999.2500  -999.2500
 1922.0000   -31.9998    90.0061     8.5354     9.5520     8.8827  -999.2500  -999.2500  -999.2500  -999.2500  -999.2500
 1922.5000   -31.7232    89.6562     8.5732     9.5463     8.8989  -999.2500  -999.2500  -999.2500  -999.2500  -999.2500
 1923.0000   -31.4396    88.4271     8.5923     9.5407     8.9131  -999.2500  -999.2500  -999.2500  -999.2500  -999.2500
 1923.5000   -31.7255    86.0974     8.4552     9.5350     8.8483  -999.2500  -999.2500  -999.2500  -999.2500  -999.2500
 1924.0000   -32.0880    85.0055     8.3591     9.5293     8.7859  -999.2500  -999.2500  -999.2500  -999.2500  -999.2500
 1924.5000   -32.4513    85.8409     8.2039     9.5237     8.7242  -999.2500  -999.2500  -999.2500  -999.2500  -999.2500
 1925.0000   -32.8135    87.4426     8.2095     9.5181     8.6631  -999.2500  -999.2500  -999.2500  -999.2500  -999.2500
 1925.5000   -33.1755    89.8279     8.2071     9.5124     8.5927  -999.2500  -999.2500  -999.2500  -999.2500  -999.2500
 1926.0000   -33.3360    92.2463     8.2071     9.5070     8.6305  -999.2500  -999.2500  -999.2500  -999.2500  -999.2500
 1926.5000   -33.4587    94.1865     8.3211     9.4954     8.6892  -999.2500  -999.2500  -999.2500  -999.2500  -999.2500
 1927.0000   -33.5806    92.3379     8.4296     9.4832     8.7483  -999.2500  -999.2500  -999.2500  -999.2500  -999.2500
 1927.5000   -33.8090    90.7370     8.5394     9.4711     8.8327  -999.2500  -999.2500  -999.2500  -999.2500  -999.2500
 1928.0000   -34.1230    91.7007     8.6720     9.4589     8.7920  -999.2500  -999.2500  -999.2500  -999.2500  -999.2500
 1928.5000   -34.4346    93.2146     8.6087     9.4468     8.7227  -999.2500  -999.2500  -999.2500  -999.2500  -999.2500
 1929.0000   -34.7607    90.2687     8.5071     9.4347     8.6540  -999.2500  -999.2500  -999.2500  -999.2500  -999.2500
 1929.5000   -34.3524    86.0443     8.4068     9.4225     8.5857  -999.2500  -999.2500  -999.2500  -999.2500  -999.2500
 1930.0000   -33.6480    82.1853     8.3076     9.3670     8.5142  -999.2500  -999.2500  -999.2500  -999.2500  -999.2500
 1930.5000   -32.9285    83.8603     8.2828     9.2947     8.6042  -999.2500  -999.2500  -999.2500  -999.2500  -999.2500
 1931.0000   -32.2357    88.2910     8.3597     9.2229     8.7009  -999.2500  -999.2500  -999.2500  -999.2500  -999.2500
 1931.5000   -32.0568    90.1082     8.4166     9.1517     8.7986  -999.2500  -999.2500  -999.2500  -999.2500  -999.2500
 1932.0000   -31.8991    88.9759     8.4363     9.0811     8.9142  -999.2500  -999.2500  -999.2500  -999.2500  -999.2500
 1932.5000   -31.7389    87.0605     8.2689     9.0110     8.5906  -999.2500  -999.2500  -999.2500  -999.2500  -999.2500
 1933.0000   -31.5776    84.9882     8.1391     8.9414     8.3758  -999.2500  -999.2500  -999.2500  -999.2500  -999.2500
 1933.5000   -31.4176    86.0598     8.0113     8.8723     8.2828  -999.2500  -999.2500  -999.2500  -999.2500  -999.2500
 1934.0000   -31.3396    87.3674     7.9700     8.8038     8.2315  -999.2500  -999.2500  -999.2500  -999.2500  -999.2500
 1934.5000   -31.2664    85.9663     7.9346     8.7483     8.1667  -999.2500  -999.2500  -999.2500  -999.2500  -999.2500
 1935.0000   -31.2544    84.1015     7.8993     8.7330     8.1018  -999.2500  -999.2500  -999.2500  -999.2500  -999.2500
 1935.5000   -31.4490    82.9222     7.8643     8.7176     8.0449  -999.2500  -999.2500  -999.2500  -999.2500  -999.2500
 1936.0000   -31.6356    85.0897     7.8294     8.7023     8.0004  -999.2500  -999.2500  -999.2500  -999.2500  -999.2500
 1936.5000   -31.8223    87.5724     7.7952     8.6870     7.9567  -999.2500  -999.2500  -999.2500  -999.2500  -999.2500
 1937.0000   -32.0093    87.7621     7.7665     8.6720     7.9132  -999.2500  -999.2500  -999.2500  -999.2500  -999.2500
 1937.5000   -32.1966    86.3350     7.6322     8.4431     7.8700  -999.2500  -999.2500  -999.2500  -999.2500  -999.2500
 1938.0000   -32.2228    85.7447     7.5016     8.2647     7.7854  -999.2500  -999.2500  -999.2500  -999.2500  -999.2500
 1938.5000   -32.2225    88.1037     7.3309     8.0900     7.5942  -999.2500  -999.2500  -999.2500  -999.2500  -999.2500
 1939.0000   -32.2220    90.6538     7.1589     7.9119     7.4076  -999.2500  -999.2500  -999.2500  -999.2500  -999.2500
 1939.5000   -32.2166    92.8178     6.9910     7.8313     7.2260  -999.2500  -999.2500  -999.2500  -999.2500  -999.2500
 1940.0000   -32.4572    94.2322     6.8301     7.7499     7.0780  -999.2500  -999.2500  -999.2500  -999.2500  -999.2500
 1940.5000   -32.6279    95.1628     6.8508     7.6684     7.0450  -999.2500  -999.2500  -999.2500  -999.2500  -999.2500
 1941.0000   -32.5381    94.3228     6.8712     7.4987     6.9401  -999.2500  -999.2500  -999.2500  -999.2500  -999.2500
 1941.5000   -32.4094    92.6324     6.8931     7.0269     6.6578  -999.2500  -999.2500  -999.2500  -999.2500  -999.2500
 1942.0000   -32.2784    92.2738     6.6580     6.5017     6.1739  -999.2500  -999.2500  -999.2500  -999.2500  -999.2500
