~VERSION INFORMATION
 VERS.                2.0:   CWLS LOG ASCII STANDARD - VERSION 2.0
 WRAP.                 NO:   ONE LINE PER DEPTH STEP
~WELL INFORMATION
#MNEM.UNIT      DATA TYPE    INFORMATION
#----------   ------------   ------------------------------
 STRT.F            2.0000:   START DEPTH
 STOP.F          500.0000:   STOP DEPTH
 STEP.F            0.1000:   STEP LENGTH
 NULL.          -999.2500:   NO VALUE
 COMP.   FLUOR DANIEL INC:   COMPANY
 WELL.   73-5 X 10 #73-10:   WELL
 FLD .             TEAPOT:   FIELD
 LOC .      S10 T38N R78W:   LOCATION
 CNTY.            NATRONA:   COUNTY
 STAT.            WYOMING:   STATE
 CTRY. UNITED STATES OF AMERICA:   COUNTRY
 SRVC.      Western Atlas:   SERVICE COMPANY
 DATE.        07-JUN-1995:   LOGDATE
 API .       490252271400:   API NUMBER
~CURVE INFORMATION
#MNEM.UNIT       API CODE    CURVE DESCRIPTION
#----------   ------------   ------------------------------
 DEPT.F                  :   
 GRR .GAPI   07 310 01 00:   GAMMA RAY
 RILD.OHMM   07 120 46 00:   INDUCTION LOG DEEP RESISTIVITY
 RILM.OHMM   07 120 44 00:   RESITIVITY LONG MEDIUM
~PARAMETER INFORMATION
#MNEM.UNIT          VALUE    DESCRIPTION
#----------   ------------   ------------------------------
 PD  .                 GL:   PERMANENT DATUM
 EPD .F              5175:   ELEVATION PERMANENT DATUM
 LMF .                 KB:   LOG MEASURED FROM
 DAPD.F                10:   FEET ABOVE PERMANENT DATUM
 DMF .                 KB:   DRILLING MEASURED FROM
 EKB .F              5185:   KELLING BUSHING
 EDF .F              5184:   DRILLING FLOOR
 EGL .F              5175:   GROUND LEVEL
 DATE.        07-JUN-1995:   RUN DATE
 RUN .                  1:   RUN NUMBER
 DD  .F               511:   DEPTH DRILLER
 DL  .F               508:   DEPTH LOGGER
 BLI .F               500:   BOTTOM LOG INTERVAL
 TLI .F                96:   TOP LOG INTERVAL
 CS  .IN            9.625:   CASING SIZE
 CBD .F                96:   CASING BOTTOM DRILLER
 CBL .F                96:   CASING BOTTOM LOGGER
 BS  .IN             8.75:   BIT SIZE
 BSD .F               511:   BIT SIZE AT DEPTH
 DFT .                AIR:   DRILLING FLUID TYPE
 MRT .F               116:   MAXIMUM RECORDED TEMPERATURE
 LUN .            HL 6530:   LOGGING UNIT NUMBER
 LUL .             CASPER:   LOGGING UNIT LOCATION
 ENGI.        VERN RAUTIO:   RECORDING ENGINEER
 WITN.        GARY STRONG:   WITNESSED BY
 CLNT.            A2DTECH:   CLIENT CODE
 ORIG.           5" PRINT:   ORIGIN OF DATA
 UWI .       490252271400:   UNIQUE WELL ID
 DICO. A2D Technologies, Inc.:   DIGITIZING COMPANY
~OTHER INFORMATION
~A    DEPT       GRR     RILD       RILM   
# ...
  293.2000    83.8647    18.9334    18.8398
  293.3000    83.8665    18.9891    18.9064
  293.4000    83.7982    19.0974    18.9712
  293.5000    83.5539    19.2063    18.9714
  293.6000    83.2680    19.3345    18.9717
  293.7000    83.0653    19.3352    19.0721
  293.8000    82.8210    19.3360    19.1039
  293.9000    82.5766    19.3368    19.1042
  294.0000    82.2960    19.3376    19.1045
  294.1000    81.7663    19.3385    19.1047
  294.2000    81.3151    19.3392    19.1050
  294.3000    80.3134    19.3400    19.1902
  294.4000    79.0849    19.3408    19.2382
  294.5000    77.7395    19.3676    19.2385
  294.6000    76.0207    19.4769    19.2494
  294.7000    74.5457    19.4777    19.3726
  294.8000    74.0334    19.5649    19.3729
  294.9000    73.6526    19.7386    19.4431
  295.0000    73.3233    19.9635    19.5531
  295.1000    73.3251    20.1907    19.6637
  295.2000    73.3271    20.4503    19.7803
  295.3000    73.5434    20.5521    19.9938
  295.4000    73.7913    20.8214    20.1382
  295.5000    74.1420    21.0774    20.2522
  295.6000    74.6827    21.2435    20.3667
  295.7000    75.4508    21.6205    20.4857
  295.8000    76.4000    21.7393    20.7638
  295.9000    77.7482    21.9546    20.9531
  296.0000    79.3515    22.1409    21.1906
  296.1000    80.8694    22.2672    21.4307
  296.2000    81.8687    22.3941    21.6592
  296.3000    83.3169    22.5443    21.7959
  296.4000    83.9274    22.6504    22.0148
  296.5000    84.5206    22.7796    22.1820
  296.6000    84.9237    22.9095    22.3614
  296.7000    85.1366    23.0401    22.6147
  296.8000    85.1385    23.1827    22.8792
  296.9000    84.9150    23.3037    23.0045
  297.0000    84.6707    23.4367    23.1346
  297.1000    84.4263    23.5704    23.2655
  297.2000    84.1821    23.6736    23.3604
  297.3000    83.9378    23.6752    23.3672
  297.4000    83.6934    23.8103    23.5233
  297.5000    83.2578    23.9462    23.5236
  297.6000    82.7674    24.0080    23.6023
  297.7000    82.2770    24.0528    23.7358
  297.8000    81.8099    24.1770    23.8524
  297.9000    81.5332    24.1781    23.8528
  298.0000    81.5347    24.2978    23.9745
  298.1000    81.3791    24.3481    24.0190
  298.2000    81.2363    24.3491    24.0193
  298.3000    81.2381    24.3502    24.0197
  298.4000    81.2400    24.3512    24.0200
  298.5000    81.0061    24.4843    24.1538
  298.6000    80.7617    24.5226    24.1875
  298.7000    80.3937    24.5236    24.2595
  298.8000    79.6325    24.5628    24.3561
  298.9000    78.1928    24.6962    24.3655
  299.0000    77.3236    24.6974    24.5260
  299.1000    76.7195    24.8129    24.6421
  299.2000    76.1289    24.9545    24.6969
  299.3000    75.6385    25.0450    24.7499
  299.4000    75.1481    25.0656    24.8898
  299.5000    74.6135    25.2214    25.0421
  299.6000    74.3911    25.3524    25.1723
  299.7000    74.3148    25.4970    25.2167
  299.8000    74.4286    25.6424    25.2170
  299.9000    74.6205    25.7554    25.3649
  300.0000    74.6224    25.7565    25.7467
  300.1000    75.1163    25.4651    25.7746
  300.2000    75.4203    25.5158    25.9262
  300.3000    75.8024    25.6615    25.9266
  300.4000    76.2965    25.8081    26.0378
  300.5000    76.7684    25.9555    26.1865
  300.6000    77.0504    26.1160    26.2890
  300.7000    77.2643    26.2529    26.2893
  300.8000    77.5122    26.4030    26.2898
  300.9000    77.6875    26.5538    26.4214
  301.0000    77.7108    26.7054    26.4730
  301.1000    77.7108    26.8579    26.4734
  301.2000    77.7108    27.0368    26.4737
  301.3000    77.7108    27.1658    26.4741
  301.4000    77.7108    27.2248    26.4745
  301.5000    77.5140    27.1628    26.4748
  301.6000    77.2667    27.0368    26.4752
  301.7000    77.1084    27.0368    26.4756
  301.8000    77.0731    26.8882    26.4759
  301.9000    76.8072    26.8501    26.4763
  302.0000    76.8072    26.7685    26.3404
  302.1000    76.8072    26.6647    26.2944
  302.2000    76.8072    26.6492    26.2948
  302.3000    76.8747    26.4805    26.2952
  302.4000    77.1221    26.3473    26.2955
  302.5000    77.4096    26.2976    26.2960
  302.6000    77.6168    26.2301    26.2963
  302.7000    77.8642    26.0810    26.2966
  302.8000    78.2113    25.9328    26.2970
  302.9000    78.7060    25.7565    26.2974
  303.0000    79.2169    25.7565    26.2977
  303.1000    79.9349    25.6708    26.2981
  303.2000    80.8628    25.4716    26.2984
  303.3000    81.8522    25.2265    26.2235
  303.4000    82.9973    25.2265    26.1178
  303.5000    84.4578    25.0924    26.1182
  303.6000    85.8434    24.9499    26.1186
  303.7000    86.4964    24.8793    26.1189
  303.8000    87.2385    24.8387    26.1193
  303.9000    87.8707    24.7075    26.0585
  304.0000    88.3093    24.7075    25.9398
  304.1000    88.5566    24.7075    25.9402
  304.2000    88.8040    24.7075    25.9406
  304.3000    88.8554    24.7075    25.9409
  304.4000    88.8554    24.7075    25.9413
  304.5000    88.9438    24.7075    25.9417
  304.6000    89.1566    24.7075    25.9420
  304.7000    89.1566    24.7075    25.9424
  304.8000    89.1566    24.7075    25.9427
  304.9000    89.1566    24.7552    25.8454
  305.0000    89.1566    24.8793    25.7645
  305.1000    89.1566    24.8793    25.7649
  305.2000    89.1566    25.0080    25.7653
  305.3000    89.1566    25.0523    25.7656
  305.4000    89.1566    25.1199    25.7660
  305.5000    89.1566    25.2265    25.7663
  305.6000    89.2554    25.2322    25.7667
  305.7000    89.4578    25.4020    25.7670
  305.8000    89.4578    25.4020    25.7674
  305.9000    89.4578    25.4900    25.7678
  306.0000    89.6426    25.5786    25.7681
  306.1000    89.7590    25.6039    25.7685
  306.2000    89.8361    25.7565    25.7688
  306.3000    90.0602    25.7565    25.7692
  306.4000    90.0602    25.7565    25.7696
  306.5000    90.2771    25.8335    25.7699
  306.6000    90.3615    25.9356    25.7703
  306.7000    90.4707    25.9356    25.7706
  306.8000    90.6627    25.9356    25.7710
  306.9000    90.6627    26.0651    25.7713
  307.0000    90.6627    26.1160    25.7717
  307.1000    90.6627    26.1160    25.7720
  307.2000    90.6627    26.1160    25.6975
  307.3000    90.6627    26.1160    25.5950
  307.4000    90.6627    26.1160    25.5954
  307.5000    90.6627    26.1160    25.5958
  307.6000    90.6627    26.1160    25.5961
  307.7000    90.4892    26.0630    25.5964
  307.8000    90.3615    25.9356    25.5968
  307.9000    90.2956    25.9356    25.5971
  308.0000    90.0602    25.9356    25.5975
  308.1000    90.0602    25.9356    25.4553
  308.2000    89.8546    25.8633    25.4217
  308.3000    89.6072    25.7565    25.3434
  308.4000    89.3598    25.7480    25.2471
  308.5000    89.1125    25.5786    25.2318
  308.6000    88.8554    25.4564    25.0737
  308.7000    88.6177    25.3118    24.9475
  308.8000    88.5542    25.1680    24.9014
  308.9000    88.4241    25.0250    24.8378
  309.0000    88.1768    24.8793    24.7304
  309.1000    87.9518    24.6046    24.7284
  309.2000    87.9518    24.4311    24.5888
  309.3000    87.9518    24.2923    24.4499
  309.4000    87.9518    24.1543    24.3118
  309.5000    88.0602    24.0170    24.1252
  309.6000    88.3077    23.8660    23.8720
  309.7000    88.5558    23.6249    23.7270
  309.8000    89.0507    23.4471    23.4799
  309.9000    89.7397    23.2533    23.3080
  310.0000    90.6223    23.0532    23.1127
  310.1000    91.6988    23.0497    22.8865
  310.2000    92.9688    22.8940    22.7571
  310.3000    94.5783    22.7886    22.6070
  310.4000    95.4843    22.6592    22.5008
  310.5000    96.6466    22.5305    22.3737
  310.6000    97.6458    22.4025    22.2473
  310.7000    98.3229    22.2680    22.1216
  310.8000    98.8176    22.1487    21.9913
  310.9000    99.3976    22.0229    21.8724
  311.0000    99.6024    21.9615    21.7489
  311.1000   100.0008    21.9248    21.6260
  311.2000   100.4956    21.8098    21.5406
  311.3000   100.9903    21.8098    21.5307
