~VERSION INFORMATION
 VERS.                2.0:   CWLS LOG ASCII STANDARD - VERSION 2.0
 WRAP.                 NO:   ONE LINE PER DEPTH STEP
~WELL INFORMATION
#MNEM.UNIT      DATA TYPE    INFORMATION
#----------   ------------   ------------------------------
 STRT.F            0.1000:   START DEPTH
 STOP.F          550.8000:   STOP DEPTH
 STEP.F            0.1000:   STEP LENGTH
 NULL.          -999.2500:   NO VALUE
 COMP.       F D SERV INC:   COMPANY
 WELL.  82-1 SX 10 #82-10:   WELL
 FLD .             TEAPOT:   FIELD
 LOC .      S10 T38N R78W:   LOCATION
 CNTY.            NATRONA:   COUNTY
 STAT.            WYOMING:   STATE
 CTRY. UNITED STATES OF AMERICA:   COUNTRY
 SRVC.     Atlas Wireline:   SERVICE COMPANY
 DATE.        11-DEC-1992:   LOGDATE
 API .       490252257600:   API NUMBER
~CURVE INFORMATION
#MNEM.UNIT       API CODE    CURVE DESCRIPTION
#----------   ------------   ------------------------------
 DEPT.F                  :   
 GRR .GAPI   07 310 01 00:   GAMMA RAY
 RILD.OHMM   07 120 46 00:   INDUCTION LOG DEEP RESISTIVITY
 RILM.OHMM   07 120 44 00:   INDUCTION LOG MEDIUM RESISTIVITY
~PARAMETER INFORMATION
#MNEM.UNIT          VALUE    DESCRIPTION
#----------   ------------   ------------------------------
 PD  .                 GL:   PERMANENT DATUM
 EPD .F              5136:   ELEVATION PERMANENT DATUM
 LMF .                 KB:   LOG MEASURED FROM
 DAPD.F                10:   FEET ABOVE PERMANENT DATUM
 DMF .                 KB:   DRILLING MEASURED FROM
 EKB .F              5146:   KELLING BUSHING
 EDF .F              5145:   DRILLING FLOOR
 EGL .F              5136:   GROUND LEVEL
 DATE.        11-DEC-1992:   RUN DATE
 RUN .                  1:   RUN NUMBER
 DD  .F               560:   DEPTH DRILLER
 DL  .F               560:   DEPTH LOGGER
 BLI .F               551:   BOTTOM LOG INTERVAL
 CS  .IN            8.625:   CASING SIZE
 CBD .F                53:   CASING BOTTOM DRILLER
 CBL .F                54:   CASING BOTTOM LOGGER
 BS  .IN            7.875:   BIT SIZE
 BSD .F               560:   BIT SIZE AT DEPTH
 DFT .           AIR FOAM:   DRILLING FLUID TYPE
 BHT .F                60:   BOTTOM HOLE TEMPERATURE
 MRT .F                60:   MAXIMUM RECORDED TEMPERATURE
 LUN .           HL- 6274:   LOGGING UNIT NUMBER
 LUL .             CASPER:   LOGGING UNIT LOCATION
 ENGI.       P. RASMUSSEN:   RECORDING ENGINEER
 WITN.          G. STRONG:   WITNESSED BY
 CLNT.            A2DTECH:   CLIENT CODE
 ORIG.           5" PRINT:   ORIGIN OF DATA
 UWI .       490252257600:   UNIQUE WELL ID
 DICO. A2D Technologies, Inc.:   DIGITIZING COMPANY
~OTHER INFORMATION
~A    DEPT      GRR      RILD       RILM   
# ...
   91.1000   127.1585     7.7792     7.7891
   91.2000   127.4296     7.7770     7.7661
   91.3000   127.6690     7.7260     7.7463
   91.4000   127.9242     7.7262     7.7464
   91.5000   128.1794     7.7264     7.6932
   91.6000   128.5470     7.7266     7.6933
   91.7000   129.0599     7.7177     7.6934
   91.8000   129.5467     7.6950     7.6709
   91.9000   129.8188     7.6739     7.6406
   92.0000   130.2977     7.6742     7.6407
   92.1000   131.7981     7.6744     7.6408
   92.2000   133.4449     7.6746     7.6409
   92.3000   134.8770     7.6748     7.6410
   92.4000   135.9583     7.6750     7.6411
   92.5000   136.4213     7.6637     7.6412
   92.6000   136.1177     7.6224     7.6250
   92.7000   135.8759     7.6227     7.5887
   92.8000   135.8123     7.6229     7.5889
   92.9000   135.5032     7.6231     7.5890
   93.0000   135.0957     7.6233     7.5891
   93.1000   134.7685     7.6235     7.6215
   93.2000   134.2508     7.6237     7.6419
   93.3000   133.6949     7.6239     7.6244
   93.4000   132.9769     7.6242     7.5895
   93.5000   132.5925     7.6244     7.5896
   93.6000   132.4848     7.6246     7.5897
   93.7000   132.4824     7.6248     7.5898
   93.8000   132.4800     7.6046     7.5565
   93.9000   132.4545     7.5726     7.5377
   94.0000   132.1742     7.5728     7.5378
   94.1000   131.9344     7.5730     7.5379
   94.2000   131.4799     7.5841     7.5380
   94.3000   130.9622     7.5956     7.5381
   94.4000   130.3363     7.6071     7.5382
   94.5000   129.5609     7.6186     7.5383
   94.6000   128.8076     7.6267     7.5385
   94.7000   128.2476     7.6269     7.5386
   94.8000   127.7722     7.6271     7.5387
   94.9000   127.2545     7.6273     7.5388
   95.0000   126.8872     7.6275     7.5389
   95.1000   126.7344     7.6277     7.5823
   95.2000   126.7320     7.6279     7.5914
   95.3000   126.7507     7.6282     7.6204
   95.4000   127.0278     7.6211     7.6443
   95.5000   127.2612     7.5759     7.6444
   95.6000   127.9014     7.5761     7.6445
   95.7000   128.8212     7.5764     7.6446
   95.8000   130.2745     7.5766     7.6447
   95.9000   132.2070     7.5996     7.6448
   96.0000   133.7103     7.6296     7.6753
   96.1000   134.8305     7.6298     7.6981
   96.2000   136.4704     7.6301     7.6982
   96.3000   137.3141     7.6303     7.6983
   96.4000   137.3819     7.6305     7.6984
   96.5000   136.3850     7.6307     7.6985
   96.6000   134.4457     7.6309     7.6986
   96.7000   132.8974     7.6311     7.6987
   96.8000   131.2046     7.6313     7.6988
   96.9000   130.2681     7.6315     7.6820
   97.0000   128.8541     7.6318     7.6460
   97.1000   127.0111     7.6123     7.6461
   97.2000   125.0518     7.5899     7.6462
   97.3000   123.2459     7.5797     7.6463
   97.4000   121.5121     7.5799     7.6464
   97.5000   120.6614     7.5801     7.6465
   97.6000   119.7289     7.5803     7.6466
   97.7000   119.0749     7.5806     7.6359
   97.8000   118.2645     7.5608     7.5941
   97.9000   117.3347     7.5386     7.5942
   98.0000   116.9203     7.5289     7.5532
   98.1000   117.7589     7.5291     7.5421
   98.2000   119.7423     7.5293     7.5422
   98.3000   120.6665     7.5295     7.5423
   98.4000   121.6946     7.5297     7.5305
   98.5000   122.5774     7.5097     7.4905
   98.6000   123.4502     7.4876     7.4907
   98.7000   124.5967     7.4784     7.4908
   98.8000   126.1241     7.4786     7.4909
   98.9000   127.5450     7.4788     7.4635
   99.0000   128.6958     7.4771     7.4394
   99.1000   130.1691     7.4551     7.4395
   99.2000   131.1350     7.4331     7.4397
   99.3000   131.5467     7.4280     7.4398
   99.4000   131.8601     7.4282     7.4399
   99.5000   132.3579     7.4094     7.4042
   99.6000   132.6409     7.3773     7.3888
   99.7000   132.8684     7.3730     7.3676
   99.8000   133.1236     7.3268     7.3381
   99.9000   133.3788     7.3270     7.3382
  100.0000   133.5843     7.3272     7.3383
  100.1000   133.7117     7.3274     7.3384
  100.2000   133.8391     7.3779     7.3020
  100.3000   133.9664     7.3658     7.2880
  100.4000   134.0938     7.3268     7.2881
  100.5000   134.2212     7.3267     7.2882
  100.6000   134.3485     7.3266     7.2883
  100.7000   134.7170     7.2930     7.2884
  100.8000   135.6463     7.2759     7.2885
  100.9000   137.1697     7.2758     7.2886
  101.0000   138.3337     7.2757     7.2887
  101.1000   139.0021     7.2756     7.2888
  101.2000   139.5930     7.2754     7.2889
  101.3000   140.3785     7.2754     7.2890
  101.4000   141.3137     7.2753     7.2916
  101.5000   142.0842     7.2752     7.3398
  101.6000   142.8548     7.2751     7.3399
  101.7000   143.7388     7.2749     7.3400
  101.8000   144.1765     7.2748     7.3401
  101.9000   144.5139     7.2747     7.3392
  102.0000   144.9023     7.2746     7.3381
  102.1000   145.2379     7.2745     7.3370
  102.2000   145.0555     7.2744     7.3361
  102.3000   144.0252     7.2743     7.3360
  102.4000   142.8281     7.2857     7.3358
  102.5000   142.3960     7.3247     7.3722
  102.6000   141.3642     7.3246     7.3865
  102.7000   140.3338     7.3245     7.3864
  102.8000   139.5609     7.3244     7.3863
  102.9000   138.7880     7.3502     7.3933
  103.0000   138.0090     7.3751     7.4374
  103.1000   137.4061     7.3864     7.4373
  103.2000   136.7699     7.4261     7.4372
  103.3000   135.9970     7.4260     7.4659
  103.4000   135.2241     7.4259     7.4886
  103.5000   134.5323     7.4258     7.4885
  103.6000   134.0166     7.4519     7.4884
  103.7000   133.4893     7.4772     7.4883
  103.8000   132.8864     7.4885     7.5401
  103.9000   132.4696     7.5330     7.5762
  104.0000   131.6251     7.5812     7.5922
  104.1000   130.7158     7.6227     7.5921
  104.2000   130.0202     7.6337     7.6056
  104.3000   129.4707     7.6602     7.6506
  104.4000   128.6688     7.6865     7.6975
  104.5000   128.4201     7.6980     7.6974
  104.6000   128.3657     7.7436     7.7336
  104.7000   128.5251     7.7934     7.7506
  104.8000   128.6641     7.8359     7.7714
  104.9000   128.8100     7.8473     7.8042
  105.0000   129.2932     7.8745     7.8095
  105.1000   129.5626     7.9016     7.8581
  105.2000   130.0491     7.9132     7.8580
  105.3000   130.5624     7.9563     7.8942
  105.4000   131.1541     7.9562     7.9123
  105.5000   131.7960     7.9561     7.9329
  105.6000   132.6821     7.9914     7.9670
  105.7000   134.1981     8.0388     7.9669
  105.8000   135.5692     8.0667     7.9668
  105.9000   136.5281     8.0666     7.9667
  106.0000   137.5559     8.0702     8.0027
  106.1000   137.9717     8.1224     8.0217
  106.2000   137.9705     8.1223     8.0216
  106.3000   137.9034     8.1222     8.0215
  106.4000   137.6225     8.1221     8.0214
  106.5000   137.0646     8.1220     8.0213
  106.6000   136.5911     8.1219     8.0212
  106.7000   136.0754     8.1217     8.0210
  106.8000   135.5597     8.1216     8.0209
  106.9000   134.7270     8.1215     8.0208
  107.0000   133.5017     8.1214     8.0207
  107.1000   132.4716     8.1213     8.0206
  107.2000   131.3418     8.1212     8.0205
  107.3000   130.1788     8.1211     8.0204
  107.4000   128.8915     8.1210     8.0203
  107.5000   127.4587     8.1208     8.0202
  107.6000   126.0158     8.1207     8.0013
  107.7000   124.9618     8.1206     7.9647
  107.8000   124.7033     8.1205     7.9646
  107.9000   124.4161     8.1204     7.9644
  108.0000   124.1865     8.1091     7.9643
  108.1000   124.1131     8.0641     7.9642
  108.2000   124.2534     8.0640     7.9641
  108.3000   124.4114     8.0639     7.9640
  108.4000   124.4102     8.0638     7.9639
  108.5000   124.4200     8.0637     7.9638
  108.6000   124.7084     8.0636     7.9637
  108.7000   124.9321     8.0635     7.9636
  108.8000   125.3694     8.0634     7.9635
  108.9000   125.8827     8.0632     7.9634
  109.0000   126.3960     8.0631     7.9632
  109.1000   126.8586     8.0630     7.9631
  109.2000   127.1218     8.0629     7.9630
