~VERSION INFORMATION
 VERS.                2.0:   CWLS LOG ASCII STANDARD - VERSION 2.0
 WRAP.                 NO:   ONE LINE PER DEPTH STEP
~WELL INFORMATION
#MNEM.UNIT      DATA TYPE    INFORMATION
#----------   ------------   ------------------------------
 STRT.F           31.0000:   START DEPTH
 STOP.F          521.0000:   STOP DEPTH
 STEP.F            0.5000:   STEP LENGTH
 NULL.          -999.2500:   NO VALUE
 COMP. FENIX & SCISSON INC:   COMPANY
 WELL.      NPR-3 #52SX-3:   WELL
 FLD .             TEAPOT:   FIELD
 LOC .       S3 T38N R78W:   LOCATION
 CNTY.            NATRONA:   COUNTY
 STAT.            WYOMING:   STATE
 CTRY. UNITED STATES OF AMERICA:   COUNTRY
 SRVC.            Unknown:   SERVICE COMPANY
 DATE.        03-OCT-1978:   LOGDATE
 API .       490251071800:   API NUMBER
~CURVE INFORMATION
#MNEM.UNIT       API CODE    CURVE DESCRIPTION
#----------   ------------   ------------------------------
 DEPT.F                  :   
 SPR .MV     05 010 01 00:   SPONTANEOUS POTENTIAL FROM RES.
 GRD .GAPI   45 310 01 00:   GAMMA RAY FROM DENSITY LOG
 CALD.IN     45 280 60 00:   CALIPER
 RHOB.G/C3   45 350 01 00:   BULK DENSITY
 DPHI.DEC    45 890 12 00:   DENSITY POROSITY SANDSTONE
 CORR.G/C3   45 356 01 00:   DENSITY CORRECTION
 SN  .OHMM   05 040 16 00:   SHORT NORMAL 16"
 IL  .OHMM   05 120 00 00:   INDUCTION LOG
~PARAMETER INFORMATION
#MNEM.UNIT          VALUE    DESCRIPTION
#----------   ------------   ------------------------------
 PD  .                 GL:   PERMANENT DATUM
 EPD .F              5129:   ELEVATION PERMANENT DATUM
 LMF .                 KB:   LOG MEASURED FROM
 DAPD.F                 4:   FEET ABOVE PERMANENT DATUM
 DMF .                 KB:   DRILLING MEASURED FROM
 EKB .F              5133:   KELLING BUSHING
 EGL .F              5129:   GROUND LEVEL
 DATE.            10-3-78:   RUN DATE
 RUN .                  1:   RUN NUMBER
 DD  .F               521:   DEPTH DRILLER
 DL  .F               520:   DEPTH LOGGER
 BLI .F               514:   BOTTOM LOG INTERVAL
 TLI .F                46:   TOP LOG INTERVAL
 CS  .IN            8.625:   CASING SIZE
 CBL .F                44:   CASING BOTTOM LOGGER
 BS  .IN            7.875:   BIT SIZE
 BSD .F               521:   BIT SIZE AT DEPTH
 DFT .                KCL:   DRILLING FLUID TYPE
 DFD .                8.7:   DRILLING FLUID DENSITY
 DFV .                 34:   DRILLING FLUID VISCOSITY
 DFPH.                  9:   DRILLING FLUID PH
 DFL .               10.8:   DRILLING FLUID LOSS
 MSS .            MUD PIT:   MUD SAMPLE SOURCE
 RMS .OHMM            .24:   RESISTIVITY MUD SAMPLE
 MST .F                54:   MUD SAMPLE TEMPERATURE
 RMF .OHMM            .22:   RESISTIVITY MUD FILTRATE SAMPLE
 MFST.F                60:   MUD FILTRATE SAMPLE TEMPERATURE
 RMC .OHMM             .3:   RESISTIVITY MUD CAKE
 MCST.F                64:   MUD CAKE SAMPLE TEMPERATURE
 MFSS.               MEAS:   MUD FILTRATE SAMPLE SOURCE
 MCSS.               MEAS:   MUD CAKE SAMPLE SOURCE
 BHT .F                60:   BOTTOM HOLE TEMPERATURE
 TCS .HRS               3:   TIME CURCULATED STOPPED
 MRT .F                60:   MAXIMUM RECORDED TEMPERATURE
 LUN .               2958:   LOGGING UNIT NUMBER
 LUL .               CASP:   LOGGING UNIT LOCATION
 ENGI.             MILLER:   RECORDING ENGINEER
 WITN.           DINSMORE:   WITNESSED BY
 CLNT.            A2DTECH:   CLIENT CODE
 ORIG.       2", 5" PRINT:   ORIGIN OF DATA
 UWI .       490251071800:   UNIQUE WELL ID
 DICO. A2D Technologies, Inc.:   DIGITIZING COMPANY
~OTHER INFORMATION
~A   DEPT      SPR         GRD      CALD       RHOB       DPHI       CORR         SN         IL   
# ...
  395.5000    -5.4922    62.6735     7.6054     2.3097     0.2236     0.0596    17.2570    32.3027
  396.0000    -5.5338    64.6232     7.5898     2.3055     0.2273     0.0737    17.2582    32.3027
  396.5000    -5.5749    66.6282     7.5869     2.3166     0.2234     0.0953    17.2596    32.0555
  397.0000    -5.6140    66.8947     7.5910     2.3178     0.2198     0.1210    17.0555    31.5362
  397.5000    -5.6786    67.1813     7.5953     2.3201     0.2192     0.1658    16.8981    31.0252
  398.0000    -6.1308    67.7538     7.5996     2.3387     0.2185     0.2097    16.7423    30.5643
  398.5000    -6.4070    68.2853     7.6038     2.3593     0.1940     0.2447    16.5880    29.3128
  399.0000    -6.2038    68.2747     7.6081     2.3632     0.1873     0.2517    16.4351    28.2039
  399.5000    -6.0128    68.2671     7.6123     2.3670     0.1800     0.2579    16.2837    27.1362
  400.0000    -5.8229    67.8972     7.6166     2.4132     0.1647     0.2466    16.1336    26.0993
  400.5000    -5.6677    67.1182     7.6208     2.4418     0.1451     0.1910    16.0095    25.3937
  401.0000    -5.8371    66.8111     7.6282     2.3733     0.1685     0.1347    15.9421    25.3153
  401.5000    -6.0027    66.5219     7.6430     2.3648     0.1893     0.1201    15.8750    25.2372
  402.0000    -6.5428    66.2255     7.6577     2.3737     0.1864     0.0886    15.8083    24.6264
  402.5000    -7.2101    66.2698     7.6724     2.3551     0.1928     0.0511    15.7418    23.8290
  403.0000    -7.1297    66.5817     7.6871     2.3561     0.1992     0.0399    15.6755    23.8290
  403.5000    -7.0000    68.2036     7.7017     2.3620     0.1935     0.0299    15.6097    23.8290
  404.0000    -6.8661    70.1863     7.7163     2.3514     0.1957     0.0275    15.5442    23.8290
  404.5000    -7.0471    69.9517     7.7437     2.3422     0.2033     0.0258    15.4786    24.0497
  405.0000    -7.3095    69.5293     7.7804     2.3424     0.2038     0.0309    15.3173    23.5717
  405.5000    -7.5754    69.2906     7.8172     2.3505     0.2002     0.0366    15.0823    22.5466
  406.0000    -7.8258    69.3689     7.8545     2.3646     0.1913     0.0376    14.8903    22.5849
  406.5000    -7.7153    69.4423     7.8684     2.3702     0.1869     0.0377    14.8903    22.6348
  407.0000    -7.5882    69.5143     7.8773     2.3693     0.1892     0.0366    14.8903    22.6849
  407.5000    -7.4620    69.5794     7.8860     2.3730     0.1858     0.0340    14.8903    22.7555
  408.0000    -7.3380    69.7216     7.8948     2.3776     0.1823     0.0257    14.8903    22.6619
  408.5000    -7.2828    71.3645     7.9037     2.3798     0.1814     0.0167    14.7070    22.5048
  409.0000    -7.5002    73.0563     7.9126     2.3753     0.1853     0.0121    14.5239    22.3482
  409.5000    -7.7105    73.5095     7.9202     2.3661     0.1896     0.0098    14.3435    22.1347
  410.0000    -7.9202    72.0167     7.9109     2.3598     0.1924     0.0100    14.1656    22.2051
  410.5000    -8.1299    70.0792     7.9013     2.3633     0.1905     0.0106    13.9898    22.3198
  411.0000    -8.3395    69.8192     7.8917     2.3658     0.1913     0.0112    13.8968    22.4351
  411.5000    -8.5492    69.6173     7.8823     2.3570     0.1957     0.0118    13.8212    22.5460
  412.0000    -8.7589    69.7501     7.8812     2.3513     0.1991     0.0124    13.7460    22.4208
  412.5000    -8.9686    70.9792     7.8812     2.3507     0.2012     0.0130    13.6337    22.2990
  413.0000    -9.1782    72.1812     7.8812     2.3577     0.1933     0.0136    13.5143    22.1761
  413.5000    -9.3883    72.1187     7.8812     2.3683     0.1877     0.0142    13.4146    21.7693
  414.0000    -9.6005    71.9637     7.8812     2.3746     0.1843     0.0148    13.3163    21.2256
  414.5000    -9.8085    71.8143     7.8812     2.3805     0.1808     0.0154    13.2186    20.8839
  415.0000    -9.6081    71.6672     7.8812     2.3806     0.1796     0.0160    13.1217    20.7580
  415.5000    -9.3798    71.5194     7.8811     2.3809     0.1805     0.0166    13.0255    20.6328
  416.0000    -9.3382    71.3723     7.8774     2.3810     0.1805     0.0172    12.9299    20.5084
  416.5000    -9.6777    71.2664     7.8662     2.3893     0.1760     0.0189    12.8351    20.3847
  417.0000   -10.0111    71.4009     7.8551     2.3997     0.1659     0.0227    12.7410    19.8928
  417.5000   -10.3522    72.2233     7.8440     2.4078     0.1646     0.0265    12.6475    19.3733
  418.0000   -10.4160    73.2145     7.8330     2.4111     0.1631     0.0297    12.5548    18.8674
  418.5000   -10.4145    73.8750     7.8212     2.4070     0.1660     0.0281    12.4632    18.3689
  419.0000   -10.4309    73.9673     7.7909     2.3995     0.1702     0.0192    12.3610    17.9016
  419.5000   -10.8827    74.0687     7.7597     2.3925     0.1751     0.0154    12.1902    17.4463
  420.0000   -11.3530    74.1723     7.7297     2.3936     0.1733     0.0127    12.0218    17.0026
  420.5000   -11.7997    74.4863     7.6527     2.3952     0.1716     0.0099    11.8557    16.5982
  421.0000   -11.9359    75.1094     7.5942     2.3907     0.1755     0.0097    11.6919    16.3655
  421.5000   -12.0594    75.7310     7.5720     2.3853     0.1792     0.0100    11.5304    16.1362
  422.0000   -12.1840    76.3409     7.5893     2.3832     0.1812     0.0102    11.3711    15.9101
  422.5000   -12.3089    76.6851     7.7360     2.3898     0.1740     0.0105    11.2139    15.6871
  423.0000   -12.4348    74.7601     7.8841     2.4018     0.1673     0.0107    11.0590    15.5337
  423.5000   -12.5553    72.3587     7.8813     2.4137     0.1605     0.0110    10.9064    15.4311
  424.0000   -12.8946    71.5785     7.8813     2.4211     0.1571     0.0112    10.7643    15.3292
  424.5000   -13.3215    72.3947     7.8812     2.4164     0.1600     0.0115    10.6656    15.1028
  425.0000   -13.7669    73.7448     7.8812     2.4114     0.1626     0.0117    10.5670    14.8470
  425.5000   -13.9156    74.5117     7.8812     2.4118     0.1622     0.0120    10.4695    14.5955
  426.0000   -14.0493    74.7258     7.8812     2.4181     0.1588     0.0122    10.3728    14.3511
  426.5000   -14.1851    74.9265     7.8812     2.4315     0.1534     0.0125    10.2771    14.0732
  427.0000   -14.3210    75.1248     7.8812     2.4443     0.1459     0.0127    10.1821    13.8039
  427.5000   -14.5720    75.3256     7.8812     2.4478     0.1415     0.0130    10.0880    13.5398
  428.0000   -14.9228    75.5215     7.8812     2.4495     0.1412     0.0132    10.0023    13.2806
  428.5000   -15.2715    76.2950     7.8812     2.4571     0.1385     0.0136     9.9406    13.0637
  429.0000   -15.6257    77.5541     7.8812     2.4605     0.1338     0.0101     9.8794    12.9686
  429.5000   -15.4810    77.7667     7.8812     2.4557     0.1350     0.0057     9.8185    12.8741
  430.0000   -15.0028    76.4121     7.8812     2.4496     0.1380     0.0069     9.7579    12.7803
  430.5000   -15.1733    75.7972     7.8812     2.4500     0.1389     0.0084     9.6978    12.6870
  431.0000   -15.3690    75.7363     7.8812     2.4507     0.1391     0.0099     9.6478    12.5945
  431.5000   -15.5634    75.6880     7.8812     2.4514     0.1393     0.0114     9.6243    12.5026
  432.0000   -15.7569    75.6497     7.8812     2.4527     0.1384     0.0129     9.6008    12.3829
  432.5000   -15.9505    75.9134     7.8811     2.4656     0.1335     0.0144     9.5774    12.3900
  433.0000   -16.1432    77.4677     7.8789     2.4693     0.1287     0.0155     9.4708    12.4007
  433.5000   -16.3294    79.4735     7.8767     2.4695     0.1287     0.0148     9.4679    12.4110
  434.0000   -16.7495    80.1684     7.8745     2.4701     0.1280     0.0143     9.4557    12.4214
  434.5000   -17.2065    80.1809     7.8723     2.4736     0.1254     0.0137     9.4460    12.4319
  435.0000   -17.4698    80.1797     7.8701     2.4791     0.1224     0.0131     9.4364    12.4424
  435.5000   -17.6373    80.1815     7.8678     2.4844     0.1184     0.0126     9.4268    12.4529
