~VERSION INFORMATION
 VERS.                2.0:   CWLS LOG ASCII STANDARD - VERSION 2.0
 WRAP.                 NO:   ONE LINE PER DEPTH STEP
~WELL INFORMATION
#MNEM.UNIT      DATA TYPE    INFORMATION
#----------   ------------   ------------------------------
 STRT.F           23.0000:   START DEPTH
 STOP.F         2536.0000:   STOP DEPTH
 STEP.F            0.5000:   STEP LENGTH
 NULL.          -999.2500:   NO VALUE
 COMP. FENIX & SCISSON INC:   COMPANY
 WELL.     14 SHX 3 #14-3:   WELL
 FLD .             TEAPOT:   FIELD
 LOC .       S3 T38N R78W:   LOCATION
 CNTY.            NATRONA:   COUNTY
 STAT.            WYOMING:   STATE
 CTRY. UNITED STATES OF AMERICA:   COUNTRY
 SRVC.           BIRDWELL:   SERVICE COMPANY
 DATE.        20-MAR-1979:   LOGDATE
 API .       490251073900:   API NUMBER
~CURVE INFORMATION
#MNEM.UNIT       API CODE    CURVE DESCRIPTION
#----------   ------------   ------------------------------
 DEPT.F                  :   
 SPR .MV     07 010 01 00:   SPONTANEOUS POTENTIAL
 SN  .OHMM   07 040 16 00:   SHORT NORMAL 16'
 IL  .OHMM   07 120 00 00:   INDUCTION LOG
 GRD .GAPI   45 310 01 00:   GAMMA RAY FROM DENSITY LOG
 CALD.IN     45 280 60 00:   CALIPER
 CORR.G/C3   45 356 01 00:   DENSITY CORRECTION
 DEN .G/C3   45 350 01 00:   
 DPHI.DEC    45 890 12 00:   DENSITY POROSITY SANDSTONE
~PARAMETER INFORMATION
#MNEM.UNIT          VALUE    DESCRIPTION
#----------   ------------   ------------------------------
 PD  .                 GL:   PERMANENT DATUM
 EPD .F              5208:   ELEVATION PERMANENT DATUM
 LMF .                 KB:   LOG MEASURED FROM
 DAPD.F                10:   FEET ABOVE PERMANENT DATUM
 DMF .                 KB:   DRILLING MEASURED FROM
 EKB .F              5218:   KELLING BUSHING
 EGL .F              5208:   GROUND LEVEL
 DATE.            3-20-79:   RUN DATE
 RUN .                  1:   RUN NUMBER
 DD  .F              2580:   DEPTH DRILLER
 DL  .F              2536:   DEPTH LOGGER
 BLI .F              2536:   BOTTOM LOG INTERVAL
 TLI .F               400:   TOP LOG INTERVAL
 CS  .IN            9.625:   CASING SIZE
 CBL .F               680:   CASING BOTTOM LOGGER
 BS  .IN             8.75:   BIT SIZE
 BSD .F              2580:   BIT SIZE AT DEPTH
 DFT .                AIR:   DRILLING FLUID TYPE
 TCS .HRS               6:   TIME CURCULATED STOPPED
 LUN .               2959:   LOGGING UNIT NUMBER
 LUL .             CASPER:   LOGGING UNIT LOCATION
 ENGI.            ROLLINS:   RECORDING ENGINEER
 WITN.           DINSMORE:   WITNESSED BY
 CLNT.            A2DTECH:   CLIENT CODE
 ORIG. 1", 2", 2.5", 5" PRINT:   ORIGIN OF DATA
 UWI .       490251073900:   UNIQUE WELL ID
 DICO. A2D Technologies, Inc.:   DIGITIZING COMPANY
~OTHER INFORMATION
~A   DEPT      SPR         SN         IL        GRD       CALD       CORR        DEN       DPHI   
# ...
 2331.5000  -999.2500  -999.2500  -999.2500   122.4764     9.4312     0.0219     2.4100     0.0612
 2332.0000  -999.2500  -999.2500  -999.2500   120.2223     9.5420     0.1053     2.4929     0.0232
 2332.5000  -999.2500  -999.2500  -999.2500   123.5566     9.6451     0.0882     2.4787     0.0564
 2333.0000  -999.2500  -999.2500  -999.2500   128.6176     9.6684     0.0476     2.4291     0.0503
 2333.5000  -999.2500  -999.2500  -999.2500   128.5129     9.6054     0.0804     2.4544     0.0322
 2334.0000  -999.2500  -999.2500  -999.2500   128.1513     9.5590     0.1611     2.5209     0.0127
 2334.5000  -999.2500  -999.2500  -999.2500   134.2763     9.9255     0.1447     2.5070     0.0237
 2335.0000  -999.2500  -999.2500  -999.2500   142.4679     9.8434     0.0825     2.4954     0.0355
 2335.5000  -999.2500  -999.2500  -999.2500   141.4687     9.6819     0.0375     2.4474     0.0459
 2336.0000  -999.2500  -999.2500  -999.2500   137.9673     9.5182     0.0649     2.4642     0.0264
 2336.5000  -999.2500  -999.2500  -999.2500   139.0013     9.8056     0.1173     2.5444     0.0075
 2337.0000  -999.2500  -999.2500  -999.2500   141.0957     9.6622     0.0961     2.5343     0.0163
 2337.5000  -999.2500  -999.2500  -999.2500   143.2039     9.5762     0.0390     2.4784     0.0329
 2338.0000  -999.2500  -999.2500  -999.2500   145.2481     9.5711     0.0279     2.4908     0.0222
 2338.5000  -999.2500  -999.2500  -999.2500   147.2673     9.5712     0.0444     2.5178     0.0119
 2339.0000  -999.2500  -999.2500  -999.2500   145.7811     9.5679     0.0547     2.5304     0.0063
 2339.5000  -999.2500  -999.2500  -999.2500   142.6172     9.5656     0.0419     2.5384     0.0055
 2340.0000  -999.2500  -999.2500  -999.2500   141.5151     9.5632     0.0130     2.5256     0.0142
 2340.5000  -999.2500  -999.2500  -999.2500   138.0600     9.5605     0.0027     2.5006     0.0248
 2341.0000  -999.2500  -999.2500  -999.2500   133.4660     9.5582     0.0098     2.5015     0.0228
 2341.5000  -999.2500  -999.2500  -999.2500   131.2960     9.5557     0.0263     2.5115     0.0155
 2342.0000  -999.2500  -999.2500  -999.2500   132.6110     9.5532     0.0417     2.5288     0.0071
 2342.5000  -999.2500  -999.2500  -999.2500   135.9272     9.5507     0.0579     2.5467     0.0040
 2343.0000  -999.2500  -999.2500  -999.2500   138.5969     9.5482     0.0470     2.5416     0.0006
 2343.5000  -999.2500  -999.2500  -999.2500   141.4259     9.5457     0.0301     2.5253     0.0176
 2344.0000  -999.2500  -999.2500  -999.2500   144.3383     9.5433     0.0320     2.5125     0.0129
 2344.5000  -999.2500  -999.2500  -999.2500   147.0503     9.5408     0.0368     2.5254     0.0087
 2345.0000  -999.2500  -999.2500  -999.2500   147.7785     9.5383     0.0096     2.5175     0.0176
 2345.5000  -999.2500  -999.2500  -999.2500   141.3258     9.5358    -0.0018     2.5066     0.0217
 2346.0000  -999.2500  -999.2500  -999.2500   135.9038     9.5333     0.0136     2.5023     0.0200
 2346.5000  -999.2500  -999.2500  -999.2500   130.3980     9.5308     0.0220     2.5044     0.0183
 2347.0000  -999.2500  -999.2500  -999.2500   124.1362     9.5283     0.0246     2.5062     0.0167
 2347.5000  -999.2500  -999.2500  -999.2500   123.8593     9.5258     0.0280     2.5144     0.0150
 2348.0000  -999.2500  -999.2500  -999.2500   127.5751     9.5233     0.0297     2.5207     0.0148
 2348.5000  -999.2500  -999.2500  -999.2500   131.6851     9.5209     0.0273     2.5143     0.0171
 2349.0000  -999.2500  -999.2500  -999.2500   134.7997     9.5184     0.0234     2.5084     0.0194
 2349.5000  -999.2500  -999.2500  -999.2500   134.8449     9.5159     0.0160     2.5023     0.0216
 2350.0000  -999.2500  -999.2500  -999.2500   133.4417     9.5134     0.0087     2.5031     0.0216
 2350.5000  -999.2500  -999.2500  -999.2500   130.5162     9.5109     0.0013     2.5083     0.0216
 2351.0000  -999.2500  -999.2500  -999.2500   126.3369     9.5084     0.0012     2.5078     0.0216
 2351.5000  -999.2500  -999.2500  -999.2500   126.1412     9.5059     0.0013     2.5023     0.0197
 2352.0000  -999.2500  -999.2500  -999.2500   128.8440     9.5034     0.0073     2.5144     0.0168
 2352.5000  -999.2500  -999.2500  -999.2500   133.9591     9.5010     0.0133     2.5087     0.0176
 2353.0000  -999.2500  -999.2500  -999.2500   138.4810     9.4985     0.0199     2.5038     0.0200
 2353.5000  -999.2500  -999.2500  -999.2500   143.1183     9.4959     0.0256     2.5065     0.0179
 2354.0000  -999.2500  -999.2500  -999.2500   148.0954     9.4922     0.0325     2.5109     0.0168
 2354.5000  -999.2500  -999.2500  -999.2500   150.7856     9.4884     0.0232     2.4989     0.0247
 2355.0000  -999.2500  -999.2500  -999.2500   149.1663     9.4846     0.0133     2.4869     0.0273
 2355.5000  -999.2500  -999.2500  -999.2500   147.7885     9.4808     0.0134     2.4876     0.0281
 2356.0000  -999.2500  -999.2500  -999.2500   148.9011     9.4769     0.0135     2.4850     0.0311
 2356.5000  -999.2500  -999.2500  -999.2500   149.3018     9.4731     0.0290     2.4803     0.0329
 2357.0000  -999.2500  -999.2500  -999.2500   147.3935     9.4693     0.0501     2.4956     0.0224
 2357.5000  -999.2500  -999.2500  -999.2500   141.8049     9.4655     0.0661     2.5215     0.0119
 2358.0000  -999.2500  -999.2500  -999.2500   134.7412     9.4617     0.0528     2.5265     0.0156
 2358.5000  -999.2500  -999.2500  -999.2500   127.4952     9.4579     0.0274     2.5102     0.0216
 2359.0000  -999.2500  -999.2500  -999.2500   123.8585     9.4541     0.0098     2.4912     0.0265
 2359.5000  -999.2500  -999.2500  -999.2500   122.5418     9.4503     0.0119     2.4964     0.0245
 2360.0000  -999.2500  -999.2500  -999.2500   121.8028     9.4465     0.0119     2.4960     0.0232
 2360.5000  -999.2500  -999.2500  -999.2500   123.1191     9.4427     0.0007     2.4873     0.0289
 2361.0000  -999.2500  -999.2500  -999.2500   125.8858     9.4389    -0.0065     2.4797     0.0353
 2361.5000  -999.2500  -999.2500  -999.2500   128.3597     9.4351    -0.0012     2.4725     0.0334
 2362.0000  -999.2500  -999.2500  -999.2500   122.8414     9.4313     0.0048     2.4795     0.0286
 2362.5000  -999.2500  -999.2500  -999.2500   117.4829     9.4275     0.0025     2.4870     0.0256
 2363.0000  -999.2500  -999.2500  -999.2500   110.0582     9.4236     0.0003     2.4871     0.0314
 2363.5000  -999.2500  -999.2500  -999.2500   112.4558     9.4200    -0.0089     2.4706     0.0372
 2364.0000  -999.2500  -999.2500  -999.2500   124.5547     9.4157    -0.0146     2.4550     0.0418
 2364.5000  -999.2500  -999.2500  -999.2500   137.1503     9.4176    -0.0010     2.4545     0.0407
 2365.0000  -999.2500  -999.2500  -999.2500   150.4352     9.4203     0.0131     2.4558     0.0417
 2365.5000  -999.2500  -999.2500  -999.2500   158.5524     9.4233     0.0092     2.4517     0.0441
 2366.0000  -999.2500  -999.2500  -999.2500   153.4995     9.4261    -0.0010     2.4531     0.0465
 2366.5000  -999.2500  -999.2500  -999.2500   146.5909     9.4289    -0.0106     2.4476     0.0489
 2367.0000  -999.2500  -999.2500  -999.2500   138.7504     9.4318    -0.0103     2.4418     0.0465
 2367.5000  -999.2500  -999.2500  -999.2500   137.7653     9.4346    -0.0030     2.4512     0.0408
 2368.0000  -999.2500  -999.2500  -999.2500   136.9263     9.4375     0.0042     2.4648     0.0362
 2368.5000  -999.2500  -999.2500  -999.2500   136.4895     9.4403     0.0050     2.4748     0.0321
 2369.0000  -999.2500  -999.2500  -999.2500   134.6826     9.4431     0.0065     2.4794     0.0281
 2369.5000  -999.2500  -999.2500  -999.2500   136.4810     9.4460     0.0200     2.5004     0.0240
 2370.0000  -999.2500  -999.2500  -999.2500   142.1161     9.4488     0.0276     2.4963     0.0232
 2370.5000  -999.2500  -999.2500  -999.2500   145.0417     9.4517     0.0151     2.4839     0.0304
 2371.0000  -999.2500  -999.2500  -999.2500   141.4503     9.4545     0.0026     2.4723     0.0377
 2371.5000  -999.2500  -999.2500  -999.2500   138.2288     9.4573     0.0070     2.4785     0.0299
