~VERSION INFORMATION
 VERS.                2.0:   CWLS LOG ASCII STANDARD - VERSION 2.0
 WRAP.                 NO:   ONE LINE PER DEPTH STEP
~WELL INFORMATION
#MNEM.UNIT      DATA TYPE    INFORMATION
#----------   ------------   ------------------------------
 STRT.F         1379.5000:   START DEPTH
 STOP.F         2168.0000:   STOP DEPTH
 STEP.F            0.5000:   STEP LENGTH
 NULL.          -999.2500:   NO VALUE
 COMP.   FLUOR DANIEL INC:   COMPANY
 WELL. NAVAL PETROLEUM RESERVE 3  83-5-STX-10 #83-5-10:   WELL
 FLD .            WILDCAT:   FIELD
 LOC .      S10 T38N R78W:   LOCATION
 CNTY.            NATRONA:   COUNTY
 STAT.            WYOMING:   STATE
 CTRY. UNITED STATES OF AMERICA:   COUNTRY
 SRVC.            Unknown:   SERVICE COMPANY
 DATE.        20-JAN-1995:   LOGDATE
 API .       490252265500:   API NUMBER
~CURVE INFORMATION
#MNEM.UNIT       API CODE    CURVE DESCRIPTION
#----------   ------------   ------------------------------
 DEPT.F                  :   
 C1  .VF     91 831 01 00:   METHANE
 C2  .VF     91 832 01 00:   ETHANE
 ROP .FT/HR  91 810 01 00:   RAT OF DRILLING PENETRATION
 TGAS.TC/CC  91 830 01 00:   TOTAL GAS UNIT
~PARAMETER INFORMATION
#MNEM.UNIT          VALUE    DESCRIPTION
#----------   ------------   ------------------------------
 DATE.        20-JAN-1995:   RUN DATE
 BLI .F              2165:   BOTTOM LOG INTERVAL
 TLI .F              1380:   TOP LOG INTERVAL
 CLNT.            A2DTECH:   CLIENT CODE
 ORIG.         2.5" PRINT:   ORIGIN OF DATA
 UWI .       490252265500:   UNIQUE WELL ID
 DICO. A2D Technologies, Inc.:   DIGITIZING COMPANY
~OTHER INFORMATION
~A  DEPT        C1         C2        ROP        TGAS  
# ...
 1744.5000  -999.2500  -999.2500     1.0175   609.8303
 1745.0000  -999.2500  -999.2500     1.0357   624.4794
 1745.5000  -999.2500  -999.2500     1.0356   631.7516
 1746.0000  -999.2500  -999.2500     0.8157   639.0063
 1746.5000  -999.2500  -999.2500     0.8156   646.2610
 1747.0000  -999.2500  -999.2500     0.8156   653.5507
 1747.5000  -999.2500  -999.2500     0.8155   660.8053
 1748.0000  -999.2500  -999.2500     1.3099   660.6829
 1748.5000  -999.2500  -999.2500     1.3098   660.5605
 1749.0000  -999.2500  -999.2500     1.3280   660.4557
 1749.5000  -999.2500  -999.2500     1.3279   667.7454
 1750.0000  -999.2500  -999.2500     1.1081   667.6055
 1750.5000  -999.2500  -999.2500     0.9798   667.5006
 1751.0000  -999.2500  -999.2500     1.0346   667.3957
 1751.5000  -999.2500  -999.2500     1.0345   667.2733
 1752.0000  -999.2500  -999.2500     1.2725   667.1804
 1752.5000  -999.2500  -999.2500     1.2907   667.0635
 1753.0000  -999.2500  -999.2500     1.3090   666.9587
 1753.5000  -999.2500  -999.2500     1.3272   666.8363
 1754.0000  -999.2500  -999.2500     1.3271   666.7314
 1754.5000  -999.2500  -999.2500     0.5395   666.6091
 1755.0000  -999.2500  -999.2500     0.5394   666.5042
 1755.5000  -999.2500  -999.2500     0.5393   666.3993
 1756.0000  -999.2500  -999.2500     0.5392   666.2769
 1756.5000  -999.2500  -999.2500     0.5391   658.7949
 1757.0000  -999.2500  -999.2500     0.5390   658.6901
 1757.5000  -999.2500  -999.2500     0.5389   658.5677
 1758.0000  -999.2500  -999.2500     0.5388   651.0858
 1758.5000  -999.2500  -999.2500     0.5387   636.2267
 1759.0000  -999.2500  -999.2500     0.5386   636.1044
 1759.5000  -999.2500  -999.2500     0.5386   628.6225
 1760.0000  -999.2500  -999.2500     0.5385   628.5176
 1760.5000  -999.2500  -999.2500     0.5384   613.6411
 1761.0000  -999.2500  -999.2500     0.5383   598.7822
 1761.5000  -999.2500  -999.2500     0.5382   598.6773
 1762.0000  -999.2500  -999.2500     0.5381   576.4238
 1762.5000  -999.2500  -999.2500     0.5380   576.3188
 1763.0000  -999.2500  -999.2500     0.5379   568.8369
 1763.5000  -999.2500  -999.2500     0.5378   568.7145
 1764.0000  -999.2500  -999.2500     0.5377   553.8555
 1764.5000  -999.2500  -999.2500     0.5376   546.3737
 1765.0000  -999.2500  -999.2500     0.5375   538.8742
 1765.5000  -999.2500  -999.2500     0.5924   531.3922
 1766.0000  -999.2500  -999.2500     0.7938   516.5333
 1766.5000  -999.2500  -999.2500     0.8120   509.0339
 1767.0000  -999.2500  -999.2500     0.8119   508.9290
 1767.5000  -999.2500  -999.2500     0.8118   486.6930
 1768.0000  -999.2500  -999.2500     0.9399   479.1935
 1768.5000  -999.2500  -999.2500     0.9398   479.0887
 1769.0000  -999.2500  -999.2500     0.9397   464.2297
 1769.5000  -999.2500  -999.2500     0.9580   449.3532
 1770.0000  -999.2500  -999.2500     0.9579   449.2483
 1770.5000  -999.2500  -999.2500     0.9578   441.7664
 1771.0000  -999.2500  -999.2500     0.9577   426.8899
 1771.5000  -999.2500  -999.2500     0.9576   426.7850
 1772.0000  -999.2500  -999.2500     0.9575   419.3031
 1772.5000  -999.2500  -999.2500     0.9574   419.1807
 1773.0000  -999.2500  -999.2500     0.9573   419.0758
 1773.5000  -999.2500  -999.2500     0.9572   418.9709
 1774.0000  -999.2500  -999.2500     0.9571   411.4716
 1774.5000  -999.2500  -999.2500     0.9570   411.3666
 1775.0000  -999.2500  -999.2500     0.9569   411.2617
 1775.5000  -999.2500  -999.2500     0.9569   411.1394
 1776.0000  -999.2500  -999.2500     0.9568   411.0345
 1776.5000  -999.2500  -999.2500     0.9567   410.9296
 1777.0000  -999.2500  -999.2500     0.9749   410.8073
 1777.5000  -999.2500  -999.2500     0.9015   410.7024
 1778.0000  -999.2500  -999.2500     0.7549   410.5975
 1778.5000  -999.2500  -999.2500     0.7732   403.0981
 1779.0000  -999.2500  -999.2500     0.7914   395.6161
 1779.5000  -999.2500  -999.2500     0.7913   395.5112
 1780.0000  -999.2500  -999.2500     0.9561   395.3889
 1780.5000  -999.2500  -999.2500     0.9559   395.2840
 1781.0000  -999.2500  -999.2500     0.9742   387.8020
 1781.5000  -999.2500  -999.2500     0.9741   380.3026
 1782.0000  -999.2500  -999.2500     0.9740   365.4436
 1782.5000  -999.2500  -999.2500     1.2670   357.9617
 1783.0000  -999.2500  -999.2500     1.2668   357.8394
 1783.5000  -999.2500  -999.2500     1.2667   335.6033
 1784.0000  -999.2500  -999.2500     1.2850   335.4984
 1784.5000  -999.2500  -999.2500     1.3032   327.9990
 1785.0000  -999.2500  -999.2500     1.3031   320.5171
 1785.5000  -999.2500  -999.2500     1.3213   305.6581
 1786.0000  -999.2500  -999.2500     0.8634   298.1586
 1786.5000  -999.2500  -999.2500     0.8633   298.0537
 1787.0000  -999.2500  -999.2500     0.8632   283.1948
 1787.5000  -999.2500  -999.2500     0.8814   275.6954
 1788.0000  -999.2500  -999.2500     0.7531   275.5905
 1788.5000  -999.2500  -999.2500     0.6619   268.1086
 1789.0000  -999.2500  -999.2500     0.6626   267.9862
 1789.5000  -999.2500  -999.2500     0.6633   267.8813
 1790.0000  -999.2500  -999.2500     0.6639   267.7764
 1790.5000  -999.2500  -999.2500     0.6646   267.6715
 1791.0000  -999.2500  -999.2500     0.6653   274.9612
 1791.5000  -999.2500  -999.2500     0.6660   274.8213
 1792.0000  -999.2500  -999.2500     0.6667   274.7164
 1792.5000  -999.2500  -999.2500     0.6674   274.5941
 1793.0000  -999.2500  -999.2500     0.6681   274.4892
 1793.5000  -999.2500  -999.2500     0.6687   274.3843
 1794.0000  -999.2500  -999.2500     0.6694   281.6739
 1794.5000  -999.2500  -999.2500     0.6701   281.5341
 1795.0000  -999.2500  -999.2500     0.6708   288.8237
 1795.5000  -999.2500  -999.2500     0.6715   288.6838
 1796.0000  -999.2500  -999.2500     0.6722   288.5790
 1796.5000  -999.2500  -999.2500     0.6729   288.4741
 1797.0000  -999.2500  -999.2500     0.6735   288.3517
 1797.5000  -999.2500  -999.2500     0.6742   295.6414
 1798.0000  -999.2500  -999.2500     0.6749   295.5190
 1798.5000  -999.2500  -999.2500     0.6756   295.3966
 1799.0000  -999.2500  -999.2500     0.6763   295.2917
 1799.5000  -999.2500  -999.2500     0.6770   295.1869
 1800.0000  -999.2500  -999.2500     0.6777   295.1165
 1800.5000  -999.2500  -999.2500     0.6757   295.1154
 1801.0000  -999.2500  -999.2500     0.6737   295.1142
 1801.5000  -999.2500  -999.2500     0.6718   295.1131
 1802.0000  -999.2500  -999.2500     0.6698   295.1119
 1802.5000  -999.2500  -999.2500     0.6678   295.1108
 1803.0000  -999.2500  -999.2500     0.6659   295.1096
 1803.5000  -999.2500  -999.2500     0.6639   295.1085
 1804.0000  -999.2500  -999.2500     0.6619   295.1073
 1804.5000  -999.2500  -999.2500     0.6599   295.1061
 1805.0000  -999.2500  -999.2500     0.6580   295.1050
 1805.5000  -999.2500  -999.2500     0.6560   295.1039
 1806.0000  -999.2500  -999.2500     0.8015   295.1027
 1806.5000  -999.2500  -999.2500     0.8195   295.1015
 1807.0000  -999.2500  -999.2500     0.8190   295.1004
 1807.5000  -999.2500  -999.2500     0.7271   295.0992
 1808.0000  -999.2500  -999.2500     0.6901   295.0981
 1808.5000  -999.2500  -999.2500     0.6897   295.0969
 1809.0000  -999.2500  -999.2500     0.6710   295.0958
 1809.5000  -999.2500  -999.2500     0.6707   295.0946
 1810.0000  -999.2500  -999.2500     0.6703   295.0934
 1810.5000  -999.2500  -999.2500     0.6699   295.0923
 1811.0000  -999.2500  -999.2500     0.6696   295.0911
 1811.5000  -999.2500  -999.2500     0.6692   295.0900
 1812.0000  -999.2500  -999.2500     0.7971   295.0888
 1812.5000  -999.2500  -999.2500     0.7967   295.0877
 1813.0000  -999.2500  -999.2500     0.7963   295.0865
 1813.5000  -999.2500  -999.2500     0.7959   295.0854
 1814.0000  -999.2500  -999.2500     0.7956   295.0842
 1814.5000  -999.2500  -999.2500     0.7952   295.0830
 1815.0000  -999.2500  -999.2500     0.7948   295.0820
 1815.5000  -999.2500  -999.2500     0.8129   295.0820
 1816.0000  -999.2500  -999.2500     0.5743   295.0820
 1816.5000  -999.2500  -999.2500     0.5557   309.8361
 1817.0000  -999.2500  -999.2500     0.5186   324.5901
