~VERSION INFORMATION
 VERS.                2.0:   CWLS LOG ASCII STANDARD - VERSION 2.0
 WRAP.                 NO:   ONE LINE PER DEPTH STEP
~WELL INFORMATION
#MNEM.UNIT      DATA TYPE    INFORMATION
#----------   ------------   ------------------------------
 STRT.F           18.0000:   START DEPTH
 STOP.F          647.0000:   STOP DEPTH
 STEP.F            0.5000:   STEP LENGTH
 NULL.          -999.2500:   NO VALUE
 COMP. FENIX & SCISSON INC:   COMPANY
 WELL. NAVAL PETROLEUM RESERVE 3 SX-1 #82-15:   WELL
 FLD .        TEAPOT DOME:   FIELD
 LOC .      S15 T38N R78W:   LOCATION
 CNTY.            NATRONA:   COUNTY
 STAT.            WYOMING:   STATE
 CTRY. UNITED STATES OF AMERICA:   COUNTRY
 SRVC.            Unknown:   SERVICE COMPANY
 DATE.        15-MAR-1979:   LOGDATE
 API .       490251076500:   API NUMBER
~CURVE INFORMATION
#MNEM.UNIT       API CODE    CURVE DESCRIPTION
#----------   ------------   ------------------------------
 DEPT.F                  :   
 SPR .MV     05 010 01 00:   SPONTANEOUS POTENTIAL FROM RES.
 SN  .OHMM   05 040 16 00:   SHORT NORMAL 16"
 IL  .OHMM   05 120 00 00:   INDUCTION LOG
 CALD.IN     45 280 60 00:   CALIPER
 GRD .GAPI   45 310 01 00:   GAMMA RAY FROM DENSITY LOG
 RHOB.G/C3   45 350 01 00:   BULK DENSITY
 DPHI.DEC    45 890 12 00:   DENSITY POROSITY SANDSTONE
 CORR.G/C3   45 356 01 00:   DENSITY CORRECTION
~PARAMETER INFORMATION
#MNEM.UNIT          VALUE    DESCRIPTION
#----------   ------------   ------------------------------
 PD  .                 GL:   PERMANENT DATUM
 EPD .F              5249:   ELEVATION PERMANENT DATUM
 LMF .                 KB:   LOG MEASURED FROM
 DAPD.F                 4:   FEET ABOVE PERMANENT DATUM
 DMF .                 KB:   DRILLING MEASURED FROM
 EKB .F              5253:   KELLING BUSHING
 EGL .F              5249:   GROUND LEVEL
 DATE.            1-15-79:   RUN DATE
 RUN .                  1:   RUN NUMBER
 DD  .F               670:   DEPTH DRILLER
 DL  .F               647:   DEPTH LOGGER
 BLI .F               640:   BOTTOM LOG INTERVAL
 TLI .F                30:   TOP LOG INTERVAL
 CS  .IN            8.625:   CASING SIZE
 CBD .F                40:   CASING BOTTOM DRILLER
 CBL .F                34:   CASING BOTTOM LOGGER
 BS  .IN            7.875:   BIT SIZE
 BSD .F               670:   BIT SIZE AT DEPTH
 DFT .                KCL:   DRILLING FLUID TYPE
 DFD .                8.9:   DRILLING FLUID DENSITY
 DFV .                 44:   DRILLING FLUID VISCOSITY
 DFPH.                8.5:   DRILLING FLUID PH
 DFL .               14.8:   DRILLING FLUID LOSS
 MSS .           FLOWLINE:   MUD SAMPLE SOURCE
 RMS .OHMM            .26:   RESISTIVITY MUD SAMPLE
 MST .F                61:   MUD SAMPLE TEMPERATURE
 RMF .OHMM            .25:   RESISTIVITY MUD FILTRATE SAMPLE
 MFST.F                60:   MUD FILTRATE SAMPLE TEMPERATURE
 RMC .OHMM             .2:   RESISTIVITY MUD CAKE
 MCST.F                60:   MUD CAKE SAMPLE TEMPERATURE
 MFSS.           MEASURED:   MUD FILTRATE SAMPLE SOURCE
 MCSS.           MEASURED:   MUD CAKE SAMPLE SOURCE
 RMB .OHMM            .27:   RESISTIVITY MUD AT BHT
 BHT .F                58:   BOTTOM HOLE TEMPERATURE
 TCS .HRS               5:   TIME CURCULATED STOPPED
 MRT .F                58:   MAXIMUM RECORDED TEMPERATURE
 LUN .               3006:   LOGGING UNIT NUMBER
 LUL .             CASPER:   LOGGING UNIT LOCATION
 ENGI.            ROLLINS:   RECORDING ENGINEER
 WITN.              AMEND:   WITNESSED BY
 CLNT.            A2DTECH:   CLIENT CODE
 ORIG.         2.5" PRINT:   ORIGIN OF DATA
 UWI .       490251076500:   UNIQUE WELL ID
 DICO. A2D Technologies, Inc.:   DIGITIZING COMPANY
~OTHER INFORMATION
~A   DEPT      SPR         SN         IL       CALD         GRD      RHOB       DPHI       CORR   
# ...
  423.0000   -70.3630     6.5830     6.1310     8.4000   130.0530     2.4670     0.1360     0.0270
  423.5000   -70.3630     6.4580     5.9130     8.4000   129.8950     2.4640     0.1380     0.0260
  424.0000   -70.3630     6.3340     5.6940     8.4000   129.7760     2.4570     0.1460     0.0280
  424.5000   -70.3630     6.2090     5.4750     8.4000   129.7250     2.4500     0.1540     0.0310
  425.0000   -70.3630     6.0850     5.2560     8.4000   129.5730     2.4350     0.1620     0.0340
  425.5000   -70.3620     5.9610     5.0370     8.4000   129.4000     2.4210     0.1690     0.0360
  426.0000   -70.3630     5.8360     4.9180     8.4000   129.5680     2.4060     0.1760     0.0390
  426.5000   -70.3610     5.7010     4.9180     8.4000   132.5430     2.3960     0.1730     0.0420
  427.0000   -70.3640     5.7010     4.9180     8.4000   135.5050     2.4010     0.1630     0.0470
  427.5000   -70.3600     5.9990     5.1560     8.4000   131.6250     2.4200     0.1520     0.0540
  428.0000   -70.3500     6.2600     5.3510     8.4000   127.7830     2.4340     0.1460     0.0640
  428.5000   -70.1540     6.5220     5.5460     8.4000   125.5630     2.4460     0.1390     0.0750
  429.0000   -69.9490     6.7830     5.7410     8.4000   124.7490     2.4560     0.1320     0.0820
  429.5000   -69.7380     7.1140     5.9350     8.4000   123.8180     2.4660     0.1280     0.0820
  430.0000   -69.5320     7.0520     6.1380     8.4000   123.0560     2.4760     0.1240     0.0790
  430.5000   -69.3240     6.8740     6.1380     8.4000   123.3390     2.4880     0.1200     0.0700
  431.0000   -69.1160     6.6950     5.8840     8.4000   123.1540     2.4870     0.1240     0.0650
  431.5000   -68.9080     6.5160     5.6700     8.4000   122.4610     2.4850     0.1340     0.0640
  432.0000   -68.7000     6.3380     5.4570     8.4000   121.9520     2.4720     0.1450     0.0620
  432.5000   -68.4930     6.1590     5.2430     8.4000   121.6910     2.4570     0.1550     0.0630
  433.0000   -68.2840     5.9800     5.0290     8.4000   125.0580     2.4410     0.1650     0.0630
  433.5000   -68.0760     5.8010     4.8160     8.4000   128.5680     2.4260     0.1800     0.0640
  434.0000   -67.8730     5.5970     4.6530     8.4000   131.1740     2.4110     0.1770     0.0650
  434.5000   -67.6470     5.5970     4.7400     8.4000   130.3700     2.3990     0.1670     0.0650
  435.0000   -67.5540     5.6490     4.8600     8.4000   127.8770     2.4090     0.1520     0.0660
  435.5000   -67.6270     5.8200     5.0320     8.4000   122.8270     2.4390     0.1370     0.0600
  436.0000   -67.6780     5.9910     5.2050     8.4000   118.3730     2.4670     0.1320     0.0530
  436.5000   -67.7350     6.1620     5.3770     8.4000   118.5410     2.4740     0.1300     0.0460
  437.0000   -67.7930     6.3330     5.5490     8.4000   119.3020     2.4790     0.1270     0.0400
  437.5000   -67.8480     6.5040     5.7220     8.4000   119.9470     2.4830     0.1250     0.0330
  438.0000   -67.9050     6.6750     5.8940     8.4000   116.9890     2.4860     0.1230     0.0300
  438.5000   -67.9620     6.8460     6.0660     8.4000   113.6030     2.4900     0.1210     0.0310
  439.0000   -68.0180     7.0170     6.2310     8.4000   113.5980     2.4940     0.1190     0.0310
  439.5000   -68.0750     7.1530     6.3910     8.4000   115.4280     2.4970     0.1180     0.0320
  440.0000   -68.1320     7.2430     6.5510     8.4000   115.7790     2.4990     0.1160     0.0320
  440.5000   -68.1890     7.3330     6.7100     8.4000   116.2070     2.5010     0.1140     0.0330
  441.0000   -68.2450     7.4230     6.8700     8.4000   117.6830     2.5030     0.1120     0.0340
  441.5000   -68.3020     7.5120     7.0300     8.4000   119.6400     2.5050     0.1110     0.0330
  442.0000   -68.3590     7.6020     7.1890     8.4000   121.1600     2.5050     0.1100     0.0280
  442.5000   -68.4150     7.6920     7.3490     8.4000   120.8880     2.5050     0.1100     0.0230
  443.0000   -68.4720     7.7820     7.5090     8.4000   116.4820     2.5050     0.1120     0.0220
  443.5000   -68.5290     7.8720     7.6680     8.4000   113.0760     2.5040     0.1150     0.0230
  444.0000   -68.5830     7.9470     7.8020     8.3990   115.4470     2.5010     0.1170     0.0230
  444.5000   -68.6440     7.9470     7.8020     8.3980   117.7140     2.4990     0.1190     0.0240
  445.0000   -68.6970     7.9470     7.8020     8.3970   120.2550     2.4960     0.1200     0.0240
  445.5000   -68.7320     7.9470     7.8020     8.3960   121.5020     2.4940     0.1220     0.0250
  446.0000   -68.5460     7.9480     7.8020     8.3950   119.0560     2.4920     0.1220     0.0250
  446.5000   -68.3730     7.9480     7.8020     8.3940   115.8210     2.4900     0.1220     0.0260
  447.0000   -68.1890     7.9480     7.8020     8.3930   113.0780     2.4890     0.1230     0.0280
  447.5000   -68.0120     7.9480     7.8020     8.3920   114.0780     2.4890     0.1230     0.0300
  448.0000   -67.8320     7.9480     7.8020     8.3920   115.1610     2.4900     0.1190     0.0330
  448.5000   -67.6530     7.9490     7.8020     8.3910   113.7530     2.4920     0.1140     0.0360
  449.0000   -67.4730     7.9490     7.8020     8.3900   112.2280     2.4950     0.1080     0.0370
  449.5000   -67.2950     7.9500     7.8020     8.3890   111.1510     2.5080     0.1020     0.0290
  450.0000   -67.1120     7.9470     7.8020     8.3880   110.3470     2.5180     0.0970     0.0210
  450.5000   -66.9370     7.8560     7.5710     8.3870   109.5230     2.5280     0.1040     0.0120
  451.0000   -66.7460     7.6400     7.3630     8.3860   108.5960     2.5250     0.1190     0.0130
  451.5000   -66.6680     7.4240     7.1550     8.3850   108.5430     2.5090     0.1340     0.0200
  452.0000   -66.5890     7.2080     6.9470     8.3840   109.4610     2.4800     0.1490     0.0260
  452.5000   -66.5190     6.9920     6.7380     8.3840   110.2630     2.4530     0.1650     0.0310
  453.0000   -66.4320     6.7760     6.5300     8.3830   110.9800     2.4260     0.1810     0.0550
  453.5000   -66.3780     6.5600     6.3220     8.3820   112.9680     2.3990     0.2000     0.0560
  454.0000   -66.1990     6.3680     6.1380     8.3810   120.0480     2.3710     0.2000     0.0420
  454.5000   -65.8870     6.3680     6.2520     8.3800   130.9690     2.3640     0.1610     0.0400
  455.0000   -64.9830     6.7860     6.5900     8.3790   129.5420     2.4040     0.1230     0.0490
  455.5000   -64.0110     7.2210     6.9740     8.3780   122.1680     2.4520     0.0820     0.0570
  456.0000   -63.0230     7.6560     7.3580     8.3770   114.4900     2.4960     0.0810     0.0470
  456.5000   -62.0590     8.0910     7.7410     8.3760   110.5550     2.5380     0.0890     0.0340
  457.0000   -61.0600     8.5250     8.1250     8.3750   112.2420     2.5560     0.1000     0.0210
  457.5000   -60.2610     9.0440     8.5090     8.3750   111.4960     2.5390     0.1100     0.0130
  458.0000   -59.7260     9.1810     8.8780     8.3740   110.8270     2.5190     0.1150     0.0150
  458.5000   -59.2710     9.3520     9.0650     8.3730   110.0450     2.5060     0.1210     0.0160
  459.0000   -58.8000     9.5230     9.2460     8.3720   109.2940     2.4950     0.1230     0.0160
  459.5000   -58.6220     9.6930     9.4260     8.3710   108.5420     2.4860     0.1230     0.0170
  460.0000   -58.5690     9.8640     9.6060     8.3700   107.5360     2.4840     0.1270     0.0180
  460.5000   -58.5070    10.0350     9.7860     8.3690   104.0980     2.4850     0.1320     0.0190
  461.0000   -58.4440    10.2060    10.0970     8.3680   101.3560     2.4780     0.1320     0.0200
  461.5000   -58.3850    10.5660    10.7630     8.3670   103.6100     2.4700     0.1320     0.0210
  462.0000   -58.3230    11.1170    11.4290     8.3660   104.9520     2.4670     0.1320     0.0220
  462.5000   -58.2630    11.6680    12.5420     8.3660   102.1230     2.4650     0.1500     0.0260
  463.0000   -58.2020    12.2190    13.9850     8.3650    94.3700     2.4580     0.1670     0.0310
