~VERSION INFORMATION
 VERS.                2.0:   CWLS LOG ASCII STANDARD - VERSION 2.0
 WRAP.                 NO:   ONE LINE PER DEPTH STEP
~WELL INFORMATION
#MNEM.UNIT      DATA TYPE    INFORMATION
#----------   ------------   ------------------------------
 STRT.F            8.0000:   START DEPTH
 STOP.F          473.0000:   STOP DEPTH
 STEP.F            0.5000:   STEP LENGTH
 NULL.          -999.2500:   NO VALUE
 COMP.   LAWRENCE-ALLISON:   COMPANY
 WELL. NPR 3 #58-55SX3OB1:   WELL
 FLD .             TEAPOT:   FIELD
 LOC .       S3 T38N R78W:   LOCATION
 CNTY.            NATRONA:   COUNTY
 STAT.            WYOMING:   STATE
 CTRY. UNITED STATES OF AMERICA:   COUNTRY
 SRVC.      Dresser Atlas:   SERVICE COMPANY
 DATE.        17-DEC-1984:   LOGDATE
 API .       490251100600:   API NUMBER
~CURVE INFORMATION
#MNEM.UNIT       API CODE    CURVE DESCRIPTION
#----------   ------------   ------------------------------
 DEPT.F                  :   
 AC  .US/F   60 520 00 00:   ACCOUSTIC
 PORD.DEC    45 890 12 00:   POROSITY DENSITY SANDSTONE
 CNC .DEC    42 890 03 00:   NEUTRON POROSITY SANDSTONE
 CALD.IN     45 280 60 00:   CALIPER FROM DENSITY
 GRD .GAPI   45 310 01 00:   GAMMA RAY FROM DENSITY LOG
 CORR.G/C3   45 356 01 00:   DENSITY CORRECTION
 DEN .G/C3   45 350 01 00:   COMPENSATED BULK DENSTIY
~PARAMETER INFORMATION
#MNEM.UNIT          VALUE    DESCRIPTION
#----------   ------------   ------------------------------
 PD  .                 GL:   PERMANENT DATUM
 EPD .F              5194:   ELEVATION PERMANENT DATUM
 LMF .                 GL:   LOG MEASURED FROM
 DMF .                 GL:   DRILLING MEASURED FROM
 EGL .F              5194:   GROUND LEVEL
 DATE.        17-DEC-1984:   RUN DATE
 RUN .                  1:   RUN NUMBER
 DD  .F               480:   DEPTH DRILLER
 DL  .F               475:   DEPTH LOGGER
 BLI .F               473:   BOTTOM LOG INTERVAL
 TLI .F                20:   TOP LOG INTERVAL
 CS  .IN            8.625:   CASING SIZE
 CBD .F                20:   CASING BOTTOM DRILLER
 CBL .F                20:   CASING BOTTOM LOGGER
 BS  .IN             6.25:   BIT SIZE
 BSD .F               480:   BIT SIZE AT DEPTH
 DFT .          KCL WATER:   DRILLING FLUID TYPE
 MSS .           FLOWLINE:   MUD SAMPLE SOURCE
 RMS .OHMM          0.134:   RESISTIVITY MUD SAMPLE
 MST .F                72:   MUD SAMPLE TEMPERATURE
 RMF .OHMM           0.10:   RESISTIVITY MUD FILTRATE SAMPLE
 MFST.F                72:   MUD FILTRATE SAMPLE TEMPERATURE
 RMC .OHMM           0.17:   RESISTIVITY MUD CAKE
 MCST.F                72:   MUD CAKE SAMPLE TEMPERATURE
 MFSS.               CALC:   MUD FILTRATE SAMPLE SOURCE
 MCSS.               CALC:   MUD CAKE SAMPLE SOURCE
 TCS .HRS               2:   TIME CURCULATED STOPPED
 MRT .F               100:   MAXIMUM RECORDED TEMPERATURE
 LUN .               6270:   LOGGING UNIT NUMBER
 ENGI.            LEBSOCK:   RECORDING ENGINEER
 WITN.          DAN LUERS:   WITNESSED BY
 CLNT.            A2DTECH:   CLIENT CODE
 ORIG.           5" PRINT:   ORIGIN OF DATA
 UWI .       490251100600:   UNIQUE WELL ID
 DICO. A2D Technologies, Inc.:   DIGITIZING COMPANY
~OTHER INFORMATION
~A    DEPT      AC       PORD        CNC       CALD        GRD       CORR        DEN   
# ...
   53.5000   109.5120     0.1193     0.2884     6.2532   103.9426     0.0145     2.4779
   54.0000   109.5796     0.1224     0.3045     6.2526   101.3871     0.0340     2.4756
   54.5000   110.2468     0.1233     0.3022     6.2372   100.3330     0.0641     2.4756
   55.0000   110.3912     0.1218     0.2978     6.2664   100.7805     0.0610     2.4808
   55.5000   109.4823     0.1173     0.2985     6.2509   102.4292     0.0443     2.4905
   56.0000   108.9502     0.1103     0.2995     6.2203   106.9307     0.0383     2.5003
   56.5000   108.2681     0.1061     0.2918     6.1898   109.4802     0.0489     2.5018
   57.0000   108.2607     0.1091     0.2859     6.1892   109.7783     0.0562     2.4934
   57.5000   108.4032     0.1149     0.2965     6.1886   109.0238     0.0428     2.4851
   58.0000   108.4708     0.1194     0.3180     6.1880   111.1229     0.0153     2.4783
   58.5000   108.2384     0.1227     0.3175     6.1874   113.9728     0.0092     2.4715
   59.0000   108.3098     0.1273     0.3140     6.1868   113.3692     0.0197     2.4647
   59.5000   108.5372     0.1300     0.3165     6.1862   111.8647     0.0362     2.4601
   60.0000   108.9205     0.1282     0.3209     6.1856   111.1110     0.0331     2.4631
   60.5000   109.3458     0.1261     0.3183     6.1850   110.3573     0.0240     2.4661
   61.0000   109.0990     0.1246     0.3160     6.1845   109.9038     0.0255     2.4698
   61.5000   108.4919     0.1234     0.3158     6.1839   109.9009     0.0329     2.4720
   62.0000   108.1846     0.1234     0.3135     6.1831   109.8979     0.0374     2.4742
   62.5000   108.1041     0.1234     0.3109     6.1825   109.8949     0.0162     2.4727
   63.0000   108.2447     0.1237     0.3110     6.1819   110.1962     0.0010     2.4726
   63.5000   108.4622     0.1249     0.3156     6.1813   112.0310    -0.0051     2.4726
   64.0000   108.9795     0.1239     0.3211     6.1807   115.0270    -0.0081     2.4741
   64.5000   109.5718     0.1219     0.3167     6.1802   116.8218     0.0174     2.4756
   65.0000   109.9392     0.1219     0.3034     6.1796   117.0872     0.0414     2.4770
   65.5000   110.2334     0.1234     0.2943     6.1790   114.6577     0.0413     2.4754
   66.0000   110.5240     0.1237     0.2917     6.1784   112.8488     0.0428     2.4747
   66.5000   110.3667     0.1234     0.2946     6.1779   112.7239     0.0547     2.4747
   67.0000   109.9309     0.1225     0.3039     6.1772   113.3215     0.0622     2.4754
   67.5000   109.6082     0.1210     0.3083     6.1766   111.3658     0.0712     2.4776
   68.0000   109.2855     0.1195     0.3105     6.1760   109.2607     0.0730     2.4806
   68.5000   108.9628     0.1168     0.3137     6.1905   108.2067     0.0409     2.4843
   69.0000   108.6798     0.1141     0.3211     6.2199   108.0536     0.0182     2.4888
   69.5000   108.1476     0.1126     0.3232     6.2342   108.6512     0.0332     2.4917
   70.0000   107.5405     0.1141     0.3101     6.2335   110.2999     0.0542     2.4887
   70.5000   107.2332     0.1165     0.3029     6.2329   110.4478     0.0359     2.4826
   71.0000   107.6006     0.1177     0.2925     6.2173   107.1407     0.0239     2.4834
   71.5000   107.8181     0.1162     0.2910     6.2168   105.0357     0.0344     2.4856
   72.0000   108.0374     0.1156     0.3045     6.2162   104.2827     0.0296     2.4825
   72.5000   107.6533     0.1178     0.3052     6.2156   106.6813     0.0237     2.4810
   73.0000   107.1961     0.1184     0.3014     6.2150   108.6311     0.0236     2.4832
   73.5000   107.1137     0.1151     0.3060     6.2144   109.5282     0.0296     2.4862
   74.0000   106.8814     0.1148     0.3088     6.2138   111.6273     0.0280     2.4861
   74.5000   106.7990     0.1160     0.3080     6.2132   112.8263     0.0234     2.4854
   75.0000   106.7916     0.1160     0.3024     6.2126   110.2700     0.0399     2.4876
   75.5000   106.7841     0.1142     0.3012     6.2119   109.0658     0.0474     2.4921
   76.0000   107.0135     0.1100     0.3000     6.2113   110.7145     0.0458     2.4965
   76.5000   107.6777     0.1070     0.2991     6.2107   110.8624     0.0412     2.5010
   77.0000   107.8114     0.1042     0.2962     6.2102   110.4082     0.0577     2.5062
   77.5000   107.5023     0.1021     0.2960     6.2246   110.1050     0.0742     2.5070
   78.0000   107.6448     0.1034     0.2974     6.2239   109.2011     0.0651     2.5032
   78.5000   107.9372     0.1101     0.3137     6.2233   107.8467     0.0394     2.4828
   79.0000   108.1547     0.1180     0.3142     6.2227   105.8918     0.0348     2.4782
   79.5000   108.2241     0.1200     0.3187     6.2221   102.7357     0.0468     2.4812
   80.0000   108.2916     0.1154     0.3328     6.2215   102.7027     0.0648     2.4917
   80.5000   107.9825     0.1119     0.3187     6.2059   105.2822     0.0752     2.4969
   81.0000   107.4503     0.1080     0.3110     6.2053   107.6817     0.0541     2.5007
   81.5000   106.2435     0.1059     0.3096     6.2047   109.7848     0.0465     2.5037
   82.0000   104.5869     0.1046     0.3103     6.2193   108.8408     0.0449     2.5036
   82.5000   103.9798     0.1041     0.3068     6.2185   103.7187     0.0448     2.5005
   83.0000   103.7475     0.1068     0.3005     6.2179   101.7718     0.0462     2.4975
   83.5000   103.8918     0.1098     0.2949     6.2173   101.5106     0.0462     2.4944
   84.0000   103.7326     0.1138     0.2944     6.2167   103.0310     0.0340     2.4912
   84.5000   103.3504     0.1177     0.3015     6.2161   101.7467     0.0144     2.4842
   85.0000   102.8182     0.1213     0.3004     6.2156    97.1466     0.0038     2.4755
   85.5000   102.3610     0.1231     0.2945     6.2150    95.9424     0.0282     2.4725
   86.0000   101.8289     0.1222     0.2918     6.2144    95.6391     0.0519     2.4732
   86.5000   100.9219     0.1207     0.3016     6.2138    94.7352     0.0394     2.4762
   87.0000    99.6401     0.1177     0.3041     6.2132    93.5310     0.0228     2.4821
   87.5000    98.3583     0.1147     0.3008     6.2126    94.1286     0.0132     2.4904
   88.0000    97.5982     0.1128     0.2815     6.2120    97.4290     0.0033     2.4881
   88.5000    97.0630     0.1150     0.2750     6.2114    98.7781     0.0032     2.4835
   89.0000    96.6867     0.1174     0.2696     6.2107    96.2218     0.0182     2.4812
   89.5000    96.4423     0.1189     0.2661     6.1951    93.0657     0.0422     2.4827
   90.0000    96.1454     0.1174     0.2611     6.1945    91.7113     0.0572     2.4804
   90.5000    96.0631     0.1183     0.2555     6.1789    94.1107     0.0481     2.4766
   91.0000    96.2805     0.1195     0.2535     6.1783    96.2099     0.0390     2.4758
   91.5000    96.7229     0.1201     0.2529     6.1929    95.9066     0.0329     2.4780
   92.0000    97.2402     0.1195     0.2684     6.1772    94.2519     0.0268     2.4788
   92.5000    97.6076     0.1186     0.2827     6.1766    94.0995     0.0147     2.4765
   93.0000    98.1999     0.1213     0.2864     6.1760    95.2970     0.0010     2.4749
   93.5000    98.7172     0.1222     0.2826     6.1754    95.1439     0.0085     2.4741
   94.0000    98.8615     0.1213     0.2782     6.1748    94.9915     0.0265     2.4749
   94.5000    99.0040     0.1198     0.2789     6.1742    96.4893     0.0445     2.4756
   95.0000    99.2196     0.1225     0.2811     6.1736    96.4863     0.0459     2.4718
   95.5000    99.5121     0.1246     0.2852     6.1730    96.4833     0.0459     2.4665
   96.0000    99.8795     0.1262     0.2958     6.1724    97.5314     0.0443     2.4664
   96.5000   100.6966     0.1277     0.3020     6.1718    98.7296     0.0442     2.4626
   97.0000   100.7660     0.1316     0.2965     6.1712    97.6756     0.0441     2.4573
   97.5000   100.7568     0.1374     0.2840     6.1706    94.3693     0.0425     2.4497
   98.0000   100.7493     0.1416     0.2744     6.1700    91.9639     0.0018     2.4444
   98.5000   100.7419     0.1407     0.2720     6.1844    91.9609     0.0016     2.4443
