~VERSION INFORMATION
 VERS.                2.0:   CWLS LOG ASCII STANDARD - VERSION 2.0
 WRAP.                 NO:   ONE LINE PER DEPTH STEP
~WELL INFORMATION
#MNEM.UNIT      DATA TYPE    INFORMATION
#----------   ------------   ------------------------------
 STRT.F           30.0000:   START DEPTH
 STOP.F          509.0000:   STOP DEPTH
 STEP.F            0.5000:   STEP LENGTH
 NULL.          -999.2500:   NO VALUE
 COMP. FENIX & SCISSON INC:   COMPANY
 WELL.   NPR 3 #45 SX 3-3:   WELL
 FLD .             TEAPOT:   FIELD
 LOC .       S3 T38N R78W:   LOCATION
 CNTY.            NATRONA:   COUNTY
 STAT.            WYOMING:   STATE
 CTRY. UNITED STATES OF AMERICA:   COUNTRY
 SRVC.            Unknown:   SERVICE COMPANY
 DATE.        05-OCT-1978:   LOGDATE
 API .       490251071700:   API NUMBER
~CURVE INFORMATION
#MNEM.UNIT       API CODE    CURVE DESCRIPTION
#----------   ------------   ------------------------------
 DEPT.F                  :   
 SPR .MV     05 010 01 00:   SPONTANEOUS POTENTIAL FROM RES.
 SN  .OHMM   05 040 16 00:   SHORT NORMAL 16"
 ILD .OHMM   05 120 46 00:   INDUCTION LOG DEEP
 GRD .GAPI   45 310 01 00:   GAMMA RAY FROM DENSITY LOG
 CALD.IN     45 280 60 00:   CALIPER
 RHOB.G/C3   45 350 01 00:   BULK DENSITY
 DPHI.DEC    45 890 12 00:   DENSITY POROSITY SANDSTONE
 CORR.G/C3   45 356 01 00:   DENSITY CORRECTION
~PARAMETER INFORMATION
#MNEM.UNIT          VALUE    DESCRIPTION
#----------   ------------   ------------------------------
 PD  .                 GL:   PERMANENT DATUM
 EPD .F              5188:   ELEVATION PERMANENT DATUM
 LMF .                 KB:   LOG MEASURED FROM
 DAPD.F                 4:   FEET ABOVE PERMANENT DATUM
 DMF .                 KB:   DRILLING MEASURED FROM
 EKB .F              5192:   KELLING BUSHING
 EGL .F              5188:   GROUND LEVEL
 DATE.            10-5-78:   RUN DATE
 RUN .                  1:   RUN NUMBER
 DD  .F               510:   DEPTH DRILLER
 DL  .F               509:   DEPTH LOGGER
 BLI .F               503:   BOTTOM LOG INTERVAL
 TLI .F                48:   TOP LOG INTERVAL
 CS  .IN            8.625:   CASING SIZE
 CBL .F                46:   CASING BOTTOM LOGGER
 BS  .IN            7.875:   BIT SIZE
 BSD .F               510:   BIT SIZE AT DEPTH
 DFT .                KCL:   DRILLING FLUID TYPE
 DFD .                8.7:   DRILLING FLUID DENSITY
 DFV .                 37:   DRILLING FLUID VISCOSITY
 DFPH.                  9:   DRILLING FLUID PH
 DFL .               10.4:   DRILLING FLUID LOSS
 MSS .            MUD PIT:   MUD SAMPLE SOURCE
 RMS .OHMM            .28:   RESISTIVITY MUD SAMPLE
 MST .F                58:   MUD SAMPLE TEMPERATURE
 RMF .OHMM            .32:   RESISTIVITY MUD FILTRATE SAMPLE
 MFST.F                54:   MUD FILTRATE SAMPLE TEMPERATURE
 RMC .OHMM            .24:   RESISTIVITY MUD CAKE
 MCST.F                56:   MUD CAKE SAMPLE TEMPERATURE
 MFSS.               MEAS:   MUD FILTRATE SAMPLE SOURCE
 MCSS.               MEAS:   MUD CAKE SAMPLE SOURCE
 BHT .F                64:   BOTTOM HOLE TEMPERATURE
 TCS .HRS               2:   TIME CURCULATED STOPPED
 MRT .F                64:   MAXIMUM RECORDED TEMPERATURE
 LUN .               2958:   LOGGING UNIT NUMBER
 LUL .               CASP:   LOGGING UNIT LOCATION
 ENGI.             MILLER:   RECORDING ENGINEER
 WITN.           DINSMORE:   WITNESSED BY
 CLNT.            A2DTECH:   CLIENT CODE
 ORIG.       2", 5" PRINT:   ORIGIN OF DATA
 UWI .       490251071700:   UNIQUE WELL ID
 DICO. A2D Technologies, Inc.:   DIGITIZING COMPANY
~OTHER INFORMATION
~A   DEPT      SPR         SN        ILD         GRD      CALD       RHOB       DPHI       CORR   
# ...
  273.0000   -13.2606     8.7190     8.0521   107.8186     7.3979     2.5072     0.1064     0.0615
  273.5000   -13.2728     8.8726     8.0771   107.7477     7.3922     2.5022     0.1061     0.0830
  274.0000   -13.2850     9.0305     8.1463   107.6752     7.3864     2.5037     0.1058     0.0994
  274.5000   -13.2972     9.0225     8.2509   107.5265     7.3807     2.5053     0.1055     0.1147
  275.0000   -13.3094     9.0141     8.3144   107.2346     7.3749     2.5119     0.1052     0.1225
  275.5000   -13.3216     9.0057     8.3139   107.2451     7.3692     2.5244     0.0947     0.1201
  276.0000   -13.3338     8.9974     8.3136   107.5078     7.3635     2.5386     0.0867     0.1087
  276.5000   -13.3460     8.9890     8.3137   109.7555     7.3631     2.5358     0.0890     0.0683
  277.0000   -13.3581     8.9807     8.3137   110.8416     7.3683     2.5175     0.1008     0.0550
  277.5000   -13.3703     8.9724     8.3137   110.9388     7.3734     2.5010     0.1103     0.0515
  278.0000   -13.3825     8.9640     8.3137   110.9867     7.3786     2.4983     0.1117     0.0566
  278.5000   -13.4008     8.9557     8.3137   110.2696     7.3838     2.5027     0.1088     0.0626
  279.0000   -13.4534     8.9484     8.3136   108.7708     7.3890     2.5068     0.1066     0.0675
  279.5000   -13.5061     8.9403     8.3137   107.1039     7.3941     2.5040     0.1078     0.0669
  280.0000   -13.5597     8.9315     8.3126   106.4922     7.3993     2.5009     0.1105     0.0663
  280.5000   -13.6723     8.9226     8.3527   106.1661     7.4045     2.4978     0.1132     0.0658
  281.0000   -13.8884     8.9138     8.4306   106.0424     7.4096     2.4947     0.1151     0.0659
  281.5000   -14.1003     8.9050     8.5093   105.9210     7.4148     2.4913     0.1168     0.0788
  282.0000   -14.4759     8.8962     8.5579   105.5767     7.4200     2.5019     0.1186     0.1111
  282.5000   -14.9476     8.8876     8.5800   104.2036     7.4251     2.5161     0.1163     0.1265
  283.0000   -15.4219     8.8785     8.6022   101.8805     7.4303     2.5181     0.1084     0.1287
  283.5000   -15.8931     8.8697     8.6250   100.8495     7.4357     2.4976     0.1056     0.1311
  284.0000   -16.2858     8.7308     8.4330   100.3764     7.4393     2.4866     0.1220     0.1379
  284.5000   -16.5439     8.4961     8.2376   100.4408     7.4191     2.4895     0.1107     0.1840
  285.0000   -16.4041     8.2289     7.1766   101.0840     7.3993     2.5020     0.1068     0.2002
  285.5000   -16.0745     7.8059     6.8511   103.5165     7.3796     2.5062     0.1072     0.1947
  286.0000   -14.0896     7.4058     6.4271   103.7149     7.3602     2.4942     0.1129     0.1772
  286.5000   -13.1374     7.1110     6.6068   105.7170     7.3381     2.4702     0.1239     0.1330
  287.0000   -11.7947     7.1396     6.6068   112.5903     7.3162     2.4473     0.1476     0.0899
  287.5000   -11.1472     7.1707     6.6068   117.9199     7.2946     2.4375     0.1479     0.0506
  288.0000   -10.7654     7.1676     6.6074   119.2025     7.2787     2.4744     0.1282     0.0301
  288.5000   -10.4459     8.0415     6.6090   115.0309     7.2734     2.5032     0.1116     0.0158
  289.0000   -10.0599     8.6954     6.6008   104.6496     7.2680     2.5180     0.1009     0.0083
  289.5000    -9.5583     9.4025     7.4640    98.4654     7.2623     2.5153     0.1034     0.0035
  290.0000    -9.0576    10.0376     9.4310    97.7962     7.2610     2.5101     0.1075     0.0019
  290.5000    -8.5578    10.4818    10.2849    97.3609     7.2609     2.5048     0.1079     0.0026
  291.0000    -8.0586    10.5484    10.8322    96.9714     7.2610     2.5072     0.1056     0.0034
  291.5000    -7.5613    10.6154    10.9547    96.5909     7.2609     2.5137     0.1018     0.0041
  292.0000    -6.6747    10.6828    11.0893    96.2123     7.2610     2.5190     0.0997     0.0049
  292.5000    -5.6761    10.7540    11.2246    95.7680     7.2637     2.5161     0.0992     0.0056
  293.0000    -4.6721    11.0479    11.6329    94.8677     7.2728     2.5064     0.1074     0.0063
  293.5000    -3.4621    11.3658    12.1480    92.6954     7.2789     2.4854     0.1168     0.0072
  294.0000    -1.9144    11.6928    12.6858    90.4341     7.2206     2.4572     0.1294     0.0145
  294.5000    -0.5587    12.1029    13.3109    88.2998     7.1594     2.4292     0.1469     0.0309
  295.0000    -0.0106    12.6498    13.9879    83.6532     7.1283     2.4010     0.1775     0.0563
  295.5000     0.5515    13.2220    14.6920    78.3949     7.1095     2.3731     0.1935     0.0839
  296.0000     1.0840    13.8201    15.9651    71.2046     7.0974     2.3546     0.1991     0.1130
  296.5000     1.2025    14.3867    17.4713    63.9930     7.0897     2.3876     0.1755     0.1204
  297.0000     1.3044    14.7733    19.1224    59.9343     7.0803     2.3930     0.1857     0.0385
  297.5000     1.4127    15.1700    20.5474    59.6568     7.1621     2.3463     0.2023     0.0061
  298.0000     1.6452    15.5777    20.8839    59.4212     7.2447     2.3039     0.2297    -0.0002
  298.5000     2.2747    15.9671    21.2260    59.2375     7.2551     2.2895     0.2391     0.0002
  299.0000     2.2948    16.2167    21.5742    59.3655     7.2672     2.2876     0.2393     0.0007
  299.5000     2.3011    16.4536    21.8253    59.4872     7.2794     2.2863     0.2395     0.0012
  300.0000     2.3096    16.7181    21.7711    59.6173     7.2770     2.2823     0.2431     0.0020
  300.5000     2.3186    16.7604    21.7291    60.0319     7.2724     2.2784     0.2458     0.0042
  301.0000     2.3276    16.8075    21.6869    60.4861     7.2679     2.2759     0.2470     0.0063
  301.5000     2.3367    16.8548    21.6451    60.9225     7.2637     2.2812     0.2474     0.0084
  302.0000     2.3457    16.9022    21.6033    61.8847     7.2744     2.2916     0.2415     0.0089
  302.5000     2.3547    16.9497    21.5616    62.9414     7.3059     2.3263     0.2239     0.0074
  303.0000     2.3638    16.9973    21.5201    64.3161     7.3421     2.3596     0.1954    -0.0022
  303.5000     2.3728    17.1142    21.4785    65.8281     7.3793     2.3931     0.1666    -0.0129
  304.0000     2.3819    17.3599    21.4274    67.2497     7.4165     2.4126     0.1609    -0.0137
  304.5000     2.3909    17.6660    21.8885    68.6098     7.4536     2.4139     0.1670    -0.0125
  305.0000     2.3999    17.6468    22.1964    69.8161     7.4920     2.4023     0.1741    -0.0055
  305.5000     2.4090    17.6220    22.4178    69.7842     7.5004     2.3923     0.1772     0.0022
  306.0000     2.4180    17.5973    22.6424    69.7811     7.5010     2.3918     0.1747     0.0043
  306.5000     2.4271    17.5726    23.0946    69.7811     7.5014     2.3976     0.1705     0.0053
  307.0000     2.4361    17.5481    23.5577    69.7814     7.5019     2.4033     0.1667     0.0063
  307.5000     2.4451    17.5231    24.0475    69.7796     7.5024     2.4037     0.1666     0.0074
  308.0000     2.4542    17.5065    24.6110    69.6821     7.5029     2.4027     0.1671     0.0056
  308.5000     2.4632    17.6807    25.1884    69.4202     7.5034     2.3954     0.1748     0.0037
  309.0000     2.4723    17.8258    25.7783    69.1606     7.5039     2.3827     0.1840     0.0077
  309.5000     2.4804    17.9938    26.2327    68.9001     7.5044     2.3681     0.1932     0.0118
  310.0000     2.4802    17.9760    26.2323    68.6388     7.5050     2.3567     0.1964     0.0158
  310.5000     2.4805    17.9552    26.2298    68.3921     7.5054     2.3537     0.1993     0.0195
  311.0000     2.4804    17.9344    26.2298    68.3836     7.5060     2.3532     0.1993     0.0216
  311.5000     2.4589    17.9136    26.2298    68.3824     7.5065     2.3497     0.2008     0.0253
  312.0000     2.3241    17.8929    26.2298    68.3950     7.5070     2.3451     0.2048     0.0417
  312.5000     2.1892    17.8721    26.2298    69.0975     7.5075     2.3480     0.2036     0.0764
  313.0000     2.0048    17.8516    25.8225    71.0171     7.5080     2.3646     0.1948     0.1079
