~VERSION INFORMATION
 VERS.                2.0:   CWLS LOG ASCII STANDARD - VERSION 2.0
 WRAP.                 NO:   ONE LINE PER DEPTH STEP
~WELL INFORMATION
#MNEM.UNIT      DATA TYPE    INFORMATION
#----------   ------------   ------------------------------
 STRT.F          714.0000:   START DEPTH
 STOP.F         2268.0000:   STOP DEPTH
 STEP.F            0.5000:   STEP LENGTH
 NULL.          -999.2500:   NO VALUE
 COMP. LAWRENCE/ALLISON INC:   COMPANY
 WELL. 25-1-STX 10 #25-10:   WELL
 FLD .             TEAPOT:   FIELD
 LOC .      S10 T38N R78W:   LOCATION
 CNTY.            NATRONA:   COUNTY
 STAT.            WYOMING:   STATE
 CTRY. UNITED STATES OF AMERICA:   COUNTRY
 SRVC.            Unknown:   SERVICE COMPANY
 DATE.        07-JUN-1991:   LOGDATE
 API .       490251091300:   API NUMBER
~CURVE INFORMATION
#MNEM.UNIT       API CODE    CURVE DESCRIPTION
#----------   ------------   ------------------------------
 DEPT.F                  :   
 TGAS.UNITS  91 830 01 00:   TOTAL GAS FROM HOTWIRE
 ROP .MIN/FT 91 810 01 00:   RATE OF DRILLING PENETRATION
~PARAMETER INFORMATION
#MNEM.UNIT          VALUE    DESCRIPTION
#----------   ------------   ------------------------------
 EKB .F              5243:   KELLING BUSHING
 EGL .F              5233:   GROUND LEVEL
 DATE.             6-8-91:   RUN DATE
 BLI .F              2280:   BOTTOM LOG INTERVAL
 TLI .F              1680:   TOP LOG INTERVAL
 CS  .IN            9.625:   CASING SIZE
 CBD .F               740:   CASING BOTTOM DRILLER
 ENGI.              TOWER:   RECORDING ENGINEER
 WITN.               HUSK:   WITNESSED BY
 CLNT.            A2DTECH:   CLIENT CODE
 ORIG.           5" PRINT:   ORIGIN OF DATA
 UWI .       490251091300:   UNIQUE WELL ID
 DICO. A2D Technologies, Inc.:   DIGITIZING COMPANY
~OTHER INFORMATION
~A   DEPT     TGAS          ROP 
  714.0000  -999.2500     0.4943
  714.5000  -999.2500     0.5139
  715.0000  -999.2500     0.5354
  715.5000  -999.2500     0.5569
  716.0000  -999.2500     0.5784
  716.5000  -999.2500     0.6000
  717.0000  -999.2500     0.6162
  717.5000  -999.2500     0.6177
  718.0000  -999.2500     0.6192
  718.5000  -999.2500     0.6207
  719.0000  -999.2500     0.6222
  719.5000  -999.2500     0.6237
  720.0000  -999.2500     0.6252
  720.5000  -999.2500     0.6267
  721.0000  -999.2500     0.6282
  721.5000  -999.2500     0.6298
  722.0000  -999.2500     0.6313
  722.5000  -999.2500     0.6328
  723.0000  -999.2500     0.6498
  723.5000  -999.2500     0.6734
  724.0000  -999.2500     0.6750
  724.5000  -999.2500     0.6765
  725.0000  -999.2500     0.6780
  725.5000  -999.2500     0.6795
  726.0000  -999.2500     0.6810
  726.5000  -999.2500     0.6825
  727.0000  -999.2500     0.6840
  727.5000  -999.2500     0.6855
  728.0000  -999.2500     0.6593
  728.5000  -999.2500     0.6508
  729.0000  -999.2500     0.6526
  729.5000  -999.2500     0.6541
  730.0000  -999.2500     0.6556
  730.5000  -999.2500     0.6570
  731.0000  -999.2500     0.6585
  731.5000  -999.2500     0.6976
  732.0000  -999.2500     0.6991
  732.5000  -999.2500     0.7006
  733.0000  -999.2500     0.7044
  733.5000  -999.2500     0.7448
  734.0000  -999.2500     0.7804
  734.5000  -999.2500     0.7819
  735.0000  -999.2500     0.7834
  735.5000  -999.2500     0.7849
  736.0000  -999.2500     0.7768
  736.5000  -999.2500     0.7394
  737.0000  -999.2500     0.7141
  737.5000  -999.2500     0.7156
  738.0000  -999.2500     0.7171
  738.5000  -999.2500     0.7186
  739.0000  -999.2500     0.7202
  739.5000  -999.2500     0.7217
  740.0000  -999.2500     0.7232
  740.5000  -999.2500     0.7247
  741.0000  -999.2500     0.7262
  741.5000  -999.2500     0.7046
  742.0000  -999.2500     0.6915
  742.5000  -999.2500     0.6930
  743.0000  -999.2500     0.6677
  743.5000  -999.2500     0.6584
  744.0000  -999.2500     0.6599
  744.5000  -999.2500     0.5110
  745.0000  -999.2500     0.3616
  745.5000  -999.2500     0.3646
  746.0000  -999.2500     0.4023
  746.5000  -999.2500     0.4038
  747.0000  -999.2500     0.4053
  747.5000  -999.2500     0.4132
  748.0000  -999.2500     0.4460
  748.5000  -999.2500     0.4475
  749.0000  -999.2500     0.4490
  749.5000  -999.2500     0.4649
  750.0000  -999.2500     0.4852
  750.5000  -999.2500     0.4756
  751.0000  -999.2500     0.4659
  751.5000  -999.2500     0.4565
  752.0000  -999.2500     0.4580
  752.5000  -999.2500     0.4595
  753.0000  -999.2500     0.4623
  753.5000  -999.2500     0.4756
  754.0000  -999.2500     0.4889
  754.5000  -999.2500     0.5023
  755.0000  -999.2500     0.5156
  755.5000  -999.2500     0.5289
  756.0000  -999.2500     0.5422
  756.5000  -999.2500     0.5375
  757.0000  -999.2500     0.5263
  757.5000  -999.2500     0.5150
  758.0000  -999.2500     0.5037
  758.5000  -999.2500     0.4924
  759.0000  -999.2500     0.4793
  759.5000  -999.2500     0.4808
  760.0000  -999.2500     0.4823
  760.5000  -999.2500     0.4837
  761.0000  -999.2500     0.4852
  761.5000  -999.2500     0.4866
  762.0000  -999.2500     0.4881
  762.5000  -999.2500     0.4896
  763.0000  -999.2500     0.4911
  763.5000  -999.2500     0.4927
  764.0000  -999.2500     0.4942
  764.5000  -999.2500     0.5249
  765.0000  -999.2500     0.5351
  765.5000  -999.2500     0.5366
  766.0000  -999.2500     0.5380
  766.5000  -999.2500     0.5350
  767.0000  -999.2500     0.5314
  767.5000  -999.2500     0.5279
  768.0000  -999.2500     0.5244
  768.5000  -999.2500     0.5209
  769.0000  -999.2500     0.5174
  769.5000  -999.2500     0.5139
  770.0000  -999.2500     0.5122
  770.5000  -999.2500     0.5137
  771.0000  -999.2500     0.5153
  771.5000  -999.2500     0.5168
  772.0000  -999.2500     0.5183
  772.5000  -999.2500     0.5198
  773.0000  -999.2500     0.5213
  773.5000  -999.2500     0.5228
  774.0000  -999.2500     0.5243
  774.5000  -999.2500     0.5258
  775.0000  -999.2500     0.5273
  775.5000  -999.2500     0.5288
  776.0000  -999.2500     0.5312
  776.5000  -999.2500     0.5362
  777.0000  -999.2500     0.5411
  777.5000  -999.2500     0.5460
  778.0000  -999.2500     0.5510
  778.5000  -999.2500     0.5559
  779.0000  -999.2500     0.5609
  779.5000  -999.2500     0.5658
  780.0000  -999.2500     0.5707
  780.5000  -999.2500     0.5757
  781.0000  -999.2500     0.5806
  781.5000  -999.2500     0.5734
  782.0000  -999.2500     0.5484
  782.5000  -999.2500     0.5499
  783.0000  -999.2500     0.5514
  783.5000  -999.2500     0.5529
  784.0000  -999.2500     0.5544
  784.5000  -999.2500     0.5559
  785.0000  -999.2500     0.5574
  785.5000  -999.2500     0.5589
  786.0000  -999.2500     0.5605
  786.5000  -999.2500     0.5621
  787.0000  -999.2500     0.5636
  787.5000  -999.2500     0.5701
  788.0000  -999.2500     0.5772
  788.5000  -999.2500     0.5843
  789.0000  -999.2500     0.5915
  789.5000  -999.2500     0.5986
  790.0000  -999.2500     0.6057
  790.5000  -999.2500     0.6198
  791.0000  -999.2500     0.6508
  791.5000  -999.2500     0.6524
  792.0000  -999.2500     0.6539
  792.5000  -999.2500     0.6554
  793.0000  -999.2500     0.6569
  793.5000  -999.2500     0.6584
  794.0000  -999.2500     0.6599
  794.5000  -999.2500     0.6617
  795.0000  -999.2500     0.6255
  795.5000  -999.2500     0.6269
  796.0000  -999.2500     0.6245
  796.5000  -999.2500     0.6216
  797.0000  -999.2500     0.6188
  797.5000  -999.2500     0.6160
  798.0000  -999.2500     0.6132
  798.5000  -999.2500     0.6104
  799.0000  -999.2500     0.6076
  799.5000  -999.2500     0.6048
  800.0000  -999.2500     0.6024
  800.5000  -999.2500     0.6033
  801.0000  -999.2500     0.6041
  801.5000  -999.2500     0.6049
  802.0000  -999.2500     0.6138
  802.5000  -999.2500     0.6347
  803.0000  -999.2500     0.6072
  803.5000  -999.2500     0.5960
  804.0000  -999.2500     0.5710
  804.5000  -999.2500     0.5862
  805.0000  -999.2500     0.5945
  805.5000  -999.2500     0.5733
  806.0000  -999.2500     0.5740
  806.5000  -999.2500     0.5748
  807.0000  -999.2500     0.5755
  807.5000  -999.2500     0.5982
  808.0000  -999.2500     0.6147
  808.5000  -999.2500     0.6154
  809.0000  -999.2500     0.6419
  809.5000  -999.2500     0.6546
  810.0000  -999.2500     0.6554
  810.5000  -999.2500     0.6561
  811.0000  -999.2500     0.6193
  811.5000  -999.2500     0.5824
  812.0000  -999.2500     0.6208
  812.5000  -999.2500     0.6215
  813.0000  -999.2500     0.6223
  813.5000  -999.2500     0.6230
  814.0000  -999.2500     0.6614
  814.5000  -999.2500     0.6621
  815.0000  -999.2500     0.6629
  815.5000  -999.2500     0.6637
  816.0000  -999.2500     0.6644
  816.5000  -999.2500     0.6652
  817.0000  -999.2500     0.6659
  817.5000  -999.2500     0.6667
  818.0000  -999.2500     0.6674
  818.5000  -999.2500     0.6682
  819.0000  -999.2500     0.6689
  819.5000  -999.2500     0.6697
  820.0000  -999.2500     0.6559
  820.5000  -999.2500     0.6335
  821.0000  -999.2500     0.6192
  821.5000  -999.2500     0.5974
  822.0000  -999.2500     0.6009
  822.5000  -999.2500     0.6079
  823.0000  -999.2500     0.6149
  823.5000  -999.2500     0.6219
  824.0000  -999.2500     0.6289
  824.5000  -999.2500     0.6358
  825.0000  -999.2500     0.6246
  825.5000  -999.2500     0.6034
  826.0000  -999.2500     0.6041
  826.5000  -999.2500     0.6049
  827.0000  -999.2500     0.6056
  827.5000  -999.2500     0.6064
  828.0000  -999.2500     0.6072
  828.5000  -999.2500     0.6079
  829.0000  -999.2500     0.6087
  829.5000  -999.2500     0.6094
  830.0000  -999.2500     0.6102
  830.5000  -999.2500     0.6110
  831.0000  -999.2500     0.6117
  831.5000  -999.2500     0.6124
  832.0000  -999.2500     0.6089
  832.5000  -999.2500     0.6055
  833.0000  -999.2500     0.6020
  833.5000  -999.2500     0.5985
  834.0000  -999.2500     0.5951
  834.5000  -999.2500     0.5916
  835.0000  -999.2500     0.5882
