~VERSION INFORMATION
 VERS.                2.0:   CWLS LOG ASCII STANDARD - VERSION 2.0
 WRAP.                 NO:   ONE LINE PER DEPTH STEP
~WELL INFORMATION
#MNEM.UNIT      DATA TYPE    INFORMATION
#----------   ------------   ------------------------------
 STRT.F           17.0000:   START DEPTH
 STOP.F          634.0000:   STOP DEPTH
 STEP.F            0.5000:   STEP LENGTH
 NULL.          -999.2500:   NO VALUE
 COMP. FENIX & SCISSON INC:   COMPANY
 WELL.        NPR 3 #72-3:   WELL
 FLD .             TEAPOT:   FIELD
 LOC .       S3 T38N R78W:   LOCATION
 CNTY.            NATRONA:   COUNTY
 STAT.            WYOMING:   STATE
 CTRY. UNITED STATES OF AMERICA:   COUNTRY
 SRVC.           BIRDWELL:   SERVICE COMPANY
 DATE.        24-SEP-1978:   LOGDATE
 API .       490251069100:   API NUMBER
~CURVE INFORMATION
#MNEM.UNIT       API CODE    CURVE DESCRIPTION
#----------   ------------   ------------------------------
 DEPT.F                  :   
 SPR .MV     05 010 01 00:   SPONTANEOUS POTENTIAL FROM RES.
 SN  .OHMM   05 040 16 00:   SHORT NORMAL 16"
 ILD .OHMM   05 120 46 00:   INDUCTION LOG DEEP
 GRD .GAPI   45 310 01 00:   GAMMA RAY FROM DENSITY LOG
 CALD.IN     45 280 60 00:   CALIPER
 DEN .G/C3   45 350 01 00:   COMPENSATED BULK DENSTIY
 DPHI.DEC    45 890 12 00:   DENSITY POROSITY SANDSTONE
 CORR.G/C3   45 356 01 00:   DENSITY CORRECTION
~PARAMETER INFORMATION
#MNEM.UNIT          VALUE    DESCRIPTION
#----------   ------------   ------------------------------
 PD  .                 GL:   PERMANENT DATUM
 EPD .F              5155:   ELEVATION PERMANENT DATUM
 LMF .                 KB:   LOG MEASURED FROM
 DAPD.F                 4:   FEET ABOVE PERMANENT DATUM
 DMF .                 KB:   DRILLING MEASURED FROM
 EKB .F              5159:   KELLING BUSHING
 EGL .F              5155:   GROUND LEVEL
 DATE.            9-24-78:   RUN DATE
 RUN .                  1:   RUN NUMBER
 DD  .F               635:   DEPTH DRILLER
 DL  .F               634:   DEPTH LOGGER
 BLI .F               627:   BOTTOM LOG INTERVAL
 TLI .F                30:   TOP LOG INTERVAL
 CS  .IN            8.625:   CASING SIZE
 CBD .F                34:   CASING BOTTOM DRILLER
 CBL .F                34:   CASING BOTTOM LOGGER
 BS  .IN            7.875:   BIT SIZE
 BSD .F               635:   BIT SIZE AT DEPTH
 DFT .                KCL:   DRILLING FLUID TYPE
 DFD .                8.7:   DRILLING FLUID DENSITY
 DFV .                 36:   DRILLING FLUID VISCOSITY
 DFPH.                9.5:   DRILLING FLUID PH
 DFL .                8.2:   DRILLING FLUID LOSS
 MSS .          FLOW LINE:   MUD SAMPLE SOURCE
 RMS .OHMM             .2:   RESISTIVITY MUD SAMPLE
 MST .F                68:   MUD SAMPLE TEMPERATURE
 RMF .OHMM            .18:   RESISTIVITY MUD FILTRATE SAMPLE
 MFST.F                76:   MUD FILTRATE SAMPLE TEMPERATURE
 RMC .OHMM            .32:   RESISTIVITY MUD CAKE
 MCST.F                76:   MUD CAKE SAMPLE TEMPERATURE
 MFSS.               MEAS:   MUD FILTRATE SAMPLE SOURCE
 RMB .OHMM             .2:   RESISTIVITY MUD AT BHT
 BHT .F                70:   BOTTOM HOLE TEMPERATURE
 TCS .HRS               3:   TIME CURCULATED STOPPED
 MRT .F                70:   MAXIMUM RECORDED TEMPERATURE
 LUN .               2958:   LOGGING UNIT NUMBER
 LUL .               CASP:   LOGGING UNIT LOCATION
 ENGI.           REYNOLDS:   RECORDING ENGINEER
 WITN.              AMEND:   WITNESSED BY
 CLNT.            A2DTECH:   CLIENT CODE
 ORIG.           5" PRINT:   ORIGIN OF DATA
 UWI .       490251069100:   UNIQUE WELL ID
 DICO. A2D Technologies, Inc.:   DIGITIZING COMPANY
~OTHER INFORMATION
~A   DEPT      SPR         SN        ILD         GRD      CALD        DEN       DPHI       CORR   
# ...
  462.5000   -45.1971    11.8858    15.9354    89.9104     7.7146     2.4061     0.1637     0.0586
  463.0000   -45.1397    11.8859    16.0178    89.5122     7.7056     2.4022     0.1663     0.0586
  463.5000   -45.0690    11.8629    16.1086    90.9175     7.7017     2.3967     0.1693     0.0586
  464.0000   -45.7638    11.7897    16.0594    92.5065     7.7110     2.3938     0.1712     0.0586
  464.5000   -46.6966    11.7163    15.9913    93.2987     7.7191     2.3916     0.1729     0.0586
  465.0000   -47.6757    11.6689    15.9237    93.1155     7.7193     2.3865     0.1762     0.0586
  465.5000   -44.8665    11.6689    15.8568    92.4658     7.7190     2.3839     0.1793     0.0590
  466.0000   -43.9519    11.6689    15.8136    91.8213     7.6894     2.3839     0.1813     0.0600
  466.5000   -44.7336    11.6689    15.9555    91.4997     7.6561     2.3853     0.1772     0.0611
  467.0000   -45.1334    11.6689    16.0794    91.4999     7.6432     2.3880     0.1745     0.0621
  467.5000   -45.4877    11.6689    16.2043    91.4989     7.6508     2.3901     0.1745     0.0631
  468.0000   -45.4512    11.6689    16.2566    91.4955     7.6588     2.3818     0.1783     0.0641
  468.5000   -45.4171    11.6689    16.0126    91.7345     7.7041     2.3748     0.1847     0.0698
  469.0000   -45.3873    11.6689    15.8386    92.4490     7.7540     2.3749     0.1861     0.0798
  469.5000   -45.3573    11.6689    15.6686    93.5504     7.8046     2.3749     0.1863     0.0919
  470.0000   -45.3276    11.6690    15.7327    94.1337     7.8130     2.3754     0.1857     0.1082
  470.5000   -45.3002    11.6688    15.7964    94.1999     7.8053     2.3764     0.1826     0.1246
  471.0000   -45.3997    11.6698    15.8603    94.2675     7.7972     2.3760     0.1820     0.1518
  471.5000   -45.6766    11.6089    15.9244    94.0813     7.7893     2.3738     0.1865     0.1777
  472.0000   -45.8765    11.5155    15.9599    93.6431     7.7815     2.3735     0.1885     0.1993
  472.5000   -45.8175    11.4229    15.0602    93.2076     7.7614     2.3884     0.1735     0.1972
  473.0000   -45.7633    11.3311    14.8262    92.8755     7.7366     2.4261     0.1545     0.1858
  473.5000   -45.7085    11.2468    14.8262    92.8158     7.7116     2.4456     0.1355     0.1670
  474.0000   -45.6952    11.2199    14.6815    92.7515     7.6992     2.4643     0.1200     0.1101
  474.5000   -45.9548    11.1893    14.4221    92.6873     7.6992     2.4750     0.1271     0.0619
  475.0000   -46.2209    11.1588    14.4221    92.6246     7.6992     2.4553     0.1430     0.0607
  475.5000   -46.2842    11.0325    14.3711    92.5616     7.7040     2.4214     0.1590     0.0592
  476.0000   -46.2860    10.8400    14.1589    92.3833     7.7208     2.3997     0.1675     0.0549
  476.5000   -46.2839    10.8400    14.3627    91.2727     7.7375     2.3991     0.1705     0.0488
  477.0000   -46.5535    10.8400    14.5556    90.1486     7.7316     2.3994     0.1709     0.0463
  477.5000   -47.1693    10.8400    13.3744    89.0257     7.7210     2.3997     0.1709     0.0457
  478.0000   -47.9117    10.8400    13.3056    87.9018     7.7102     2.4069     0.1643     0.0452
  478.5000   -47.9733    10.6494    13.0502    86.9063     7.6995     2.4178     0.1565     0.0447
  479.0000   -48.0592    10.4854    12.6774    86.9939     7.6888     2.4258     0.1549     0.0442
  479.5000   -48.2744    10.2579    12.7841    88.7274     7.6807     2.4302     0.1506     0.0436
  480.0000   -48.7814    10.2925    12.9124    91.9868     7.6932     2.4382     0.1455     0.0431
  480.5000   -49.0965    10.3577    12.8488    94.8854     7.7060     2.4448     0.1405     0.0427
  481.0000   -49.2457    10.4479    12.7364    94.9236     7.7187     2.4445     0.1388     0.0404
  481.5000   -49.4339    10.4086    12.6255    94.4344     7.7314     2.4441     0.1399     0.0378
  482.0000   -49.6394    10.3433    12.5605    92.9302     7.7441     2.4411     0.1441     0.0353
  482.5000   -49.4244    10.2784    12.5948    90.5850     7.7568     2.4370     0.1486     0.0344
  483.0000   -49.2950    10.2139    12.6227    88.4981     7.7696     2.4349     0.1501     0.0341
  483.5000   -49.1480    10.1498    12.6506    88.9016     7.7823     2.4357     0.1499     0.0338
  484.0000   -49.1216    10.0861    12.6774    92.7959     7.7953     2.4364     0.1489     0.0335
  484.5000   -49.1772    10.0228    12.3501    96.7353     7.7927     2.4372     0.1479     0.0332
  485.0000   -49.2301     9.9600    11.9737    98.6985     7.7841     2.4380     0.1474     0.0329
  485.5000   -49.2661     9.8975    11.7769    98.7186     7.7754     2.4379     0.1477     0.0327
  486.0000   -50.1236     9.8354    11.7972   100.4083     7.7666     2.4378     0.1480     0.0324
  486.5000   -51.0757     9.7736    11.8134   103.3867     7.7591     2.4419     0.1436     0.0321
  487.0000   -52.0236     9.7057    11.8295   103.7201     7.7783     2.4473     0.1376     0.0318
  487.5000   -52.3530     9.7127    11.8456   103.1195     7.8001     2.4521     0.1348     0.0316
  488.0000   -52.6634     9.7231    11.8619   102.8402     7.8218     2.4506     0.1370     0.0313
  488.5000   -53.2006     9.7334    11.8858   103.1187     7.8433     2.4480     0.1398     0.0310
  489.0000   -52.8003     9.7437    11.8084   103.2894     7.8571     2.4479     0.1416     0.0307
  489.5000   -52.0724     9.7540    11.6581   100.8681     7.8505     2.4490     0.1405     0.0309
  490.0000   -51.9263     9.7643    11.5628    99.8036     7.8442     2.4521     0.1365     0.0320
  490.5000   -52.0492     9.7745    11.6273   100.9184     7.8386     2.4609     0.1325     0.0330
  491.0000   -52.1780     9.7846    11.6765   101.7160     7.8450     2.4738     0.1258     0.0341
  491.5000   -52.3055     9.7947    11.7259   101.5841     7.8540     2.4807     0.1168     0.0345
  492.0000   -52.4305     9.7407    11.7769   101.5196     7.8631     2.4787     0.1195     0.0345
  492.5000   -52.4698     9.7062    11.7769   100.4010     7.8721     2.4722     0.1240     0.0345
  493.0000   -52.2124     9.7157    11.7769    99.2810     7.8769     2.4699     0.1251     0.0346
  493.5000   -51.9582     9.7228    11.7769    99.2957     7.8705     2.4700     0.1249     0.0369
  494.0000   -51.7056     9.7299    11.7769    98.6327     7.8644     2.4702     0.1248     0.0425
  494.5000   -51.5029     9.7371    11.7769    97.4782     7.8583     2.4597     0.1322     0.0481
  495.0000   -51.6244     9.7443    11.7769    97.4998     7.8521     2.4473     0.1389     0.0537
  495.5000   -51.9157     9.7515    11.7773    97.5522     7.8460     2.4412     0.1436     0.0553
  496.0000   -52.2087     9.7587    11.7767    97.6116     7.8399     2.4405     0.1434     0.0561
  496.5000   -52.2259     9.7659    11.7362    97.6706     7.8337     2.4401     0.1432     0.0577
  497.0000   -52.1024     9.7731    11.5698    97.7200     7.8276     2.4376     0.1450     0.0602
  497.5000   -51.9759     9.7802    11.4057    97.7600     7.8215     2.4327     0.1500     0.0625
  498.0000   -51.9061     9.7874    11.3503    97.7997     7.8154     2.4344     0.1513     0.0615
  498.5000   -51.9001     9.7974    11.3507    97.8389     7.8092     2.4421     0.1436     0.0608
  499.0000   -52.1677     9.7407    11.3509    97.8818     7.8031     2.4463     0.1420     0.0647
  499.5000   -52.4641     9.6605    11.3509    98.0874     7.7987     2.4474     0.1377     0.0686
  500.0000   -52.7633     9.5809    11.3515    98.7558     7.7988     2.4554     0.1337     0.0702
  500.5000   -52.9101     9.5020    11.2919    99.5403     7.7988     2.4657     0.1287     0.0693
  501.0000   -52.9148     9.4237    11.1771   104.2502     7.7988     2.4762     0.1229     0.0671
  501.5000   -52.8703     9.3547    11.0628   105.4906     7.7988     2.4867     0.1170     0.0548
  502.0000   -52.3559     9.3359    10.9497   105.8876     7.7984     2.4977     0.1111     0.0424
  502.5000   -52.2565     9.3154    10.8382   106.1475     7.8158     2.4990     0.1100     0.0345
