~VERSION INFORMATION
 VERS.                2.0:   CWLS LOG ASCII STANDARD - VERSION 2.0
 WRAP.                 NO:   ONE LINE PER DEPTH STEP
~WELL INFORMATION
#MNEM.UNIT      DATA TYPE    INFORMATION
#----------   ------------   ------------------------------
 STRT.F            0.0000:   START DEPTH
 STOP.F         2182.0000:   STOP DEPTH
 STEP.F            0.1000:   STEP LENGTH
 NULL.          -999.2500:   NO VALUE
 COMP.       FLUOR DANIEL:   COMPANY
 WELL.   75-1 X 29 #75-29:   WELL
 FLD .             TEAPOT:   FIELD
 LOC .      S29 T39N R78W:   LOCATION
 CNTY.            NATRONA:   COUNTY
 STAT.            WYOMING:   STATE
 CTRY. UNITED STATES OF AMERICA:   COUNTRY
 SRVC.      Western Atlas:   SERVICE COMPANY
 DATE.        10-MAY-1996:   LOGDATE
 API .       490252279100:   API NUMBER
~CURVE INFORMATION
#MNEM.UNIT       API CODE    CURVE DESCRIPTION
#----------   ------------   ------------------------------
 DEPT.F                  :   
 GRR .GAPI   07 310 01 00:   GAMMA RAY
 RFOC.OHMM   07 220 04 00:   RESISTIVITY FOCUSED LOG
 RILD.OHMM   07 120 46 00:   INDUCTION LOG DEEP RESISTIVITY
 RILM.OHMM   07 120 44 00:   INDUCTION LOG MEDIUM RESISTIVITY
~PARAMETER INFORMATION
#MNEM.UNIT          VALUE    DESCRIPTION
#----------   ------------   ------------------------------
 PD  .                 GL:   PERMANENT DATUM
 EPD .F              5031:   ELEVATION PERMANENT DATUM
 LMF .                 KB:   LOG MEASURED FROM
 DAPD.F                10:   FEET ABOVE PERMANENT DATUM
 DMF .                 KB:   DRILLING MEASURED FROM
 EKB .F              5041:   KELLING BUSHING
 EDF .F              5040:   DRILLING FLOOR
 EGL .F              5031:   GROUND LEVEL
 DATE.        10-MAY-1996:   RUN DATE
 RUN .                  1:   RUN NUMBER
 DD  .F              2188:   DEPTH DRILLER
 DL  .F              2184:   DEPTH LOGGER
 BLI .F              2182:   BOTTOM LOG INTERVAL
 TLI .F               400:   TOP LOG INTERVAL
 CS  .IN                7:   CASING SIZE
 CBD .F               400:   CASING BOTTOM DRILLER
 CBL .F               400:   CASING BOTTOM LOGGER
 BS  .IN             6.25:   BIT SIZE
 BSD .F              2188:   BIT SIZE AT DEPTH
 DFT .                AIR:   DRILLING FLUID TYPE
 MRT .F                97:   MAXIMUM RECORDED TEMPERATURE
 LUN .            HL-6530:   LOGGING UNIT NUMBER
 LUL .             CASPER:   LOGGING UNIT LOCATION
 ENGI.           BROWNLOW:   RECORDING ENGINEER
 WITN.             LEBEAU:   WITNESSED BY
 CLNT.            A2DTECH:   CLIENT CODE
 ORIG.           5" PRINT:   ORIGIN OF DATA
 UWI .       490252279100:   UNIQUE WELL ID
 DICO. A2D Technologies, Inc.:   DIGITIZING COMPANY
~OTHER INFORMATION
~A    DEPT      GRR      RFOC       RILD       RILM   
# ...
 2160.8000  -999.2500     5.3147     4.4395     4.2382
 2160.9000  -999.2500     5.1349     4.4650     4.3223
 2161.0000  -999.2500     4.9830     4.4918     4.3888
 2161.1000  -999.2500     4.8412     4.5418     4.4305
 2161.2000  -999.2500     4.6928     4.5944     4.4691
 2161.3000  -999.2500     4.5478     4.6476     4.5212
 2161.4000  -999.2500     4.4695     4.6919     4.5741
 2161.5000  -999.2500     4.4694     4.7151     4.6318
 2161.6000  -999.2500     4.5531     4.7151     4.6817
 2161.7000  -999.2500     4.6430     4.7405     4.7163
 2161.8000  -999.2500     4.7240     4.7479     4.7588
 2161.9000  -999.2500     4.8063     4.7479     4.8143
 2162.0000  -999.2500     4.8899     4.7479     4.8706
 2162.1000  -999.2500     4.9752     4.7479     4.9293
 2162.2000  -999.2500     5.0622     4.7479     4.9851
 2162.3000  -999.2500     5.2051     4.7479     5.0434
 2162.4000  -999.2500     5.4139     4.7479     5.0849
 2162.5000  -999.2500     5.7109     4.7479     5.1027
 2162.6000  -999.2500     6.1872     4.7479     5.1087
 2162.7000  -999.2500     6.5395     4.7479     5.1380
 2162.8000  -999.2500     6.8518     4.7479     5.1379
 2162.9000  -999.2500     7.2076     4.7479     5.1378
 2163.0000  -999.2500     7.4943     4.7479     5.1188
 2163.1000  -999.2500     7.6950     4.7349     5.0891
 2163.2000  -999.2500     7.8288     4.7077     5.0522
 2163.3000  -999.2500     7.9929     4.6807     4.9936
 2163.4000  -999.2500     8.0670     4.6502     4.9284
 2163.5000  -999.2500     8.1321     4.6043     4.8540
 2163.6000  -999.2500     8.1790     4.5346     4.7699
 2163.7000  -999.2500     8.2261     4.4570     4.6874
 2163.8000  -999.2500     8.2735     4.3869     4.5985
 2163.9000  -999.2500     8.2733     4.3355     4.4952
 2164.0000  -999.2500     8.2732     4.2496     4.4111
 2164.1000  -999.2500     8.2730     4.2088     4.3178
 2164.2000  -999.2500     8.2348     4.1607     4.2363
 2164.3000  -999.2500     8.1216     4.1232     4.1630
 2164.4000  -999.2500     7.9354     4.0942     4.0829
 2164.5000  -999.2500     7.6226     4.0478     3.9959
 2164.6000  -999.2500     7.2886     4.0204     3.9481
 2164.7000  -999.2500     6.9133     3.9828     3.8603
 2164.8000  -999.2500     6.5538     3.9511     3.7379
 2164.9000  -999.2500     6.2170     3.9193     3.6342
 2165.0000  -999.2500     5.7302     3.8744     3.5506
 2165.1000  -999.2500     5.4419     3.8300     3.4687
 2165.2000  -999.2500     5.2140     3.7649     3.3884
 2165.3000  -999.2500     4.9571     3.6839     3.2745
 2165.4000  -999.2500     4.6890     3.6242     3.1972
 2165.5000  -999.2500     4.4317     3.5828     3.1398
 2165.6000  -999.2500     4.1087     3.5418     3.0956
 2165.7000  -999.2500     3.7814     3.5000     3.0508
 2165.8000  -999.2500     3.6618     3.4612     3.0341
 2165.9000  -999.2500     3.5775     3.4216     3.0341
 2166.0000  -999.2500     3.5527     3.3933     3.0340
 2166.1000  -999.2500     3.5526     3.3670     3.0340
 2166.2000  -999.2500     3.5525     3.3256     3.0427
 2166.3000  -999.2500     3.5320     3.2657     3.0550
 2166.4000  -999.2500     3.5278     3.2303     3.0570
 2166.5000  -999.2500     3.5278     3.1664     3.0761
 2166.6000  -999.2500     3.5277     3.1134     3.0761
 2166.7000  -999.2500     3.5276     3.0778     3.0760
 2166.8000  -999.2500     3.5275     3.0448     3.0857
 2166.9000  -999.2500     3.5519     3.0260     3.0974
 2167.0000  -999.2500     3.5518     3.0100     3.0973
 2167.1000  -999.2500     3.5641     3.0051     3.0973
 2167.2000  -999.2500     3.6798     3.0051     3.0972
 2167.3000  -999.2500     3.8998     3.0051     3.0972
 2167.4000  -999.2500     3.9677     3.0051     3.0972
 2167.5000  -999.2500     4.0137     3.0051     3.0971
 2167.6000  -999.2500     4.1172     3.0051     3.0934
 2167.7000  -999.2500     4.3446     3.0051     3.0756
 2167.8000  -999.2500     4.6334     3.0051     3.0756
 2167.9000  -999.2500     4.8899     3.0051     3.0608
 2168.0000  -999.2500     5.0903     3.0051     3.0431
 2168.1000  -999.2500     5.2331     3.0051     3.0254
 2168.2000  -999.2500     5.2573     3.0051     3.0078
 2168.3000  -999.2500     5.2876     3.0051     2.9903
 2168.4000  -999.2500     5.3058     3.0051     2.9707
 2168.5000  -999.2500     5.2818     3.0051     2.9706
 2168.6000  -999.2500     5.1606     3.0051     2.9589
 2168.7000  -999.2500     4.9163     3.0051     2.9501
 2168.8000  -999.2500     4.7397     3.0051     2.9500
 2168.9000  -999.2500     4.5107     2.9940     2.9500
 2169.0000  -999.2500     4.3107     2.9843     2.9499
 2169.1000  -999.2500     4.1730     2.9843     2.9499
 2169.2000  -999.2500     4.0774     2.9843     2.9498
 2169.3000  -999.2500     4.0538     2.9843     2.9498
 2169.4000  -999.2500     4.0678     2.9702     2.9498
 2169.5000  -999.2500     4.1200     2.9637     2.9497
 2169.6000  -999.2500     4.1918     2.9637     2.9497
 2169.7000  -999.2500     4.2648     2.9637     2.9496
 2169.8000  -999.2500     4.3390     2.9637     2.9496
 2169.9000  -999.2500     4.4147     2.9637     2.9496
 2170.0000  -999.2500     4.4710     2.9637     2.9495
 2170.1000  -999.2500     4.5071     2.9637     2.9495
 2170.2000  -999.2500     4.5227     2.9637     2.9494
 2170.3000  -999.2500     4.5226     2.9637     2.9494
 2170.4000  -999.2500     4.5224     2.9637     2.9493
 2170.5000  -999.2500     4.4705     2.9805     2.9493
 2170.6000  -999.2500     4.3788     2.9843     2.9493
 2170.7000  -999.2500     4.2069     2.9843     2.9536
 2170.8000  -999.2500     3.9249     2.9843     2.9697
 2170.9000  -999.2500     3.5905     2.9843     2.9696
 2171.0000  -999.2500     3.4278     2.9843     2.9847
 2171.1000  -999.2500     3.3498     3.0009     2.9902
 2171.2000  -999.2500     3.2883     3.0051     2.9988
 2171.3000  -999.2500     3.2208     3.0051     3.0162
 2171.4000  -999.2500     3.1908     3.0111     3.0318
 2171.5000  -999.2500     3.2392     3.0260     3.0317
 2171.6000  -999.2500     3.3337     3.0260     3.0480
 2171.7000  -999.2500     3.4750     3.0260     3.0657
 2171.8000  -999.2500     3.5567     3.0260     3.0835
 2171.9000  -999.2500     3.6479     3.0260     3.1015
 2172.0000  -999.2500     3.7507     3.0260     3.1225
 2172.1000  -999.2500     3.8825     3.0260     3.1601
 2172.2000  -999.2500     4.0186     3.0260     3.1779
 2172.3000  -999.2500     4.3084     3.0260     3.2109
 2172.4000  -999.2500     4.5749     3.0260     3.2485
 2172.5000  -999.2500     4.8297     3.0260     3.2788
 2172.6000  -999.2500     5.0508     3.0260     3.2979
 2172.7000  -999.2500     5.2098     3.0276     3.3174
 2172.8000  -999.2500     5.3004     3.0470     3.3630
 2172.9000  -999.2500     5.3371     3.0941     3.3955
 2173.0000  -999.2500     5.3370     3.1480     3.4351
 2173.1000  -999.2500     5.3369     3.1939     3.4662
 2173.2000  -999.2500     5.3245     3.2258     3.4969
 2173.3000  -999.2500     5.2937     3.2431     3.5569
 2173.4000  -999.2500     5.2630     3.2431     3.6038
 2173.5000  -999.2500     5.1192     3.2431     3.6406
 2173.6000  -999.2500     5.0259     3.2431     3.6832
 2173.7000  -999.2500     4.8945     3.2431     3.7262
 2173.8000  -999.2500     4.7658     3.2431     3.7698
 2173.9000  -999.2500     4.6311     3.2431     3.8163
 2174.0000  -999.2500     4.3953     3.2431     3.8888
 2174.1000  -999.2500     4.0802     3.2431     3.9519
 2174.2000  -999.2500     4.0167     3.2431     4.0214
 2174.3000  -999.2500     4.1311     3.2431     4.0921
 2174.4000  -999.2500     4.3157     3.2431     4.1555
 2174.5000  -999.2500     4.4823     3.2431     4.2041
 2174.6000  -999.2500     4.6131     3.2431     4.2547
 2174.7000  -999.2500     4.8085     3.2431     4.3274
 2174.8000  -999.2500     4.9675     3.2431     4.3637
 2174.9000  -999.2500     5.1358     3.1986     4.4041
 2175.0000  -999.2500     5.3110     2.8039     4.4556
 2175.1000  -999.2500     5.5295  -999.2500     4.5022
 2175.2000  -999.2500     5.7566  -999.2500     4.5288
 2175.3000  -999.2500     6.0647  -999.2500     4.5911
