~VERSION INFORMATION
 VERS.                2.0:   CWLS LOG ASCII STANDARD - VERSION 2.0
 WRAP.                 NO:   ONE LINE PER DEPTH STEP
~WELL INFORMATION
#MNEM.UNIT      DATA TYPE    INFORMATION
#----------   ------------   ------------------------------
 STRT.F            0.0000:   START DEPTH
 STOP.F          547.0000:   STOP DEPTH
 STEP.F            0.1000:   STEP LENGTH
 NULL.          -999.2500:   NO VALUE
 COMP.     BROWN JOHN E&C:   COMPANY
 WELL.    NPR 3 #86-1-X-3:   WELL
 FLD .             TEAPOT:   FIELD
 LOC .       S3 T38N R78W:   LOCATION
 CNTY.            NATRONA:   COUNTY
 STAT.            WYOMING:   STATE
 CTRY. UNITED STATES OF AMERICA:   COUNTRY
 SRVC.     Atlas Wireline:   SERVICE COMPANY
 DATE.        09-FEB-1992:   LOGDATE
 API .       490252249800:   API NUMBER
~CURVE INFORMATION
#MNEM.UNIT       API CODE    CURVE DESCRIPTION
#----------   ------------   ------------------------------
 DEPT.F                  :   
 GRR .GAPI   07 310 01 00:   GAMMA RAY
 RFOC.OHMM   07 220 04 00:   RESISTIVITY FOCUSED LOG
 RILD.OHMM   07 120 46 00:   INDUCTION LOG DEEP RESISTIVITY
 RILM.OHMM   07 120 44 00:   INDUCTION LOG MEDIUM RESISTIVITY
 SPR .MV     07 010 01 00:   SPONTANEOUS POTENTIAL
~PARAMETER INFORMATION
#MNEM.UNIT          VALUE    DESCRIPTION
#----------   ------------   ------------------------------
 PD  .                 GL:   PERMANENT DATUM
 EPD .F              5145:   ELEVATION PERMANENT DATUM
 LMF .                 KB:   LOG MEASURED FROM
 DAPD.F                10:   FEET ABOVE PERMANENT DATUM
 DMF .                 KB:   DRILLING MEASURED FROM
 EKB .F              5155:   KELLING BUSHING
 EDF .F              5154:   DRILLING FLOOR
 EGL .F              5145:   GROUND LEVEL
 DATE.        09-FEB-1992:   RUN DATE
 RUN .                  1:   RUN NUMBER
 DD  .F               562:   DEPTH DRILLER
 DL  .F               550:   DEPTH LOGGER
 BLI .F               547:   BOTTOM LOG INTERVAL
 CS  .IN            8.625:   CASING SIZE
 CBD .F               183:   CASING BOTTOM DRILLER
 CBL .F               181:   CASING BOTTOM LOGGER
 BS  .IN            7.875:   BIT SIZE
 BSD .F               562:   BIT SIZE AT DEPTH
 DFT .            GEL BAR:   DRILLING FLUID TYPE
 DFD .               17.8:   DRILLING FLUID DENSITY
 DFV .                 52:   DRILLING FLUID VISCOSITY
 DFPH.                  9:   DRILLING FLUID PH
 DFL .                5.2:   DRILLING FLUID LOSS
 MSS .           FLOWLINE:   MUD SAMPLE SOURCE
 RMS .OHMM           1.78:   RESISTIVITY MUD SAMPLE
 MST .F                68:   MUD SAMPLE TEMPERATURE
 RMF .OHMM          1.335:   RESISTIVITY MUD FILTRATE SAMPLE
 MFST.F                68:   MUD FILTRATE SAMPLE TEMPERATURE
 RMC .OHMM          2.225:   RESISTIVITY MUD CAKE
 MCST.F                68:   MUD CAKE SAMPLE TEMPERATURE
 MFSS.               MEAS:   MUD FILTRATE SAMPLE SOURCE
 MCSS.               MEAS:   MUD CAKE SAMPLE SOURCE
 TCS .HRS               3:   TIME CURCULATED STOPPED
 LUN .            HL 6274:   LOGGING UNIT NUMBER
 LUL .             CASPER:   LOGGING UNIT LOCATION
 ENGI.       P. RASMUSSEN:   RECORDING ENGINEER
 WITN.          G. STRONG:   WITNESSED BY
 CLNT.            A2DTECH:   CLIENT CODE
 ORIG.           5" PRINT:   ORIGIN OF DATA
 UWI .       490252249800:   UNIQUE WELL ID
 DICO. A2D Technologies, Inc.:   DIGITIZING COMPANY
~OTHER INFORMATION
~A    DEPT      GRR      RFOC       RILD       RILM        SPR   
# ...
  488.0000    84.7421    10.6397    12.3764    11.3916   -30.0211
  488.1000    84.9961    10.5503    12.3646    11.3168   -30.0451
  488.2000    84.7481    10.5456    12.2926    11.2591   -30.1744
  488.3000    84.4978    10.4762    12.2938    11.2369   -30.2980
  488.4000    84.3946    10.4234    12.2399    11.2060   -30.4245
  488.5000    84.3952    10.3628    12.1303    11.1575   -30.5510
  488.6000    84.3958    10.3026    11.9915    11.1496   -30.6317
  488.7000    84.3964    10.2577    11.8431    11.0014   -30.6329
  488.8000    84.3970    10.2603    11.6311    10.9468   -30.6341
  488.9000    84.5930    10.3290    11.4401    10.8829   -30.6353
  489.0000    84.8446    10.3795    11.3423    10.8194   -30.6365
  489.1000    85.0021    10.4009    11.2419    10.7563   -30.6377
  489.2000    85.0027    10.4006    11.1578    10.6935   -30.6824
  489.3000    85.0033    10.4142    11.1497    10.6203   -30.7909
  489.4000    85.0039    10.4730    11.0824    10.5691   -30.7922
  489.5000    84.8115    10.4727    11.0834    10.5075   -30.9110
  489.6000    84.5611    10.5224    11.0845    10.4461   -30.9454
  489.7000    84.4024    10.5456    11.0855    10.3852   -30.9466
  489.8000    84.3210    10.5453    11.1078    10.3250   -30.9478
  489.9000    83.8003    10.5450    11.1655    10.3243   -30.9490
  490.0000    83.8009    10.5447    11.1666    10.2760   -30.9503
  490.1000    83.8015    10.5444    11.1676    10.2515   -30.9514
  490.2000    83.8021    10.5441    11.1687    10.2509   -30.9526
  490.3000    83.8920    10.5438    11.2031    10.2503   -30.9538
  490.4000    84.1436    10.5200    11.2695    10.2497   -30.9551
  490.5000    84.4073    10.4698    11.3293    10.2492   -30.9563
  490.6000    84.6467    10.4695    11.3305    10.2025   -30.9576
  490.7000    84.8983    10.4101    11.3315    10.1767   -30.9587
  490.8000    85.1499    10.3960    11.3326    10.1761   -31.0472
  490.9000    85.4015    10.3617    11.3337    10.1659   -31.1119
  491.0000    85.6893    10.3015    11.3348    10.1042   -31.1131
  491.1000    86.2208    10.2509    11.3359    10.1036   -31.1143
  491.2000    86.4579    10.2506    11.3372    10.0590   -31.1157
  491.3000    86.7095    10.2503    11.3963    10.0322   -31.1167
  491.4000    86.9611    10.2500    11.4188    10.0317   -31.2028
  491.5000    87.2127    10.2497    11.4199    10.0230   -31.2700
  491.6000    87.4305    10.2294    11.4210     9.9607   -31.2712
  491.7000    87.4311    10.1778    11.4221     9.9602   -31.2724
  491.8000    87.6658    10.1775    11.4234     9.9176   -31.2738
  491.9000    87.9174    10.1226    11.4243     9.8898   -31.2748
  492.0000    88.1690    10.1060    11.4255     9.8709   -31.2760
  492.1000    88.4205    10.1058    11.4266     9.8132   -31.2772
  492.2000    88.6407    10.1055    11.4277     9.7509   -31.2784
  492.3000    88.6414    10.1052    11.4288     9.7504   -31.2796
  492.4000    88.6419    10.1049    11.4301     9.7101   -31.2810
  492.5000    88.6425    10.1046    11.4311     9.6815   -31.1765
  492.6000    88.6431    10.1043    11.4322     9.6643   -31.0524
  492.7000    88.6437    10.1041    11.4333     9.6131   -30.9828
  492.8000    88.6154    10.1038    11.4191     9.6125   -30.9551
  492.9000    88.3433    10.0986    11.3559     9.5627   -30.8310
  493.0000    88.1146    10.0328    11.3572     9.5069   -30.6850
  493.1000    87.6857     9.9816    11.3581     9.4776   -30.6860
  493.2000    87.4401     9.9624    11.3185     9.4771   -30.6872
  493.3000    87.4407     9.9622    11.2812     9.4766   -30.6884
  493.4000    87.4413     9.9619    11.2685     9.4760   -30.6365
  493.5000    87.4420     9.9581    11.2048     9.4755   -30.3891
  493.6000    87.4425     9.8919    11.2062     9.4389   -30.3906
  493.7000    87.7955     9.8917    11.1549     9.4085   -30.3916
  493.8000    88.0471     9.8542    11.1301     9.3945   -30.3928
  493.9000    88.0477     9.8222    11.1057     9.3420   -30.3940
  494.0000    88.0724     9.8220    11.0545     9.3414   -30.3952
  494.1000    88.3506     9.8279    11.0558     9.3410   -30.3964
  494.2000    88.3511     9.8903    10.9937     9.3062   -30.2737
  494.3000    88.5255     9.8654    10.9311     9.2749   -30.2480
  494.4000    88.6540     9.8209    10.9056     9.2744   -30.2492
  494.5000    88.6546     9.8183    10.8829     9.2728   -30.2504
  494.6000    88.6335     9.6840    10.8209     9.2087   -30.2516
  494.7000    88.3542     9.6838    10.7574     9.2083   -30.2528
  494.8000    88.3548     9.6493    10.6981     9.2078   -30.2540
  494.9000    88.3554     9.5932    10.6372     9.1857   -30.2552
  495.0000    88.2353     9.5375    10.5767     9.1427   -30.2564
  495.1000    88.0549     9.4818    10.5165     9.1422   -30.3025
  495.2000    88.0168     9.4269    10.4382     9.0891   -30.4097
  495.3000    87.4529     9.3722    10.2499     9.0776   -30.4109
  495.4000    87.4534     9.3177    10.1945     9.0463   -30.4121
  495.5000    87.4540     9.2840    10.0495     8.9936   -30.4133
  495.6000    87.4546     9.2649     9.9079     8.9411   -30.4145
  495.7000    87.4552     9.1547     9.7944     8.8874   -30.4157
  495.8000    87.4558     9.1544     9.6747     8.8869   -30.4169
  495.9000    87.4565     9.1136     9.4971     8.8471   -30.4182
  496.0000    87.4570     9.0606     9.3456     8.8241   -30.3027
  496.1000    87.4576     9.0266     9.2627     8.8054   -30.2697
  496.2000    87.4582     9.0264     9.2100     8.7540   -30.2709
  496.3000    87.4588     9.0261     9.1576     8.7002   -30.2721
  496.4000    87.4594     8.9764     9.1114     8.6521   -30.2733
  496.5000    87.4601     8.9243     9.1125     8.6387   -30.2746
  496.6000    87.4606     8.9001     9.1133     8.6114   -30.1615
  496.7000    87.6253     8.8998     9.1142     8.5777   -30.1261
  496.8000    87.8769     8.8996     9.1151     8.5708   -30.1273
  496.9000    88.0658     8.8993     9.1002     8.5170   -30.1285
  497.0000    88.0664     8.8516     9.0533     8.4711   -30.1297
  497.1000    88.0671     8.8369     9.0544     8.4568   -30.1310
  497.2000    88.2800     8.8104     9.0084     8.4312   -30.1321
  497.3000    88.5315     8.7748     8.9930     8.3970   -30.0471
  497.4000    88.7831     8.7746     8.9687     8.3915   -29.9837
  497.5000    89.1552     8.7743     8.9321     8.3376   -29.9849
  497.6000    89.8992     8.7285     8.9290     8.3372   -29.9765
  497.7000    90.4840     8.6778     8.8718     8.2701   -29.8367
  497.8000    91.3245     8.6518     8.8277     8.1974   -29.8377
  497.9000    92.3289     8.6516     8.7436     8.1230   -29.8389
  498.0000    93.1161     8.6474     8.4353     7.9823   -29.8401
  498.1000    93.7344     8.5908     7.9727     7.8271   -29.8413
  498.2000    94.7318     8.5472     7.5114     7.6701   -29.8353
  498.3000    95.6158     8.5306     7.0138     7.4369   -29.6931
  498.4000    96.2389     8.5303     6.5848     7.1262   -29.6941
  498.5000    96.9925     8.5172     6.3232     6.7627   -29.6953
  498.6000    97.7461     8.4677     6.1432     6.4291   -29.6965
  498.7000    98.4440     8.4112     5.9763     6.3015   -29.6977
  498.8000    98.9467     8.4110     5.8393     6.0889   -29.6989
  498.9000    99.5410     8.3793     5.7201     5.9336   -29.7003
  499.0000    99.9518     8.3306     5.6541     5.8162   -29.8059
  499.1000   100.1454     8.2936     5.5774     5.6825   -29.8534
  499.2000   100.1460     8.2903     5.5510     5.5516   -29.8546
  499.3000   100.0405     8.1780     5.5190     5.4024   -29.8558
  499.4000    99.5340     8.1778     5.5003     5.3507   -29.8570
  499.5000    98.3380     8.1189     5.5004     5.2887   -29.8584
  499.6000    97.3247     8.0250     5.5005     5.2400   -29.8594
  499.7000    96.0705     7.9419     5.5006     5.2095   -29.8606
  499.8000    94.5123     7.8950     5.5006     5.1791   -29.8618
  499.9000    92.7078     7.7320     5.5007     5.1429   -29.8630
  500.0000    91.7044     7.6603     5.5008     5.1427   -29.8643
  500.1000    91.2031     7.5457     5.5009     5.1587   -29.7401
