~VERSION INFORMATION
 VERS.                2.0:   CWLS LOG ASCII STANDARD - VERSION 2.0
 WRAP.                 NO:   ONE LINE PER DEPTH STEP
~WELL INFORMATION
#MNEM.UNIT      DATA TYPE    INFORMATION
#----------   ------------   ------------------------------
 STRT.F            0.0000:   START DEPTH
 STOP.F         4113.0000:   STOP DEPTH
 STEP.F            0.5000:   STEP LENGTH
 NULL.          -999.2500:   NO VALUE
 COMP. LAWRENCE/ALLISON INC:   COMPANY
 WELL.  NPR # #3 76 -MX-3:   WELL
 FLD .             TEAPOT:   FIELD
 LOC .       S3 T38N R78W:   LOCATION
 CNTY.            NATRONA:   COUNTY
 STAT.            WYOMING:   STATE
 CTRY. UNITED STATES OF AMERICA:   COUNTRY
 SRVC.      Dresser Atlas:   SERVICE COMPANY
 DATE.        04-SEP-1983:   LOGDATE
 API .       490251094300:   API NUMBER
~CURVE INFORMATION
#MNEM.UNIT       API CODE    CURVE DESCRIPTION
#----------   ------------   ------------------------------
 DEPT.F                  :   
 GRR .GAPI   07 310 01 00:   GAMMA RAY
 SPR .MV     07 010 01 00:   SPONTANEOUS POTENTIAL
 RILD.OHMM   07 120 46 00:   INDUCTION LOG DEEP RESISTIVITY
 RILM.OHMM   07 120 44 00:   INDUCTION LOG MEDIUM RESISTIVITY
 RFOC.OHMM   07 220 04 00:   RESISTIVITY FOCUSED LOG
 CNCF.DEC    42 890 03 00:   NEUTRON POROSITY SANDSTONE
 PORD.DEC    45 890 12 00:   POROSITY DENSITY SANDSTONE
 CALD.IN     45 280 60 00:   CALIPER FROM DENSITY LOG
 CORR.G/C3   45 356 01 00:   DENSITY CORRECTION
 DEN .G/C3   45 350 01 00:   COMPENSATED BULK DENSTIY
 AC  .US/F   60 520 00 00:   ACCOUSTIC
~PARAMETER INFORMATION
#MNEM.UNIT          VALUE    DESCRIPTION
#----------   ------------   ------------------------------
 PD  .                 GL:   PERMANENT DATUM
 EPD .F              5147:   ELEVATION PERMANENT DATUM
 LMF .                 KB:   LOG MEASURED FROM
 DAPD.F                10:   FEET ABOVE PERMANENT DATUM
 DMF .                 KB:   DRILLING MEASURED FROM
 EKB .F              5157:   KELLING BUSHING
 EGL .F              5147:   GROUND LEVEL
 DATE.        04-SEP-1983:   RUN DATE
 RUN .                  1:   RUN NUMBER
 DD  .F              4119:   DEPTH DRILLER
 DL  .F              4115:   DEPTH LOGGER
 BLI .F              4112:   BOTTOM LOG INTERVAL
 CS  .IN            9.625:   CASING SIZE
 CBD .F               491:   CASING BOTTOM DRILLER
 CBL .F               494:   CASING BOTTOM LOGGER
 BS  .IN             8.75:   BIT SIZE
 BSD .F              4119:   BIT SIZE AT DEPTH
 DFT .            KCL GEL:   DRILLING FLUID TYPE
 DFD .                8.9:   DRILLING FLUID DENSITY
 DFV .                 46:   DRILLING FLUID VISCOSITY
 DFPH.                9.0:   DRILLING FLUID PH
 DFL .               13.6:   DRILLING FLUID LOSS
 MSS .           MUD TANK:   MUD SAMPLE SOURCE
 RMS .OHMM           .315:   RESISTIVITY MUD SAMPLE
 MST .F                92:   MUD SAMPLE TEMPERATURE
 RMF .OHMM            .25:   RESISTIVITY MUD FILTRATE SAMPLE
 MFST.F                84:   MUD FILTRATE SAMPLE TEMPERATURE
 RMC .OHMM             .4:   RESISTIVITY MUD CAKE
 MCST.F                92:   MUD CAKE SAMPLE TEMPERATURE
 MFSS.               MEAS:   MUD FILTRATE SAMPLE SOURCE
 MCSS.               CALC:   MUD CAKE SAMPLE SOURCE
 RMB .OHMM            .22:   RESISTIVITY MUD AT BHT
 BHT .F               132:   BOTTOM HOLE TEMPERATURE
 TCS .HRS               4:   TIME CURCULATED STOPPED
 MRT .F               132:   MAXIMUM RECORDED TEMPERATURE
 LUN .               6274:   LOGGING UNIT NUMBER
 LUL .              GLTE.:   LOGGING UNIT LOCATION
 ENGI.             RAUTIO:   RECORDING ENGINEER
 WITN.             STRONG:   WITNESSED BY
 CLNT.            A2DTECH:   CLIENT CODE
 ORIG.        2" 5" PRINT:   ORIGIN OF DATA
 UWI .       490251094300:   UNIQUE WELL ID
 DICO. A2D Technologies, Inc.:   DIGITIZING COMPANY
~OTHER INFORMATION
~A    DEPT     GRR        SPR       RILD       RILM       RFOC       CNCF       PORD       CALD       CORR        DEN         AC   
# ...
 3599.0000   139.5104   -38.5430     5.1425     5.6881     6.6399     0.2398     0.1119     9.9710     0.0106     2.4605    87.8163
 3599.5000   136.9963   -39.3345     5.1397     5.6049     6.6857     0.2399     0.1093     9.9705     0.0211     2.4650    87.6657
 3600.0000   132.2898   -40.1454     5.1342     5.5228     6.6833     0.2411     0.1090     9.9692     0.0361     2.4683    87.9674
 3600.5000   128.8266   -41.3902     5.1110     5.5204     6.8768     0.2477     0.1084     9.9640     0.0496     2.4695    89.1742
 3601.0000   126.9363   -41.3996     5.0968     5.5178     6.9243     0.2493     0.1097     9.9588     0.0421     2.4657    89.7034
 3601.5000   131.3094   -41.4089     5.0950     5.5155     6.9721     0.2478     0.1182     9.9537     0.0209     2.4559    89.8562
 3602.0000   136.3126   -41.4183     5.0931     5.5131     6.9695     0.2503     0.1251     9.9670    -0.0077     2.4445    90.0094
 3602.5000   139.7483   -41.2686     5.0913     5.5107     6.8174     0.2536     0.1258     9.9661    -0.0228     2.4438    90.2375
 3603.0000   141.9302   -41.2803     5.1269     5.5489     6.7171     0.2512     0.1234     9.9654    -0.0123     2.4490    90.6914
 3603.5000   145.9929   -41.1306     5.1246     5.5863     6.7147     0.2537     0.1186     9.9646     0.0208     2.4588    91.3713
 3604.0000   152.5635   -40.8264     5.1227     5.6651     6.7611     0.2549     0.1120     9.9639     0.0508     2.4663    91.5993
 3604.5000   157.2532   -40.5247     5.1209     5.7038     6.9570     0.2465     0.1096     9.9630     0.0568     2.4723    91.5261
 3605.0000   157.5573   -40.3749     5.1562     5.7012     7.1587     0.2297     0.1066     9.9623     0.0538     2.4820    91.3024
 3605.5000   157.8582   -40.0708     5.1918     5.5765     7.2605     0.2238     0.0986     9.9616     0.0537     2.4880    90.9285
 3606.0000   160.9774   -40.0825     5.2276     5.4941     7.2055     0.2238     0.0956     9.9609     0.0597     2.4902    90.4688
 3606.5000   165.9805   -39.9328     5.2256     5.4522     6.9975     0.2331     0.0968     9.9600     0.0732     2.4827    90.1798
 3607.0000   171.6107   -39.9445     5.2237     5.4105     6.7464     0.2539     0.1035     9.9593     0.0717     2.4759    90.1824
 3607.5000   177.2408   -39.9538     5.2219     5.4082     6.5029     0.2552     0.1077     9.9586     0.0626     2.4705    90.4105
 3608.0000   175.0339   -39.4930     5.1451     5.4059     6.3166     0.2514     0.1071     9.9579     0.0533     2.4720    91.5521
 3608.5000   166.8710   -39.1889     4.9962     5.4035     6.3143     0.2447     0.1045     9.9571     0.0429     2.4750    91.8460
 3609.0000   160.9023   -38.5712     4.7123     5.4001     6.4080     0.2526     0.1066     9.9563     0.0368     2.4675    91.6222
 3609.5000   158.0685   -37.7969     4.3793     5.0537     6.6481     0.2566     0.1130     9.9556     0.0278     2.4622    90.7961
 3610.0000   162.7582   -37.0226     3.9528     4.3951     6.9934     0.2599     0.1160     9.9701     0.0081     2.4584    89.5181
 3610.5000   176.8523   -36.4050     3.5690     3.6133     6.9694     0.2467     0.1151     9.9842     0.0036     2.4584    88.7677
 3611.0000   188.4385   -35.6306     3.1786     3.1032     6.2921     0.2484     0.1143     9.9833     0.0366     2.4583    88.6940
 3611.5000   197.2034   -35.0130     2.9572     2.8707     4.2935     0.2585     0.1191     9.9676     0.0682     2.4538    88.9979
 3612.0000   207.2212   -34.2387     2.8328     2.8106     3.2839     0.2711     0.1303     9.9669     0.0893     2.4364    90.9579
 3612.5000   211.2840   -33.6207     2.7507     3.0054     2.9028     0.2729     0.1382     9.9662     0.0953     2.4214    93.4455
 3613.0000   203.7241   -33.4734     2.6940     3.2773     2.6605     0.2652     0.1388     9.9504     0.0982     2.4206    94.0500
 3613.5000   185.5536   -33.6398     3.0012     3.5628     3.3282     0.2688     0.1295     9.9345     0.0891     2.4356    93.9016
 3614.0000   162.6571   -33.9626     3.3680     3.8007     5.6420     0.2677     0.1157     9.9490     0.0725     2.4559    92.6236
 3614.5000   154.1838   -34.2855     3.6719     4.0839     7.2130     0.2524     0.1109     9.9330     0.0574     2.4656    89.0870
 3615.0000   161.6917   -34.6083     3.9458     4.4844     7.3161     0.2395     0.1085     9.9323     0.0453     2.4724    87.7338
 3615.5000   167.3218   -34.9311     4.2096     4.9959     7.2078     0.2365     0.1057     9.9164     0.0376     2.4769    88.1124
 3616.0000   169.5036   -34.9405     4.4586     5.3681     7.1532     0.2441     0.0981     9.9309     0.0422     2.4829    89.6959
 3616.5000   171.0585   -34.9499     4.5551     4.8493     7.2026     0.2491     0.0906     9.9300     0.0527     2.4971    89.5421
 3617.0000   173.2404   -34.9592     4.2050     4.1344     7.3056     0.2486     0.0774     9.9293     0.0587     2.5182    88.4206
 3617.5000   176.0492   -34.9687     3.8264     3.6284     7.2497     0.2484     0.0587     9.9436     0.0632     2.5415    87.7445
 3618.0000   179.4849   -34.9781     3.4819     3.2541     5.4653     0.2568     0.0518     9.9427     0.0693     2.5565    88.6507
 3618.5000   182.2937   -34.8305     3.3089     3.3724     3.8050     0.2728     0.0470     9.9420     0.0827     2.5686    93.6981
 3619.0000   183.2248   -34.8401     3.2368     3.5976     3.3392     0.2863     0.0495     9.9565     0.1429     2.5707    97.9176
 3619.5000   178.8204   -35.1806     3.2827     3.8378     3.5369     0.2966     0.0841     9.9556     0.2618     2.5541    98.8228
 3620.0000   170.0305   -35.8203     3.4270     4.0353     4.7911     0.2894     0.1248     9.9548     0.2286     2.5037    97.0936
 3620.5000   163.4349   -36.4357     3.5777     4.1519     5.8226     0.2732     0.1377     9.9540     0.1078     2.4194    92.8788
 3621.0000   161.8550   -36.7857     3.7620     4.2411     6.6782     0.2640     0.1250     9.9533     0.0192     2.4224    91.8819
 3621.5000   163.0964   -37.0815     3.9559     4.3636     6.9224     0.2631     0.1240     9.9376     0.0056     2.4426    92.5071
 3622.0000   164.9648   -37.0927     4.1298     4.4897     6.5301     0.2646     0.1262     9.9367     0.0116     2.4396    93.3376
 3622.5000   168.7141   -37.1021     4.3113     4.6194     6.2054     0.2659     0.1271     9.9360     0.0221     2.4366    93.8668
 3623.0000   175.5981   -37.1115     4.4684     4.7529     5.8968     0.2662     0.1271     9.9353     0.0295     2.4350    94.3257
 3623.5000   184.9900   -37.1208     4.5322     4.8550     5.8100     0.2659     0.1293     9.9346     0.0280     2.4342    94.6999
 3624.0000   187.6622   -36.8167     4.4652     4.8887     5.9354     0.2660     0.1317     9.9338     0.0234     2.4327    94.7774
 3624.5000   183.3976   -36.6670     4.3995     4.7812     6.2415     0.2672     0.1317     9.9179     0.0143     2.4304    94.6289
 3625.0000   183.6985   -36.5196     4.3979     4.7447     6.5161     0.2639     0.1306     9.9172     0.0008     2.4281    94.5557
 3625.5000   191.8365   -36.3746     4.4282     4.6746     6.6226     0.2655     0.1306     9.9315    -0.0038     2.4274    95.0855
 3626.0000   202.1688   -36.2248     4.4266     4.6389     5.9269     0.2721     0.1340     9.9308    -0.0039     2.4288    96.0665
 3626.5000   206.2315   -35.9231     4.4250     4.6369     5.3929     0.2755     0.1355     9.9299     0.0036     2.4318    96.6711
 3627.0000   207.1599   -35.6189     4.4234     4.6015     5.0878     0.2617     0.1322     9.9292     0.0171     2.4378    96.7485
 3627.5000   205.8931   -35.3148     4.3584     4.5664     5.4281     0.2545     0.1232     9.9285     0.0306     2.4483    95.6217
 3628.0000   198.0425   -34.8539     4.2633     4.4665     5.9183     0.2551     0.1149     9.9278     0.0547     2.4641    93.5907
 3628.5000   194.8952   -34.3931     4.1105     4.1532     6.2687     0.2603     0.1073     9.9271     0.0622     2.4716    91.4091
 3629.0000   196.7636   -33.6187     3.9346     3.7790     6.3120     0.2606     0.1076     9.9262     0.0606     2.4648    90.2064
