~VERSION INFORMATION
 VERS.                2.0:   CWLS LOG ASCII STANDARD - VERSION 2.0
 WRAP.                 NO:   ONE LINE PER DEPTH STEP
~WELL INFORMATION
#MNEM.UNIT      DATA TYPE    INFORMATION
#----------   ------------   ------------------------------
 STRT.F         1700.0000:   START DEPTH
 STOP.F         2172.0000:   STOP DEPTH
 STEP.F            0.5000:   STEP LENGTH
 NULL.          -999.2500:   NO VALUE
 COMP.   FENIX & SCISSONS:   COMPANY
 WELL. NPR ##3 57-22-SX-3:   WELL
 FLD .             TEAPOT:   FIELD
 LOC .       S3 T38N R78W:   LOCATION
 CNTY.            NATRONA:   COUNTY
 STAT.            WYOMING:   STATE
 CTRY. UNITED STATES OF AMERICA:   COUNTRY
 SRVC.      NL McCullough:   SERVICE COMPANY
 DATE.        08-AUG-1988:   LOGDATE
 API .       490251123900:   API NUMBER
~CURVE INFORMATION
#MNEM.UNIT       API CODE    CURVE DESCRIPTION
#----------   ------------   ------------------------------
 DEPT.F                  :   
 ROP .FT/HR  91 810 01 00:   RAT OF DRILLING PENETRATION
 TGAS.TC/CC  91 830 01 00:   TOTAL GAS UNIT
~PARAMETER INFORMATION
#MNEM.UNIT          VALUE    DESCRIPTION
#----------   ------------   ------------------------------
 PD  .                 GL:   PERMANENT DATUM
 EPD .F              5184:   ELEVATION PERMANENT DATUM
 LMF .                 KB:   LOG MEASURED FROM
 DAPD.F                10:   FEET ABOVE PERMANENT DATUM
 DMF .                 KB:   DRILLING MEASURED FROM
 EKB .F              5194:   KELLING BUSHING
 EGL .F              5184:   GROUND LEVEL
 DATE.             8-8-88:   RUN DATE
 RUN .                  1:   RUN NUMBER
 DD  .F               454:   DEPTH DRILLER
 DL  .F               454:   DEPTH LOGGER
 BLI .F               450:   BOTTOM LOG INTERVAL
 CS  .IN            9.625:   CASING SIZE
 BS  .IN             8.75:   BIT SIZE
 BSD .F               454:   BIT SIZE AT DEPTH
 DFT .              WATER:   DRILLING FLUID TYPE
 TCS .HRS               1:   TIME CURCULATED STOPPED
 LUN .              84026:   LOGGING UNIT NUMBER
 ENGI.            SCHULTZ:   RECORDING ENGINEER
 WITN.              SLACK:   WITNESSED BY
 CLNT.            A2DTECH:   CLIENT CODE
 ORIG.           5" PRINT:   ORIGIN OF DATA
 UWI .       490251123900:   UNIQUE WELL ID
 DICO. A2D Technologies, Inc.:   DIGITIZING COMPANY
~OTHER INFORMATION
~A  DEPT         ROP       TGAS 
# ...
 1943.0000     0.7747    10.1303
 1943.5000     0.7181    10.1393
 1944.0000     0.6896    10.1483
 1944.5000     0.6706    10.1573
 1945.0000     0.6610    10.1663
 1945.5000     0.6703    10.1753
 1946.0000     0.6700    10.1843
 1946.5000     0.7169    10.1933
 1947.0000     0.7545    10.2023
 1947.5000     0.7731    10.2113
 1948.0000     0.8011    10.2203
 1948.5000     0.7915    10.2294
 1949.0000     0.7631    10.2384
 1949.5000     0.7252    10.2474
 1950.0000     0.6883    10.2564
 1950.5000     0.6374    10.2654
 1951.0000     0.5866    10.2744
 1951.5000     0.5447    10.2834
 1952.0000     0.4971    10.2924
 1952.5000     0.5343    10.3014
 1953.0000     0.5904    10.3104
 1953.5000     0.6370    10.3194
 1954.0000     0.6555    10.3284
 1954.5000     0.6644    10.3374
 1955.0000     0.6638    10.3464
 1955.5000     0.6634    10.3555
 1956.0000     0.6629    10.3645
 1956.5000     0.6436    10.3735
 1957.0000     0.5766    10.3825
 1957.5000     0.5006    10.3915
 1958.0000     0.4432    10.4005
 1958.5000     0.4157    10.4095
 1959.0000     0.4247    10.4185
 1959.5000     0.4241    10.4275
 1960.0000     0.4332    10.4365
 1960.5000     0.4609    10.4455
 1961.0000     0.4886    10.4545
 1961.5000     0.4977    10.4635
 1962.0000     0.5067    10.4726
 1962.5000     0.5156    10.4816
 1963.0000     0.5056    10.4906
 1963.5000     0.4863    10.4996
 1964.0000     0.4482    10.5086
 1964.5000     0.3912    10.5176
 1965.0000     0.3437    10.5266
 1965.5000     0.3150    10.5356
 1966.0000     0.3616    10.5446
 1966.5000     0.4553    10.5536
 1967.0000     0.5405    10.5626
 1967.5000     0.6348    10.5716
 1968.0000     0.6422    10.5806
 1968.5000     0.5835    10.5897
 1969.0000     0.5282    10.5987
 1969.5000     0.5089    10.6077
 1970.0000     0.7532    10.6167
 1970.5000     0.9128    10.6257
 1971.0000     1.0630    10.6347
 1971.5000     1.2320    10.6437
 1972.0000     1.2882    10.6527
 1972.5000     1.2029    10.6617
 1973.0000     1.1082    10.6707
 1973.5000     0.9760    10.6797
 1974.0000     0.8907    10.6887
 1974.5000     0.8809    10.6977
 1975.0000     0.8710    10.7067
 1975.5000     0.8611    10.7158
 1976.0000     0.8230    10.7248
 1976.5000     0.7472    10.7338
 1977.0000     0.6327    10.7428
 1977.5000     0.5469    10.7518
 1978.0000     0.5121    10.7608
 1978.5000     0.5151    10.7698
 1979.0000     0.5180    10.7788
 1979.5000     0.5209    10.7878
 1980.0000     0.5238    10.7968
 1980.5000     0.5268    10.8058
 1981.0000     0.5297    10.8148
 1981.5000     0.5326    10.8238
 1982.0000     0.5913    10.8329
 1982.5000     0.7226    10.8419
 1983.0000     0.8634    10.8509
 1983.5000     1.0513    10.8599
 1984.0000     1.0980    10.8689
 1984.5000     1.0033    10.8779
 1985.0000     0.9275    10.8869
 1985.5000     0.8234    10.8959
 1986.0000     0.7288    10.9049
 1986.5000     0.6248    10.9139
 1987.0000     0.5484    10.9229
 1987.5000     0.4810    10.9319
 1988.0000     0.4243    10.9409
 1988.5000     0.4063    10.9500
 1989.0000     0.4182    10.9590
 1989.5000     0.4296    10.9680
 1990.0000     0.4614    10.9770
 1990.5000     0.4986    10.9860
 1991.0000     0.5263    10.9950
 1991.5000     0.5447    11.0040
 1992.0000     0.5442    11.0130
 1992.5000     0.5438    11.0220
 1993.0000     0.5433    11.0310
 1993.5000     0.5428    11.0400
 1994.0000     0.5424    11.0490
 1994.5000     0.5724    11.0580
 1995.0000     0.6387    11.0671
 1995.5000     0.7386    11.0761
 1996.0000     0.7005    11.0851
 1996.5000     0.6341    11.0941
 1997.0000     0.5771    11.1031
 1997.5000     0.5673    11.1121
 1998.0000     0.5668    11.1211
 1998.5000     0.6228    11.1301
 1999.0000     0.6789    11.1391
 1999.5000     0.7349    11.1481
 2000.0000     0.7534    11.1571
 2000.5000     0.7380    13.9559
 2001.0000     0.7249    17.7143
 2001.5000     0.7347    19.5544
 2002.0000     0.8200    20.4931
 2002.5000     0.9237    21.4317
 2003.0000     1.0362    21.4406
 2003.5000     1.0910    21.4495
 2004.0000     0.9842    21.4587
 2004.5000     0.9094    21.4695
 2005.0000     0.8443    22.4081
 2005.5000     0.7861    22.4170
 2006.0000     0.7198    23.3557
 2006.5000     0.6902    25.3173
 2007.0000     0.6824    32.6732
 2007.5000     0.6745    39.1903
 2008.0000     0.6667    42.9182
 2008.5000     0.6588    46.6461
 2009.0000     0.6510    46.7929
 2009.5000     0.6838    46.9967
 2010.0000     0.7683    47.2005
 2010.5000     0.8153    47.4042
 2011.0000     0.8339    47.6080
 2011.5000     0.8996    47.8118
 2012.0000     1.0595    48.0155
 2012.5000     1.2194    48.2193
 2013.0000     1.3699    48.4231
 2013.5000     1.5297    48.5990
 2014.0000     1.6331    39.8690
 2014.5000     1.3693    28.2093
 2015.0000     1.1996    16.5496
 2015.5000     1.0770    11.4445
 2016.0000     0.9450    12.3853
 2016.5000     0.8318    12.3942
 2017.0000     0.8173    12.4031
 2017.5000     0.8236    12.4122
 2018.0000     0.8299    14.2826
 2018.5000     0.8187    18.9403
 2019.0000     0.7711    15.2302
 2019.5000     0.7159    12.4476
 2020.0000     0.6610    12.4486
 2020.5000     0.6231    12.4154
 2021.0000     0.5853    12.3823
 2021.5000     0.5663    12.3492
 2022.0000     0.5567    12.3160
 2022.5000     0.5753    12.2829
 2023.0000     0.6222    12.2498
 2023.5000     0.6503    12.2166
 2024.0000     0.6595    12.1835
 2024.5000     0.6593    12.1503
 2025.0000     0.6497    12.1172
 2025.5000     0.6590    12.0841
 2026.0000     0.6870    12.0509
 2026.5000     0.7339    12.0178
 2027.0000     0.7808    11.9847
 2027.5000     0.7995    11.9515
 2028.0000     0.7898    11.9184
 2028.5000     0.7614    11.8853
 2029.0000     0.7329    11.8521
 2029.5000     0.6763    11.8190
 2030.0000     0.6102    11.7858
 2030.5000     0.6194    11.7527
 2031.0000     0.6286    12.3200
 2031.5000     0.6567    16.3933
 2032.0000     0.6847    17.3319
 2032.5000     0.7504    17.3408
 2033.0000     0.8068    17.3497
 2033.5000     0.8819    17.3586
 2034.0000     0.9759    17.3678
 2034.5000     0.8909    17.3786
 2035.0000     0.7683    16.4555
 2035.5000     0.7399    15.5346
 2036.0000     0.7303    15.5458
 2036.5000     0.7396    15.5547
 2037.0000     0.7299    15.5658
 2037.5000     0.7203    15.5746
 2038.0000     0.7201    15.5835
 2038.5000     0.6823    16.5222
 2039.0000     0.6350    23.0393
 2039.5000     0.5595    33.8343
 2040.0000     0.5499    47.2329
 2040.5000     0.5497    50.9608
 2041.0000     0.5684    50.9697
 2041.5000     0.5964    50.9786
 2042.0000     0.6433    50.0577
 2042.5000     0.6902    46.3498
 2043.0000     0.7371    39.8504
 2043.5000     0.7840    32.4213
 2044.0000     0.8497    24.9922
 2044.5000     1.0096    13.8440
 2045.0000     1.0942     7.3447
 2045.5000     1.1693     8.2855
 2046.0000     1.2727    10.1539
 2046.5000     1.1595    13.8818
 2047.0000     0.9239    18.5395
 2047.5000     0.7354    21.3378
 2048.0000     0.7290    24.1380
 2048.5000     0.7225    25.0766
 2049.0000     0.7160    26.0153
 2049.5000     0.7096    26.0242
 2050.0000     0.6968    26.0331
 2050.5000     0.6571    24.5598
 2051.0000     0.6223    23.0864
 2051.5000     0.5944    22.1426
 2052.0000     0.5664    21.5705
 2052.5000     0.5669    20.2038
 2053.0000     0.5767    18.5652
 2053.5000     0.5771    16.9683
 2054.0000     0.5679    14.6280
 2054.5000     0.5307    13.1251
 2055.0000     0.4746    10.6921
 2055.5000     0.3997    10.0878
 2056.0000     0.4565    10.4549
 2056.5000     0.5511    10.9127
 2057.0000     0.6174    11.3705
 2057.5000     0.6931    11.8283
 2058.0000     0.7499    12.2861
 2058.5000     0.8162    12.7440
 2059.0000     0.8731    13.2018
 2059.5000     0.9300    13.6596
 2060.0000     0.9773    14.1174
 2060.5000     0.8648    14.5752
 2061.0000     0.8557    15.0330
 2061.5000     0.8561    15.4909
 2062.0000     0.8565    15.9487
 2062.5000     0.8757    16.4065
 2063.0000     0.8855    16.7033
 2063.5000     0.9047    16.5646
 2064.0000     0.9428    16.4259
