~VERSION INFORMATION
 VERS.                2.0:   CWLS LOG ASCII STANDARD - VERSION 2.0
 WRAP.                 NO:   ONE LINE PER DEPTH STEP
~WELL INFORMATION
#MNEM.UNIT      DATA TYPE    INFORMATION
#----------   ------------   ------------------------------
 STRT.F          442.0000:   START DEPTH
 STOP.F         2636.0000:   STOP DEPTH
 STEP.F            0.5000:   STEP LENGTH
 NULL.          -999.2500:   NO VALUE
 COMP. FENIX & SCISSON INC:   COMPANY
 WELL.     25 SHX 2 #25-2:   WELL
 FLD .             TEAPOT:   FIELD
 LOC .       S2 T38N R78W:   LOCATION
 CNTY.            NATRONA:   COUNTY
 STAT.            WYOMING:   STATE
 CTRY. UNITED STATES OF AMERICA:   COUNTRY
 SRVC.              Welex:   SERVICE COMPANY
 DATE.        07-JUN-1980:   LOGDATE
 API .       490251080200:   API NUMBER
~CURVE INFORMATION
#MNEM.UNIT       API CODE    CURVE DESCRIPTION
#----------   ------------   ------------------------------
 DEPT.F                  :   
 CALD.IN     45 280 60 00:   CALIPER
 GRD .GAPI   45 310 01 00:   GAMMA RAY FROM DENSITY LOG
 DPHI.DEC    45 890 12 00:   DENSITY POROSITY SANDSTONE
 CORR.G/C3   45 356 01 00:   DENSITY CORRECTION
 RHOB.G/C3   45 350 01 00:   BULK DENSITY
~PARAMETER INFORMATION
#MNEM.UNIT          VALUE    DESCRIPTION
#----------   ------------   ------------------------------
 PD  .                 GL:   PERMANENT DATUM
 EPD .F              5120:   ELEVATION PERMANENT DATUM
 LMF .                 KB:   LOG MEASURED FROM
 DAPD.F                10:   FEET ABOVE PERMANENT DATUM
 DMF .                 KB:   DRILLING MEASURED FROM
 EKB .F              5130:   KELLING BUSHING
 EGL .F              5120:   GROUND LEVEL
 DATE.             6-7-80:   RUN DATE
 RUN .                  1:   RUN NUMBER
 DD  .F              2652:   DEPTH DRILLER
 DL  .F              2638:   DEPTH LOGGER
 BLI .F              2636:   BOTTOM LOG INTERVAL
 TLI .F              1224:   TOP LOG INTERVAL
 BS  .IN             6.75:   BIT SIZE
 BSD .F              2652:   BIT SIZE AT DEPTH
 DFT .        AIR DRILLED:   DRILLING FLUID TYPE
 TCS .HRS               2:   TIME CURCULATED STOPPED
 MRT .F               125:   MAXIMUM RECORDED TEMPERATURE
 ENGI.               REIN:   RECORDING ENGINEER
 WITN.           DINSMORE:   WITNESSED BY
 CLNT.            A2DTECH:   CLIENT CODE
 ORIG.           5" PRINT:   ORIGIN OF DATA
 UWI .       490251080200:   UNIQUE WELL ID
 DICO. A2D Technologies, Inc.:   DIGITIZING COMPANY
~OTHER INFORMATION
~A   DEPT     CALD         GRD      DPHI       CORR       RHOB   
# ...
 1845.0000     8.9520    88.9786     0.1083     0.0617     2.4671
 1845.5000     8.9577    88.6036     0.1052     0.0667     2.4756
 1846.0000     8.9634    88.4011     0.1011     0.0739     2.4838
 1846.5000     8.9691    88.2023     0.1009     0.0709     2.4822
 1847.0000     8.9748    88.0039     0.1017     0.0698     2.4845
 1847.5000     8.9805    87.8031     0.1020     0.0775     2.4874
 1848.0000     8.9862    87.7388     0.0982     0.0849     2.4895
 1848.5000     8.9919    87.7479     0.0976     0.0896     2.4946
 1849.0000     8.9977    87.3272     0.1050     0.0724     2.4794
 1849.5000     9.0036    86.8553     0.1091     0.0555     2.4679
 1850.0000     8.9944    86.3830     0.1101     0.0401     2.4612
 1850.5000     8.9838    85.9362     0.1119     0.0360     2.4577
 1851.0000     8.9730    85.8058     0.1137     0.0323     2.4561
 1851.5000     8.9623    85.6644     0.1155     0.0242     2.4516
 1852.0000     8.9516    85.5186     0.1207     0.0052     2.4406
 1852.5000     8.9408    85.3902     0.1251     0.0016     2.4295
 1853.0000     8.9315    85.9402     0.1255     0.0025     2.4280
 1853.5000     8.9051    86.5384     0.1228     0.0156     2.4333
 1854.0000     8.9081    86.7955     0.1164     0.0286     2.4468
 1854.5000     8.9095    86.8253     0.1148     0.0416     2.4574
 1855.0000     8.9110    86.4860     0.1117     0.0546     2.4627
 1855.5000     8.9126    86.1726     0.1080     0.0675     2.4679
 1856.0000     8.9142    86.2704     0.1022     0.0875     2.4858
 1856.5000     8.9157    86.4800     0.0966     0.1107     2.5043
 1857.0000     8.9173    87.0894     0.0857     0.1269     2.5160
 1857.5000     8.9189    87.5934     0.0913     0.0999     2.4953
 1858.0000     8.9205    87.7875     0.0955     0.1064     2.5092
 1858.5000     8.9220    87.8957     0.0884     0.1143     2.5132
 1859.0000     8.9236    87.7095     0.0917     0.0985     2.4978
 1859.5000     8.9251    87.5053     0.1021     0.0811     2.4822
 1860.0000     8.9267    86.7968     0.1094     0.0638     2.4661
 1860.5000     8.9283    86.1015     0.1164     0.0493     2.4496
 1861.0000     8.9299    85.6549     0.1196     0.0419     2.4416
 1861.5000     8.9314    85.4172     0.1188     0.0534     2.4446
 1862.0000     8.9330    85.1924     0.1148     0.0675     2.4599
 1862.5000     8.9346    85.3835     0.1108     0.0756     2.4681
 1863.0000     8.9361    85.4476     0.1177     0.0617     2.4478
 1863.5000     8.9377    84.6141     0.1203     0.0753     2.4420
 1864.0000     8.9393    84.3448     0.1084     0.0912     2.4746
 1864.5000     8.9408    84.3059     0.1132     0.1015     2.4592
 1865.0000     8.9424    84.6183     0.1151     0.1049     2.4574
 1865.5000     8.9440    84.9286     0.1038     0.1158     2.4835
 1866.0000     8.9441    84.9803     0.1041     0.1072     2.4854
 1866.5000     8.9378    84.9215     0.1104     0.0833     2.4632
 1867.0000     8.9317    84.6169     0.1207     0.0635     2.4369
 1867.5000     8.9256    85.0316     0.1104     0.0839     2.4729
 1868.0000     8.9195    85.5620     0.1065     0.0872     2.4750
 1868.5000     8.9135    86.0901     0.1116     0.0746     2.4580
 1869.0000     8.9074    86.1893     0.1135     0.0702     2.4607
 1869.5000     8.9013    86.7465     0.1133     0.0649     2.4648
 1870.0000     8.8952    87.3147     0.1147     0.0562     2.4519
 1870.5000     8.8891    87.6448     0.1177     0.0477     2.4485
 1871.0000     8.8831    87.9756     0.1215     0.0463     2.4367
 1871.5000     8.8770    88.3115     0.1158     0.0565     2.4517
 1872.0000     8.8709    88.3296     0.1100     0.0668     2.4696
 1872.5000     8.8687    88.3283     0.1124     0.0637     2.4687
 1873.0000     8.8814    88.3238     0.1190     0.0462     2.4472
 1873.5000     8.8941    88.1684     0.1255     0.0287     2.4296
 1874.0000     8.9068    88.0039     0.1254     0.0262     2.4286
 1874.5000     8.9195    87.6419     0.1233     0.0312     2.4334
 1875.0000     8.9322    87.1414     0.1167     0.0459     2.4487
 1875.5000     8.9448    87.0330     0.1084     0.0572     2.4687
 1876.0000     8.9574    87.1604     0.1087     0.0617     2.4721
 1876.5000     8.9632    87.2966     0.1142     0.0521     2.4581
 1877.0000     8.9590    87.1991     0.1198     0.0410     2.4428
 1877.5000     8.9550    86.9791     0.1218     0.0452     2.4400
 1878.0000     8.9510    86.9557     0.1241     0.0412     2.4303
 1878.5000     8.9469    87.1231     0.1249     0.0327     2.4371
 1879.0000     8.9429    87.2876     0.1272     0.0336     2.4268
 1879.5000     8.9389    87.5729     0.1267     0.0408     2.4228
 1880.0000     8.9348    87.9194     0.1201     0.0551     2.4420
 1880.5000     8.9308    88.4864     0.1164     0.0630     2.4523
 1881.0000     8.9268    88.9243     0.1164     0.0621     2.4520
 1881.5000     8.9227    88.5428     0.1116     0.0715     2.4632
 1882.0000     8.9187    87.7709     0.1112     0.0659     2.4536
 1882.5000     8.9146    86.9643     0.1140     0.0711     2.4675
 1883.0000     8.9106    86.1395     0.1061     0.0818     2.4908
 1883.5000     8.9066    85.6604     0.1024     0.0751     2.4892
 1884.0000     8.9025    85.2520     0.1040     0.0709     2.4754
 1884.5000     8.8985    85.1794     0.1021     0.0770     2.4904
 1885.0000     8.8945    85.3419     0.1004     0.0749     2.4889
 1885.5000     8.8903    85.7720     0.0996     0.0708     2.4787
 1886.0000     8.8872    86.2008     0.0992     0.0819     2.4980
 1886.5000     8.9052    86.3978     0.1004     0.0728     2.4853
 1887.0000     8.9240    86.4668     0.1026     0.0689     2.4792
 1887.5000     8.9430    86.5293     0.1069     0.0656     2.4775
 1888.0000     8.9327    86.7964     0.1074     0.0656     2.4746
 1888.5000     8.9178    87.1573     0.1079     0.0687     2.4637
 1889.0000     8.9029    87.5221     0.1088     0.0719     2.4687
 1889.5000     8.8881    87.8869     0.1060     0.0780     2.4740
 1890.0000     8.8892    88.2520     0.0981     0.0957     2.4908
 1890.5000     8.8923    88.6360     0.0896     0.1102     2.5098
 1891.0000     8.8954    88.4828     0.0896     0.1073     2.5118
 1891.5000     8.8985    88.1544     0.0987     0.0913     2.4862
 1892.0000     8.9016    87.8224     0.1084     0.0751     2.4636
 1892.5000     8.9047    87.4890     0.1114     0.0780     2.4597
 1893.0000     8.9042    87.3459     0.1063     0.0890     2.4737
 1893.5000     8.9010    87.3428     0.1020     0.1085     2.4796
 1894.0000     8.8977    87.2794     0.1133     0.0953     2.4546
 1894.5000     8.8943    86.8941     0.1252     0.0800     2.4267
 1895.0000     8.8910    86.5024     0.1294     0.0853     2.4214
 1895.5000     8.8879    86.7506     0.1284     0.0938     2.4171
 1896.0000     8.8981    87.3834     0.1248     0.1029     2.4272
 1896.5000     8.9265    88.0240     0.1187     0.0868     2.4471
 1897.0000     8.9548    88.3548     0.1216     0.0588     2.4363
 1897.5000     8.9829    88.6345     0.1122     0.0529     2.4631
 1898.0000     8.9998    88.3438     0.1005     0.0683     2.4909
 1898.5000     8.9782    87.9547     0.0988     0.0648     2.4964
 1899.0000     8.9577    88.0862     0.1019     0.0626     2.4844
 1899.5000     8.9372    88.4426     0.0984     0.0674     2.5018
 1900.0000     8.9167    88.8909     0.1008     0.0722     2.4819
 1900.5000     8.8961    89.4012     0.0956     0.0770     2.5015
 1901.0000     8.8868    89.9793     0.0983     0.0797     2.5001
 1901.5000     8.8876    90.5697     0.1035     0.0749     2.4822
 1902.0000     8.8886    90.7002     0.1088     0.0702     2.4708
 1902.5000     8.8896    90.2108     0.1079     0.0648     2.4660
 1903.0000     8.8906    89.5956     0.1079     0.0587     2.4689
 1903.5000     8.8916    89.0807     0.1168     0.0527     2.4513
 1904.0000     8.8926    88.9767     0.1193     0.0467     2.4411
 1904.5000     8.8936    88.9165     0.1180     0.0410     2.4465
 1905.0000     8.8946    88.9234     0.1195     0.0387     2.4410
 1905.5000     8.8956    89.2294     0.1150     0.0476     2.4550
