~VERSION INFORMATION
 VERS.                2.0:   CWLS LOG ASCII STANDARD - VERSION 2.0
 WRAP.                 NO:   ONE LINE PER DEPTH STEP
~WELL INFORMATION
#MNEM.UNIT      DATA TYPE    INFORMATION
#----------   ------------   ------------------------------
 STRT.F           12.5000:   START DEPTH
 STOP.F          604.0000:   STOP DEPTH
 STEP.F            0.5000:   STEP LENGTH
 NULL.          -999.2500:   NO VALUE
 COMP. FENIX & SCISSON INC:   COMPANY
 WELL.   SX-3 NPR 3 #61-3:   WELL
 FLD .             TEAPOT:   FIELD
 LOC .       S3 T38N R78W:   LOCATION
 CNTY.            NATRONA:   COUNTY
 STAT.            WYOMING:   STATE
 CTRY. UNITED STATES OF AMERICA:   COUNTRY
 SRVC.           BIRDWELL:   SERVICE COMPANY
 DATE.        03-DEC-1978:   LOGDATE
 API .       490251074100:   API NUMBER
~CURVE INFORMATION
#MNEM.UNIT       API CODE    CURVE DESCRIPTION
#----------   ------------   ------------------------------
 DEPT.F                  :   
 SPR .MV     05 010 01 00:   SPONTANEOUS POTENTIAL FROM RES.
 SN  .OHMM   05 040 16 00:   SHORT NORMAL 16"
 IL  .OHMM   05 120 00 00:   INDUCTION LOG
 CALD.IN     45 280 60 00:   CALIPER
 GRD .GAPI   45 310 01 00:   GAMMA RAY FROM DENSITY LOG
 DEN .G/C3   45 350 01 00:   COMPENSATED BULK DENSTIY
 CORR.G/C3   45 356 01 00:   DENSITY CORRECTION
 DPHI.DEC    45 890 12 00:   DENSITY POROSITY SANDSTONE
~PARAMETER INFORMATION
#MNEM.UNIT          VALUE    DESCRIPTION
#----------   ------------   ------------------------------
 PD  .                 GL:   PERMANENT DATUM
 EPD .F              5099:   ELEVATION PERMANENT DATUM
 LMF .                 KB:   LOG MEASURED FROM
 DAPD.F                 4:   FEET ABOVE PERMANENT DATUM
 DMF .                 KB:   DRILLING MEASURED FROM
 EKB .F              5103:   KELLING BUSHING
 EGL .F              5099:   GROUND LEVEL
 DATE.            12-3-78:   RUN DATE
 RUN .                  1:   RUN NUMBER
 DD  .F               615:   DEPTH DRILLER
 DL  .F               604:   DEPTH LOGGER
 BLI .F               598:   BOTTOM LOG INTERVAL
 TLI .F                40:   TOP LOG INTERVAL
 CS  .IN            8.625:   CASING SIZE
 CBL .F                35:   CASING BOTTOM LOGGER
 BS  .IN            7.875:   BIT SIZE
 BSD .F               615:   BIT SIZE AT DEPTH
 DFT .                KCL:   DRILLING FLUID TYPE
 DFD .                8.8:   DRILLING FLUID DENSITY
 DFV .                 42:   DRILLING FLUID VISCOSITY
 DFPH.               12.2:   DRILLING FLUID PH
 DFL .                 10:   DRILLING FLUID LOSS
 MSS .           FLOWLINE:   MUD SAMPLE SOURCE
 RMS .OHMM            .24:   RESISTIVITY MUD SAMPLE
 MST .F                58:   MUD SAMPLE TEMPERATURE
 RMF .OHMM             .3:   RESISTIVITY MUD FILTRATE SAMPLE
 MFST.F                54:   MUD FILTRATE SAMPLE TEMPERATURE
 RMC .OHMM            .34:   RESISTIVITY MUD CAKE
 MCST.F                56:   MUD CAKE SAMPLE TEMPERATURE
 MFSS.           MEASURED:   MUD FILTRATE SAMPLE SOURCE
 MCSS.           MEASURED:   MUD CAKE SAMPLE SOURCE
 RMB .OHMM            .27:   RESISTIVITY MUD AT BHT
 BHT .F                56:   BOTTOM HOLE TEMPERATURE
 TCS .HRS               3:   TIME CURCULATED STOPPED
 MRT .F                52:   MAXIMUM RECORDED TEMPERATURE
 LUN .               2958:   LOGGING UNIT NUMBER
 LUL .                CPR:   LOGGING UNIT LOCATION
 ENGI.            ROLLINS:   RECORDING ENGINEER
 WITN.              AMEND:   WITNESSED BY
 CLNT.            A2DTECH:   CLIENT CODE
 ORIG.       2", 5" PRINT:   ORIGIN OF DATA
 UWI .       490251074100:   UNIQUE WELL ID
 DICO. A2D Technologies, Inc.:   DIGITIZING COMPANY
~OTHER INFORMATION
~A   DEPT      SPR         SN         IL       CALD         GRD       DEN       CORR       DPHI   
# ...
  579.5000   -60.5838     8.6721     6.9517     7.8919   106.4372     2.4367     0.0317     0.1638
  580.0000   -60.7217     8.2936     6.4202     7.8857   111.0583     2.4194     0.0375     0.1743
  580.5000   -60.8592     7.9317     6.2447     7.8860   115.5831     2.4021     0.0411     0.1775
  581.0000   -60.9958     7.5856     6.1873     7.9066   118.2685     2.3905     0.0396     0.1628
  581.5000   -61.1449     7.2546     6.2280     7.9263   114.2809     2.4111     0.0383     0.1472
  582.0000   -61.6655     6.9380     6.2923     7.9460   106.9308     2.4378     0.0406     0.1317
  582.5000   -62.2262     6.7861     6.3612     7.9615    99.5284     2.4646     0.0477     0.1200
  583.0000   -62.7868     6.9733     6.5733     7.9627    96.3841     2.4920     0.0548     0.1126
  583.5000   -63.3512     7.4248     7.1561     7.9643    96.0255     2.5018     0.0619     0.1051
  584.0000   -63.9289     8.1319     7.7907     7.9658    95.9842     2.5119     0.0670     0.0964
  584.5000   -63.9902     8.9023     8.4814     7.9674    96.1571     2.5219     0.0585     0.1000
  585.0000   -64.0185     9.7295     9.2903     7.9689    96.3386     2.5283     0.0425     0.1057
  585.5000   -64.0504     9.8789     9.7295     7.9705    96.5183     2.5140     0.0267     0.1115
  586.0000   -64.0826    10.0507     9.8147     7.9720    96.6984     2.5065     0.0105     0.1172
  586.5000   -64.1149    10.2243     9.9638     7.9736    96.7899     2.4939     0.0075     0.1188
  587.0000   -64.1409    10.4014    10.1152     7.9751    96.5510     2.4933     0.0074     0.1126
  587.5000   -64.5366    10.5817    10.2688     7.9767    96.2331     2.4978     0.0075     0.1112
  588.0000   -65.0549    10.7650    10.4248     7.9782    95.9880     2.5021     0.0075     0.1112
  588.5000   -65.5756    10.9516    10.5832     7.9798    96.1552     2.5020     0.0075     0.1112
  589.0000   -66.0959    11.1413    10.7440     7.9813    96.3244     2.5029     0.0075     0.1105
  589.5000   -66.6200    11.3344    10.9072     7.9829    96.4935     2.5039     0.0074     0.1092
  590.0000   -67.1456    11.5308    11.0729     7.9845    96.5827     2.5050     0.0079     0.1080
  590.5000   -67.1013    11.7277    11.2411     7.9860    95.1709     2.5123     0.0158     0.1006
  591.0000   -67.0203    11.9082    11.4118     7.9876    93.7927     2.5204     0.0235     0.0938
  591.5000   -66.9426    12.0916    11.5852     7.9891    93.1372     2.5284     0.0294     0.0912
  592.0000   -66.8656    12.2778    11.7612     7.9907    92.6134     2.5299     0.0283     0.0981
  592.5000   -66.7886    12.4668    11.9398     7.9922    92.7420     2.5228     0.0273     0.1044
  593.0000   -66.7116    12.6587    12.1213     7.9938    96.5551     2.5158     0.0263     0.1052
  593.5000   -66.6346    12.8537    12.3054     7.9953   101.6617     2.5091     0.0254     0.1060
  594.0000   -66.5571    13.0516    12.4923     7.9969  -999.2500     2.5086     0.0244     0.1099
  594.5000   -66.4805    13.2525    12.6017     7.9984  -999.2500     2.5039     0.0236     0.1175
  595.0000   -66.4034    13.4566    12.6017     8.0001  -999.2500     2.4945     0.0266     0.1246
  595.5000   -66.5995    13.6637    12.6017     8.0078  -999.2500     2.4852     0.0296     0.1248
  596.0000   -67.0604    13.8743    12.8367     8.0271  -999.2500     2.4800     0.0326     0.1221
  596.5000   -67.5226    14.0878    12.9558     8.0464  -999.2500     2.4799     0.0354     0.1171
  597.0000   -67.9860    14.3047    13.3199     8.0679  -999.2500     2.4874     0.0355     0.1120
  597.5000   -68.4463    14.3416    13.0760     8.0849  -999.2500     2.4975     0.0350     0.1070
  598.0000   -68.7817    14.3415    13.0760     7.9240  -999.2500     2.5075     0.0270     0.1042
  598.5000  -999.2500  -999.2500  -999.2500     6.8803  -999.2500     2.5120     0.0242     0.1102
  599.0000  -999.2500  -999.2500  -999.2500     7.7923  -999.2500     2.5059     0.0215     0.1152
  599.5000  -999.2500  -999.2500  -999.2500     7.9609  -999.2500     2.4999     0.0198     0.1202
  600.0000  -999.2500  -999.2500  -999.2500     7.9634  -999.2500     2.4938     0.0182     0.1228
  600.5000  -999.2500  -999.2500  -999.2500  -999.2500  -999.2500     2.4878     0.0180     0.1228
  601.0000  -999.2500  -999.2500  -999.2500  -999.2500  -999.2500     2.4839     0.0238     0.1224
  601.5000  -999.2500  -999.2500  -999.2500  -999.2500  -999.2500     2.4838     0.0314     0.1183
  602.0000  -999.2500  -999.2500  -999.2500  -999.2500  -999.2500     2.4904     0.0355     0.1138
  602.5000  -999.2500  -999.2500  -999.2500  -999.2500  -999.2500     2.4979     0.0376     0.1092
  603.0000  -999.2500  -999.2500  -999.2500  -999.2500  -999.2500     2.5053     0.0398     0.1068
  603.5000  -999.2500  -999.2500  -999.2500  -999.2500  -999.2500     2.5112     0.0348     0.1081
  604.0000  -999.2500  -999.2500  -999.2500  -999.2500  -999.2500     2.5084     0.0436     0.1128
