~VERSION INFORMATION
 VERS.                2.0:   CWLS LOG ASCII STANDARD - VERSION 2.0
 WRAP.                 NO:   ONE LINE PER DEPTH STEP
~WELL INFORMATION
#MNEM.UNIT      DATA TYPE    INFORMATION
#----------   ------------   ------------------------------
 STRT.F            6.0000:   START DEPTH
 STOP.F          765.0000:   STOP DEPTH
 STEP.F            0.5000:   STEP LENGTH
 NULL.          -999.2500:   NO VALUE
 COMP. FENIX & SCISSON INC:   COMPANY
 WELL.      24 SX 2 #24-2:   WELL
 FLD .        TEAPOT DOME:   FIELD
 LOC .       S2 T38N R78W:   LOCATION
 CNTY.            NATRONA:   COUNTY
 STAT.            WYOMING:   STATE
 CTRY. UNITED STATES OF AMERICA:   COUNTRY
 SRVC.           BIRDWELL:   SERVICE COMPANY
 DATE.        20-JAN-1978:   LOGDATE
 API .       490251055700:   API NUMBER
~CURVE INFORMATION
#MNEM.UNIT       API CODE    CURVE DESCRIPTION
#----------   ------------   ------------------------------
 DEPT.F                  :   
 SPR .MV     05 010 01 00:   SPONTANEOUS POTENTIAL FROM RES.
 SN  .OHMM   05 040 16 00:   SHORT NORMAL 16"
 ILD .OHMM   05 120 46 00:   INDUCTION LOG DEEP
 CALD.IN     45 280 60 00:   CALIPER FROM DENSITY LOG
 CORR.G/C3   45 356 01 00:   DENSITY CORRECTION
 DEN .G/C3   45 350 01 00:   COMPENSATED BULK DENSTIY
 DPHI.DEC    45 890 12 00:   DENSITY POROSITY SANDSTONE
 GRD .GAPI   45 310 01 00:   GAMMA RAY FROM DENSITY LOG
~PARAMETER INFORMATION
#MNEM.UNIT          VALUE    DESCRIPTION
#----------   ------------   ------------------------------
 PD  .                 GL:   PERMANENT DATUM
 EPD .F              5131:   ELEVATION PERMANENT DATUM
 LMF .                 KB:   LOG MEASURED FROM
 DMF .                 KB:   DRILLING MEASURED FROM
 EKB .F              5134:   KELLING BUSHING
 EGL .F              5131:   GROUND LEVEL
 DATE.        20-JAN-1978:   RUN DATE
 RUN .                  1:   RUN NUMBER
 DD  .F               775:   DEPTH DRILLER
 DL  .F               770:   DEPTH LOGGER
 BLI .F               770:   BOTTOM LOG INTERVAL
 TLI .F                40:   TOP LOG INTERVAL
 CS  .IN            8.625:   CASING SIZE
 CBD .F                39:   CASING BOTTOM DRILLER
 CBL .F                39:   CASING BOTTOM LOGGER
 BS  .IN            7.875:   BIT SIZE
 BSD .F               775:   BIT SIZE AT DEPTH
 DFT .                KCL:   DRILLING FLUID TYPE
 DFD .                8.6:   DRILLING FLUID DENSITY
 DFV .                 33:   DRILLING FLUID VISCOSITY
 DFPH.                9.5:   DRILLING FLUID PH
 DFL .                  8:   DRILLING FLUID LOSS
 MSS .           FLOWLINE:   MUD SAMPLE SOURCE
 RMS .OHMM            .31:   RESISTIVITY MUD SAMPLE
 MST .F                54:   MUD SAMPLE TEMPERATURE
 RMF .OHMM            .28:   RESISTIVITY MUD FILTRATE SAMPLE
 MFST.F                64:   MUD FILTRATE SAMPLE TEMPERATURE
 RMC .OHMM             .8:   RESISTIVITY MUD CAKE
 MCST.F                64:   MUD CAKE SAMPLE TEMPERATURE
 MFSS.               MEAS:   MUD FILTRATE SAMPLE SOURCE
 MCSS.               MEAS:   MUD CAKE SAMPLE SOURCE
 RMB .OHMM            .22:   RESISTIVITY MUD AT BHT
 BHT .F                76:   BOTTOM HOLE TEMPERATURE
 TCS .HRS            0400:   TIME CURCULATED STOPPED
 MRT .F                76:   MAXIMUM RECORDED TEMPERATURE
 LUN .               2958:   LOGGING UNIT NUMBER
 LUL .             CASPER:   LOGGING UNIT LOCATION
 ENGI.            POINTER:   RECORDING ENGINEER
 WITN.           MCGINLEY:   WITNESSED BY
 CLNT.            A2DTECH:   CLIENT CODE
 ORIG.           5" PRINT:   ORIGIN OF DATA
 UWI .       490251055700:   UNIQUE WELL ID
 DICO. A2D Technologies, Inc.:   DIGITIZING COMPANY
~OTHER INFORMATION
~A    DEPT     SPR         SN        ILD       CALD       CORR        DEN       DPHI         GRD  
# ...
  735.0000   -38.0883    11.5504    11.4556     7.8533     0.0667     2.5017     0.1084    68.5531
  735.5000   -38.0988    11.5440    11.4501     7.8522     0.0808     2.4723     0.1157    73.0651
  736.0000   -37.9561    11.5376    11.4445     7.8511     0.0898     2.4648     0.1190    74.5666
  736.5000   -38.1198    11.5312    11.4389     7.8500     0.0927     2.4662     0.1160    72.7519
  737.0000   -37.9770    11.5189    11.4334     7.8489     0.0934     2.4662     0.1178    72.1434
  737.5000   -37.9901    11.4388    11.4278     7.8478     0.0956     2.4616     0.1266    71.2338
  738.0000   -38.0006    11.3533    11.4223     7.8467     0.0948     2.4480     0.1344    72.4326
  738.5000   -38.0111    11.3470    11.3379     7.8456     0.0940     2.4329     0.1407    75.4386
  739.0000   -38.0216    11.3407    11.3324     7.8445     0.0924     2.4269     0.1395    79.3483
  739.5000   -38.0320    11.3344    11.2486     7.8434     0.0901     2.4291     0.1335    82.0531
  740.0000   -38.0425    11.2498    11.2432     7.8423     0.0878     2.4321     0.1314    71.5049
  740.5000   -38.0530    11.2435    11.1601     7.8412     0.0862     2.4267     0.1372    67.5832
  741.0000   -38.0635    11.1596    11.0776     7.8401     0.0839     2.4237     0.1396    67.5772
  741.5000   -38.2246    11.1534    10.9199     7.8390     0.0816     2.4206     0.1481    68.4748
  742.0000   -38.2350    11.1471    10.7643     7.8379     0.0830     2.4131     0.1499    68.7715
  742.5000   -38.3961    11.0639    10.6110     7.8368     0.0852     2.4025     0.1529    69.9688
  743.0000   -38.5572    10.9813    10.5326     7.8357     0.0874     2.3994     0.1544    72.0712
  743.5000   -38.7184    10.8981    10.4548     7.8499     0.0874     2.4016     0.1496    75.9809
  744.0000   -38.7289    10.8167    10.3775     7.8493     0.0865     2.4136     0.1409    79.5893
  744.5000   -38.7510    10.8107    10.3725     7.8337     0.0865     2.4189     0.1400    74.4628
  745.0000   -39.0512    10.6558    10.2958     7.8331     0.0864     2.4196     0.1406    73.5532
  745.5000   -39.3630    10.5762    10.2198     7.8475     0.0879     2.4195     0.1388    74.7520
  746.0000   -39.3735    10.5704    10.1442     7.8469     0.0923     2.4172     0.1437    82.2761
  746.5000   -39.5346    10.4914    10.0693     7.8463     0.0960     2.4134     0.1467    84.3800
  747.0000   -39.5452    10.1985     9.7892     7.8457     0.0952     2.4201     0.1347    85.5773
  747.5000   -39.4046    10.1224     9.3860     7.8301     0.0899     2.4381     0.1290    87.6797
  748.0000   -39.4177    10.0468     9.2523     7.8445     0.0883     2.4441     0.1293    89.1797
  748.5000   -39.2775     9.9028     9.1839     7.8439     0.0868     2.4411     0.1338    88.8725
  749.0000   -39.2880     9.8289     9.1160     7.8433     0.0860     2.4350     0.1362    89.1677
  749.5000   -39.2985     9.6880     9.0487     7.8427     0.0859     2.4274     0.1390    90.3680
  750.0000   -39.3090     9.6157     8.9198     7.8421     0.0858     2.4199     0.1435    88.2520
  750.5000   -39.3195     9.6103     8.7927     7.8265     0.0858     2.4138     0.1459    80.7159
  751.0000   -39.3299     9.4726     8.7278     7.8259     0.0857     2.4107     0.1471    83.1195
  751.5000   -39.4901     9.4019     8.6633     7.8403     0.0857     2.4107     0.1450    88.2340
  752.0000   -39.6512     9.3967     8.6591     7.8397     0.0878     2.4107     0.1460    81.7516
  752.5000   -39.8123     9.3265     8.5951     7.8391     0.0885     2.4106     0.1469  -999.2500
  753.0000   -39.9734     9.3876     8.5316     7.8385     0.0885     2.4136     0.1430  -999.2500
  753.5000   -40.2851     9.3811     8.4101     7.8229     0.0884     2.4165     0.1424  -999.2500
  754.0000   -40.5968     9.3759     8.4060     7.8223     0.0891     2.4195     0.1406  -999.2500
  754.5000   -40.7579     9.3707     8.3439     7.8217     0.0913     2.4195     0.1418  -999.2500
  755.0000   -40.7683     9.3655     8.3398     7.8211     0.0936     2.4194     0.1424  -999.2500
  755.5000   -40.7788     9.2956     8.3358     7.8205     0.0964     2.4217     0.1388  -999.2500
  756.0000   -40.9399     9.2904     8.2742     7.8199     0.0971     2.4239     0.1304  -999.2500
  756.5000   -41.1010     9.2211     8.2130     7.8343     0.0970     2.4299     0.1283  -999.2500
  757.0000   -41.4127     9.0889     8.1524     7.7897     0.0969     2.4351     0.1284  -999.2500
  757.5000   -41.4232     9.0839     8.1484     7.7897     0.0952     2.4434     0.1220  -999.2500
  758.0000   -41.5904     9.0160     8.0323     7.7897     0.0915     2.4494     0.1184  -999.2500
  758.5000   -41.7455     8.9487     7.7550     7.7897     0.0899     2.4522     0.1176  -999.2500
  759.0000   -41.7560     8.8205     7.4872     7.7897     0.0876     2.4545     0.1185  -999.2500
  759.5000   -41.9337     8.8156     7.4836     7.7897     0.0854     2.4583     0.1188  -999.2500
  760.0000   -42.2490     8.8733     7.4807     7.7897     0.0831     2.4643     0.1167  -999.2500
  760.5000   -42.6913     8.9289     7.5816     7.7897     0.0688     2.4740     0.1110  -999.2500
  761.0000   -43.0030     8.9874     7.4734     7.7897     0.0605     2.4853     0.1035  -999.2500
  761.5000   -43.1662     9.1067     7.2656     7.7897     0.0605     2.4933     0.1023  -999.2500
  762.0000   -43.0261     9.2944     7.2119     7.7897     0.0604     2.4940     0.1032  -999.2500
  762.5000   -42.5848     9.4847     7.2001     7.7897     0.0573     2.4979     0.1017  -999.2500
  763.0000   -41.0893     8.7207     7.1552     7.7897     0.0535     2.5061     0.0972  -999.2500
  763.5000   -40.0455     7.7998     7.1517  -999.2500     0.0527     2.5120     0.0945  -999.2500
  764.0000   -39.7522     8.1270     7.1482  -999.2500     0.0527     2.5072     0.0982  -999.2500
  764.5000   -39.7653     8.2372  -999.2500  -999.2500  -999.2500     2.4988     0.1009  -999.2500
  765.0000  -999.2500  -999.2500  -999.2500  -999.2500  -999.2500     2.4968     0.1033  -999.2500
