~VERSION INFORMATION
 VERS.                2.0:   CWLS LOG ASCII STANDARD - VERSION 2.0
 WRAP.                 NO:   ONE LINE PER DEPTH STEP
~WELL INFORMATION
#MNEM.UNIT      DATA TYPE    INFORMATION
#----------   ------------   ------------------------------
 STRT.F           20.0000:   START DEPTH
 STOP.F          469.0000:   STOP DEPTH
 STEP.F            0.5000:   STEP LENGTH
 NULL.          -999.2500:   NO VALUE
 COMP. FENIX & SCISSON INC:   COMPANY
 WELL.       SX 3FO #26-3:   WELL
 FLD .             TEAPOT:   FIELD
 LOC .       S3 T38N R78W:   LOCATION
 CNTY.            NATRONA:   COUNTY
 STAT.            WYOMING:   STATE
 CTRY. UNITED STATES OF AMERICA:   COUNTRY
 SRVC.              Welex:   SERVICE COMPANY
 DATE.        02-JUL-1980:   LOGDATE
 API .       490251082500:   API NUMBER
~CURVE INFORMATION
#MNEM.UNIT       API CODE    CURVE DESCRIPTION
#----------   ------------   ------------------------------
 DEPT.F                  :   
 CALD.IN     45 280 60 00:   CALIPER
 GRD .GAPI   45 310 01 00:   GAMMA RAY FROM DENSITY LOG
 CORR.G/C3   45 356 01 00:   DENSITY CORRECTION
 RHOB.G/C3   45 350 01 00:   BULK DENSITY
 DPHI.DEC    45 890 12 00:   DENSITY POROSITY SANDSTONE
~PARAMETER INFORMATION
#MNEM.UNIT          VALUE    DESCRIPTION
#----------   ------------   ------------------------------
 PD  .                 GL:   PERMANENT DATUM
 EPD .F              5163:   ELEVATION PERMANENT DATUM
 LMF .                 KB:   LOG MEASURED FROM
 DAPD.F                 5:   FEET ABOVE PERMANENT DATUM
 DMF .                 KB:   DRILLING MEASURED FROM
 EKB .F              5168:   KELLING BUSHING
 EGL .F              5163:   GROUND LEVEL
 DATE.             7-2-80:   RUN DATE
 RUN .                  1:   RUN NUMBER
 DD  .F               470:   DEPTH DRILLER
 DL  .F               472:   DEPTH LOGGER
 BLI .F               470:   BOTTOM LOG INTERVAL
 TLI .F                20:   TOP LOG INTERVAL
 CS  .IN                7:   CASING SIZE
 CBD .F                43:   CASING BOTTOM DRILLER
 BS  .IN             6.25:   BIT SIZE
 BSD .F               470:   BIT SIZE AT DEPTH
 DFT .        AIR DRILLED:   DRILLING FLUID TYPE
 BHT .F                76:   BOTTOM HOLE TEMPERATURE
 TCS .HRS             1.5:   TIME CURCULATED STOPPED
 MRT .F                76:   MAXIMUM RECORDED TEMPERATURE
 ENGI.        REIN/GLASER:   RECORDING ENGINEER
 WITN.            RHOADES:   WITNESSED BY
 CLNT.            A2DTECH:   CLIENT CODE
 ORIG.           5" PRINT:   ORIGIN OF DATA
 UWI .       490251082500:   UNIQUE WELL ID
 DICO. A2D Technologies, Inc.:   DIGITIZING COMPANY
~OTHER INFORMATION
~A   DEPT     CALD         GRD      CORR       RHOB       DPHI   
# ...
   81.0000     6.2638   110.2654     0.0004     2.4526     0.1406
   81.5000     6.2727   110.2751     0.0030     2.4569     0.1377
   82.0000     6.2815   110.8814     0.0057     2.4612     0.1349
   82.5000     6.2903   110.0292     0.0084     2.4652     0.1342
   83.0000     6.2992   109.1121     0.0111     2.4662     0.1336
   83.5000     6.3080   108.2018     0.0138     2.4673     0.1329
   84.0000     6.3169   107.2904     0.0136     2.4683     0.1321
   84.5000     6.3138   106.3585     0.0132     2.4689     0.1314
   85.0000     6.3019   106.3466     0.0128     2.4682     0.1307
   85.5000     6.2899   107.5059     0.0124     2.4675     0.1319
   86.0000     6.2778   108.6742     0.0119     2.4682     0.1317
   86.5000     6.2657   108.2489     0.0165     2.4790     0.1215
   87.0000     6.2536   105.6833     0.0215     2.4893     0.1182
   87.5000     6.2415   103.9522     0.0261     2.4886     0.1172
   88.0000     6.2377   104.5127     0.0246     2.4865     0.1201
   88.5000     6.2343   105.2269     0.0220     2.4845     0.1219
   89.0000     6.2309   104.6182     0.0193     2.4840     0.1225
   89.5000     6.2275   103.2399     0.0187     2.4850     0.1227
   90.0000     6.2241   101.4377     0.0200     2.4897     0.1179
   90.5000     6.2222    99.2702     0.0213     2.4914     0.1197
   91.0000     6.2311    97.1049     0.0222     2.4892     0.1188
   91.5000     6.2399    94.9404     0.0267     2.4945     0.1145
   92.0000     6.2486    92.8800     0.0385     2.5053     0.1076
   92.5000     6.2574    92.8470     0.0407     2.5127     0.1052
   93.0000     6.2662    91.5792     0.0359     2.5045     0.1096
   93.5000     6.2748    90.1746     0.0313     2.4965     0.1139
   94.0000     6.2805    89.6514     0.0287     2.4884     0.1191
   94.5000     6.2789    90.3488     0.0318     2.4890     0.1192
   95.0000     6.2774    91.2283     0.0342     2.4905     0.1179
   95.5000     6.2759    92.1201     0.0349     2.4910     0.1184
   96.0000     6.2745    93.0210     0.0356     2.4889     0.1194
   96.5000     6.2730    93.0772     0.0380     2.4869     0.1203
   97.0000     6.2715    96.2612     0.0418     2.4854     0.1203
   97.5000     6.2700    98.5857     0.0455     2.4889     0.1190
   98.0000     6.2685    98.3244     0.0492     2.4921     0.1172
   98.5000     6.2670    96.0033     0.0519     2.4934     0.1160
   99.0000     6.2656    92.6477     0.0537     2.4910     0.1181
   99.5000     6.2641    91.3995     0.0557     2.4887     0.1194
  100.0000     6.2626    90.1932     0.0576     2.4864     0.1203
  100.5000     6.2610    89.9061     0.0633     2.4900     0.1190
  101.0000     6.2621    90.1464     0.0694     2.4958     0.1158
  101.5000     6.2633    90.4258     0.0755     2.4995     0.1124
  102.0000     6.2645    90.7042     0.0710     2.4941     0.1145
  102.5000     6.2658    91.1582     0.0656     2.4888     0.1189
  103.0000     6.2670    92.0163     0.0602     2.4833     0.1227
  103.5000     6.2682    92.8766     0.0614     2.4822     0.1221
  104.0000     6.2695    93.2606     0.0631     2.4835     0.1211
  104.5000     6.2707    92.8463     0.0622     2.4839     0.1234
  105.0000     6.2719    92.3911     0.0525     2.4740     0.1285
  105.5000     6.2732    91.9880     0.0425     2.4632     0.1336
  106.0000     6.2744    92.5634     0.0324     2.4538     0.1386
  106.5000     6.2757    93.9386     0.0253     2.4523     0.1408
  107.0000     6.2769    95.3428     0.0202     2.4505     0.1421
  107.5000     6.2781    95.4644     0.0150     2.4487     0.1435
  108.0000     6.2794    93.7366     0.0162     2.4469     0.1440
  108.5000     6.2810    92.0676     0.0191     2.4471     0.1444
  109.0000     6.2669    92.8845     0.0221     2.4500     0.1438
  109.5000     6.2486    91.6911     0.0250     2.4528     0.1413
  110.0000     6.2412    87.4872     0.0278     2.4516     0.1415
  110.5000     6.2426    87.3215     0.0245     2.4451     0.1448
  111.0000     6.2523    88.2902     0.0209     2.4403     0.1477
  111.5000     6.2618    89.2962     0.0173     2.4384     0.1488
  112.0000     6.2714    90.2940     0.0137     2.4364     0.1500
  112.5000     6.2806    91.2925     0.0102     2.4378     0.1496
  113.0000     6.2794    92.2841     0.0081     2.4432     0.1462
  113.5000     6.2775    93.1045     0.0085     2.4392     0.1486
  114.0000     6.2756    92.3207     0.0089     2.4361     0.1503
  114.5000     6.2737    91.0976     0.0093     2.4394     0.1479
  115.0000     6.2718    89.9060     0.0097     2.4420     0.1482
  115.5000     6.2699    89.8513     0.0099     2.4361     0.1508
  116.0000     6.2680    91.9916     0.0092     2.4300     0.1530
  116.5000     6.2662    94.2955     0.0085     2.4291     0.1540
  117.0000     6.2642    94.1967     0.0094     2.4293     0.1546
  117.5000     6.2620    92.9304     0.0167     2.4306     0.1542
  118.0000     6.2635    91.6817     0.0238     2.4319     0.1532
  118.5000     6.2784    90.4348     0.0311     2.4330     0.1522
  119.0000     6.2761    89.1887     0.0256     2.4310     0.1532
  119.5000     6.2732    88.5586     0.0196     2.4289     0.1548
  120.0000     6.2703    88.8976     0.0184     2.4270     0.1562
  120.5000     6.2674    89.7925     0.0171     2.4308     0.1546
  121.0000     6.2645    90.6544     0.0160     2.4320     0.1530
  121.5000     6.2616    91.5116     0.0159     2.4321     0.1538
  122.0000     6.2587    92.3399     0.0158     2.4374     0.1504
  122.5000     6.2558    93.6921     0.0203     2.4463     0.1449
  123.0000     6.2529    95.0760     0.0254     2.4503     0.1432
  123.5000     6.2500    96.4540     0.0304     2.4522     0.1416
  124.0000     6.2471    97.4709     0.0353     2.4543     0.1386
  124.5000     6.2442    96.8729     0.0330     2.4496     0.1424
  125.0000     6.2412    96.0754     0.0269     2.4443     0.1466
  125.5000     6.2410    95.2681     0.0257     2.4438     0.1452
  126.0000     6.2410    94.4772     0.0314     2.4503     0.1418
  126.5000     6.2410    94.2914     0.0371     2.4589     0.1338
  127.0000     6.2410    96.1382     0.0429     2.4687     0.1297
  127.5000     6.2410    97.4536     0.0486     2.4787     0.1256
  128.0000     6.2410    96.5252     0.0545     2.4873     0.1215
  128.5000     6.2410    96.4410     0.0506     2.4840     0.1201
  129.0000     6.2410    97.7498     0.0417     2.4809     0.1243
  129.5000     6.2410    99.1143     0.0435     2.4818     0.1222
  130.0000     6.2410    98.8771     0.0488     2.4873     0.1199
  130.5000     6.2410    97.2035     0.0468     2.4919     0.1182
  131.0000     6.2410    95.5546     0.0426     2.4883     0.1190
  131.5000     6.2410    94.4033     0.0383     2.4863     0.1207
  132.0000     6.2410    96.8237     0.0340     2.4879     0.1207
  132.5000     6.2410    99.4684     0.0297     2.4882     0.1217
  133.0000     6.2410    98.4951     0.0254     2.4828     0.1233
  133.5000     6.2410    97.8471     0.0210     2.4773     0.1268
  134.0000     6.2410    97.6238     0.0151     2.4747     0.1282
  134.5000     6.2410    96.8164     0.0092     2.4741     0.1288
  135.0000     6.2410    97.0677     0.0055     2.4710     0.1313
  135.5000     6.2410    99.1308     0.0018     2.4604     0.1361
  136.0000     6.2410   101.3202    -0.0019     2.4485     0.1419
  136.5000     6.2410   102.0201     0.0020     2.4486     0.1426
  137.0000     6.2410   101.3435     0.0086     2.4504     0.1422
  137.5000     6.2410   100.6779     0.0153     2.4510     0.1418
  138.0000     6.2410   100.7237     0.0220     2.4513     0.1411
  138.5000     6.2453   102.4163     0.0287     2.4578     0.1369
  139.0000     6.2521   104.1207     0.0354     2.4647     0.1327
  139.5000     6.2590   103.2773     0.0387     2.4706     0.1296
  140.0000     6.2659   102.7413     0.0399     2.4732     0.1279
  140.5000     6.2728   105.6000     0.0412     2.4760     0.1263
  141.0000     6.2798   105.9418     0.0408     2.4770     0.1263
  141.5000     6.2801   104.7271     0.0380     2.4771     0.1273
