~VERSION INFORMATION
 VERS.                2.0:   CWLS LOG ASCII STANDARD - VERSION 2.0
 WRAP.                 NO:   ONE LINE PER DEPTH STEP
~WELL INFORMATION
#MNEM.UNIT      DATA TYPE    INFORMATION
#----------   ------------   ------------------------------
 STRT.F           10.5000:   START DEPTH
 STOP.F          604.0000:   STOP DEPTH
 STEP.F            0.5000:   STEP LENGTH
 NULL.          -999.2500:   NO VALUE
 COMP. FENIX & SCISSON INC:   COMPANY
 WELL.  NPR 3 #87 S 10-10:   WELL
 FLD .             TEAPOT:   FIELD
 LOC .      S10 T38N R78W:   LOCATION
 CNTY.            NATRONA:   COUNTY
 STAT.            WYOMING:   STATE
 CTRY. UNITED STATES OF AMERICA:   COUNTRY
 SRVC.           BIRDWELL:   SERVICE COMPANY
 DATE.        11-DEC-1978:   LOGDATE
 API .       490251075400:   API NUMBER
~CURVE INFORMATION
#MNEM.UNIT       API CODE    CURVE DESCRIPTION
#----------   ------------   ------------------------------
 DEPT.F                  :   
 SPR .MV     05 010 01 00:   SPONTANEOUS POTENTIAL FROM RES.
 SN  .OHMM   05 040 16 00:   SHORT NORMAL 16"
 IL  .OHMM   05 120 00 00:   INDUCTION LOG
 CALD.IN     45 280 60 00:   CALIPER
 GRD .GAPI   45 310 01 00:   GAMMA RAY FROM DENSITY LOG
 RHOB.G/C3   45 350 01 00:   BULK DENSITY
 DPHI.DEC    45 890 12 00:   DENSITY POROSITY SANDSTONE
 CORR.G/C3   45 356 01 00:   DENSITY CORRECTION
~PARAMETER INFORMATION
#MNEM.UNIT          VALUE    DESCRIPTION
#----------   ------------   ------------------------------
 PD  .                 GL:   PERMANENT DATUM
 LMF .                 KB:   LOG MEASURED FROM
 DAPD.F                 4:   FEET ABOVE PERMANENT DATUM
 DMF .                 KB:   DRILLING MEASURED FROM
 DATE.           12-11-78:   RUN DATE
 RUN .                  1:   RUN NUMBER
 DD  .F               600:   DEPTH DRILLER
 DL  .F               602:   DEPTH LOGGER
 BLI .F               596:   BOTTOM LOG INTERVAL
 TLI .F                60:   TOP LOG INTERVAL
 CBD .F                40:   CASING BOTTOM DRILLER
 CBL .F                35:   CASING BOTTOM LOGGER
 BS  .IN            7.875:   BIT SIZE
 BSD .F               600:   BIT SIZE AT DEPTH
 DFT .                KCC:   DRILLING FLUID TYPE
 DFD .                8.7:   DRILLING FLUID DENSITY
 DFV .                 39:   DRILLING FLUID VISCOSITY
 DFPH.               10.5:   DRILLING FLUID PH
 DFL .                 10:   DRILLING FLUID LOSS
 MSS .           FLOWLINE:   MUD SAMPLE SOURCE
 RMS .OHMM              1:   RESISTIVITY MUD SAMPLE
 MST .F                62:   MUD SAMPLE TEMPERATURE
 RMF .OHMM            .85:   RESISTIVITY MUD FILTRATE SAMPLE
 MFST.F                58:   MUD FILTRATE SAMPLE TEMPERATURE
 RMC .OHMM             .8:   RESISTIVITY MUD CAKE
 MCST.F                66:   MUD CAKE SAMPLE TEMPERATURE
 MFSS.           MEASURED:   MUD FILTRATE SAMPLE SOURCE
 MCSS.           MEASURED:   MUD CAKE SAMPLE SOURCE
 BHT .F                72:   BOTTOM HOLE TEMPERATURE
 TCS .HRS               3:   TIME CURCULATED STOPPED
 MRT .F                72:   MAXIMUM RECORDED TEMPERATURE
 LUN .               2958:   LOGGING UNIT NUMBER
 LUL .             CASPER:   LOGGING UNIT LOCATION
 ENGI.            ROLLINS:   RECORDING ENGINEER
 WITN.           DINSMORE:   WITNESSED BY
 CLNT.            A2DTECH:   CLIENT CODE
 ORIG.       2", 5" PRINT:   ORIGIN OF DATA
 UWI .       490251075400:   UNIQUE WELL ID
 DICO. A2D Technologies, Inc.:   DIGITIZING COMPANY
~OTHER INFORMATION
~A   DEPT      SPR         SN         IL       CALD        GRD       RHOB       DPHI       CORR   
# ...
  294.0000   -17.8890     8.6040     7.4510     8.5730   113.1030     2.4450     0.1500     0.0070
  294.5000   -18.2960     8.6560     7.4420     8.5730   113.5870     2.4460     0.1480     0.0070
  295.0000   -18.3010     8.7080     7.4330     8.5720   114.2270     2.4460     0.1470     0.0070
  295.5000   -18.2890     8.7560     7.4240     8.5720   115.4300     2.4460     0.1480     0.0070
  296.0000   -18.7410     8.6760     7.4160     8.5720   117.0780     2.4410     0.1480     0.0070
  296.5000   -19.3030     8.6760     7.3630     8.5710   118.0540     2.4360     0.1520     0.0070
  297.0000   -18.7910     8.6760     7.3130     8.5710   116.0070     2.4350     0.1540     0.0070
  297.5000   -18.1490     8.6760     7.2640     8.5700   113.1810     2.4340     0.1540     0.0090
  298.0000   -18.4460     8.6760     7.2150     8.5700   109.4970     2.4330     0.1550     0.0120
  298.5000   -18.7660     8.5770     7.1650     8.5700   107.4090     2.4330     0.1560     0.0130
  299.0000   -19.0870     8.3770     7.1160     8.5690   107.0170     2.4320     0.1560     0.0110
  299.5000   -19.4190     8.1770     7.0220     8.5690   107.7990     2.4300     0.1560     0.0090
  300.0000   -19.2480     7.9770     6.8220     8.5690   108.3190     2.4190     0.1600     0.0070
  300.5000   -18.9050     7.8070     6.7180     8.5680   107.2810     2.4090     0.1660     0.0040
  301.0000   -18.5590     7.7050     6.4580     8.5680   104.9140     2.3980     0.1740     0.0020
  301.5000   -18.2120     7.6020     6.1170     8.5670   102.1450     2.3890     0.1830     0.0000
  302.0000   -17.8630     7.4240     5.8880     8.5670   100.9060     2.3910     0.1820     0.0010
  302.5000   -17.7100     7.1780     5.8880     8.5670   105.1580     2.4050     0.1750     0.0040
  303.0000   -17.7370     6.9180     5.8880     8.5660   113.0020     2.4180     0.1660     0.0060
  303.5000   -17.7630     6.6330     5.8510     8.5660   117.2200     2.4350     0.1560     0.0090
  304.0000   -17.7890     6.3470     5.8120     8.5650   115.1820     2.4470     0.1480     0.0140
  304.5000   -17.8150     5.9980     5.7800     8.5650   113.2260     2.4560     0.1440     0.0210
  305.0000   -17.8420     6.0110     5.8440     8.5650   113.2140     2.4640     0.1390     0.0200
  305.5000   -17.8680     6.0460     5.8990     8.5640   115.3210     2.4690     0.1340     0.0180
  306.0000   -17.8950     6.5220     6.0540     8.5640   116.4590     2.4710     0.1300     0.0100
  306.5000   -17.9210     7.1150     6.6250     8.5630   117.1490     2.4660     0.1330     0.0020
  307.0000   -17.9480     7.5000     7.1960     8.5630   117.3490     2.4580     0.1380    -0.0020
  307.5000   -17.9740     7.7350     7.4790     8.5630   116.4410     2.4510     0.1430    -0.0040
  308.0000   -18.0010     7.9180     7.5830     8.5620   115.5520     2.4490     0.1450    -0.0060
  308.5000   -18.0270     8.1010     7.6860     8.5620   114.6880     2.4500     0.1460    -0.0080
  309.0000   -18.0540     8.2840     7.7890     8.5620   113.6700     2.4610     0.1410    -0.0080
  309.5000   -18.0800     8.4670     7.8920     8.5610   110.0540     2.4750     0.1330    -0.0070
  310.0000   -18.0970     8.6500     7.9960     8.5610   106.4850     2.4880     0.1240    -0.0030
  310.5000   -18.0840     8.7850     8.0990     8.5620   104.9340     2.4890     0.1200     0.0020
  311.0000   -18.0710     8.9110     8.1360     8.5620   106.2750     2.4770     0.1260     0.0040
  311.5000   -18.0580     9.0500     8.1410     8.5630   110.0820     2.4740     0.1280     0.0050
  312.0000   -18.0460     9.2110     8.1460     8.5630   115.4330     2.4670     0.1310     0.0070
  312.5000   -18.0330     9.3520     8.1500     8.5640   115.2890     2.4610     0.1370     0.0070
  313.0000   -18.0200     9.4940     8.1550     8.5650   112.7850     2.4600     0.1370     0.0060
  313.5000   -18.0070     9.6360     8.1600     8.5650   110.5020     2.4640     0.1380     0.0050
  314.0000   -17.9950     9.7770     8.1650     8.5660   110.6270     2.4760     0.1340     0.0030
  314.5000   -17.9820     9.8720     8.1690     8.5660   110.6980     2.4760     0.1270     0.0020
  315.0000   -17.9690     9.8720     8.1740     8.5670   110.7890     2.4730     0.1300     0.0030
  315.5000   -17.9560     9.8720     8.1790     8.5680   111.8190     2.4660     0.1340     0.0040
  316.0000   -17.9440     9.8720     8.1840     8.5680   112.9240     2.4620     0.1380     0.0050
  316.5000   -17.9320     9.8720     8.1880     8.5690   113.3890     2.4660     0.1360     0.0060
  317.0000   -17.9200     9.8650     8.1930     8.5690   111.6720     2.4700     0.1350     0.0080
  317.5000   -17.9060     9.8520     8.1980     8.5700   110.7350     2.4730     0.1330     0.0090
  318.0000   -18.0850     9.8390     8.2030     8.5710   111.8420     2.4770     0.1300     0.0100
  318.5000   -18.3930     9.8260     8.2080     8.5710   113.1980     2.4810     0.1270     0.0120
  319.0000   -18.7010     9.8130     8.1120     8.5720   114.0530     2.4840     0.1240     0.0130
  319.5000   -19.0090     9.7990     7.9910     8.5720   107.4480     2.4850     0.1210     0.0110
  320.0000   -19.3180     9.7870     7.8700     8.5730   109.5900     2.4840     0.1230     0.0090
  320.5000   -19.4900     9.6080     7.7490     8.5740   114.1090     2.4820     0.1240     0.0070
  321.0000   -19.4660     9.3400     7.6280     8.5740   114.4090     2.4800     0.1250     0.0060
  321.5000   -19.4450     9.2510     7.5070     8.5750   115.6450     2.4740     0.1280     0.0070
  322.0000   -19.4230     9.1640     7.3790     8.5750   119.1630     2.4600     0.1370     0.0080
  322.5000   -19.4010     9.0780     7.2310     8.5760   119.6190     2.4480     0.1460     0.0090
  323.0000   -19.3790     8.9910     7.0830     8.5760   116.7420     2.4510     0.1460     0.0080
  323.5000   -19.3570     8.9040     6.9360     8.5770   113.7040     2.4540     0.1430     0.0060
  324.0000   -19.3360     8.8180     6.7630     8.5780   112.1080     2.4440     0.1450     0.0040
  324.5000   -19.3130     8.6360     6.5790     8.5780   112.8290     2.4290     0.1520     0.0020
  325.0000   -19.4940     8.2220     6.3940     8.5790   113.5260     2.4220     0.1590    -0.0010
  325.5000   -19.8840     7.8070     6.0370     8.5790   113.9930     2.4130     0.1660    -0.0020
  326.0000   -20.2800     7.3930     5.6070     8.5800   114.2380     2.3760     0.1750    -0.0010
  326.5000   -20.3000     6.9780     5.1770     8.5810   113.7690     2.3400     0.1830     0.0040
  327.0000   -20.3120     6.5430     4.7180     8.5810   112.9040     2.3040     0.2270     0.0080
  327.5000   -20.8000     6.0660     4.3070     8.5800   110.9170     2.2690     0.2510     0.0150
  328.0000   -21.3350     5.5880     3.8670     8.5800   106.9740     2.2380     0.2740     0.0200
  328.5000   -21.8640     5.0960     3.4270     8.5790   103.4450     2.2300     0.2820     0.0210
  329.0000   -22.3830     4.6000     3.0500     8.5790   101.0610     2.2480     0.2710     0.0220
  329.5000   -22.9010     4.1030     3.0000     8.5790    99.3680     2.2830     0.2570     0.0230
  330.0000   -23.9550     3.6060     2.9260     8.5780   103.7140     2.3170     0.2340     0.0190
  330.5000   -19.4880     3.1760     2.9610     8.5780   109.6040     2.3500     0.2110     0.0130
  331.0000   -19.6700     3.0360     3.0670     8.5770   115.4560     2.3760     0.1930     0.0080
  331.5000   -19.8580     2.8950     3.1730     8.5770   116.8220     2.3990     0.1780     0.0080
  332.0000   -19.9760     2.8140     3.5150     8.5770   116.4540     2.4220     0.1620     0.0090
  332.5000   -20.0740     2.9010     3.8700     8.5760   116.2910     2.4400     0.1500     0.0090
  333.0000   -20.1800     3.3900     4.2770     8.5760   116.6330     2.4530     0.1420     0.0100
  333.5000   -20.2930     3.9620     4.6760     8.5750   116.9400     2.4610     0.1390     0.0110
  334.0000   -19.9780     4.5350     5.0450     8.5750   116.8260     2.4630     0.1370     0.0110
