~VERSION INFORMATION
 VERS.                2.0:   CWLS LOG ASCII STANDARD - VERSION 2.0
 WRAP.                 NO:   ONE LINE PER DEPTH STEP
~WELL INFORMATION
#MNEM.UNIT      DATA TYPE    INFORMATION
#----------   ------------   ------------------------------
 STRT.F            6.0000:   START DEPTH
 STOP.F          495.0000:   STOP DEPTH
 STEP.F            0.5000:   STEP LENGTH
 NULL.          -999.2500:   NO VALUE
 COMP. FENIX & SCISSON INC:   COMPANY
 WELL. FI NPR-3 #65-25 SX3:   WELL
 FLD .  NAVAL RESERVES #3:   FIELD
 LOC .       S3 T38N R78W:   LOCATION
 CNTY.            NATRONA:   COUNTY
 STAT.            WYOMING:   STATE
 CTRY. UNITED STATES OF AMERICA:   COUNTRY
 SRVC.       Schlumberger:   SERVICE COMPANY
 DATE.        22-MAY-1980:   LOGDATE
 API .       490251080300:   API NUMBER
~CURVE INFORMATION
#MNEM.UNIT       API CODE    CURVE DESCRIPTION
#----------   ------------   ------------------------------
 DEPT.F                  :   
 SPR .MV     07 010 01 00:   SPONTANEOUS POTENTIAL
 SFL .OHMM   07 220 01 00:   SHALLOW FOCUSED LOG RESISTIVITY
 ILD .OHMM   07 120 46 00:   INDUCTION LOG DEEP RESISTIVITY
 ILM .OHMM   07 120 44 00:   INDUCTION LOG MEDIUM
 GRD .GAPI   45 310 01 00:   GAMMA RAY FROM DENSITY LOG
 CALD.IN     45 280 60 00:   CALIPER
 DPHI.DEC    45 890 12 00:   DENSITY POROSITY SANDSTONE
 RHOB.G/C3   45 350 01 00:   BULK DENSITY
 CORR.G/C3   45 356 01 00:   DENSITY CORRECTION
 NPHI.DEC    42 890 03 00:   NEUTRON POROSITY SANDSTONE
~PARAMETER INFORMATION
#MNEM.UNIT          VALUE    DESCRIPTION
#----------   ------------   ------------------------------
 PD  .                 GL:   PERMANENT DATUM
 EPD .F              5162:   ELEVATION PERMANENT DATUM
 LMF .                 KB:   LOG MEASURED FROM
 DAPD.F                 4:   FEET ABOVE PERMANENT DATUM
 DMF .                 KB:   DRILLING MEASURED FROM
 EKB .F              5166:   KELLING BUSHING
 EGL .F              5162:   GROUND LEVEL
 DATE.            5-22-80:   RUN DATE
 RUN .                  1:   RUN NUMBER
 DD  .F               500:   DEPTH DRILLER
 DL  .F               498:   DEPTH LOGGER
 BLI .F               492:   BOTTOM LOG INTERVAL
 TLI .F                10:   TOP LOG INTERVAL
 BS  .IN            9.875:   BIT SIZE
 BSD .F               500:   BIT SIZE AT DEPTH
 DFT .                KCL:   DRILLING FLUID TYPE
 DFD .                9.6:   DRILLING FLUID DENSITY
 DFV .                 45:   DRILLING FLUID VISCOSITY
 DFL .                8.9:   DRILLING FLUID LOSS
 MSS .               PITS:   MUD SAMPLE SOURCE
 RMS .OHMM            .21:   RESISTIVITY MUD SAMPLE
 MST .F                76:   MUD SAMPLE TEMPERATURE
 RMF .OHMM            .19:   RESISTIVITY MUD FILTRATE SAMPLE
 MFST.F                76:   MUD FILTRATE SAMPLE TEMPERATURE
 MFSS.               MEAS:   MUD FILTRATE SAMPLE SOURCE
 TLAB.HRS            0845:   TIME LOGGER AT BOTTOM
 LUN .               8035:   LOGGING UNIT NUMBER
 LUL .               CSPR:   LOGGING UNIT LOCATION
 ENGI.           C. DRAKE:   RECORDING ENGINEER
 WITN.              AMEND:   WITNESSED BY
 CLNT.            A2DTECH:   CLIENT CODE
 ORIG.           5" PRINT:   ORIGIN OF DATA
 UWI .       490251080300:   UNIQUE WELL ID
 DICO. A2D Technologies, Inc.:   DIGITIZING COMPANY
~OTHER INFORMATION
~A    DEPT     SPR        SFL        ILD        ILM         GRD       CALD      DPHI       RHOB       CORR        NPHI  
    6.0000  -999.2500  -999.2500  -999.2500  -999.2500    77.0297    13.3221  -999.2500  -999.2500  -999.2500    -0.0036
    6.5000  -999.2500  -999.2500  -999.2500  -999.2500    80.9901    13.2174  -999.2500  -999.2500  -999.2500    -0.0036
    7.0000  -999.2500  -999.2500  -999.2500  -999.2500   101.0053    12.4256  -999.2500  -999.2500  -999.2500    -0.0036
    7.5000  -999.2500  -999.2500  -999.2500  -999.2500   106.6349    11.0571  -999.2500  -999.2500    -0.0254    -0.0032
    8.0000  -999.2500  -999.2500  -999.2500  -999.2500   110.1463    10.5557  -999.2500  -999.2500    -0.0334     0.0064
    8.5000  -999.2500  -999.2500  -999.2500  -999.2500   111.4903    10.0523  -999.2500  -999.2500    -0.0334     0.0360
    9.0000  -999.2500  -999.2500  -999.2500  -999.2500   110.5616     9.9957  -999.2500  -999.2500    -0.0318     0.0579
    9.5000  -999.2500  -999.2500  -999.2500  -999.2500   107.8503     9.9759  -999.2500  -999.2500    -0.0301     0.1325
   10.0000   -77.1000   236.6481     6.8638    13.5788   105.0231     9.9533  -999.2500  -999.2500    -0.0286     0.2025
   10.5000   -77.5000   559.5473    14.3998    29.4576   102.6608     9.9231  -999.2500  -999.2500    -0.0269     0.2269
   11.0000   -78.1000  1226.4962    15.3028    22.6878   101.6008     9.9028  -999.2500  -999.2500    -0.0255     0.2077
   11.5000   -78.3823  1717.7657    18.2771    19.2678   101.2921     9.9032  -999.2500  -999.2500    -0.0290     0.1892
   12.0000   -78.7732  1869.1348    34.7039    13.4542   101.4195     9.9056  -999.2500  -999.2500    -0.0326     0.1860
   12.5000   -79.1648  1883.6663    60.3650    10.2977   101.6607     9.9102  -999.2500  -999.2500    -0.0343     0.1961
   13.0000   -79.5380  1062.6870    40.7248    10.0168   103.1804     9.9149  -999.2500  -999.2500    -0.0354     0.2074
   13.5000   -79.7379   267.5553    24.8007    10.3310   103.1515     9.9194  -999.2500  -999.2500    -0.0343     0.2236
   14.0000   -79.9447    45.0176    21.1375    11.5012   103.2475     9.9204  -999.2500  -999.2500    -0.0332     0.2544
   14.5000   -80.1521    26.0126    22.5582    13.0377   105.4447     9.9083  -999.2500  -999.2500    -0.0316     0.2930
   15.0000   -80.3595    25.9554    25.0300    14.7795   107.6539     9.8967  -999.2500     2.0373    -0.0283     0.3316
   15.5000   -80.5669    25.8978    27.5923    16.7539   109.8483     9.8850  -999.2500     2.1515    -0.0224     0.3623
   16.0000   -80.7751    25.7494    30.3825    18.9922   110.6730     9.8734     0.2800     2.2105    -0.0121     0.3655
   16.5000   -81.0188    25.6251    33.4549    19.4544   109.4782     9.8634     0.2650     2.2323    -0.0045     0.3583
   17.0000   -81.3198    25.5014    35.4081    17.9724   107.9724     9.8691     0.2561     2.2463     0.0010     0.3623
   17.5000   -81.4924    25.4176    36.0349    16.4522   107.3687     9.8749     0.2501     2.2615     0.0044     0.3735
   18.0000   -81.4667    25.4176    36.6854    15.0605   106.7424     9.8806     0.2451     2.2693     0.0061     0.3763
   18.5000   -81.4437    25.4176    37.1199    13.9596   106.1046     9.8863     0.2441     2.2709     0.0042     0.3692
   19.0000   -81.4201    25.8135    34.4818    13.7046   105.9554     9.8919     0.2449     2.2693     0.0025     0.3655
   19.5000   -81.3967    26.5338    29.3670    13.4588   106.2848     9.8973     0.2465     2.2658     0.0007     0.3736
   20.0000   -81.3733    27.2743    24.4973    13.1476   107.7044     9.9063     0.2493     2.2624    -0.0005     0.3803
   20.5000   -81.3498    27.8724    19.0872    11.0925   110.4928     9.9798     0.2487     2.2624     0.0004     0.3732
   21.0000   -81.3248    27.8724    14.8720     9.1105   112.4022     9.9907     0.2450     2.2693     0.0096     0.3603
   21.5000   -81.2926    21.6665    11.5876     7.4827   111.5039    10.0001     0.2387     2.2797     0.0161     0.3567
   22.0000   -81.6507    17.3487     9.0286     6.1457   109.7607    10.0098     0.2301     2.2954     0.0333     0.3689
   22.5000   -82.0539    13.8914     7.0347     5.0476   107.9634    10.0197     0.2204     2.3123     0.0559     0.3810
   23.0000   -82.4614    11.1231     6.0727     4.1457   107.9160    10.0243     0.2164     2.3186     0.0688     0.3907
   23.5000   -82.8788     9.8986     5.5015     3.9113   108.2592    10.0287     0.2259     2.3018     0.0571     0.3977
   24.0000   -82.9445     9.2192     4.9840     3.8398   109.4953    10.0331     0.2401     2.2759     0.0338     0.4079
   24.5000   -82.9880     9.1346     4.5750     3.8046   111.7563    10.0375     0.2459     2.2687     0.0125     0.4230
   25.0000   -83.0332     9.4668     4.4914     3.8046   114.1771    10.0419     0.2402     2.2831     0.0071     0.4261
   25.5000   -83.0779     9.9414     4.5767     3.8046   115.0960    10.0463     0.2244     2.3059     0.0027     0.4188
   26.0000   -83.0175    10.4398     4.7340     3.8046   114.4126    10.0508     0.2173     2.3182     0.0048     0.4062
   26.5000   -82.7629    10.9632     4.8967     3.9528   113.7327    10.0551     0.2144     2.3220     0.0072     0.3948
   27.0000   -82.5103    11.3999     5.0633     4.1100   113.0840    10.0595     0.2128     2.3242     0.0095     0.3836
   27.5000   -82.2619    11.4125     4.9646     4.1720   113.0631    10.0614     0.2120     2.3234     0.0114     0.3835
   28.0000   -82.1612    10.4244     4.8687     3.8924   113.0726    10.0774     0.2168     2.3161     0.0092     0.3853
   28.5000   -82.5092     8.1016     4.7908     3.7053   113.2560    10.1628     0.2236     2.3047     0.0068     0.3876
   29.0000   -82.4486     6.3148     4.4055     3.5272   115.0788    10.1877     0.2269     2.2991     0.0046     0.3971
   29.5000   -82.3811     5.0101     4.0686     3.3296   118.4083    10.2020     0.2282     2.2968     0.0035     0.4087
   30.0000   -82.3160     4.4862     3.7575     3.1349   120.8892    10.2167     0.2297     2.2942     0.0017     0.4202
   30.5000   -82.1463     4.3223     3.4947     3.0825   121.7656    10.1923     0.2329     2.2885    -0.0004     0.4317
   31.0000   -81.9545     4.1704     3.3724     3.0253   123.1212    10.1602     0.2330     2.2896    -0.0025     0.4353
   31.5000   -81.7625     4.1200     3.3762     2.9662   124.0668    10.1340     0.2289     2.2958    -0.0034     0.4325
   32.0000   -81.5690     4.0958     3.3749     3.0640   123.2600    10.1182     0.2230     2.3042    -0.0031     0.4234
   32.5000   -81.4976     4.1511     3.4645     3.1958   118.8473    10.1125     0.2163     2.3176    -0.0028     0.4192
   33.0000   -81.4833     4.2336     3.5604     3.3333   113.4300    10.1071     0.2123     2.3233    -0.0026     0.4192
   33.5000   -81.6765     4.3583     3.7312     3.4766   108.7079    10.1018     0.2083     2.3294    -0.0052     0.4188
   34.0000   -82.1156     4.4868     3.9643     3.6262   104.9943    10.0963     0.2041     2.3373    -0.0076     0.4172
   34.5000   -82.4537     4.6191     4.2115     3.7821   102.8472    10.0910     0.1981     2.3453    -0.0107     0.4043
   35.0000   -82.7235     4.7552     4.4741     3.9450   103.9309    10.0855     0.1922     2.3540    -0.0112     0.3902
   35.5000   -82.7990     4.8953     4.7920     4.1120   105.8600    10.0801     0.1809     2.3725    -0.0085     0.3761
   36.0000   -82.8763     4.9708     4.7909     4.2163   107.2059    10.0747     0.1680     2.3925     0.0020     0.3673
   36.5000   -82.9537     4.9710     4.7990     4.2922   107.4013    10.0693     0.1574     2.4123     0.0090     0.3631
   37.0000   -83.0312     4.9709     4.8054     4.2894   107.9177    10.0639     0.1541     2.4204     0.0130     0.3623
   37.5000   -83.1084     4.9708     4.8118     4.3239   109.3147    10.0542     0.1523     2.4230     0.0155     0.3618
   38.0000   -83.1861     4.9708     4.8183     4.3129   110.1847    10.0416     0.1486     2.4290     0.0128     0.3591
   38.5000   -83.2625     4.9708     4.8247     4.3055   109.6121    10.0414     0.1438     2.4375     0.0096     0.3588
   39.0000   -83.5817     4.9706     4.8310     4.2980   109.1050    10.0415     0.1391     2.4450     0.0115     0.3584
