~VERSION INFORMATION
 VERS.                2.0:   CWLS LOG ASCII STANDARD - VERSION 2.0
 WRAP.                 NO:   ONE LINE PER DEPTH STEP
~WELL INFORMATION
#MNEM.UNIT      DATA TYPE    INFORMATION
#----------   ------------   ------------------------------
 STRT.F           64.0000:   START DEPTH
 STOP.F          532.0000:   STOP DEPTH
 STEP.F            0.5000:   STEP LENGTH
 NULL.          -999.2500:   NO VALUE
 COMP.       F D SERV INC:   COMPANY
 WELL.  81-3 SX 10 #81-10:   WELL
 FLD .             TEAPOT:   FIELD
 LOC .      S10 T38N R78W:   LOCATION
 CNTY.            NATRONA:   COUNTY
 STAT.            WYOMING:   STATE
 CTRY. UNITED STATES OF AMERICA:   COUNTRY
 SRVC.     Atlas Wireline:   SERVICE COMPANY
 DATE.        29-JAN-1993:   LOGDATE
 API .       490252258400:   API NUMBER
~CURVE INFORMATION
#MNEM.UNIT       API CODE    CURVE DESCRIPTION
#----------   ------------   ------------------------------
 DEPT.F                  :   
 C13 .IN     45 280 13 00:   
 ZCOR.G/C3   45 356 01 00:   DENSITY CORRECTION
 ZDEN.G/C3   45 350 01 00:   BULK DENSITY
 GRD .GAPI   45 310 01 00:   GAMMA RAY FROM DENSITY LOG
 PORS.DEC    42 890 00 00:   
 PORZ.DEC    45 890 00 00:   DENSITY POROSITY
 RILD.OHMM   07 120 46 00:   INDUCTION LOG DEEP RESISTIVITY
 RILM.OHMM   07 120 44 00:   INDUCTION LOG MEDIUM RESISTIVITY
~PARAMETER INFORMATION
#MNEM.UNIT          VALUE    DESCRIPTION
#----------   ------------   ------------------------------
 PD  .                 GL:   PERMANENT DATUM
 EPD .F              5161:   ELEVATION PERMANENT DATUM
 LMF .                 KB:   LOG MEASURED FROM
 DAPD.F                10:   FEET ABOVE PERMANENT DATUM
 DMF .                 KB:   DRILLING MEASURED FROM
 EKB .F              5171:   KELLING BUSHING
 EDF .F              5170:   DRILLING FLOOR
 EGL .F              5161:   GROUND LEVEL
 DATE.        29-JAN-1993:   RUN DATE
 RUN .                  1:   RUN NUMBER
 DD  .F               536:   DEPTH DRILLER
 DL  .F               536:   DEPTH LOGGER
 BLI .F               527:   BOTTOM LOG INTERVAL
 TLI .F                96:   TOP LOG INTERVAL
 CS  .IN            8.625:   CASING SIZE
 CBD .F                96:   CASING BOTTOM DRILLER
 CBL .F                96:   CASING BOTTOM LOGGER
 BS  .IN            7.875:   BIT SIZE
 BSD .F               536:   BIT SIZE AT DEPTH
 DFT .                AIR:   DRILLING FLUID TYPE
 MRT .F                65:   MAXIMUM RECORDED TEMPERATURE
 LUN .            HL-6274:   LOGGING UNIT NUMBER
 LUL .             CASPER:   LOGGING UNIT LOCATION
 ENGI.        P.RASMUSSEN:   RECORDING ENGINEER
 WITN.           G.STRONG:   WITNESSED BY
 CLNT.            A2DTECH:   CLIENT CODE
 ORIG.           5" PRINT:   ORIGIN OF DATA
 UWI .       490252258400:   UNIQUE WELL ID
 DICO. A2D Technologies, Inc.:   DIGITIZING COMPANY
~OTHER INFORMATION
~A   DEPT      C13       ZCOR       ZDEN        GRD       PORS       PORZ       RILD       RILM   
# ...
  347.5000     8.1794     0.0215     2.3065    88.8709     0.2401     0.2050    24.5673    23.7564
  348.0000     8.1790     0.0126     2.3523    91.8795     0.2416     0.1747    23.4408    22.3294
  348.5000     8.1784     0.0007     2.3764    93.0815     0.2431     0.1642    22.8033    21.8738
  349.0000     8.1931    -0.0053     2.3839    91.2707     0.2443     0.1615    22.3374    21.7267
  349.5000     8.1926    -0.0112     2.3747    88.2558     0.2450     0.1658    21.8679    21.5810
  350.0000     8.2072    -0.0157     2.3569    86.7467     0.2444     0.1783    21.7326    21.1410
  350.5000     8.2069    -0.0157     2.3509    86.1415     0.2447     0.1819    21.4371    20.9949
  351.0000     8.2066    -0.0067     2.3479    82.8248     0.2426     0.1837    21.4406    20.9949
  351.5000     8.2063    -0.0052     2.3479    80.4123     0.2395     0.1831    21.5924    21.1410
  352.0000     8.2211    -0.0097     2.3539    78.9035     0.2811     0.1804    21.4455    21.2882
  352.5000     8.2207    -0.0111     2.3614    79.2012     0.3710     0.1761    21.4490    21.4363
  353.0000     8.2054    -0.0126     2.3637    79.8015     0.4020     0.1752    21.6010    21.4363
  353.5000     8.2051    -0.0126     2.3562    79.1956     0.3584     0.1782    21.9057    21.4363
  354.0000     8.2048    -0.0094     2.3494    77.6868     0.2831     0.1806    22.2141    21.5855
  354.5000     8.2045    -0.0066     2.3548    78.5869     0.2528     0.1748    22.5269    21.5855
  355.0000     8.2042    -0.0051     2.3697    80.6925     0.2537     0.1668    22.6865    21.4363
  355.5000     8.2190    -0.0020     2.3780    82.4970     0.2571     0.1644    22.6901    21.4363
  356.0000     8.2186     0.0069     2.3825    84.9031     0.2610     0.1632    22.6930    21.4363
  356.5000     8.2333     0.0129     2.3825    86.1051     0.2619     0.1632    22.8537    21.7357
  357.0000     8.2330     0.0144     2.3780    85.8011     0.2622     0.1667    22.8568    22.0393
  357.5000     8.2177     0.0040     2.3750    84.8940     0.2616     0.1697    22.8604    22.1927
  358.0000     8.2174    -0.0035     2.3697    84.2888     0.2616     0.1698    22.8634    22.3472
  358.5000     8.2322     0.0145     2.3705    84.5872     0.2619     0.1678    22.7085    22.1927
  359.0000     8.2168     0.0160     2.3743    86.1305     0.2631     0.1667    22.5548    22.0393
  359.5000     8.2165     0.0085     2.3735    88.7978     0.2643     0.1691    22.4021    21.7357
  360.0000     8.2312     0.0040     2.3705    89.9998     0.2658     0.1685    22.2047    21.5855
  360.5000     8.2159    -0.0006     2.3743    89.0933     0.2670     0.1655    22.0997    21.5855
  361.0000     8.2156    -0.0049     2.3773    86.6802     0.2677     0.1658    21.7993    21.2882
  361.5000     8.2153    -0.0049     2.3706    84.8702     0.2680     0.1709    21.8028    21.1410
  362.0000     8.2150    -0.0018     2.3631    83.3614     0.2662     0.1763    21.8057    20.9949
  362.5000     8.2147     0.0056     2.3578    84.2615     0.2647     0.1754    21.5079    20.7057
  363.0000     8.2144     0.0116     2.3618    84.8618     0.2641     0.1720    21.2155    20.4205
  363.5000     8.2141     0.0041     2.3676    84.8583     0.2641     0.1699    20.9264    20.1392
  364.0000     8.2138    -0.0063     2.3714    83.6305     0.2644     0.1666    20.6413    19.8618
  364.5000     8.2285    -0.0063     2.3752    82.4423     0.2641     0.1633    20.5022    19.4528
  365.0000     8.2282    -0.0003     2.3849    83.9456     0.2641     0.1597    20.3540    19.1848
  365.5000     8.2129     0.0057     2.3917    84.5452     0.2641     0.1564    20.0858    19.1848
  366.0000     8.2126     0.0087     2.3977    84.8436     0.2641     0.1536    19.9498    19.1848
  366.5000     8.2123     0.0147     2.4045    85.4425     0.2638     0.1491    19.8147    19.1884
  367.0000     8.1970     0.0162     2.4082    86.0421     0.2632     0.1473    19.9557    19.4528
  367.5000     8.1967     0.0117     2.4060    86.6417     0.2623     0.1491    20.0976    19.5882
  368.0000     8.1964     0.0043     2.3973    86.0358     0.2611     0.1562    20.1003    19.5882
  368.5000     8.1961    -0.0047     2.3872    84.2257     0.2596     0.1599    20.1029    19.7245
  369.0000     8.1958     0.0058     2.3827    82.0944     0.2581     0.1617    20.1055    19.8618
  369.5000     8.1955     0.0073     2.3812    80.9062     0.2563     0.1623    20.1088    19.8618
  370.0000     8.2102     0.0088     2.3805    80.6022     0.2545     0.1623    19.8348    19.7245
  370.5000     8.2099     0.0029     2.3812    80.5994     0.2527     0.1617    19.6998    19.5810
  371.0000     8.2096    -0.0016     2.3827    81.4995     0.2509     0.1608    19.4320    18.9205
  371.5000     8.2093     0.0104     2.3850    83.0027     0.2488     0.1596    19.3006    18.5309
  372.0000     8.2090     0.0149     2.3918    84.8071     0.2476     0.1569    19.0381    18.1494
  372.5000     8.2087    -0.0001     2.4030    86.6109     0.2470     0.1523    18.8590    17.7674
  373.0000     8.2064    -0.0031     2.4100    86.0056     0.2461     0.1469    18.7794    17.2893
  373.5000     8.1931     0.0029     2.4153    82.3884     0.2455     0.1433    18.3974    17.1698
  374.0000     8.1928     0.0060     2.4234    81.1807     0.2468     0.1394    18.1473    17.0511
  374.5000     8.1925     0.0030     2.4332    83.2857     0.2483     0.1358    17.9000    16.9333
  375.0000     8.1922    -0.0030     2.4369    84.7896     0.2501     0.1325    17.6561    16.9333
  375.5000     8.1919    -0.0090     2.4249    84.4849     0.2516     0.1297    17.4161    16.7000
  376.0000     8.1916     0.0000     2.4151    83.8790     0.2528     0.1348    17.1788    16.4700
  376.5000     8.1912     0.0165     2.4181    84.7798     0.2540     0.1378    16.9447    16.2431
  377.0000     8.1910     0.0344     2.4264    85.6806     0.2552     0.1426    16.5985    15.9086
  377.5000     8.2057     0.0330     2.4354    84.7735     0.2561     0.1363    16.3723    15.5810
  378.0000     8.2054     0.0285     2.4455    81.7587     0.2564     0.1300    16.1492    15.3664
  378.5000     8.2051     0.0240     2.4490    79.9486     0.2552     0.1255    15.9292    15.2602
  379.0000     8.2048     0.0196     2.4452    81.1707     0.2540     0.1225    15.8218    15.1547
  379.5000     8.2045     0.0181     2.4445    83.5568     0.2543     0.1246    15.8244    15.1547
  380.0000     8.1891     0.0180     2.4482    85.3612     0.2549     0.1252    15.7167    15.2602
  380.5000     8.1889     0.0151     2.4490    85.3685     0.2559     0.1230    15.7193    15.3664
  381.0000     8.1886     0.0106     2.4430    84.1501     0.2562     0.1227    15.6128    15.3664
  381.5000     8.1882     0.0062     2.4355    84.1473     0.2559     0.1260    15.5071    15.1547
  382.0000     8.1729     0.0211     2.4325    84.7470     0.2559     0.1290    15.2958    14.9460
  382.5000     8.1877     0.0271     2.4355    85.3458     0.2559     0.1308    15.1927    14.7401
  383.0000     8.1874     0.0301     2.4402    86.2466     0.2550     0.1305    15.0898    14.4366
  383.5000     8.1871     0.0361     2.4460    87.1481     0.2541     0.1272    14.8842    14.2377
  384.0000     8.1868     0.0332     2.4505    88.6507     0.2532     0.1242    14.6814    13.9445
  384.5000     8.2015     0.0317     2.4536    88.6471     0.2529     0.1218    14.5820    13.8341
  385.0000     8.1861     0.0332     2.4581    88.3431     0.2535     0.1190    14.3838    13.6574
  385.5000     8.1859     0.0347     2.4626    87.4367     0.2541     0.1163    14.2864    13.5630
  386.0000     8.1856     0.0392     2.4694    86.5296     0.2541     0.1136    14.1689    13.5630
  386.5000     8.1852     0.0468     2.4709    86.2256     0.2526     0.1097    14.0611    13.4692
  387.0000     8.1850     0.0512     2.4709    86.5240     0.2523     0.1079    13.9019    13.5630
  387.5000     8.1847     0.0422     2.4724    88.9301     0.2520     0.1082    13.6184    13.4692
