~VERSION INFORMATION
 VERS.                2.0:   CWLS LOG ASCII STANDARD - VERSION 2.0
 WRAP.                 NO:   ONE LINE PER DEPTH STEP
~WELL INFORMATION
#MNEM.UNIT      DATA TYPE    INFORMATION
#----------   ------------   ------------------------------
 STRT.F           44.0000:   START DEPTH
 STOP.F          462.0000:   STOP DEPTH
 STEP.F            0.5000:   STEP LENGTH
 NULL.          -999.2500:   NO VALUE
 COMP. FENIX & SCISSON INC:   COMPANY
 WELL.    35-SX-3F0 #55-3:   WELL
 FLD .             TEAPOT:   FIELD
 LOC .       S3 T38N R78W:   LOCATION
 CNTY.            NATRONA:   COUNTY
 STAT.            WYOMING:   STATE
 CTRY. UNITED STATES OF AMERICA:   COUNTRY
 SRVC.              Welex:   SERVICE COMPANY
 DATE.        11-JUL-1980:   LOGDATE
 API .       490251083300:   API NUMBER
~CURVE INFORMATION
#MNEM.UNIT       API CODE    CURVE DESCRIPTION
#----------   ------------   ------------------------------
 DEPT.F                  :   
 GRD .GAPI   45 310 01 00:   GAMMA RAY FROM DENSITY LOG
 CALD.IN     45 280 60 00:   CALIPER
 RHOB.G/C3   45 350 01 00:   BULK DENSITY
 CORR.G/C3   45 356 01 00:   DENSITY CORRECTION
 DPHI.DEC    45 890 12 00:   DENSITY POROSITY SANDSTONE
~PARAMETER INFORMATION
#MNEM.UNIT          VALUE    DESCRIPTION
#----------   ------------   ------------------------------
 PD  .                 GL:   PERMANENT DATUM
 EPD .F              5171:   ELEVATION PERMANENT DATUM
 LMF .                 KB:   LOG MEASURED FROM
 DAPD.F                 5:   FEET ABOVE PERMANENT DATUM
 DMF .                 KB:   DRILLING MEASURED FROM
 EKB .F              5176:   KELLING BUSHING
 EGL .F              5171:   GROUND LEVEL
 DATE.            7-11-80:   RUN DATE
 RUN .                  1:   RUN NUMBER
 DD  .F               470:   DEPTH DRILLER
 DL  .F               470:   DEPTH LOGGER
 BLI .F               462:   BOTTOM LOG INTERVAL
 TLI .F                48:   TOP LOG INTERVAL
 CS  .IN                7:   CASING SIZE
 CBD .F                48:   CASING BOTTOM DRILLER
 BS  .IN             6.25:   BIT SIZE
 BSD .F               470:   BIT SIZE AT DEPTH
 DFT .        AIR DRILLED:   DRILLING FLUID TYPE
 BHT .F                75:   BOTTOM HOLE TEMPERATURE
 TCS .HRS               2:   TIME CURCULATED STOPPED
 MRT .F                75:   MAXIMUM RECORDED TEMPERATURE
 ENGI.           PFRIMMER:   RECORDING ENGINEER
 WITN.              AMEND:   WITNESSED BY
 CLNT.            A2DTECH:   CLIENT CODE
 ORIG.           5" PRINT:   ORIGIN OF DATA
 UWI .       490251083300:   UNIQUE WELL ID
 DICO. A2D Technologies, Inc.:   DIGITIZING COMPANY
~OTHER INFORMATION
~A   DEPT       GRD        CALD     RHOB       CORR       DPHI   
# ...
  227.0000   111.7861     6.7594     2.4810     0.1637     0.1238
  227.5000   110.5173     6.7739     2.4701     0.1565     0.1280
  228.0000   109.5133     6.7459     2.4547     0.1493     0.1350
  228.5000   109.6527     6.7624     2.4390     0.1420     0.1419
  229.0000   108.5296     6.7549     2.4338     0.1353     0.1488
  229.5000   107.3561     6.7453     2.4300     0.1397     0.1499
  230.0000   107.3489     6.7458     2.4262     0.1443     0.1509
  230.5000   107.4617     6.7665     2.4224     0.1381     0.1540
  231.0000   108.1324     6.7825     2.4240     0.1234     0.1566
  231.5000   108.8776     6.7600     2.4408     0.1083     0.1451
  232.0000   108.7064     6.7431     2.4522     0.1047     0.1371
  232.5000   110.0310     6.7514     2.4454     0.1041     0.1400
  233.0000   110.1150     6.7595     2.4420     0.1035     0.1436
  233.5000   110.6878     6.7528     2.4462     0.1034     0.1409
  234.0000   112.3441     6.7351     2.4514     0.1137     0.1383
  234.5000   113.8748     6.7171     2.4565     0.1240     0.1356
  235.0000   114.0295     6.6991     2.4509     0.1189     0.1383
  235.5000   114.3158     6.6841     2.4389     0.1100     0.1452
  236.0000   115.0345     6.6966     2.4304     0.1013     0.1516
  236.5000   115.2473     6.7089     2.4276     0.1009     0.1541
  237.0000   114.5244     6.7215     2.4194     0.1010     0.1584
  237.5000   113.8658     6.7116     2.4113     0.1010     0.1626
  238.0000   111.1419     6.6976     2.4035     0.1026     0.1645
  238.5000   108.3831     6.6835     2.4007     0.1044     0.1589
  239.0000   108.0798     6.6693     2.4443     0.1062     0.1469
  239.5000   107.7206     6.6628     2.4539     0.1081     0.1340
  240.0000   107.5400     6.6906     2.4578     0.1099     0.1299
  240.5000   107.7710     6.7229     2.4624     0.1118     0.1256
  241.0000   107.9943     6.7331     2.4685     0.1136     0.1212
  241.5000   108.2183     6.7424     2.4746     0.1154     0.1181
  242.0000   108.4418     6.7517     2.4806     0.1173     0.1164
  242.5000   108.6667     6.7611     2.4863     0.1191     0.1148
  243.0000   108.8967     6.7704     2.4868     0.1209     0.1144
  243.5000   109.0637     6.7801     2.4875     0.1228     0.1152
  244.0000   108.2496     6.7697     2.4869     0.1249     0.1161
  244.5000   107.4331     6.7507     2.4803     0.1165     0.1189
  245.0000   106.5755     6.7313     2.4739     0.1058     0.1230
  245.5000   105.6432     6.7120     2.4685     0.0950     0.1271
  246.0000   105.0943     6.6926     2.4665     0.0841     0.1318
  246.5000   105.6421     6.6738     2.4572     0.0795     0.1369
  247.0000   108.2790     6.6845     2.4472     0.0773     0.1421
  247.5000   108.4303     6.7288     2.4373     0.0748     0.1473
  248.0000   106.8946     6.7744     2.4327     0.0606     0.1487
  248.5000   105.3550     6.7642     2.4384     0.0454     0.1473
  249.0000   103.8350     6.7401     2.4486     0.0427     0.1402
  249.5000   102.9023     6.7158     2.4589     0.0424     0.1332
  250.0000   103.9996     6.7096     2.4693     0.0421     0.1260
  250.5000   104.1678     6.7229     2.4799     0.0418     0.1232
  251.0000   103.9799     6.7362     2.4785     0.0415     0.1228
  251.5000   104.1789     6.7496     2.4751     0.0411     0.1260
  252.0000   104.1438     6.7629     2.4718     0.0366     0.1269
  252.5000   103.7721     6.7762     2.4652     0.0270     0.1319
  253.0000   103.4059     6.7806     2.4587     0.0266     0.1373
  253.5000   102.4397     6.7761     2.4539     0.0302     0.1376
  254.0000   101.2588     6.7715     2.4565     0.0330     0.1365
  254.5000   100.0453     6.7669     2.4590     0.0330     0.1365
  255.0000    98.9926     6.7624     2.4561     0.0336     0.1373
  255.5000   100.1271     6.7578     2.4564     0.0371     0.1364
  256.0000   100.6070     6.7533     2.4625     0.0404     0.1333
  256.5000   101.2088     6.7487     2.4685     0.0474     0.1302
  257.0000   102.8111     6.7442     2.4744     0.0546     0.1271
  257.5000   102.9379     6.7396     2.4777     0.0619     0.1240
  258.0000   101.1469     6.7351     2.4755     0.0692     0.1247
  258.5000    99.3180     6.7305     2.4734     0.0764     0.1260
  259.0000    99.0153     6.7260     2.4713     0.0837     0.1276
  259.5000    98.4205     6.7244     2.4672     0.0909     0.1303
  260.0000    97.2431     6.7281     2.4601     0.0954     0.1330
  260.5000    96.0684     6.7317     2.4549     0.0971     0.1357
  261.0000    95.6727     6.7353     2.4546     0.0991     0.1369
  261.5000    96.1117     6.7389     2.4541     0.1090     0.1375
  262.0000    96.8058     6.7425     2.4480     0.1196     0.1446
  262.5000    97.5014     6.7462     2.4338     0.1230     0.1533
  263.0000    98.3161     6.7498     2.4197     0.1230     0.1619
  263.5000   100.4365     6.7534     2.4056     0.1230     0.1702
  264.0000   102.7469     6.7572     2.3914     0.1228     0.1778
  264.5000   105.0581     6.7608     2.3766     0.1093     0.1854
  265.0000   107.3670     6.7515     2.3723     0.0792     0.1866
  265.5000   108.5265     6.6792     2.3855     0.0736     0.1788
  266.0000   107.4814     6.6074     2.3912     0.0743     0.1745
  266.5000   107.8322     6.6101     2.3917     0.0738     0.1753
  267.0000   108.8158     6.6659     2.3917     0.0683     0.1730
  267.5000   105.7081     6.7204     2.4011     0.0631     0.1666
  268.0000   102.2148     6.6952     2.4288     0.0662     0.1384
  268.5000    98.7228     6.6654     2.4586     0.0704     0.1219
  269.0000    95.5341     6.6507     2.4888     0.0745     0.1163
  269.5000    95.6200     6.6867     2.4904     0.0786     0.1159
  270.0000    96.9537     6.7208     2.4849     0.0828     0.1198
  270.5000    98.2495     6.7445     2.4799     0.0869     0.1216
  271.0000    98.0300     6.7474     2.4858     0.0918     0.1181
  271.5000    97.7348     6.7507     2.4929     0.0975     0.1136
  272.0000    97.4506     6.7539     2.4837     0.1028     0.1212
  272.5000    97.2916     6.7572     2.4703     0.1040     0.1274
  273.0000    95.2078     6.7604     2.4630     0.1051     0.1314
  273.5000    92.5712     6.7591     2.4586     0.1063     0.1358
  274.0000    92.1104     6.7358     2.4497     0.1100     0.1420
  274.5000    92.0816     6.7233     2.4331     0.1180     0.1480
  275.0000    91.0266     6.7304     2.4166     0.1260     0.1625
  275.5000    86.7654     6.7373     2.4000     0.1339     0.1706
  276.0000    80.0657     6.7442     2.3835     0.1421     0.1797
  276.5000    72.5230     6.7511     2.3667     0.1377     0.1911
  277.0000    65.3572     6.7579     2.3474     0.1261     0.2025
  277.5000    64.0536     6.7601     2.3247     0.1145     0.2139
  278.0000    64.5107     6.7465     2.3097     0.1063     0.2235
  278.5000    65.7177     6.7336     2.3091     0.1050     0.2242
  279.0000    66.2566     6.7228     2.3080     0.1066     0.2248
  279.5000    65.5325     6.7231     2.3041     0.1131     0.2253
  280.0000    66.1175     6.7231     2.3002     0.1200     0.2257
  280.5000    67.3698     6.7231     2.3036     0.1269     0.2277
  281.0000    68.6362     6.7231     2.3081     0.1338     0.2250
  281.5000    67.9832     6.7231     2.3126     0.1406     0.2223
  282.0000    65.8509     6.7231     2.3139     0.1478     0.2197
  282.5000    63.7475     6.7240     2.2982     0.1455     0.2292
  283.0000    61.6427     6.7288     2.2827     0.1410     0.2389
  283.5000    59.5370     6.7333     2.2672     0.1358     0.2486
  284.0000    57.4190     6.7379     2.2516     0.1264     0.2584
  284.5000    55.3432     6.7425     2.2464     0.1172     0.2610
  285.0000    56.1424     6.7471     2.2554     0.1158     0.2573
  285.5000    57.2378     6.7517     2.2617     0.1200     0.2528
  286.0000    58.3264     6.7563     2.2680     0.1242     0.2469
  286.5000    59.4042     6.7610     2.2857     0.1228     0.2385
  287.0000    61.9993     6.7440     2.3032     0.1199     0.2301
  287.5000    65.1366     6.7098     2.3207     0.1261     0.2137
