~VERSION INFORMATION
 VERS.                2.0:   CWLS LOG ASCII STANDARD - VERSION 2.0
 WRAP.                 NO:   ONE LINE PER DEPTH STEP
~WELL INFORMATION
#MNEM.UNIT      DATA TYPE    INFORMATION
#----------   ------------   ------------------------------
 STRT.F           20.0000:   START DEPTH
 STOP.F          632.0000:   STOP DEPTH
 STEP.F            0.5000:   STEP LENGTH
 NULL.          -999.2500:   NO VALUE
 COMP. FENIX & SCISSON INC:   COMPANY
 WELL.    58 SX 34 #34-34:   WELL
 FLD .             TEAPOT:   FIELD
 LOC .      S34 T39N R78W:   LOCATION
 CNTY.            NATRONA:   COUNTY
 STAT.            WYOMING:   STATE
 CTRY. UNITED STATES OF AMERICA:   COUNTRY
 SRVC.            Unknown:   SERVICE COMPANY
 DATE.        30-JAN-1979:   LOGDATE
 API .       490251077300:   API NUMBER
~CURVE INFORMATION
#MNEM.UNIT       API CODE    CURVE DESCRIPTION
#----------   ------------   ------------------------------
 DEPT.F                  :   
 SPR .MV     05 010 01 00:   SPONTANEOUS POTENTIAL FROM RES.
 SN  .OHMM   05 040 16 00:   SHORT NORMAL 16"
 ILD .OHMM   05 120 46 00:   INDUCTION LOG DEEP
 CALD.IN     45 280 60 00:   CALIPER
 CORR.G/C3   45 356 01 00:   DENSITY CORRECTION
 RHOB.G/C3   45 350 01 00:   BULK DENSITY
 GRD .GAPI   45 310 01 00:   GAMMA RAY FROM DENSITY LOG
 DPHI.DEC    45 890 12 00:   DENSITY POROSITY SANDSTONE
~PARAMETER INFORMATION
#MNEM.UNIT          VALUE    DESCRIPTION
#----------   ------------   ------------------------------
 PD  .                 GL:   PERMANENT DATUM
 LMF .                 KB:   LOG MEASURED FROM
 DAPD.F                 4:   FEET ABOVE PERMANENT DATUM
 DMF .                 KB:   DRILLING MEASURED FROM
 DATE.            1-30-79:   RUN DATE
 RUN .                  1:   RUN NUMBER
 DD  .F               635:   DEPTH DRILLER
 DL  .F               632:   DEPTH LOGGER
 BLI .F               626:   BOTTOM LOG INTERVAL
 TLI .F                35:   TOP LOG INTERVAL
 CS  .IN            8.625:   CASING SIZE
 CBD .F                40:   CASING BOTTOM DRILLER
 CBL .F                35:   CASING BOTTOM LOGGER
 BS  .IN            7.875:   BIT SIZE
 BSD .F               635:   BIT SIZE AT DEPTH
 DFT .                KCL:   DRILLING FLUID TYPE
 DFD .                8.9:   DRILLING FLUID DENSITY
 DFV .                230:   DRILLING FLUID VISCOSITY
 DFPH.                  8:   DRILLING FLUID PH
 DFL .                 30:   DRILLING FLUID LOSS
 MSS .           FLOWLINE:   MUD SAMPLE SOURCE
 RMS .OHMM            .18:   RESISTIVITY MUD SAMPLE
 MST .F                62:   MUD SAMPLE TEMPERATURE
 RMF .OHMM            .14:   RESISTIVITY MUD FILTRATE SAMPLE
 MFST.F                59:   MUD FILTRATE SAMPLE TEMPERATURE
 RMC .OHMM            .24:   RESISTIVITY MUD CAKE
 MCST.F                60:   MUD CAKE SAMPLE TEMPERATURE
 MFSS.           MEASURED:   MUD FILTRATE SAMPLE SOURCE
 MCSS.           MEASURED:   MUD CAKE SAMPLE SOURCE
 RMB .OHMM            .17:   RESISTIVITY MUD AT BHT
 BHT .F                70:   BOTTOM HOLE TEMPERATURE
 TCS .HRS               4:   TIME CURCULATED STOPPED
 MRT .F                70:   MAXIMUM RECORDED TEMPERATURE
 LUN .               3006:   LOGGING UNIT NUMBER
 LUL .             CASPER:   LOGGING UNIT LOCATION
 ENGI.            ROLLINS:   RECORDING ENGINEER
 WITN.              AMEND:   WITNESSED BY
 CLNT.            A2DTECH:   CLIENT CODE
 ORIG.         2.5" PRINT:   ORIGIN OF DATA
 UWI .       490251077300:   UNIQUE WELL ID
 DICO. A2D Technologies, Inc.:   DIGITIZING COMPANY
~OTHER INFORMATION
~A   DEPT      SPR         SN        ILD       CALD       CORR       RHOB         GRD      DPHI   
# ...
  101.0000   -44.1027     6.4076     7.2470     7.7683     0.0640     2.4249   100.1012     0.1510
  101.5000   -44.0564     6.4040     7.2698     7.8592     0.0738     2.4247    99.5253     0.1502
  102.0000   -44.0264     6.4003     7.2933     7.9579     0.0809     2.4309   103.6004     0.1471
  102.5000   -43.9994     6.3967     7.3167     7.9528     0.0878     2.4398   105.8639     0.1444
  103.0000   -43.9669     6.3930     7.3227     7.9458     0.0877     2.4487   107.2025     0.1417
  103.5000   -43.9367     6.3894     7.3227     7.9320     0.0760     2.4555   110.4650     0.1390
  104.0000   -43.9063     6.3857     7.3227     7.9211     0.0647     2.4581   111.2200     0.1365
  104.5000   -43.8755     6.3821     7.3226     7.8589     0.0526     2.4567   108.8440     0.1357
  105.0000   -43.8454     6.3785     7.3226     7.7994     0.0473     2.4507   106.2380     0.1367
  105.5000   -43.8152     6.3748     7.3226     7.7627     0.0419     2.4429   106.3011     0.1383
  106.0000   -43.7851     6.3712     7.3226     7.8772     0.0367     2.4401   105.4566     0.1400
  106.5000   -43.7550     6.3676     7.3226     7.9949     0.0315     2.4374   104.2277     0.1417
  107.0000   -43.7248     6.3640     7.3226     8.0840     0.0261     2.4367   102.7918     0.1434
  107.5000   -43.6947     6.3603     7.3226     8.0838     0.0239     2.4367   101.5022     0.1454
  108.0000   -43.6646     6.3567     7.3227     8.0851     0.0241     2.4367   100.2156     0.1454
  108.5000   -43.6344     6.3531     7.3227     8.0850     0.0241     2.4368    99.0996     0.1447
  109.0000   -43.6043     6.3495     7.3225     8.0848     0.0240     2.4351   101.0237     0.1438
  109.5000   -43.5742     6.3459     7.3225     8.0850     0.0247     2.4305   103.4044     0.1428
  110.0000   -43.5440     6.3422     7.3225     8.0848     0.0267     2.4356   105.5656     0.1418
  110.5000   -43.5139     6.3386     7.3225     8.0847     0.0285     2.4458   109.0229     0.1408
  111.0000   -43.4837     6.3350     7.3224     8.0847     0.0305     2.4479   109.4825     0.1398
  111.5000   -43.4536     6.3314     7.3027     8.0847     0.0322     2.4454   106.2058     0.1390
  112.0000   -43.4235     6.3277     7.2211     8.0846     0.0334     2.4434   107.1435     0.1390
  112.5000   -43.3933     6.3242     7.1404     8.0846     0.0345     2.4415   109.8268     0.1396
  113.0000   -43.3632     6.3206     7.0605     8.0845     0.0359     2.4394   112.6451     0.1402
  113.5000   -43.3331     6.3166     6.9813     8.0843     0.0344     2.4388   112.3521     0.1409
  114.0000   -43.3029     6.3140     6.9031     8.0847     0.0312     2.4409   111.6675     0.1415
  114.5000   -43.2728     6.3109     6.7977     8.0850     0.0282     2.4441   111.1487     0.1422
  115.0000   -43.2426     6.3295     6.8022     8.0945     0.0252     2.4472   112.6381     0.1422
  115.5000   -43.2125     6.3479     6.8111     8.1110     0.0221     2.4492   110.2603     0.1422
  116.0000   -43.1824     6.3669     6.8200     8.1298     0.0210     2.4499   107.6324     0.1422
  116.5000   -43.1522     6.3861     6.8290     8.2106     0.0245     2.4506   107.0260     0.1422
  117.0000   -43.1221     6.4051     6.8384     8.2816     0.0279     2.4514   107.5798     0.1422
  117.5000   -43.0921     6.4243     6.8471     8.2650     0.0287     2.4521   109.3218     0.1422
  118.0000   -43.0619     6.4434     6.8559     8.2474     0.0294     2.4527   111.2796     0.1422
  118.5000   -43.0322     6.4627     6.8648     8.2286     0.0300     2.4505   113.2942     0.1423
  119.0000   -43.0022     6.4821     6.8737     8.2089     0.0307     2.4482   114.1350     0.1430
  119.5000   -42.9715     6.5013     6.8826     8.2386     0.0313     2.4457   111.1604     0.1436
  120.0000   -42.9454     6.5209     6.8916     8.2821     0.0320     2.4427   108.1880     0.1442
  120.5000   -42.9105     6.5409     6.9005     8.2554     0.0312     2.4399   106.2728     0.1448
  121.0000   -42.8768     6.5495     6.9092     8.2210     0.0301     2.4371   106.7450     0.1455
  121.5000   -42.7367     6.5491     6.9181     8.2048     0.0288     2.4342   108.0360     0.1461
  122.0000   -42.6010     6.5489     6.9550     8.2166     0.0283     2.4325   106.2861     0.1467
  122.5000   -42.4554     6.5491     7.0893     8.2245     0.0290     2.4328   104.5888     0.1474
  123.0000   -41.9616     6.5492     7.2263     8.2329     0.0297     2.4326   105.6680     0.1478
  123.5000   -41.4907     6.5491     7.3658     8.2441     0.0303     2.4337   105.3120     0.1465
  124.0000   -40.9947     6.5491     7.5080     8.2271     0.0310     2.4366   103.2268     0.1452
  124.5000   -40.5275     6.5494     7.6552     8.1843     0.0316     2.4406   101.2283     0.1439
  125.0000   -40.0491     6.5497     7.7452     8.1440     0.0321     2.4450   101.2228     0.1426
  125.5000   -40.0551     6.5631     7.7259     8.1034     0.0303     2.4450   102.5930     0.1414
  126.0000   -40.0775     6.5762     7.6406     8.0631     0.0279     2.4412   103.5598     0.1415
  126.5000   -40.9611     6.5901     7.5562     8.0229     0.0254     2.4391   102.7785     0.1419
  127.0000   -41.7881     6.6038     7.4728     7.9792     0.0245     2.4365   100.9728     0.1422
  127.5000   -42.6309     6.6175     7.3905     7.9778     0.0265     2.4341   100.2064     0.1455
  128.0000   -43.5447     6.6313     7.3224     8.0134     0.0281     2.4263    99.8966     0.1498
  128.5000   -43.3752     6.6451     7.3226     8.0451     0.0326     2.4186    99.3484     0.1542
  129.0000   -43.3047     6.6589     7.3404     8.0765     0.0366     2.4128    98.6313     0.1585
  129.5000   -43.2803     6.6728     7.3697     8.1109     0.0459     2.4109    97.5515     0.1629
  130.0000   -43.3035     6.6867     7.3991     8.1202     0.0542     2.4111    96.4297     0.1648
  130.5000   -43.2938     6.7006     7.4286     8.1051     0.0628     2.4160    97.5236     0.1640
  131.0000   -43.2924     6.7146     7.4601     8.0919     0.0716     2.4372   103.2076     0.1616
  131.5000   -43.2941     6.7286     7.4601     8.0801     0.0713     2.4678   105.2913     0.1541
  132.0000   -43.2921     6.7427     7.6169     8.0660     0.0575     2.4856   106.3597     0.1406
  132.5000   -43.2927     6.7569     7.7559     8.0512     0.0449     2.5016   107.6976     0.1272
  133.0000   -43.2927     6.7707     7.8958     8.0759     0.0324     2.5033   107.9437     0.1139
  133.5000   -43.2927     6.7838     8.0382     8.1665     0.0265     2.4930   107.0697     0.1084
  134.0000   -43.2927     6.7954     8.1833     8.2099     0.0240     2.4781   100.6608     0.1125
  134.5000   -43.2927     6.7676     8.3422     8.2484     0.0247     2.4638    93.1259     0.1222
  135.0000   -43.2927     6.7430     8.2795     8.2847     0.0251     2.4524    94.8456     0.1301
  135.5000   -43.2927     6.7173     8.1672     8.2804     0.0255     2.4436    98.7177     0.1351
  136.0000   -43.2927     6.6915     8.0563     8.2764     0.0260     2.4353    99.1305     0.1393
  136.5000   -43.2927     6.6660     7.9469     8.2706     0.0264     2.4379   100.2770     0.1422
  137.0000   -43.2927     6.6407     7.8391     8.2653     0.0268     2.4385   101.1655     0.1426
  137.5000   -43.2927     6.6151     7.7327     8.2603     0.0272     2.4385   102.3347     0.1439
  138.0000   -43.2927     6.5895     7.6278     8.2548     0.0276     2.4339   102.6491     0.1452
  138.5000   -43.2927     6.5640     7.4601     8.2494     0.0281     2.4301   102.0925     0.1462
  139.0000   -43.2927     6.5481     7.4935     8.2483     0.0275     2.4268   104.4004     0.1450
  139.5000   -43.2932     6.5621     7.5837     8.2567     0.0267     2.4251   107.4517     0.1454
  140.0000   -43.2934     6.5858     7.6749     8.2649     0.0260     2.4314   110.2137     0.1470
  140.5000   -43.2929     6.6095     7.7672     8.2733     0.0252     2.4382   112.3315     0.1486
  141.0000   -43.2959     6.6332     7.8606     8.2817     0.0244     2.4457   112.2839     0.1479
