~VERSION INFORMATION
 VERS.                2.0:   CWLS LOG ASCII STANDARD - VERSION 2.0
 WRAP.                 NO:   ONE LINE PER DEPTH STEP
~WELL INFORMATION
#MNEM.UNIT      DATA TYPE    INFORMATION
#----------   ------------   ------------------------------
 STRT.F           19.5000:   START DEPTH
 STOP.F          635.0000:   STOP DEPTH
 STEP.F            0.5000:   STEP LENGTH
 NULL.          -999.2500:   NO VALUE
 COMP. FENIX & SCISSON INC:   COMPANY
 WELL. NPR-3 68-S-34 #3-34:   WELL
 FLD .  TEAPOT DOME NPR-3:   FIELD
 LOC .      S34 T39N R78W:   LOCATION
 CNTY.            NATRONA:   COUNTY
 STAT.            WYOMING:   STATE
 CTRY. UNITED STATES OF AMERICA:   COUNTRY
 SRVC.           BIRDWELL:   SERVICE COMPANY
 DATE.        01-AUG-1978:   LOGDATE
 API .       490251070600:   API NUMBER
~CURVE INFORMATION
#MNEM.UNIT       API CODE    CURVE DESCRIPTION
#----------   ------------   ------------------------------
 DEPT.F                  :   
 SPR .MV     05 010 01 00:   SPONTANEOUS POTENTIAL
 SN  .OHMM   05 040 16 00:   SHORT NORMAL 16'
 ILD .OHMM   05 120 46 00:   INDUCTION LOG DEEP RESISTIVITY
 GRD .GAPI   45 310 01 00:   GAMMA RAY FROM DENSITY LOG
 CALD.IN     45 280 60 00:   CALIPER
 RHOB.G/C3   45 350 01 00:   BULK DENSITY
 DPHI.DEC    45 890 12 00:   DENSITY POROSITY SANDSTONE
 CORR.G/C3   45 356 01 00:   DENSITY CORRECTION
~PARAMETER INFORMATION
#MNEM.UNIT          VALUE    DESCRIPTION
#----------   ------------   ------------------------------
 PD  .                 GL:   PERMANENT DATUM
 EPD .F              5100:   ELEVATION PERMANENT DATUM
 LMF .                 KB:   LOG MEASURED FROM
 DAPD.F                 4:   FEET ABOVE PERMANENT DATUM
 DMF .                 KB:   DRILLING MEASURED FROM
 EKB .F              5104:   KELLING BUSHING
 EGL .F              5100:   GROUND LEVEL
 DATE.           9-1-1978:   RUN DATE
 RUN .                  1:   RUN NUMBER
 DD  .F               635:   DEPTH DRILLER
 DL  .F               635:   DEPTH LOGGER
 BLI .F               629:   BOTTOM LOG INTERVAL
 TLI .F                40:   TOP LOG INTERVAL
 CS  .IN            8.625:   CASING SIZE
 CBD .F                40:   CASING BOTTOM DRILLER
 CBL .F                40:   CASING BOTTOM LOGGER
 BS  .IN            7.875:   BIT SIZE
 BSD .F               635:   BIT SIZE AT DEPTH
 DFT .                KCL:   DRILLING FLUID TYPE
 DFD .                8.6:   DRILLING FLUID DENSITY
 DFV .                 32:   DRILLING FLUID VISCOSITY
 DFPH.                  9:   DRILLING FLUID PH
 DFL .                  7:   DRILLING FLUID LOSS
 MSS .          FLOW LINE:   MUD SAMPLE SOURCE
 RMS .OHMM             .4:   RESISTIVITY MUD SAMPLE
 MST .F                76:   MUD SAMPLE TEMPERATURE
 RMF .OHMM             .3:   RESISTIVITY MUD FILTRATE SAMPLE
 MFST.F                80:   MUD FILTRATE SAMPLE TEMPERATURE
 RMC .OHMM             .4:   RESISTIVITY MUD CAKE
 MCST.F                80:   MUD CAKE SAMPLE TEMPERATURE
 MFSS.               MEAS:   MUD FILTRATE SAMPLE SOURCE
 MCSS.               MEAS:   MUD CAKE SAMPLE SOURCE
 RMB .OHMM            .43:   RESISTIVITY MUD AT BHT
 BHT .F                70:   BOTTOM HOLE TEMPERATURE
 TCS .HRS               3:   TIME CURCULATED STOPPED
 MRT .F                70:   MAXIMUM RECORDED TEMPERATURE
 LUN .               2958:   LOGGING UNIT NUMBER
 LUL .               CASP:   LOGGING UNIT LOCATION
 ENGI.            POINTER:   RECORDING ENGINEER
 WITN.           MCGINLEY:   WITNESSED BY
 CLNT.            A2DTECH:   CLIENT CODE
 ORIG.           5" PRINT:   ORIGIN OF DATA
 UWI .       490251070600:   UNIQUE WELL ID
 DICO. A2D Technologies, Inc.:   DIGITIZING COMPANY
~OTHER INFORMATION
~A   DEPT      SPR         SN        ILD         GRD      CALD       RHOB       DPHI       CORR   
# ...
  384.0000   -25.7277     3.2230     2.5570    99.9973     7.3900     2.2412     0.2301     0.0334
  384.5000   -25.5016     3.5365     2.6646    96.7004     7.3900     2.3050     0.2015     0.0327
  385.0000   -25.2747     3.9187     2.7847    96.3092     7.3900     2.3611     0.1730     0.0320
  385.5000   -25.0480     4.3423     3.2645    96.2674     7.3900     2.3955     0.1488     0.0315
  386.0000   -24.8518     4.8116     3.8363    96.5656     7.3900     2.4297     0.1341     0.0315
  386.5000   -24.9223     5.3316     4.5385   104.9351     7.3900     2.4645     0.1256     0.0290
  387.0000   -24.9886     5.9078     5.3972   114.5628     7.3900     2.4737     0.1276     0.0258
  387.5000   -25.0520     6.5464     5.9350   120.8996     7.3900     2.4718     0.1296     0.0225
  388.0000   -24.9460     6.6068     6.0307   122.4971     7.3900     2.4700     0.1241     0.0222
  388.5000   -24.8232     6.5985     6.0823   123.1204     7.3900     2.4731     0.1208     0.0235
  389.0000   -24.7005     6.5918     6.0823   123.1942     7.3900     2.4774     0.1208     0.0250
  389.5000   -24.5780     6.5850     6.0823   123.3963     7.3900     2.4812     0.1208     0.0264
  390.0000   -24.4553     6.5783     6.0823   124.9797     7.3900     2.4819     0.1196     0.0269
  390.5000   -24.3349     6.5716     6.0823   129.8932     7.3900     2.4829     0.1182     0.0233
  391.0000   -24.2787     6.5648     6.0823   133.4026     7.3900     2.4843     0.1201     0.0199
  391.5000   -24.3702     6.5581     6.0837   130.7033     7.3900     2.4848     0.1233     0.0164
  392.0000   -24.4590     6.5515     6.0820   126.6230     7.3900     2.4824     0.1274     0.0130
  392.5000   -24.5483     6.4745     5.8545   122.9117     7.3883     2.4712     0.1368     0.0096
  393.0000   -24.6376     6.1712     5.4925   122.4374     7.3825     2.4595     0.1460     0.0086
  393.5000   -24.7265     5.8822     5.0641   123.5601     7.3768     2.4399     0.1614     0.0077
  394.0000   -24.8169     5.6063     4.6590   128.0901     7.3711     2.4213     0.1764     0.0110
  394.5000   -24.8009     5.3448     4.5667   132.2790     7.3654     2.4029     0.1859     0.0161
  395.0000   -24.7228     5.1547     4.4738   132.7520     7.3597     2.3847     0.1833     0.0238
  395.5000   -24.6042     5.1076     4.3811   133.1424     7.3541     2.3761     0.1740     0.0366
  396.0000   -24.2236     5.1601     4.2866   132.9648     7.3484     2.4013     0.1589     0.0369
  396.5000   -23.8394     5.3211     4.2110   130.6448     7.3427     2.4216     0.1471     0.0296
  397.0000   -23.4570     5.4870     4.2645   127.3361     7.3370     2.4399     0.1453     0.0223
  397.5000   -23.2530     5.6581     4.4162   126.0965     7.3313     2.4400     0.1429     0.0211
  398.0000   -23.2541     5.8345     4.7005   122.5797     7.3256     2.4461     0.1371     0.0207
  398.5000   -23.2511     6.0165     5.0061   121.0771     7.3201     2.4543     0.1313     0.0204
  399.0000   -23.1031     6.2042     5.3312   125.1369     7.3143     2.4630     0.1255     0.0200
  399.5000   -22.7181     6.3977     5.6771   128.1000     7.2962     2.4725     0.1208     0.0196
  400.0000   -22.3360     6.5972     6.0823   131.9005     7.2315     2.4810     0.1225     0.0161
  400.5000   -21.9374     6.8030     6.0816   127.4037     7.1687     2.4798     0.1252     0.0112
  401.0000   -22.0027     7.0152     6.2466   118.8439     7.1063     2.4773     0.1236     0.0064
  401.5000   -22.1986     7.2340     6.4731   110.5922     7.0693     2.4754     0.1179     0.0063
  402.0000   -22.3965     7.4596     6.7094   114.8607     7.0703     2.4850     0.1122     0.0129
  402.5000   -22.5986     7.5844     6.8805   121.8205     7.1699     2.4949     0.1126     0.0177
  403.0000   -22.5147     7.5840     7.0201   124.2682     7.2825     2.4958     0.1187     0.0181
  403.5000   -22.3195     7.5837     7.1104   126.0690     7.3879     2.4900     0.1267     0.0185
  404.0000   -22.1197     7.5836     7.0077   125.6043     7.3923     2.4749     0.1340     0.0189
  404.5000   -21.9208     7.5835     6.9300   123.3563     7.3934     2.4616     0.1346     0.0192
  405.0000   -21.7192     7.5292     6.8880   123.1698     7.3949     2.4614     0.1320     0.0276
  405.5000   -21.6879     7.4081     6.8410   127.3811     7.3965     2.4617     0.1284     0.0385
  406.0000   -21.7313     7.2890     6.7946   130.5491     7.3981     2.4654     0.1230     0.0494
  406.5000   -21.7764     7.1718     6.7485   133.7670     7.3997     2.4722     0.1157     0.0604
  407.0000   -21.8216     7.0565     6.7028   134.5934     7.4013     2.4894     0.1092     0.0696
  407.5000   -21.8818     6.9430     6.6573   134.1894     7.4029     2.5040     0.1115     0.0639
  408.0000   -22.0058     6.8314     6.6122   133.3338     7.4045     2.4976     0.1213     0.0496
  408.5000   -22.1265     6.7216     6.4203   132.1788     7.4061     2.4772     0.1353     0.0355
  409.0000   -22.2570     6.6135     6.1372   127.6367     7.4077     2.4574     0.1493     0.0213
  409.5000   -22.6325     6.4199     5.7466   123.0484     7.4093     2.4376     0.1633     0.0147
  410.0000   -23.0295     6.0908     5.3809   119.9923     7.4109     2.4177     0.1773     0.0136
  410.5000   -23.2570     5.7783     5.0385   123.9062     7.4125     2.3979     0.1804     0.0186
  411.0000   -23.2419     5.3963     4.7455   128.1786     7.4142     2.3818     0.1706     0.0236
  411.5000   -22.9961     5.4063     4.7230   131.5069     7.4158     2.3959     0.1570     0.0275
  412.0000   -22.7551     5.4252     4.7021   133.2984     7.4174     2.4213     0.1435     0.0268
  412.5000   -22.5161     5.4478     4.8114   132.7990     7.4190     2.4468     0.1300     0.0262
  413.0000   -22.2769     5.8627     4.9271   132.3279     7.4206     2.4724     0.1164     0.0256
  413.5000   -22.0592     6.3134     4.9173   132.5045     7.4222     2.4935     0.1140     0.0250
  414.0000   -22.0535     6.7970     5.4364   130.9902     7.4238     2.4921     0.1173     0.0244
  414.5000   -21.9341     7.2429     5.9208   129.1138     7.4254     2.4907     0.1206     0.0238
  415.0000   -21.5545     7.2916     6.4409   127.8639     7.4270     2.4841     0.1239     0.0208
  415.5000   -21.2453     7.3435     6.7360   129.3082     7.4286     2.4775     0.1260     0.0155
  416.0000   -21.2253     7.3958     6.9176   131.8479     7.4302     2.4722     0.1262     0.0103
  416.5000   -21.1996     7.4484     6.8903   134.3469     7.4318     2.4723     0.1264     0.0075
  417.0000   -21.1735     7.5014     6.8542   136.1114     7.4334     2.4726     0.1257     0.0075
  417.5000   -21.1473     7.5548     6.9345   135.9548     7.4350     2.4729     0.1243     0.0075
  418.0000   -21.1211     7.6086     7.0455   135.5788     7.4366     2.4755     0.1230     0.0095
  418.5000   -21.0950     7.6630     7.1110   133.1514     7.4382     2.4802     0.1221     0.0129
  419.0000   -21.0688     7.7248     7.1110   130.2758     7.4398     2.4805     0.1179     0.0163
  419.5000   -21.0426     7.6931     7.1110   130.8057     7.4415     2.4812     0.1134     0.0197
  420.0000   -21.0165     7.6463     7.1110   130.8883     7.4431     2.4903     0.1088     0.0231
  420.5000   -20.9903     7.6003     7.1110   130.3177     7.4447     2.5001     0.1093     0.0265
  421.0000   -20.9641     7.5546     7.1110   131.8735     7.4463     2.4998     0.1119     0.0299
  421.5000   -20.9379     7.5091     7.1110   133.7461     7.4479     2.4954     0.1146     0.0314
  422.0000   -20.9116     7.4640     7.1110   133.0468     7.4495     2.4907     0.1146     0.0315
  422.5000   -20.8841     7.4190     7.1110   131.2105     7.4511     2.4911     0.1138     0.0315
  423.0000   -20.8631     7.3744     7.1110   128.9978     7.4527     2.4920     0.1174     0.0315
  423.5000   -21.0698     7.3300     7.1111   126.8375     7.4543     2.4898     0.1189     0.0289
  424.0000   -21.2917     7.2859     7.1116   125.0035     7.4559     2.4856     0.1168     0.0255
