~VERSION INFORMATION
 VERS.                2.0:   CWLS LOG ASCII STANDARD - VERSION 2.0
 WRAP.                 NO:   ONE LINE PER DEPTH STEP
~WELL INFORMATION
#MNEM.UNIT      DATA TYPE    INFORMATION
#----------   ------------   ------------------------------
 STRT.F           20.0000:   START DEPTH
 STOP.F         2420.0000:   STOP DEPTH
 STEP.F            0.5000:   STEP LENGTH
 NULL.          -999.2500:   NO VALUE
 COMP. FENIX & SCISSON INC:   COMPANY
 WELL.    SHX 15 #71-1-15:   WELL
 FLD .             TEAPOT:   FIELD
 LOC .      S15 T38N R78W:   LOCATION
 CNTY.            NATRONA:   COUNTY
 STAT.            WYOMING:   STATE
 CTRY. UNITED STATES OF AMERICA:   COUNTRY
 SRVC.           BIRDWELL:   SERVICE COMPANY
 DATE.        03-SEP-1978:   LOGDATE
 API .       490251081800:   API NUMBER
~CURVE INFORMATION
#MNEM.UNIT       API CODE    CURVE DESCRIPTION
#----------   ------------   ------------------------------
 DEPT.F                  :   
 CALD.IN     45 280 60 00:   CALIPER
 GRD .GAPI   45 310 01 00:   GAMMA RAY FROM DENSITY LOG
 RHOB.G/C3   45 350 01 00:   BULK DENSITY
 DPHI.DEC    45 890 12 00:   DENSITY POROSITY SANDSTONE
 CORR.G/C3   45 356 01 00:   DENSITY CORRECTION
 NPHI.DEC    42 890 03 00:   NEUTRON POROSITY
~PARAMETER INFORMATION
#MNEM.UNIT          VALUE    DESCRIPTION
#----------   ------------   ------------------------------
 PD  .                 GL:   PERMANENT DATUM
 EPD .F              5249:   ELEVATION PERMANENT DATUM
 LMF .                 KB:   LOG MEASURED FROM
 DAPD.F                10:   FEET ABOVE PERMANENT DATUM
 DMF .                 KB:   DRILLING MEASURED FROM
 EKB .F              5259:   KELLING BUSHING
 EGL .F              5249:   GROUND LEVEL
 DATE.             9-3-78:   RUN DATE
 RUN .                  1:   RUN NUMBER
 DD  .F              2450:   DEPTH DRILLER
 DL  .F              2422:   DEPTH LOGGER
 BLI .F              2420:   BOTTOM LOG INTERVAL
 TLI .F                50:   TOP LOG INTERVAL
 CS  .IN            9.625:   CASING SIZE
 CBD .F               650:   CASING BOTTOM DRILLER
 CBL .F               676:   CASING BOTTOM LOGGER
 BS  .IN             8.75:   BIT SIZE
 BSD .F              2450:   BIT SIZE AT DEPTH
 DFT .           AIR MIST:   DRILLING FLUID TYPE
 LUN .               2958:   LOGGING UNIT NUMBER
 LUL .               CASP:   LOGGING UNIT LOCATION
 ENGI.             MILLER:   RECORDING ENGINEER
 WITN.           MCGINLEY:   WITNESSED BY
 CLNT.            A2DTECH:   CLIENT CODE
 ORIG.         2.5" PRINT:   ORIGIN OF DATA
 UWI .       490251081800:   UNIQUE WELL ID
 DICO. A2D Technologies, Inc.:   DIGITIZING COMPANY
~OTHER INFORMATION
~A   DEPT     CALD        GRD       RHOB       DPHI       CORR         NPHI 
# ...
 2152.0000    11.8200   108.1018     2.5029     0.0912     0.0192  -999.2500
 2152.5000    11.8200   111.2636     2.5051     0.0922     0.0141  -999.2500
 2153.0000    11.8200   112.9838     2.5033     0.0931     0.0101  -999.2500
 2153.5000    11.8200   113.0280     2.5019     0.0940     0.0121  -999.2500
 2154.0000    11.8200   112.3034     2.4973     0.0948     0.0146  -999.2500
 2154.5000    11.8200   111.6180     2.4892     0.0948     0.0173  -999.2500
 2155.0000    11.8200   110.9071     2.4911     0.0936     0.0199  -999.2500
 2155.5000    11.8200   110.4673     2.4954     0.0923     0.0225  -999.2500
 2156.0000    11.8200   112.9754     2.4950     0.0911     0.0251  -999.2500
 2156.5000    11.8200   116.2488     2.4897     0.0898     0.0278  -999.2500
 2157.0000    11.8200   116.7027     2.5016     0.0882     0.0300  -999.2500
 2157.5000    11.8200   115.0044     2.5050     0.0861     0.0300  -999.2500
 2158.0000    11.8200   113.5876     2.5034     0.0883     0.0301  -999.2500
 2158.5000    11.8200   111.8260     2.5021     0.0925     0.0299  -999.2500
 2159.0000    11.8200   110.5536     2.4953     0.0968     0.0296  -999.2500
 2159.5000    11.8200   110.4489     2.4815     0.0994     0.0237  -999.2500
 2160.0000    11.8200   110.9269     2.4831     0.0989     0.0185  -999.2500
 2160.5000    11.8200   112.0201     2.4876     0.0963     0.0130  -999.2500
 2161.0000    11.8200   112.9498     2.4941     0.1009     0.0076  -999.2500
 2161.5000    11.8199   113.9716     2.4837     0.1060     0.0085  -999.2500
 2162.0000    11.8200   113.7125     2.4838     0.1047     0.0123  -999.2500
 2162.5000    11.8200   113.2150     2.4921     0.1020     0.0164  -999.2500
 2163.0000    11.8195   111.6784     2.4872     0.1035     0.0171  -999.2500
 2163.5000    11.8264   110.7726     2.4810     0.1068     0.0147  -999.2500
 2164.0000    11.8489   115.7725     2.4747     0.1142     0.0126  -999.2500
 2164.5000    11.8705   119.7700     2.4665     0.1235     0.0105  -999.2500
 2165.0000    11.8931   113.8432     2.4587     0.1247     0.0083  -999.2500
 2165.5000    11.9005   113.7030     2.4537     0.1248     0.0063  -999.2500
 2166.0000    11.9000   114.7296     2.4562     0.1235     0.0064  -999.2500
 2166.5000    11.9000   115.6668     2.4583     0.1223     0.0138  -999.2500
 2167.0000    11.9001   115.6390     2.4599     0.1211     0.0244  -999.2500
 2167.5000    11.9000   115.7044     2.4639     0.1173     0.0388  -999.2500
 2168.0000    11.9000   115.4808     2.4716     0.1126     0.0535  -999.2500
 2168.5000    11.9000   117.3191     2.4869     0.1063     0.0555  -999.2500
 2169.0000    11.9000   120.2015     2.4853     0.1071     0.0499  -999.2500
 2169.5000    11.8996   124.9785     2.4635     0.1191     0.0441  -999.2500
 2170.0000    11.9039   127.5820     2.4494     0.1237     0.0460  -999.2500
 2170.5000    11.9138   128.1071     2.4579     0.1197     0.0569  -999.2500
 2171.0000    11.9231   128.3564     2.4722     0.1157     0.0619  -999.2500
 2171.5000    11.9326   130.7594     2.4762     0.1214     0.0497  -999.2500
 2172.0000    11.9422   130.8803     2.4604     0.1268     0.0393  -999.2500
 2172.5000    11.9515   130.5521     2.4512     0.1254     0.0269  -999.2500
 2173.0000    11.9613   132.0208     2.4542     0.1232     0.0282  -999.2500
 2173.5000    11.9705   133.1588     2.4644     0.1210     0.0287  -999.2500
 2174.0000    11.9791   131.2989     2.4610     0.1188     0.0239  -999.2500
 2174.5000    11.9714   129.5182     2.4574     0.1180     0.0190  -999.2500
 2175.0000    11.9637   127.6881     2.4584     0.1182     0.0142  -999.2500
 2175.5000    11.9546   127.3304     2.4604     0.1185     0.0126  -999.2500
 2176.0000    11.9468   126.9341     2.4605     0.1188     0.0110  -999.2500
 2176.5000    11.9415   125.9393     2.4585     0.1196     0.0100  -999.2500
 2177.0000    11.9588   119.7209     2.4500     0.1225     0.0081  -999.2500
 2177.5000    11.9731   111.8317     2.4474     0.1252     0.0058  -999.2500
 2178.0000    11.9892   103.8367     2.4485     0.1276     0.0088  -999.2500
 2178.5000    12.0039   100.4579     2.4507     0.1236     0.0168  -999.2500
 2179.0000    12.0189   101.5569     2.4657     0.1166     0.0243  -999.2500
 2179.5000    12.0157   102.8677     2.4759     0.1108     0.0321  -999.2500
 2180.0000    12.0117   103.9486     2.4688     0.1132     0.0336  -999.2500
 2180.5000    12.0071   101.5979     2.4731     0.1100     0.0317  -999.2500
 2181.0000    12.0029    97.0767     2.4775     0.1117     0.0297  -999.2500
 2181.5000    11.9985    94.7659     2.4643     0.1167     0.0222  -999.2500
 2182.0000    11.9942    94.5561     2.4495     0.1219     0.0136  -999.2500
 2182.5000    11.9898    95.6258     2.4542     0.1193     0.0097  -999.2500
 2183.0000    11.9856    98.1218     2.4606     0.1163     0.0122  -999.2500
 2183.5000    11.9812   101.1575     2.4664     0.1155     0.0149  -999.2500
 2184.0000    11.9826   108.8302     2.4572     0.1216     0.0178  -999.2500
 2184.5000    11.9866   108.1977     2.4496     0.1270     0.0179  -999.2500
 2185.0000    11.9905   104.7688     2.4410     0.1294     0.0229  -999.2500
 2185.5000    11.9943   102.3830     2.4364     0.1254     0.0262  -999.2500
 2186.0000    11.9981   102.8999     2.4427     0.1248     0.0238  -999.2500
 2186.5000    12.0020   113.2952     2.4437     0.1254     0.0201  -999.2500
 2187.0000    12.0058   112.4071     2.4458     0.1261     0.0170  -999.2500
 2187.5000    12.0096   111.2700     2.4466     0.1267     0.0154  -999.2500
 2188.0000    12.0134   110.0906     2.4486     0.1211     0.0295  -999.2500
 2188.5000    12.0174   112.4215     2.4533     0.1205     0.0403  -999.2500
 2189.0000    12.0200   118.5459     2.4732     0.1199     0.0273  -999.2500
 2189.5000    12.0200   122.1630     2.4613     0.1195     0.0144  -999.2500
 2190.0000    12.0200   121.7154     2.4547     0.1195     0.0098  -999.2500
 2190.5000    12.0200   118.8522     2.4588     0.1216     0.0112  -999.2500
 2191.0000    12.0200   115.8486     2.4494     0.1243     0.0121  -999.2500
 2191.5000    12.0200   111.2866     2.4495     0.1243     0.0129  -999.2500
 2192.0000    12.0200   105.3482     2.4510     0.1227     0.0140  -999.2500
 2192.5000    12.0200    99.9109     2.4639     0.1197     0.0154  -999.2500
 2193.0000    12.0200   100.2870     2.4796     0.1149     0.0172  -999.2500
 2193.5000    12.0200   101.0728     2.4878     0.1101     0.0176  -999.2500
 2194.0000    12.0200   101.2869     2.4868     0.1078     0.0164  -999.2500
 2194.5000    12.0200    99.9710     2.4872     0.1070     0.0153  -999.2500
 2195.0000    12.0200    98.4740     2.4870     0.1060     0.0140  -999.2500
 2195.5000    12.0200    96.7749     2.4865     0.1076     0.0119  -999.2500
 2196.0000    12.0200    90.2170     2.4826     0.1079     0.0094  -999.2500
 2196.5000    12.0200    90.2201     2.4887     0.1060     0.0069  -999.2500
 2197.0000    12.0200    91.3496     2.4859     0.1075     0.0059  -999.2500
 2197.5000    12.0200    93.7302     2.4840     0.1069     0.0060  -999.2500
 2198.0000    12.0200    99.7496     2.5054     0.1012     0.0065  -999.2500
 2198.5000    12.0199   105.2612     2.5001     0.1041     0.0085  -999.2500
 2199.0000    12.0201   103.7941     2.4839     0.1072     0.0093  -999.2500
 2199.5000    12.0203   104.0441     2.4833     0.1088     0.0066  -999.2500
 2200.0000    12.0258   103.8914     2.4780     0.1100     0.0039  -999.2500
 2200.5000    12.0314   104.8782     2.4525     0.1177     0.0013  -999.2500
 2201.0000    12.0372   107.8589     2.4465     0.1236    -0.0020  -999.2500
 2201.5000    12.0429   114.7493     2.4503     0.1220     0.0004  -999.2500
 2202.0000    12.0487   121.5400     2.4573     0.1195     0.0064  -999.2500
 2202.5000    12.0544   123.3588     2.4582     0.1195     0.0155  -999.2500
 2203.0000    12.0602   123.7417     2.4565     0.1195     0.0298  -999.2500
 2203.5000    12.0659   123.1439     2.4630     0.1190     0.0480  -999.2500
