~VERSION INFORMATION
 VERS.                2.0:   CWLS LOG ASCII STANDARD - VERSION 2.0
 WRAP.                 NO:   ONE LINE PER DEPTH STEP
~WELL INFORMATION
#MNEM.UNIT      DATA TYPE    INFORMATION
#----------   ------------   ------------------------------
 STRT.F            0.0000:   START DEPTH
 STOP.F          649.0000:   STOP DEPTH
 STEP.F            0.1000:   STEP LENGTH
 NULL.          -999.2500:   NO VALUE
 COMP.   FLUOR DANIEL INC:   COMPANY
 WELL.     17-1 X 2 #17-2:   WELL
 FLD .             TEAPOT:   FIELD
 LOC .       S2 T38N R78W:   LOCATION
 CNTY.            NATRONA:   COUNTY
 STAT.            WYOMING:   STATE
 CTRY. UNITED STATES OF AMERICA:   COUNTRY
 SRVC.      Western Atlas:   SERVICE COMPANY
 DATE.        20-MAY-1995:   LOGDATE
 API .       490252271000:   API NUMBER
~CURVE INFORMATION
#MNEM.UNIT       API CODE    CURVE DESCRIPTION
#----------   ------------   ------------------------------
 DEPT.F                  :   
 GRR .GAPI   07 310 01 00:   GAMMA RAY
 RILD.OHMM   07 120 46 00:   INDUCTION LOG DEEP RESISTIVITY
 RILM.OHMM   07 120 44 00:   RESITIVITY LOG MEDIUM
~PARAMETER INFORMATION
#MNEM.UNIT          VALUE    DESCRIPTION
#----------   ------------   ------------------------------
 PD  .                 GL:   PERMANENT DATUM
 EPD .F              5145:   ELEVATION PERMANENT DATUM
 LMF .                 KB:   LOG MEASURED FROM
 DAPD.F                10:   FEET ABOVE PERMANENT DATUM
 DMF .                 KB:   DRILLING MEASURED FROM
 EKB .F              5155:   KELLING BUSHING
 EDF .F              5154:   DRILLING FLOOR
 EGL .F              5145:   GROUND LEVEL
 DATE.        20-MAY-1995:   RUN DATE
 RUN .                  1:   RUN NUMBER
 DD  .F               657:   DEPTH DRILLER
 DL  .F               657:   DEPTH LOGGER
 BLI .F               649:   BOTTOM LOG INTERVAL
 CS  .IN            9.625:   CASING SIZE
 CBD .F                82:   CASING BOTTOM DRILLER
 CBL .F                82:   CASING BOTTOM LOGGER
 BS  .IN             8.75:   BIT SIZE
 BSD .F               657:   BIT SIZE AT DEPTH
 DFT .                AIR:   DRILLING FLUID TYPE
 MRT .F                92:   MAXIMUM RECORDED TEMPERATURE
 LUN .            HL 6530:   LOGGING UNIT NUMBER
 LUL .             CASPER:   LOGGING UNIT LOCATION
 ENGI.        VERN RAUTIO:   RECORDING ENGINEER
 WITN.        STEVE HARDY:   WITNESSED BY
 CLNT.            A2DTECH:   CLIENT CODE
 ORIG.           5" PRINT:   ORIGIN OF DATA
 UWI .       490252271000:   UNIQUE WELL ID
 DICO. A2D Technologies, Inc.:   DIGITIZING COMPANY
~OTHER INFORMATION
~A    DEPT      GRR      RILD       RILM   
# ...
  637.0000  -999.2500     8.5351     8.0120
  637.1000  -999.2500     8.5355     8.0356
  637.2000  -999.2500     8.5359     8.0690
  637.3000  -999.2500     8.5362     8.0695
  637.4000  -999.2500     8.5366     8.0702
  637.5000  -999.2500     8.5369     8.1081
  637.6000  -999.2500     8.5373     8.1274
  637.7000  -999.2500     8.5801     8.1446
  637.8000  -999.2500     8.5974     8.1852
  637.9000  -999.2500     8.5978     8.1858
  638.0000  -999.2500     8.5981     8.2281
  638.1000  -999.2500     8.5985     8.2439
  638.2000  -999.2500     8.5988     8.2445
  638.3000  -999.2500     8.5992     8.2450
  638.4000  -999.2500     8.5996     8.2456
  638.5000  -999.2500     8.5999     8.2462
  638.6000  -999.2500     8.6003     8.2467
  638.7000  -999.2500     8.6007     8.2473
  638.8000  -999.2500     8.6010     8.2479
  638.9000  -999.2500     8.6013     8.2515
  639.0000  -999.2500     8.6017     8.3066
  639.1000  -999.2500     8.6021     8.3071
  639.2000  -999.2500     8.6024     8.3076
  639.3000  -999.2500     8.6028     8.3082
  639.4000  -999.2500     8.6031     8.3088
  639.5000  -999.2500     8.6035     8.3094
  639.6000  -999.2500     8.6038     8.3099
  639.7000  -999.2500     8.6042     8.3105
  639.8000  -999.2500     8.6046     8.3111
  639.9000  -999.2500     8.6049     8.3117
  640.0000  -999.2500     8.6053     8.3123
  640.1000  -999.2500     8.6056     8.3599
  640.2000  -999.2500     8.6060     8.3350
  640.3000  -999.2500     8.6064     8.3140
  640.4000  -999.2500     8.6067     8.3146
  640.5000  -999.2500     8.6071     8.3151
  640.6000  -999.2500     8.6074     8.3158
  640.7000  -999.2500     8.6078     8.3163
  640.8000  -999.2500     8.6081     8.3169
  640.9000  -999.2500     8.6085     8.3174
  641.0000  -999.2500     8.6089     8.3180
  641.1000  -999.2500     8.6092     8.3186
  641.2000  -999.2500     8.6096     8.3192
  641.3000  -999.2500     8.6099     8.3198
  641.4000  -999.2500     8.6103     8.3203
  641.5000  -999.2500     8.6107     8.3209
  641.6000  -999.2500     8.6110     8.3215
  641.7000  -999.2500     8.6114     8.3221
  641.8000  -999.2500     8.6117     8.3226
  641.9000  -999.2500     8.6121     8.3232
  642.0000  -999.2500     8.6124     8.3238
  642.1000  -999.2500     8.6128     8.3244
  642.2000  -999.2500     8.6132     8.3250
  642.3000  -999.2500     8.6135     8.3255
  642.4000  -999.2500     8.6160     8.3261
  642.5000  -999.2500     8.6743     8.3267
  642.6000  -999.2500     8.6745     8.3273
  642.7000  -999.2500     8.6749     8.3279
  642.8000  -999.2500     8.6753     8.3284
  642.9000  -999.2500     8.6756     8.3290
  643.0000  -999.2500     8.6760     8.3296
  643.1000  -999.2500     8.6764     8.3302
  643.2000  -999.2500     8.6767     8.3307
  643.3000  -999.2500     8.6771     8.3314
  643.4000  -999.2500     8.6774     8.3319
  643.5000  -999.2500     8.6778     8.3325
  643.6000  -999.2500     8.6782     8.3330
  643.7000  -999.2500     8.6785     8.3336
  643.8000  -999.2500     8.6789     8.3343
  643.9000  -999.2500     8.6792     8.3348
  644.0000  -999.2500     8.6796     8.3354
  644.1000  -999.2500     8.6800     8.3359
  644.2000  -999.2500     8.6803     8.3365
  644.3000  -999.2500     8.6807     8.3371
  644.4000  -999.2500     8.6810     8.3377
  644.5000  -999.2500     8.6909     8.3383
  644.6000  -999.2500     8.7422     8.3388
  644.7000  -999.2500     8.7426     8.3394
  644.8000  -999.2500     8.7429     8.3423
  644.9000  -999.2500     8.7433     8.3988
  645.0000  -999.2500     8.7436     8.3992
  645.1000  -999.2500     8.7440     8.3998
  645.2000  -999.2500     8.7444     8.4004
  645.3000  -999.2500     8.7447     8.4072
  645.4000  -999.2500     8.7451     8.4602
  645.5000  -999.2500     8.7455     8.4607
  645.6000  -999.2500     8.7458     8.4935
  645.7000  -999.2500     8.7462     8.5208
  645.8000  -999.2500     8.7466     8.5214
  645.9000  -999.2500     8.7469     8.5220
  646.0000  -999.2500     8.7473     8.5226
  646.1000  -999.2500     8.7477     8.5596
  646.2000  -999.2500     8.7480     8.5831
  646.3000  -999.2500     8.7484     8.5837
  646.4000  -999.2500     8.7487     8.5875
  646.5000  -999.2500     8.7491     8.6448
  646.6000  -999.2500     8.7495     8.6453
  646.7000  -999.2500     8.7498     8.6459
  646.8000  -999.2500     8.7502     8.6465
  646.9000  -999.2500     8.7506     8.6471
  647.0000  -999.2500     8.7509     8.6477
  647.1000  -999.2500     8.7513     8.6483
  647.2000  -999.2500     8.7517     8.6489
  647.3000  -999.2500     8.7520     8.6495
  647.4000  -999.2500     8.7524     8.6389
  647.5000  -999.2500     8.7527     8.5909
  647.6000  -999.2500     8.7531     8.5915
  647.7000  -999.2500     8.7535     8.5921
  647.8000  -999.2500     8.7538     8.5927
  647.9000  -999.2500     8.7543     8.5932
  648.0000  -999.2500     8.7546     8.5938
  648.1000  -999.2500     8.7549     8.5945
  648.2000  -999.2500     8.7553     8.5950
  648.3000  -999.2500     8.7557     8.5655
  648.4000  -999.2500     8.7560     8.5368
  648.5000  -999.2500     8.7564     8.5374
  648.6000  -999.2500     8.7568     8.5380
  648.7000  -999.2500     8.7571     8.5386
  648.8000  -999.2500     8.7575     8.5391
  648.9000  -999.2500     8.7578     8.5397
  649.0000  -999.2500     8.7582     8.5403
