~VERSION INFORMATION
 VERS.                2.0:   CWLS LOG ASCII STANDARD - VERSION 2.0
 WRAP.                 NO:   ONE LINE PER DEPTH STEP
~WELL INFORMATION
#MNEM.UNIT      DATA TYPE    INFORMATION
#----------   ------------   ------------------------------
 STRT.F           64.0000:   START DEPTH
 STOP.F          532.0000:   STOP DEPTH
 STEP.F            0.5000:   STEP LENGTH
 NULL.          -999.2500:   NO VALUE
 COMP.       F D SERV INC:   COMPANY
 WELL.  81-3 SX 10 #81-10:   WELL
 FLD .             TEAPOT:   FIELD
 LOC .      S10 T38N R78W:   LOCATION
 CNTY.            NATRONA:   COUNTY
 STAT.            WYOMING:   STATE
 CTRY. UNITED STATES OF AMERICA:   COUNTRY
 SRVC.     Atlas Wireline:   SERVICE COMPANY
 DATE.        29-JAN-1993:   LOGDATE
 API .       490252258400:   API NUMBER
~CURVE INFORMATION
#MNEM.UNIT       API CODE    CURVE DESCRIPTION
#----------   ------------   ------------------------------
 DEPT.F                  :   
 C13 .IN     45 280 13 00:   
 ZCOR.G/C3   45 356 01 00:   DENSITY CORRECTION
 ZDEN.G/C3   45 350 01 00:   BULK DENSITY
 GRD .GAPI   45 310 01 00:   GAMMA RAY FROM DENSITY LOG
 PORS.DEC    42 890 00 00:   
 PORZ.DEC    45 890 00 00:   DENSITY POROSITY
 RILD.OHMM   07 120 46 00:   INDUCTION LOG DEEP RESISTIVITY
 RILM.OHMM   07 120 44 00:   INDUCTION LOG MEDIUM RESISTIVITY
~PARAMETER INFORMATION
#MNEM.UNIT          VALUE    DESCRIPTION
#----------   ------------   ------------------------------
 PD  .                 GL:   PERMANENT DATUM
 EPD .F              5161:   ELEVATION PERMANENT DATUM
 LMF .                 KB:   LOG MEASURED FROM
 DAPD.F                10:   FEET ABOVE PERMANENT DATUM
 DMF .                 KB:   DRILLING MEASURED FROM
 EKB .F              5171:   KELLING BUSHING
 EDF .F              5170:   DRILLING FLOOR
 EGL .F              5161:   GROUND LEVEL
 DATE.        29-JAN-1993:   RUN DATE
 RUN .                  1:   RUN NUMBER
 DD  .F               536:   DEPTH DRILLER
 DL  .F               536:   DEPTH LOGGER
 BLI .F               527:   BOTTOM LOG INTERVAL
 TLI .F                96:   TOP LOG INTERVAL
 CS  .IN            8.625:   CASING SIZE
 CBD .F                96:   CASING BOTTOM DRILLER
 CBL .F                96:   CASING BOTTOM LOGGER
 BS  .IN            7.875:   BIT SIZE
 BSD .F               536:   BIT SIZE AT DEPTH
 DFT .                AIR:   DRILLING FLUID TYPE
 MRT .F                65:   MAXIMUM RECORDED TEMPERATURE
 LUN .            HL-6274:   LOGGING UNIT NUMBER
 LUL .             CASPER:   LOGGING UNIT LOCATION
 ENGI.        P.RASMUSSEN:   RECORDING ENGINEER
 WITN.           G.STRONG:   WITNESSED BY
 CLNT.            A2DTECH:   CLIENT CODE
 ORIG.           5" PRINT:   ORIGIN OF DATA
 UWI .       490252258400:   UNIQUE WELL ID
 DICO. A2D Technologies, Inc.:   DIGITIZING COMPANY
~OTHER INFORMATION
~A   DEPT      C13       ZCOR       ZDEN        GRD       PORS       PORZ       RILD       RILM   
# ...
  428.5000     8.2180     0.0240     2.3866    82.3154     0.2715     0.1616    18.5881    17.8993
  429.0000     8.2174     0.0255     2.3859    83.5120     0.2727     0.1586    18.4586    17.6471
  429.5000     8.2319     0.0211     2.3904    85.3086     0.2742     0.1585    18.2036    17.2893
  430.0000     8.2311     0.0181     2.3949    85.9047     0.2754     0.1550    18.0601    17.1698
  430.5000     8.2456     0.0226     2.3964    85.8943     0.2766     0.1526    17.8267    16.9333
  431.0000     8.2450     0.0316     2.3956    84.6790     0.2778     0.1529    17.5804    16.8162
  431.5000     8.2444     0.0391     2.3986    84.0703     0.2787     0.1526    17.5792    16.9333
  432.0000     8.2438     0.0376     2.4054    85.5659     0.2777     0.1486    17.8232    17.1698
  432.5000     8.2432     0.0316     2.4152    86.8022     0.2745     0.1432    18.1959    17.7756
  433.0000     8.2426     0.0197     2.4249    87.6576     0.2718     0.1384    18.7058    18.2757
  433.5000     8.2420     0.0242     2.4444    87.0447     0.2699     0.1276    18.9061    18.5655
  434.0000     8.2263     0.0421     2.4865    83.9117     0.2621     0.1114    19.0960    18.9205
  434.5000     8.2258     0.0541     2.5180    79.7970     0.2564     0.0804    19.3611    19.3304
  435.0000     8.2102     0.0422     2.5360    79.4895     0.2525     0.0672    19.3595    19.7245
  435.5000     8.2096     0.0183     2.5330    80.6998     0.2555     0.0738    19.4928    19.0522
  436.0000     8.2090     0.0153     2.5008    81.5791     0.2630     0.0939    19.3567    18.4029
  436.5000     8.2084     0.0273     2.4700    82.4723     0.2687     0.1062    19.2219    17.4096
  437.0000     8.2078     0.0332     2.4489    82.7651     0.2736     0.1165    18.8254    16.8162
  437.5000     8.2072     0.0273     2.4482    83.0579     0.2742     0.1216    18.3096    16.4700
  438.0000     8.2066     0.0243     2.4444    82.7463     0.2730     0.1270    17.5633    16.0164
  438.5000     8.2059     0.0273     2.4347    82.4287     0.2711     0.1309    17.0824    15.5810
  439.0000     8.2054     0.0253     2.4287    83.9343     0.2708     0.1351    16.4997    15.2602
  439.5000     8.1898     0.0229     2.4317    84.2272     0.2711     0.1324    16.1594    14.8427
  440.0000     8.1891     0.0184     2.4414    83.3131     0.2708     0.1291    15.8261    14.6247
  440.5000     8.1885     0.0184     2.4452    83.9051     0.2699     0.1248    15.4997    14.4366
  441.0000     8.1880     0.0184     2.4482    84.4991     0.2681     0.1236    15.2853    14.2377
  441.5000     8.1873     0.0154     2.4520    84.7919     0.2666     0.1212    14.9700    14.0416
  442.0000     8.2019     0.0125     2.4565    85.0848     0.2669     0.1161    14.6613    13.8481
  442.5000     8.2012     0.0110     2.4625    86.2791     0.2660     0.1134    14.4454    13.5630
  443.0000     8.2005     0.0140     2.4700    87.1744     0.2648     0.1107    14.1603    13.3762
  443.5000     8.2000     0.0155     2.4737    88.6700     0.2636     0.1082    13.9646    13.1919
  444.0000     8.1994     0.0160     2.4752    88.3604     0.2612     0.1068    13.8673    13.1007
  444.5000     8.1987     0.0155     2.4745    86.8460     0.2588     0.1065    13.7705    12.9203
  445.0000     8.1982     0.0155     2.4760    86.2352     0.2573     0.1062    13.6746    12.8310
  445.5000     8.1976     0.0156     2.4775    87.7329     0.2573     0.1047    13.5793    12.7423
  446.0000     8.1969     0.0171     2.4730    87.4212     0.2572     0.1062    13.4847    12.8310
  446.5000     8.1964     0.0216     2.4700    87.1116     0.2570     0.1086    13.3906    12.8310
  447.0000     8.1958     0.0291     2.4692    88.0069     0.2567     0.1098    13.3897    12.8310
  447.5000     8.1951     0.0306     2.4760    87.6952     0.2564     0.1080    13.3889    12.8310
  448.0000     8.1945     0.0306     2.4797    87.3855     0.2564     0.1052    13.3878    12.8310
  448.5000     8.1940     0.0306     2.4805    87.3752     0.2576     0.1038    13.3869    12.8310
  449.0000     8.1933     0.0336     2.4820    87.9713     0.2591     0.1026    13.3861    12.8310
  449.5000     8.1927     0.0366     2.4835    88.5672     0.2606     0.1001    13.3852    12.8310
  450.0000     8.2072     0.0321     2.4865    90.9629     0.2615     0.0968    13.3841    12.8308
  450.5000     8.2218     0.0292     2.5030    91.2583     0.2627     0.0917    13.2909    12.7432
  451.0000     8.2213     0.0262     2.5105    91.8550     0.2637     0.0871    13.2900    12.8329
  451.5000     8.2359     0.0292     2.5165    93.6565     0.2651     0.0821    13.1972    12.8337
  452.0000     8.2354     0.0308     2.5180    95.1807     0.2660     0.0791    13.1053    12.7457
  452.5000     8.2349     0.0263     2.5134    92.7399     0.2669     0.0818    13.0141    12.6586
  453.0000     8.2195     0.0219     2.5081    91.5293     0.2678     0.0848    12.9234    12.5719
  453.5000     8.2041     0.0174     2.5097    91.5236     0.2690     0.0872    12.8332    12.4861
  454.0000     8.1885     0.0159     2.5104    90.6142     0.2699     0.0857    12.7438    12.4004
  454.5000     8.1881     0.0205     2.5096    89.7048     0.2708     0.0845    12.6550    12.4014
  455.0000     8.1726     0.0250     2.5095    91.5049     0.2714     0.0851    12.5668    12.2314
  455.5000     8.1722     0.0310     2.5096    94.2100     0.2723     0.0863    12.3930    12.1478
  456.0000     8.1718     0.0265     2.5096    95.1093     0.2731     0.0860    12.3626    12.0644
  456.5000     8.1734     0.0206     2.5096    94.5011     0.2740     0.0854    12.3059    11.9820
  457.0000     8.1859     0.0146     2.5080    95.6987     0.2746     0.0854    12.2200    11.8902
  457.5000     8.1854     0.0102     2.5043    96.5966     0.2749     0.0860    12.1348    11.7368
  458.0000     8.1850     0.0087     2.5005    97.1918     0.2752     0.0866    12.0503    11.5759
  458.5000     8.1845     0.0072     2.4967    97.4887     0.2749     0.0878    12.0495    11.4968
  459.0000     8.1841     0.0122     2.4990    97.7841     0.2743     0.0908    12.0486    11.5776
  459.5000     8.1836     0.0222     2.5080    98.0781     0.2734     0.0935    12.0478    11.5786
  460.0000     8.1832     0.0268     2.5125    97.7510     0.2725     0.0908    12.0470    11.6599
  460.5000     8.1827     0.0298     2.5147    96.8604     0.2719     0.0851    12.0460    11.7416
  461.0000     8.1973     0.0253     2.5170    96.5534     0.2710     0.0818    12.0453    11.6614
  461.5000     8.1963     0.0177     2.5177    96.5477     0.2700     0.0808    11.9614    11.5816
  462.0000     8.1964     0.0089     2.5101    95.0359     0.2691     0.0799    11.9606    11.5825
  462.5000     8.1959     0.0090     2.5019    93.2229     0.2682     0.0832    11.8771    11.5032
  463.0000     8.1805     0.0075     2.4996    91.4085     0.2679     0.0899    11.8763    11.5040
  463.5000     8.1800     0.0180     2.5027    91.1029     0.2682     0.0914    11.8755    11.5049
  464.0000     8.1796     0.0316     2.5093    96.5174     0.2685     0.0882    11.7112    11.4261
  464.5000     8.1942     0.0285     2.5078   101.0298     0.2685     0.0850    11.6297    11.3479
  465.0000     8.1786     0.0211     2.5041   101.6466     0.2679     0.0859    11.5487    11.2702
  465.5000     8.1782     0.0136     2.4980    99.7771     0.2670     0.0892    11.5479    11.1159
  466.0000     8.1929     0.0107     2.4935    98.9041     0.2664     0.0932    11.3882    11.1166
  466.5000     8.2034     0.0092     2.4920   100.1017     0.2657     0.0958    11.3874    11.0403
  467.0000     8.2069     0.0152     2.4972   100.3986     0.2647     0.0952    11.3081    10.9649
  467.5000     8.2065     0.0153     2.5017    99.4878     0.2639     0.0928    11.3860    10.8900
  468.0000     8.2060     0.0108     2.5040    98.5622     0.2630     0.0904    11.2284    10.8153
  468.5000     8.2055     0.0063     2.5047    97.3664     0.2618     0.0895    11.0733    10.6672
