~VERSION INFORMATION
 VERS.                2.0:   CWLS LOG ASCII STANDARD - VERSION 2.0
 WRAP.                 NO:   ONE LINE PER DEPTH STEP
~WELL INFORMATION
#MNEM.UNIT      DATA TYPE    INFORMATION
#----------   ------------   ------------------------------
 STRT.F           45.5000:   START DEPTH
 STOP.F          740.0000:   STOP DEPTH
 STEP.F            0.5000:   STEP LENGTH
 NULL.          -999.2500:   NO VALUE
 COMP. FENIX & SCISSON INC:   COMPANY
 WELL.       NPR 3 #22-14:   WELL
 FLD .             TEAPOT:   FIELD
 LOC .      S14 T38N R78W:   LOCATION
 CNTY.            NATRONA:   COUNTY
 STAT.            WYOMING:   STATE
 CTRY. UNITED STATES OF AMERICA:   COUNTRY
 SRVC.           BIRDWELL:   SERVICE COMPANY
 DATE.        23-DEC-1978:   LOGDATE
 API .       490251075800:   API NUMBER
~CURVE INFORMATION
#MNEM.UNIT       API CODE    CURVE DESCRIPTION
#----------   ------------   ------------------------------
 DEPT.F                  :   
 SPR .MV     05 010 01 00:   SPONTANEOUS POTENTIAL FROM RES.
 SN  .OHMM   05 040 16 00:   SHORT NORMAL 16"
 IL  .OHMM   05 120 00 00:   INDUCTION LOG
 CALD.IN     45 280 60 00:   CALIPER
 GRD .GAPI   45 310 01 00:   GAMMA RAY FROM DENSITY LOG
 RHOB.G/C3   45 350 01 00:   BULK DENSITY
 DPHI.DEC    45 890 12 00:   DENSITY POROSITY SANDSTONE
 CORR.G/C3   45 356 01 00:   DENSITY CORRECTION
~PARAMETER INFORMATION
#MNEM.UNIT          VALUE    DESCRIPTION
#----------   ------------   ------------------------------
 PD  .                 GL:   PERMANENT DATUM
 EPD .F              5212:   ELEVATION PERMANENT DATUM
 LMF .                 KB:   LOG MEASURED FROM
 DAPD.F                 4:   FEET ABOVE PERMANENT DATUM
 DMF .                 KB:   DRILLING MEASURED FROM
 EKB .F              5216:   KELLING BUSHING
 EGL .F              5212:   GROUND LEVEL
 DATE.           12-23-78:   RUN DATE
 RUN .                  1:   RUN NUMBER
 DD  .F               735:   DEPTH DRILLER
 DL  .F               740:   DEPTH LOGGER
 BLI .F               733:   BOTTOM LOG INTERVAL
 TLI .F                50:   TOP LOG INTERVAL
 CS  .IN            8.625:   CASING SIZE
 CBD .F                40:   CASING BOTTOM DRILLER
 CBL .F                40:   CASING BOTTOM LOGGER
 BS  .IN            7.875:   BIT SIZE
 BSD .F               735:   BIT SIZE AT DEPTH
 DFT .                KCL:   DRILLING FLUID TYPE
 DFD .                8.7:   DRILLING FLUID DENSITY
 DFV .                 35:   DRILLING FLUID VISCOSITY
 DFPH.               10.5:   DRILLING FLUID PH
 DFL .               11.6:   DRILLING FLUID LOSS
 MSS .           FLOWLINE:   MUD SAMPLE SOURCE
 RMS .OHMM             .5:   RESISTIVITY MUD SAMPLE
 MST .F                60:   MUD SAMPLE TEMPERATURE
 RMF .OHMM             .5:   RESISTIVITY MUD FILTRATE SAMPLE
 MFST.F                60:   MUD FILTRATE SAMPLE TEMPERATURE
 RMC .OHMM             .7:   RESISTIVITY MUD CAKE
 MCST.F                60:   MUD CAKE SAMPLE TEMPERATURE
 MFSS.           MEASURED:   MUD FILTRATE SAMPLE SOURCE
 MCSS.           MEASURED:   MUD CAKE SAMPLE SOURCE
 RMB .OHMM           .518:   RESISTIVITY MUD AT BHT
 BHT .F                58:   BOTTOM HOLE TEMPERATURE
 TCS .HRS               5:   TIME CURCULATED STOPPED
 MRT .F                58:   MAXIMUM RECORDED TEMPERATURE
 LUN .               2958:   LOGGING UNIT NUMBER
 LUL .             CASPER:   LOGGING UNIT LOCATION
 ENGI.         B. ROLLINS:   RECORDING ENGINEER
 WITN.              IMMEL:   WITNESSED BY
 CLNT.            A2DTECH:   CLIENT CODE
 ORIG.           5" PRINT:   ORIGIN OF DATA
 UWI .       490251075800:   UNIQUE WELL ID
 DICO. A2D Technologies, Inc.:   DIGITIZING COMPANY
~OTHER INFORMATION
~A   DEPT      SPR         SN         IL       CALD         GRD      RHOB       DPHI       CORR   
# ...
  126.5000  -999.2500    10.7810     8.6620     7.9410    74.4040     2.4560     0.1630     0.0010
  127.0000  -999.2500     9.9480     8.1060     7.9430    74.2620     2.4460     0.1850     0.0000
  127.5000  -999.2500     9.1190     7.7310     7.9460    74.7460     2.4350     0.1970     0.0040
  128.0000  -999.2500     8.2900     7.3570     7.9480    77.3990     2.3950     0.2220     0.0100
  128.5000  -999.2500     7.4620     7.0620     7.9500    83.1930     2.3550     0.2420     0.0120
  129.0000  -999.2500     6.6330     7.0620     7.9470    90.8930     2.3140     0.2350     0.0110
  129.5000  -999.2500     5.9840     7.0620     7.9450    95.3950     2.3190     0.2250     0.0100
  130.0000  -999.2500     5.9840     7.5200     7.9420    96.4360     2.3380     0.1980     0.0100
  130.5000  -999.2500     7.1140     8.5580     7.9390    96.4590     2.3700     0.1840     0.0090
  131.0000  -999.2500     8.2220     9.7240     7.9370    92.6260     2.4030     0.1770     0.0080
  131.5000  -999.2500     9.3300    10.8910     7.9340    87.4260     2.4190     0.1740     0.0080
  132.0000  -999.2500     9.9780    12.0570     7.9320    84.9130     2.4280     0.1770     0.0070
  132.5000  -999.2500    10.3510    12.8760     7.9290    82.6060     2.4220     0.1810     0.0060
  133.0000  -999.2500    10.7250    13.2330     7.9270    80.5990     2.4150     0.1820     0.0060
  133.5000  -999.2500    11.0980    13.5900     7.9240    78.7390     2.4090     0.1860     0.0050
  134.0000  -999.2500    11.4720    13.9470     7.9220    77.2800     2.4070     0.1940     0.0040
  134.5000  -999.2500    11.8450    14.1890     7.9190    76.8590     2.4060     0.1910     0.0040
  135.0000  -999.2500    12.2180    14.6590     7.9160    77.4000     2.4050     0.1840     0.0030
  135.5000  -999.2500    12.5920    15.1300     7.9140    77.8090     2.4040     0.1880     0.0030
  136.0000  -999.2500    12.9650    15.6000     7.9110    77.8850     2.4020     0.1930     0.0030
  136.5000  -999.2500    13.3390    16.0700     7.9120    77.9690     2.3950     0.1950     0.0100
  137.0000  -999.2500    13.6940    16.5410     7.9150    78.0580     2.3890     0.1940     0.0100
  137.5000  -999.2500    13.7550    16.8350     7.9190    78.1390     2.3860     0.2010     0.0110
  138.0000  -999.2500    13.8130    17.0980     7.9220    78.9230     2.3860     0.1920     0.0110
  138.5000  -999.2500    13.8710    17.3610     7.9260    80.0400     2.3890     0.1880     0.0110
  139.0000  -999.2500    13.9300    17.6240     7.9290    80.1370     2.3920     0.1840     0.0110
  139.5000  -999.2500    13.9880    17.8870     7.9330    80.2550     2.3950     0.1790     0.0120
  140.0000  -999.2500    14.0460    18.1490     7.9360    80.3790     2.4000     0.1730     0.0120
  140.5000  -999.2500    14.1180    18.4120     7.9400    80.5170     2.4070     0.1670     0.0120
  141.0000  -999.2500    14.2730    18.6750     7.9440    80.9800     2.4150     0.1700     0.0130
  141.5000  -999.2500    14.4270    18.9380     7.9470    82.5110     2.4180     0.1740     0.0130
  142.0000  -999.2500    14.5820    19.2010     7.9510    83.1420     2.4110     0.1790     0.0130
  142.5000  -999.2500    14.7370    19.4640     7.9540    83.3600     2.4030     0.1810     0.0130
  143.0000  -999.2500    14.8920    19.7270     7.9580    82.4240     2.3970     0.1810     0.0140
  143.5000  -999.2500    15.0470    19.9900     7.9610    82.0240     2.3940     0.1810     0.0140
  144.0000  -999.2500    15.2020    20.2530     7.9650    81.7780     2.3930     0.1830     0.0130
  144.5000  -999.2500    15.3560    20.4600     7.9680    81.5210     2.3910     0.1840     0.0110
  145.0000  -999.2500    15.5110    20.6410     7.9670    80.7370     2.3900     0.1830     0.0090
  145.5000  -999.2500    15.6660    20.8220     7.9620    78.2770     2.3920     0.1820     0.0070
  146.0000  -999.2500    15.8210    21.0030     7.9570    75.8100     2.3940     0.1850     0.0050
  146.5000  -999.2500    15.9760    21.1840     7.9520    75.4410     2.3890     0.1870     0.0040
  147.0000  -999.2500    16.1300    21.3650     7.9460    75.7590     2.3830     0.1860     0.0020
  147.5000  -999.2500    16.2850    21.5460     7.9410    75.5900     2.3840     0.1850     0.0010
  148.0000  -999.2500    16.4400    21.7270     7.9360    75.4040     2.3860     0.1830     0.0060
  148.5000  -999.2500    16.5950    21.8910     7.9310    77.0200     2.3870     0.1860     0.0110
  149.0000  -999.2500    16.7500    22.4870     7.9250    78.8530     2.3880     0.1910     0.0160
  149.5000  -999.2500    16.9050    23.0320     7.9200    79.8830     2.3810     0.1930     0.0210
  150.0000  -999.2500    17.1550    23.5780     7.9150    80.1050     2.3750     0.1870     0.0230
  150.5000  -999.2500    17.4150    24.1230     7.9110    80.3290     2.3830     0.1820     0.0200
  151.0000  -999.2500    17.6760    24.6680     7.9200    80.5440     2.3930     0.1770     0.0170
  151.5000  -999.2500    17.9370    25.2140     7.9290    80.0370     2.3980     0.1670     0.0150
  152.0000  -999.2500    18.1980    25.5960     7.9380    79.0370     2.4120     0.1540     0.0140
  152.5000  -999.2500    18.3810    25.5960     7.9480    72.2800     2.4340     0.1440     0.0140
  153.0000  -999.2500    18.3810    25.4360     7.9570    70.9780     2.4490     0.1480     0.0140
  153.5000  -999.2500    18.1510    24.9040     7.9660    70.3970     2.4450     0.1530     0.0140
  154.0000  -999.2500    17.9420    24.3720     7.9750    70.0990     2.4380     0.1570     0.0140
  154.5000  -999.2500    17.7330    23.8400     7.9840    71.1960     2.4310     0.1630     0.0140
  155.0000  -999.2500    17.5250    23.3080     7.9890    74.2420     2.4240     0.1710     0.0140
  155.5000  -999.2500    17.3160    22.7760     7.9850    75.7870     2.4140     0.1800     0.0140
  156.0000  -999.2500    17.1070    22.2970     7.9820    76.9070     2.4020     0.1840     0.0140
  156.5000  -999.2500    16.8980    22.0480     7.9780    77.5460     2.3900     0.1840     0.0140
  157.0000  -999.2500    16.6890    21.5500     7.9750    77.8550     2.3880     0.1840     0.0140
  157.5000  -999.2500    16.4600    21.0520     7.9710    78.1640     2.3880     0.1840     0.0140
  158.0000  -999.2500    16.2030    20.5540     7.9680    78.4750     2.3880     0.1840     0.0150
  158.5000  -999.2500    15.9180    20.0570     7.9640    78.7690     2.3860     0.1850     0.0170
  159.0000  -999.2500    15.6320    19.5590     7.9610    78.7600     2.3860     0.1830     0.0180
  159.5000  -999.2500    15.3470    19.0610     7.9570    79.6920     2.3860     0.1810     0.0200
  160.0000  -999.2500    15.0620    18.5630     7.9540    80.5830     2.3900     0.1790     0.0210
  160.5000  -999.2500    14.7760    18.0650     7.9500    80.5780     2.3940     0.1770     0.0210
  161.0000  -999.2500    14.4910    17.3960     7.9470    80.5830     2.3980     0.1750     0.0200
  161.5000  -999.2500    14.2060    16.3280     7.9430    81.1160     2.3980     0.1710     0.0160
  162.0000  -999.2500    13.9210    15.2600     7.9400    82.4020     2.4000     0.1650     0.0110
  162.5000  -999.2500    13.6350    14.1920     7.9360    82.9460     2.4120     0.1580     0.0060
  163.0000  -999.2500    13.3210    13.1240     7.9330    83.2280     2.4240     0.1520     0.0070
  163.5000  -999.2500    12.6780    12.0560     7.9290    83.4920     2.4350     0.1470     0.0090
  164.0000  -999.2500    11.9630    10.8810     7.9260    84.4370     2.4440     0.1430     0.0100
  164.5000  -999.2500    11.2480    10.4870     7.9220    85.7780     2.4480     0.1390     0.0120
  165.0000  -999.2500    10.5320    10.0490     7.9190    88.1060     2.4520     0.1340     0.0080
  165.5000  -999.2500     9.8170     9.6110     7.9150    91.2590     2.4570     0.1310     0.0040
  166.0000  -999.2500     9.1020     9.3570     7.9120    94.8600     2.4670     0.1270     0.0030
  166.5000  -999.2500     8.8130     9.2860     7.9090    97.8110     2.4770     0.1290     0.0010
