~VERSION INFORMATION
 VERS.                2.0:   CWLS LOG ASCII STANDARD - VERSION 2.0
 WRAP.                 NO:   ONE LINE PER DEPTH STEP
~WELL INFORMATION
#MNEM.UNIT      DATA TYPE    INFORMATION
#----------   ------------   ------------------------------
 STRT.F            8.0000:   START DEPTH
 STOP.F          598.0000:   STOP DEPTH
 STEP.F            0.5000:   STEP LENGTH
 NULL.          -999.2500:   NO VALUE
 COMP. FENIX & SCISSON INC:   COMPANY
 WELL.    16-SX-11 #16-11:   WELL
 FLD .             TEAPOT:   FIELD
 LOC .      S11 T38N R78W:   LOCATION
 CNTY.            NATRONA:   COUNTY
 STAT.            WYOMING:   STATE
 CTRY. UNITED STATES OF AMERICA:   COUNTRY
 SRVC.            Unknown:   SERVICE COMPANY
 DATE.        13-DEC-1978:   LOGDATE
 API .       490251078400:   API NUMBER
~CURVE INFORMATION
#MNEM.UNIT       API CODE    CURVE DESCRIPTION
#----------   ------------   ------------------------------
 DEPT.F                  :   
 RHOB.G/C3   45 350 01 00:   BULK DENSITY
 CORR.G/C3   45 356 01 00:   DENSITY CORRECTION
 SN  .OHMM   05 040 16 00:   SHORT NORMAL 16"
 ILD .OHMM   05 120 46 00:   INDUCTION LOG DEEP
 SPR .MV     05 010 01 00:   SPONTANEOUS POTENTIAL FROM RES.
 DPHI.DEC    45 890 12 00:   DENSITY POROSITY SANDSTONE
 CALD.IN     45 280 60 00:   CALIPER
 GRD .GAPI   45 310 01 00:   GAMMA RAY FROM DENSITY LOG
~PARAMETER INFORMATION
#MNEM.UNIT          VALUE    DESCRIPTION
#----------   ------------   ------------------------------
 PD  .                 GL:   PERMANENT DATUM
 EPD .F              5209:   ELEVATION PERMANENT DATUM
 LMF .                 KB:   LOG MEASURED FROM
 DAPD.F                 4:   FEET ABOVE PERMANENT DATUM
 DMF .                 KB:   DRILLING MEASURED FROM
 EKB .F              5213:   KELLING BUSHING
 EGL .F              5209:   GROUND LEVEL
 DATE.           12-13-78:   RUN DATE
 RUN .                  1:   RUN NUMBER
 DD  .F               590:   DEPTH DRILLER
 DL  .F               598:   DEPTH LOGGER
 BLI .F               591:   BOTTOM LOG INTERVAL
 TLI .F                40:   TOP LOG INTERVAL
 CS  .IN            8.625:   CASING SIZE
 CBD .F                40:   CASING BOTTOM DRILLER
 CBL .F                25:   CASING BOTTOM LOGGER
 BS  .IN            7.875:   BIT SIZE
 BSD .F               590:   BIT SIZE AT DEPTH
 DFT .                KCL:   DRILLING FLUID TYPE
 DFD .                8.8:   DRILLING FLUID DENSITY
 DFV .                 37:   DRILLING FLUID VISCOSITY
 DFPH.                8.9:   DRILLING FLUID PH
 MSS .           FLOWLINE:   MUD SAMPLE SOURCE
 RMS .OHMM             .3:   RESISTIVITY MUD SAMPLE
 MST .F                56:   MUD SAMPLE TEMPERATURE
 RMF .OHMM            .26:   RESISTIVITY MUD FILTRATE SAMPLE
 MFST.F                66:   MUD FILTRATE SAMPLE TEMPERATURE
 RMC .OHMM            .24:   RESISTIVITY MUD CAKE
 MCST.F                66:   MUD CAKE SAMPLE TEMPERATURE
 MFSS.           MEASURED:   MUD FILTRATE SAMPLE SOURCE
 MCSS.           MEASURED:   MUD CAKE SAMPLE SOURCE
 RMB .OHMM            .29:   RESISTIVITY MUD AT BHT
 BHT .F                58:   BOTTOM HOLE TEMPERATURE
 TCS .HRS               3:   TIME CURCULATED STOPPED
 MRT .F                58:   MAXIMUM RECORDED TEMPERATURE
 LUN .               2958:   LOGGING UNIT NUMBER
 LUL .             CASPER:   LOGGING UNIT LOCATION
 ENGI.            ROLLINS:   RECORDING ENGINEER
 WITN.         RICHARDSON:   WITNESSED BY
 CLNT.            A2DTECH:   CLIENT CODE
 ORIG.       2", 5" PRINT:   ORIGIN OF DATA
 UWI .       490251078400:   UNIQUE WELL ID
 DICO. A2D Technologies, Inc.:   DIGITIZING COMPANY
~OTHER INFORMATION
~A    DEPT    RHOB       CORR         SN        ILD        SPR       DPHI       CALD         GRD  
    8.0000  -999.2500  -999.2500  -999.2500  -999.2500  -999.2500  -999.2500  -999.2500    80.5812
    8.5000  -999.2500  -999.2500  -999.2500  -999.2500  -999.2500  -999.2500  -999.2500    80.4619
    9.0000  -999.2500  -999.2500  -999.2500  -999.2500  -999.2500  -999.2500  -999.2500    79.3592
    9.5000  -999.2500  -999.2500  -999.2500  -999.2500  -999.2500  -999.2500  -999.2500    77.7844
   10.0000  -999.2500  -999.2500  -999.2500  -999.2500  -999.2500  -999.2500  -999.2500    75.8188
   10.5000  -999.2500  -999.2500  -999.2500  -999.2500  -999.2500  -999.2500  -999.2500    74.0445
   11.0000  -999.2500  -999.2500  -999.2500  -999.2500  -999.2500  -999.2500  -999.2500    73.7916
   11.5000  -999.2500  -999.2500  -999.2500  -999.2500  -999.2500  -999.2500  -999.2500    75.4105
   12.0000  -999.2500  -999.2500  -999.2500  -999.2500  -999.2500  -999.2500  -999.2500    78.0965
   12.5000  -999.2500  -999.2500  -999.2500  -999.2500  -999.2500  -999.2500  -999.2500    78.1656
   13.0000  -999.2500  -999.2500  -999.2500  -999.2500  -999.2500  -999.2500  -999.2500    77.3054
   13.5000  -999.2500  -999.2500  -999.2500  -999.2500  -999.2500  -999.2500  -999.2500    76.4338
   14.0000  -999.2500  -999.2500  -999.2500  -999.2500  -999.2500  -999.2500  -999.2500    75.8508
   14.5000  -999.2500  -999.2500  -999.2500  -999.2500  -999.2500  -999.2500  -999.2500    77.1799
   15.0000  -999.2500  -999.2500  -999.2500  -999.2500  -999.2500  -999.2500  -999.2500    78.2890
   15.5000  -999.2500  -999.2500  -999.2500  -999.2500  -999.2500  -999.2500  -999.2500    78.5311
   16.0000  -999.2500  -999.2500  -999.2500  -999.2500  -999.2500  -999.2500  -999.2500    80.2706
   16.5000  -999.2500  -999.2500  -999.2500  -999.2500  -999.2500  -999.2500  -999.2500    83.0758
   17.0000  -999.2500  -999.2500  -999.2500  -999.2500  -999.2500  -999.2500  -999.2500    82.2409
   17.5000  -999.2500  -999.2500  -999.2500  -999.2500  -999.2500  -999.2500  -999.2500    80.7281
   18.0000  -999.2500  -999.2500  -999.2500  -999.2500  -999.2500  -999.2500  -999.2500    79.2981
   18.5000  -999.2500  -999.2500  -999.2500  -999.2500  -999.2500  -999.2500  -999.2500    79.5970
   19.0000  -999.2500  -999.2500  -999.2500  -999.2500  -999.2500  -999.2500  -999.2500    82.6752
   19.5000  -999.2500  -999.2500  -999.2500  -999.2500  -999.2500  -999.2500  -999.2500    82.8991
   20.0000  -999.2500  -999.2500  -999.2500  -999.2500  -999.2500  -999.2500  -999.2500    82.0850
   20.5000  -999.2500  -999.2500  -999.2500  -999.2500  -999.2500  -999.2500  -999.2500    81.7402
   21.0000  -999.2500  -999.2500  -999.2500  -999.2500  -999.2500  -999.2500  -999.2500    82.6352
   21.5000  -999.2500  -999.2500  -999.2500  -999.2500  -999.2500  -999.2500  -999.2500    82.8354
   22.0000  -999.2500  -999.2500  -999.2500  -999.2500  -999.2500  -999.2500  -999.2500    80.9422
   22.5000  -999.2500  -999.2500  -999.2500  -999.2500  -999.2500  -999.2500  -999.2500    79.1641
   23.0000  -999.2500  -999.2500  -999.2500  -999.2500  -999.2500  -999.2500  -999.2500    78.1563
   23.5000  -999.2500  -999.2500  -999.2500  -999.2500  -999.2500  -999.2500  -999.2500    74.6232
   24.0000  -999.2500  -999.2500  -999.2500  -999.2500  -999.2500  -999.2500  -999.2500    69.9512
   24.5000  -999.2500  -999.2500  -999.2500  -999.2500  -999.2500  -999.2500  -999.2500    66.6299
   25.0000     2.4985    -0.1011  -999.2500  -999.2500  -999.2500     0.0565     7.9528    64.8312
   25.5000     2.4985     0.0019  -999.2500  -999.2500  -999.2500     0.0565     7.8938    64.3819
   26.0000     2.4985     0.0581  -999.2500  -999.2500  -999.2500     0.0565     7.8449    65.6366
   26.5000     2.5027     0.0505  -999.2500  -999.2500  -999.2500     0.0568     7.8526    69.8244
   27.0000     2.4986     0.0354  -999.2500  -999.2500  -999.2500     0.0665     7.8628    74.0391
   27.5000     2.4973     0.0203  -999.2500  -999.2500  -999.2500     0.0940     7.8499    76.7901
   28.0000     2.4865     0.0100  -999.2500  -999.2500  -999.2500     0.1216     7.8102    79.7377
   28.5000     2.4332     0.0104  -999.2500  -999.2500  -999.2500     0.1491     7.7709    85.0392
   29.0000     2.3844     0.0289  -999.2500  -999.2500  -999.2500     0.1767     7.7304    85.3853
   29.5000     2.3518     0.0391  -999.2500  -999.2500  -999.2500     0.2042     7.7496    84.7002
   30.0000     2.3252     0.0421  -999.2500  -999.2500  -999.2500     0.2258     7.7814    85.0809
   30.5000     2.3222     0.0406  -999.2500  -999.2500  -999.2500     0.2296     7.8139    85.6965
   31.0000     2.3241     0.0353  -999.2500  -999.2500  -999.2500     0.2280     7.8402    83.7854
   31.5000     2.3206     0.0294  -999.2500  -999.2500  -999.2500     0.2299     7.7740    81.8215
   32.0000     2.3040     0.0280  -999.2500  -999.2500  -999.2500     0.2384     7.7056    81.1813
   32.5000     2.3027     0.0281  -999.2500  -999.2500  -999.2500     0.2409     7.7082    87.3908
   33.0000     2.3001     0.0280    13.5004     9.4128  -999.2500     0.2433     7.7565    87.6151
   33.5000     2.2975     0.0257    13.5004     9.0322  -999.2500     0.2452     7.8306    87.4628
   34.0000     2.2949     0.0177    13.6258     8.5232     8.9895     0.2460     7.8844    86.2476
   34.5000     2.2959     0.0078    13.6841     8.2858     7.5373     0.2486     7.8777    85.6115
   35.0000     2.3039     0.0048    13.6247     7.6781     6.0851     0.2493     7.8702    86.3601
   35.5000     2.3290     0.0060    13.6266     7.2453     4.9218     0.2363     7.8632    86.2583
   36.0000     2.3488     0.0074    13.6259     6.8370     3.4316     0.2230     7.8903    85.7738
   36.5000     2.3610     0.0140    13.6258     6.5672     2.8270     0.2110     7.9376    89.8950
   37.0000     2.3795     0.0300    13.6259     6.5025     2.3904     0.1991     7.9850    94.3102
   37.5000     2.4062     0.0619    13.6255     6.5447     1.7147     0.1872     8.0259    97.1701
   38.0000     2.4513     0.0890    13.7054     6.5734     1.0302     0.1755     8.0364   101.6828
   38.5000     2.4619     0.0791    13.8589     6.6023     0.6704     0.1517     8.0407   106.4324
   39.0000     2.4521     0.0637    14.0141     6.6313     0.3792     0.1439     8.0353   106.2688
   39.5000     2.4469     0.0634    14.4032     6.6604     0.0894     0.1514     8.0300   105.8748
   40.0000     2.4499     0.0629    14.4032     6.6897    -0.2010     0.1532     8.0247   105.4663
   40.5000     2.4527     0.0624    13.8914     6.7190    -0.4890     0.1517     8.0194   105.4027
   41.0000     2.4551     0.0580    13.3472     6.7485    -0.7175     0.1476     8.0141   107.3619
   41.5000     2.4526     0.0496    12.8244     6.7782    -0.9288     0.1451     8.0088   112.2630
   42.0000     2.4474     0.0371    12.3220     6.8102    -1.1421     0.1475     8.0035   113.4102
   42.5000     2.4340     0.0159    11.8393     6.7936    -1.3542     0.1539     7.9981   109.6450
   43.0000     2.4162     0.0041    11.3755     6.7758    -1.5634     0.1636     7.9928   109.1502
   43.5000     2.4111     0.0032    10.9298     6.7580    -1.7092     0.1734     7.9875   108.6027
   44.0000     2.4136     0.0026    10.5011     6.7403    -1.7065     0.1755     7.9838   106.3263
   44.5000     2.4178     0.0021    10.0914     6.7226    -1.7069     0.1737     7.9899   102.8948
   45.0000     2.4231     0.0033     9.9538     6.7049    -1.7068     0.1699     7.9959   102.8488
   45.5000     2.4239     0.0035     9.8612     6.6873    -1.7068     0.1667     8.0019   104.8270
   46.0000     2.4228     0.0025     9.4739     6.6698    -1.7068     0.1655     8.0017   104.4034
   46.5000     2.4202     0.0015     9.1549     6.6522    -1.7126     0.1672     8.0000   105.7085
   47.0000     2.4176     0.0005     8.8463     6.6347    -1.7440     0.1692     7.9984   108.0452
   47.5000     2.4170    -0.0006     8.5483     6.6238    -1.7749     0.1711     7.9967   108.4756
   48.0000     2.4214    -0.0016     8.2603     6.6881    -1.8057     0.1695     7.9951   103.7605
