~VERSION INFORMATION
 VERS.                2.0:   CWLS LOG ASCII STANDARD - VERSION 2.0
 WRAP.                 NO:   ONE LINE PER DEPTH STEP
~WELL INFORMATION
#MNEM.UNIT      DATA TYPE    INFORMATION
#----------   ------------   ------------------------------
 STRT.F          250.0000:   START DEPTH
 STOP.F         2527.0000:   STOP DEPTH
 STEP.F            0.5000:   STEP LENGTH
 NULL.          -999.2500:   NO VALUE
 COMP. FENIX & SCISSON INC:   COMPANY
 WELL.       NPR 3 #18-28:   WELL
 FLD .            WILDCAT:   FIELD
 LOC .      S28 T39N R78W:   LOCATION
 CNTY.            NATRONA:   COUNTY
 STAT.            WYOMING:   STATE
 CTRY. UNITED STATES OF AMERICA:   COUNTRY
 SRVC.            Unknown:   SERVICE COMPANY
 DATE.        01-MAY-1979:   LOGDATE
 API .       490251078000:   API NUMBER
~CURVE INFORMATION
#MNEM.UNIT       API CODE    CURVE DESCRIPTION
#----------   ------------   ------------------------------
 DEPT.F                  :   
 CORR.G/C3   45 356 01 00:   DENSITY CORRECTION
 DPHI.DEC    45 890 12 00:   DENSITY POROSITY SANDSTONE
 RHOB.G/C3   45 350 01 00:   BULK DENSITY
 CALD.IN     45 280 60 00:   CALIPER FROM DENSITY LOG
 GRD .GAPI   45 310 01 00:   GAMMA RAY FROM DENSITY LOG
~PARAMETER INFORMATION
#MNEM.UNIT          VALUE    DESCRIPTION
#----------   ------------   ------------------------------
 PD  .                 GL:   PERMANENT DATUM
 EPD .F              5079:   ELEVATION PERMANENT DATUM
 LMF .                 KB:   LOG MEASURED FROM
 DAPD.F                10:   FEET ABOVE PERMANENT DATUM
 DMF .                 KB:   DRILLING MEASURED FROM
 EKB .F              5089:   KELLING BUSHING
 EGL .F              5079:   GROUND LEVEL
 DATE.             5-1-79:   RUN DATE
 RUN .                  1:   RUN NUMBER
 DL  .F              2527:   DEPTH LOGGER
 BLI .F              2527:   BOTTOM LOG INTERVAL
 TLI .F               250:   TOP LOG INTERVAL
 CS  .IN            9.625:   CASING SIZE
 CBD .F               500:   CASING BOTTOM DRILLER
 CBL .F               495:   CASING BOTTOM LOGGER
 BS  .IN             8.75:   BIT SIZE
 DFT .                AIR:   DRILLING FLUID TYPE
 TCS .HRS              12:   TIME CURCULATED STOPPED
 LUL .             CASPER:   LOGGING UNIT LOCATION
 ENGI.         B. ROLLINS:   RECORDING ENGINEER
 WITN.           DINSMORE:   WITNESSED BY
 CLNT.            A2DTECH:   CLIENT CODE
 ORIG.           5" PRINT:   ORIGIN OF DATA
 UWI .       490251078000:   UNIQUE WELL ID
 DICO. A2D Technologies, Inc.:   DIGITIZING COMPANY
~OTHER INFORMATION
~A   DEPT     CORR       DPHI       RHOB       CALD         GRD  
# ...
 2202.0000     0.0321     0.0410     2.4853     9.0972   155.1156
 2202.5000     0.0180     0.0526     2.4738     9.0950   150.5931
 2203.0000     0.0047     0.0553     2.4635     9.0928   147.1024
 2203.5000     0.0251     0.0479     2.4771     9.0906   146.5519
 2204.0000     0.0440     0.0417     2.4930     9.0884   146.5701
 2204.5000     0.0260     0.0468     2.4840     9.0871   147.7985
 2205.0000    -0.0015     0.0518     2.4728     9.0865   149.9763
 2205.5000     0.0059     0.0533     2.4674     9.0860   152.1694
 2206.0000     0.0296     0.0470     2.4734     9.0854   154.3727
 2206.5000     0.0526     0.0513     2.4788     9.0849   156.2630
 2207.0000     0.0720     0.0545     2.4651     9.0843   154.8215
 2207.5000     0.1222     0.0335     2.5007     9.0838   155.5748
 2208.0000     0.2025    -0.0007     2.5608     9.0832   157.1542
 2208.5000     0.2520    -0.0410     2.6201     9.0827   155.0579
 2209.0000     0.2426     0.0146     2.6224     9.0821   153.7047
 2209.5000     0.0658     0.0779     2.4327     9.0816   152.6114
 2210.0000     0.0224     0.0763     2.4297     9.0810   152.0930
 2210.5000     0.0453     0.0582     2.4590     9.0805   154.5082
 2211.0000     0.0777     0.0442     2.4860     9.0799   156.6733
 2211.5000     0.0824     0.0351     2.5022     9.0794   156.4751
 2212.0000     0.0402     0.0507     2.4801     9.0788   149.2776
 2212.5000     0.0096     0.0688     2.4366     9.0783   144.0018
 2213.0000     0.0015     0.0654     2.4435     9.0777   142.7915
 2213.5000     0.0109     0.0609     2.4508     9.0772   142.4541
 2214.0000     0.0103     0.0671     2.4365     9.0766   142.4718
 2214.5000     0.0069     0.0687     2.4399     9.0761   142.8951
 2215.0000     0.0135     0.0640     2.4529     9.0755   145.4216
 2215.5000     0.0218     0.0570     2.4667     9.0750   147.9404
 2216.0000     0.0130     0.0518     2.4704     9.0744   148.0227
 2216.5000    -0.0005     0.0648     2.4330     9.0739   144.5023
 2217.0000    -0.0018     0.0743     2.4268     9.0733   143.4501
 2217.5000     0.0063     0.0730     2.4322     9.0728   144.8030
 2218.0000     0.0132     0.0711     2.4384     9.0722   148.5389
 2218.5000     0.0113     0.0700     2.4395     9.0717   152.2958
 2219.0000     0.0066     0.0771     2.4265     9.0711   155.3789
 2219.5000     0.0018     0.0885     2.4133     9.0706   153.1089
 2220.0000     0.0030     0.0914     2.4038     9.0700   146.7020
 2220.5000     0.0108     0.0837     2.4099     9.0695   139.3933
 2221.0000     0.0185     0.0739     2.4234     9.0689   133.7491
 2221.5000     0.0262     0.0714     2.4373     9.0684   133.4834
 2222.0000     0.0302     0.0687     2.4424     9.0712   135.6552
 2222.5000     0.0259     0.0807     2.4318     9.0885   139.2100
 2223.0000     0.0219     0.0886     2.4137     9.1055   142.4539
 2223.5000     0.0189     0.0890     2.4037     9.1225   142.8709
 2224.0000     0.0250     0.0863     2.4119     9.1395   140.8139
 2224.5000     0.0367     0.0784     2.4256     9.1565   134.4902
 2225.0000     0.0324     0.0704     2.4373     9.1735   135.2427
 2225.5000     0.0243     0.0670     2.4403     9.1904   136.9704
 2226.0000     0.0246     0.0637     2.4478     9.2074   137.5189
 2226.5000     0.0326     0.0657     2.4500     9.2246   133.7765
 2227.0000     0.0404     0.0702     2.4429     9.2420   130.9987
 2227.5000     0.0374     0.0739     2.4361     9.2372   130.3712
 2228.0000     0.0311     0.0730     2.4326     9.2266   130.5301
 2228.5000     0.0369     0.0699     2.4381     9.2160   130.9542
 2229.0000     0.0471     0.0669     2.4435     9.2057   130.6803
 2229.5000     0.0573     0.0640     2.4488     9.2053   130.8292
 2230.0000     0.0676     0.0642     2.4484     9.1852   133.4838
 2230.5000     0.0766     0.0695     2.4302     9.1846   136.0739
 2231.0000     0.0709     0.0818     2.4129     9.1845   138.6363
 2231.5000     0.0544     0.0940     2.3952     9.1845   140.7922
 2232.0000     0.0423     0.0961     2.3902     9.1841   140.3521
 2232.5000     0.0820     0.0884     2.4031     9.1650   137.4032
 2233.0000     0.0664     0.0762     2.4245     9.1197   135.3292
 2233.5000     0.0432     0.0659     2.4462     9.0751   134.2217
 2234.0000     0.0268     0.0539     2.4654     9.0292   134.0894
 2234.5000     0.0322     0.0415     2.4847     8.9953   135.0814
 2235.0000     0.0377     0.0410     2.4957     8.9899   138.9214
 2235.5000     0.0338     0.0449     2.4867     8.9948   142.7520
 2236.0000     0.0214     0.0470     2.4783     8.9995   146.5805
 2236.5000     0.0153     0.0452     2.4784     9.0041   149.6673
 2237.0000     0.0201     0.0430     2.4805     9.0087   149.4510
 2237.5000     0.0246     0.0409     2.4833     9.0134   145.4714
 2238.0000     0.0291     0.0388     2.4883     9.0180   144.8312
 2238.5000     0.0306     0.0371     2.4914     9.0226   149.7756
 2239.0000     0.0229     0.0412     2.4914     9.0272   153.1352
 2239.5000     0.0169     0.0420     2.4912     9.0318   149.9151
 2240.0000     0.0170     0.0407     2.4865     9.0365   145.9063
 2240.5000     0.0170     0.0437     2.4794     9.0411   141.8221
 2241.0000     0.0159     0.0504     2.4682     9.0456   141.3158
 2241.5000     0.0082     0.0571     2.4561     9.0459   143.7068
 2242.0000     0.0005     0.0638     2.4440     9.0387   146.2621
 2242.5000    -0.0068     0.0705     2.4318     9.0316   147.1998
 2243.0000    -0.0040     0.0724     2.4277     9.0244   145.7128
 2243.5000     0.0113     0.0680     2.4381     9.0173   143.9901
 2244.0000     0.0264     0.0562     2.4597     9.0101   142.2601
 2244.5000     0.0392     0.0467     2.4806     9.0030   141.1412
 2245.0000     0.0352     0.0481     2.4762     8.9958   142.7432
 2245.5000     0.0292     0.0494     2.4702     8.9902   144.1810
 2246.0000     0.0273     0.0455     2.4783     8.9929   141.8531
 2246.5000     0.0330     0.0408     2.4890     8.9955   136.4256
 2247.0000     0.0386     0.0403     2.4998     8.9981   130.8595
 2247.5000     0.0355     0.0447     2.4992     9.0006   128.9693
 2248.0000     0.0310     0.0519     2.4691     9.0032   135.0467
 2248.5000     0.0264     0.0592     2.4558     9.0057   145.3126
 2249.0000     0.0230     0.0664     2.4446     9.0083   153.6199
 2249.5000     0.0230     0.0732     2.4337     9.0097   153.8895
 2250.0000     0.0329     0.0732     2.4286     9.0097   148.2569
 2250.5000     0.0426     0.0587     2.4507     9.0097   144.8599
 2251.0000     0.0439     0.0553     2.4639     9.0097   147.1772
 2251.5000     0.0382     0.0564     2.4621     9.0097   154.1454
 2252.0000     0.0324     0.0594     2.4529     9.0097   160.6573
 2252.5000     0.0271     0.0624     2.4475     9.0097   160.7458
 2253.0000     0.0248     0.0623     2.4523     9.0097   156.6562
 2253.5000     0.0250     0.0601     2.4578     9.0097   152.0809
 2254.0000     0.0250     0.0580     2.4633     9.0097   147.0920
 2254.5000     0.0225     0.0557     2.4619     9.0097   144.9619
 2255.0000     0.0232     0.0579     2.4601     9.0097   143.5494
 2255.5000     0.0250     0.0597     2.4585     9.0097   141.4022
 2256.0000     0.0301     0.0594     2.4614     9.0097   136.5060
 2256.5000     0.0352     0.0565     2.4648     9.0106   136.0161
 2257.0000     0.0368     0.0536     2.4682     9.0119   135.2473
 2257.5000     0.0352     0.0510     2.4705     9.0131   132.6735
 2258.0000     0.0200     0.0537     2.4658     9.0144   130.2981
 2258.5000     0.0039     0.0574     2.4607     9.0157   131.4706
 2259.0000     0.0012     0.0610     2.4556     9.0170   133.2664
 2259.5000     0.0122     0.0643     2.4515     9.0183   133.1586
 2260.0000     0.0238     0.0685     2.4452     9.0195   136.9379
 2260.5000     0.0355     0.0756     2.4295     9.0208   143.9470
 2261.0000     0.0387     0.0795     2.4218     9.0221   143.5247
 2261.5000     0.0325     0.0795     2.4226     9.0234   140.9626
 2262.0000     0.0270     0.0762     2.4345     9.0247   142.2056
 2262.5000     0.0361     0.0637     2.4486     9.0260   143.5099
