~VERSION INFORMATION
 VERS.                2.0:   CWLS LOG ASCII STANDARD - VERSION 2.0
 WRAP.                 NO:   ONE LINE PER DEPTH STEP
~WELL INFORMATION
#MNEM.UNIT      DATA TYPE    INFORMATION
#----------   ------------   ------------------------------
 STRT.F            0.0000:   START DEPTH
 STOP.F         2240.0000:   STOP DEPTH
 STEP.F            0.5000:   STEP LENGTH
 NULL.          -999.2500:   NO VALUE
 COMP.   FLUOR DANIEL INC:   COMPANY
 WELL. NAVAL PETROLEUM RESERVE 3 SX 62 #16-3:   WELL
 FLD .             TEAPOT:   FIELD
 LOC .       S3 T38N R78W:   LOCATION
 CNTY.            NATRONA:   COUNTY
 STAT.            WYOMING:   STATE
 CTRY. UNITED STATES OF AMERICA:   COUNTRY
 SRVC.            Unknown:   SERVICE COMPANY
 DATE.        19-SEP-1992:   LOGDATE
 API .       490251127300:   API NUMBER
~CURVE INFORMATION
#MNEM.UNIT       API CODE    CURVE DESCRIPTION
#----------   ------------   ------------------------------
 DEPT.F                  :   
 GR  .GAPI   81 310 01 00:   GAMMA RAY
 ROP .MIN/FT 91 810 01 00:   RATE OF DRILLING PENETRATION
 TGAS.UNITS  91 830 01 00:   TOTAL GAS FROM HOTWIRE
~PARAMETER INFORMATION
#MNEM.UNIT          VALUE    DESCRIPTION
#----------   ------------   ------------------------------
 PD  .                 GL:   PERMANENT DATUM
 EPD .F              5144:   ELEVATION PERMANENT DATUM
 LMF .                 KB:   LOG MEASURED FROM
 DAPD.F                10:   FEET ABOVE PERMANENT DATUM
 DMF .                 KB:   DRILLING MEASURED FROM
 EKB .F              5154:   KELLING BUSHING
 EDF .F              5152:   DRILLING FLOOR
 EGL .F              5144:   GROUND LEVEL
 DATE.            9-19-92:   RUN DATE
 RUN .                  1:   RUN NUMBER
 DD  .F               560:   DEPTH DRILLER
 DL  .F               520:   DEPTH LOGGER
 BLI .F               520:   BOTTOM LOG INTERVAL
 BS  .IN             8.75:   BIT SIZE
 BSD .F               560:   BIT SIZE AT DEPTH
 DFT . OIL WATER (TENSLEEP CRUDE):   DRILLING FLUID TYPE
 TCS .HRS            1200:   TIME CURCULATED STOPPED
 LUL .           GILLETTE:   LOGGING UNIT LOCATION
 ENGI.          L. GOENES:   RECORDING ENGINEER
 WITN.              HARDY:   WITNESSED BY
 CLNT.            A2DTECH:   CLIENT CODE
 ORIG.           5" PRINT:   ORIGIN OF DATA
 UWI .       490251127300:   UNIQUE WELL ID
 DICO. A2D Technologies, Inc.:   DIGITIZING COMPANY
~OTHER INFORMATION
~A    DEPT       GR       ROP       TGAS   
# ...
 1911.0000  -999.2500     0.7694     2.9044
 1911.5000  -999.2500     0.8469     2.9136
 1912.0000  -999.2500     0.9326     2.9228
 1912.5000  -999.2500     0.9568     2.9320
 1913.0000  -999.2500     0.9193     2.9411
 1913.5000  -999.2500     0.8663     2.9503
 1914.0000  -999.2500     0.8126     2.9595
 1914.5000  -999.2500     0.8050     2.9687
 1915.0000  -999.2500     0.8302     2.9778
 1915.5000  -999.2500     0.8668     2.9870
 1916.0000  -999.2500     0.8999     2.9962
 1916.5000  -999.2500     0.9324     3.0054
 1917.0000  -999.2500     0.9647     3.0145
 1917.5000  -999.2500     0.9740     3.0237
 1918.0000  -999.2500     0.9470     3.0329
 1918.5000  -999.2500     0.9208     3.0420
 1919.0000  -999.2500     0.8937     3.0512
 1919.5000  -999.2500     0.8716     3.0604
 1920.0000  -999.2500     0.9248     3.0696
 1920.5000  -999.2500     0.9878     3.0788
 1921.0000  -999.2500     1.0509     3.0879
 1921.5000  -999.2500     1.1138     3.0971
 1922.0000  -999.2500     1.1687     3.1063
 1922.5000  -999.2500     1.1578     3.1156
 1923.0000  -999.2500     1.0696     3.1247
 1923.5000  -999.2500     0.9807     3.1237
 1924.0000  -999.2500     0.8921     3.1148
 1924.5000  -999.2500     0.8022     3.1060
 1925.0000  -999.2500     0.7950     3.0972
 1925.5000  -999.2500     0.8726     3.0884
 1926.0000  -999.2500     0.9618     3.0797
 1926.5000  -999.2500     0.9809     3.0709
 1927.0000  -999.2500     0.9814     3.0622
 1927.5000  -999.2500     0.9808     3.0534
 1928.0000  -999.2500     0.9830     3.0446
 1928.5000  -999.2500     1.0603     3.0359
 1929.0000  -999.2500     1.1418     3.0271
 1929.5000  -999.2500     1.2232     3.0183
 1930.0000  -999.2500     1.3040     3.0096
 1930.5000  -999.2500     1.3789     3.0008
 1931.0000  -999.2500     1.4192     2.9920
 1931.5000  -999.2500     1.4610     2.9832
 1932.0000  -999.2500     1.5030     2.9745
 1932.5000  -999.2500     1.5450     2.9657
 1933.0000  -999.2500     1.5866     2.9569
 1933.5000  -999.2500     1.6284     2.9482
 1934.0000  -999.2500     1.5777     2.9394
 1934.5000  -999.2500     1.4260     2.9306
 1935.0000  -999.2500     1.2748     2.9219
 1935.5000  -999.2500     1.1233     2.9131
 1936.0000  -999.2500     0.9814     2.9043
 1936.5000  -999.2500     0.9670     2.8956
 1937.0000  -999.2500     0.9288     2.8868
 1937.5000  -999.2500     0.8911     2.8777
 1938.0000  -999.2500     0.8543     2.8751
 1938.5000  -999.2500     0.8441     2.8750
 1939.0000  -999.2500     0.8437     2.8750
 1939.5000  -999.2500     0.8432     2.8750
 1940.0000  -999.2500     0.8325     2.8750
 1940.5000  -999.2500     0.8752     2.8750
 1941.0000  -999.2500     0.9381     2.8750
 1941.5000  -999.2500     1.0012     2.8750
 1942.0000  -999.2500     1.0557     2.8750
 1942.5000  -999.2500     1.0394     2.8750
 1943.0000  -999.2500     0.9774     2.8750
 1943.5000  -999.2500     0.9179     2.8750
 1944.0000  -999.2500     0.8583     2.8750
 1944.5000  -999.2500     0.8153     2.8750
 1945.0000  -999.2500     0.8686     2.8750
 1945.5000  -999.2500     0.9129     2.8750
 1946.0000  -999.2500     0.9589     2.8750
 1946.5000  -999.2500     0.9683     2.8750
 1947.0000  -999.2500     0.9662     2.8750
 1947.5000  -999.2500     0.9638     2.8750
 1948.0000  -999.2500     0.9613     2.8750
 1948.5000  -999.2500     0.9589     2.8751
 1949.0000  -999.2500     0.9566     2.8755
 1949.5000  -999.2500     0.9687     2.8743
 1950.0000  -999.2500     1.0622     2.7789
 1950.5000  -999.2500     1.1569     2.6716
 1951.0000  -999.2500     1.2515     2.5643
 1951.5000  -999.2500     1.3446     2.4572
 1952.0000  -999.2500     1.3978     2.3499
 1952.5000  -999.2500     1.2860     2.2416
 1953.0000  -999.2500     1.1797     2.1298
 1953.5000  -999.2500     1.0751     2.1339
 1954.0000  -999.2500     0.9898     2.1457
 1954.5000  -999.2500     0.9468     2.1570
 1955.0000  -999.2500     0.9015     2.1681
 1955.5000  -999.2500     0.8567     2.1791
 1956.0000  -999.2500     0.8291     2.1901
 1956.5000  -999.2500     0.8331     2.2012
 1957.0000  -999.2500     0.8347     2.2122
 1957.5000  -999.2500     0.8597     2.2233
 1958.0000  -999.2500     0.9718     2.2343
 1958.5000  -999.2500     1.2423     2.2453
 1959.0000  -999.2500     1.4984     2.2564
 1959.5000  -999.2500     1.7536     2.2674
 1960.0000  -999.2500     1.8604     2.2785
 1960.5000  -999.2500     1.6857     2.2895
 1961.0000  -999.2500     1.5171     2.3005
 1961.5000  -999.2500     1.3489     2.3116
 1962.0000  -999.2500     1.1811     2.3226
 1962.5000  -999.2500     1.0327     2.3337
 1963.0000  -999.2500     1.0205     2.3445
 1963.5000  -999.2500     1.0094     2.3557
 1964.0000  -999.2500     0.9976     2.3671
 1964.5000  -999.2500     0.9859     2.3689
 1965.0000  -999.2500     0.9641     2.7867
 1965.5000  -999.2500     0.9364     3.3637
 1966.0000  -999.2500     0.9369     3.3840
 1966.5000  -999.2500     0.9864     3.3908
 1967.0000  -999.2500     1.0351     3.3996
 1967.5000  -999.2500     1.0840     3.4088
 1968.0000  -999.2500     1.1044     3.4181
 1968.5000  -999.2500     1.1017     3.4274
 1969.0000  -999.2500     1.0989     3.4367
 1969.5000  -999.2500     1.0957     3.4459
 1970.0000  -999.2500     1.0890     3.4552
 1970.5000  -999.2500     1.0712     3.4645
 1971.0000  -999.2500     1.0538     3.4738
 1971.5000  -999.2500     1.0365     3.4831
 1972.0000  -999.2500     1.0193     3.4924
 1972.5000  -999.2500     1.0059     3.5016
 1973.0000  -999.2500     1.0063     3.5109
 1973.5000  -999.2500     1.0066     3.5202
 1974.0000  -999.2500     1.0044     3.5295
 1974.5000  -999.2500     0.9443     3.5388
 1975.0000  -999.2500     0.9115     3.5480
 1975.5000  -999.2500     0.8990     3.5573
 1976.0000  -999.2500     0.9133     3.5666
 1976.5000  -999.2500     0.9455     3.5759
 1977.0000  -999.2500     0.9779     3.5852
 1977.5000  -999.2500     1.0112     3.5943
 1978.0000  -999.2500     1.0146     3.6034
 1978.5000  -999.2500     1.0077     3.6136
 1979.0000  -999.2500     1.0004     3.6240
 1979.5000  -999.2500     0.9931     3.7847
 1980.0000  -999.2500     0.9859     4.0961
 1980.5000  -999.2500     0.9787     4.3717
 1981.0000  -999.2500     0.9714     4.1201
 1981.5000  -999.2500     0.9642     4.1259
 1982.0000  -999.2500     0.9566     4.1254
 1982.5000  -999.2500     0.9641     4.1249
 1983.0000  -999.2500     0.9798     4.1249
 1983.5000  -999.2500     0.9933     4.1247
 1984.0000  -999.2500     0.9866     4.0947
 1984.5000  -999.2500     0.9799     4.0292
 1985.0000  -999.2500     0.9733     3.9639
 1985.5000  -999.2500     0.9688     3.8977
 1986.0000  -999.2500     0.9827     3.8753
 1986.5000  -999.2500     0.9940     3.8749
 1987.0000  -999.2500     0.9936     3.8749
 1987.5000  -999.2500     0.9895     3.8750
 1988.0000  -999.2500     0.9855     3.8750
 1988.5000  -999.2500     0.9815     3.8750
 1989.0000  -999.2500     0.9937     3.8750
 1989.5000  -999.2500     1.0068     3.8750
 1990.0000  -999.2500     0.9777     3.8750
 1990.5000  -999.2500     0.9373     3.8750
 1991.0000  -999.2500     0.8965     3.8750
 1991.5000  -999.2500     0.8543     3.8750
 1992.0000  -999.2500     0.8459     3.8750
 1992.5000  -999.2500     0.8737     3.8750
 1993.0000  -999.2500     0.9000     3.8750
 1993.5000  -999.2500     0.9257     3.8750
 1994.0000  -999.2500     0.9441     3.8750
 1994.5000  -999.2500     0.9457     3.8750
 1995.0000  -999.2500     0.9484     3.8751
 1995.5000  -999.2500     0.9510     3.8755
 1996.0000  -999.2500     0.9535     3.8753
 1996.5000  -999.2500     0.9582     3.8413
 1997.0000  -999.2500     1.0013     3.5924
 1997.5000  -999.2500     1.0322     3.3419
 1998.0000  -999.2500     1.0159     3.1050
 1998.5000  -999.2500     0.9731     3.0784
 1999.0000  -999.2500     0.9253     3.1428
 1999.5000  -999.2500     0.8775     3.1564
 2000.0000  -999.2500     0.8298     3.1718
 2000.5000  -999.2500     0.7821     3.1894
 2001.0000  -999.2500     0.7343     3.2068
 2001.5000  -999.2500     0.6866     3.2241
