~VERSION INFORMATION
 VERS.                2.0:   CWLS LOG ASCII STANDARD - VERSION 2.0
 WRAP.                 NO:   ONE LINE PER DEPTH STEP
~WELL INFORMATION
#MNEM.UNIT      DATA TYPE    INFORMATION
#----------   ------------   ------------------------------
 STRT.F           34.0000:   START DEPTH
 STOP.F          555.0000:   STOP DEPTH
 STEP.F            0.5000:   STEP LENGTH
 NULL.          -999.2500:   NO VALUE
 COMP. FENIX & SCISSON-U.S. NAVY:   COMPANY
 WELL.    NPR #3 #17-S-11:   WELL
 FLD .             TEAPOT:   FIELD
 LOC .      S11 T38N R78W:   LOCATION
 CNTY.            NATRONA:   COUNTY
 STAT.            WYOMING:   STATE
 CTRY. UNITED STATES OF AMERICA:   COUNTRY
 SRVC.       Schlumberger:   SERVICE COMPANY
 DATE.        20-FEB-1977:   LOGDATE
 API .       490251028100:   API NUMBER
~CURVE INFORMATION
#MNEM.UNIT       API CODE    CURVE DESCRIPTION
#----------   ------------   ------------------------------
 DEPT.F                  :   
 SPR .MV     07 010 01 00:   SPONTANEOUS POTENTIAL
 ILD .OHMM   07 120 46 00:   INDUCTION LOG DEEP
 ILM .OHMM   07 120 44 00:   INDUCTION LOG MEDIUM
 LL8 .OHMM   07 220 08 00:   LATEROLOG-8 RES.
 CALD.IN     45 280 60 00:   CALIPER FROM DENSITY LOG
 GRD .GAPI   45 310 01 00:   GAMMA RAY FROM DENSITY LOG
 CORR.G/C3   45 356 01 00:   DENSITY CORRECTION
 RHOB.G/C3   45 350 01 00:   BULK DENSITY
 DPHI.DEC    45 890 12 00:   DENSITY POROSITY SANDSTONE
~PARAMETER INFORMATION
#MNEM.UNIT          VALUE    DESCRIPTION
#----------   ------------   ------------------------------
 PD  .                 GL:   PERMANENT DATUM
 EPD .F              5204:   ELEVATION PERMANENT DATUM
 LMF .                 GL:   LOG MEASURED FROM
 DMF .                 GL:   DRILLING MEASURED FROM
 EKB .F              5209:   KELLING BUSHING
 EGL .F              5204:   GROUND LEVEL
 DATE.        20-FEB-1977:   RUN DATE
 RUN .                  1:   RUN NUMBER
 DD  .F               556:   DEPTH DRILLER
 DL  .F               556:   DEPTH LOGGER
 BLI .F               555:   BOTTOM LOG INTERVAL
 TLI .F                42:   TOP LOG INTERVAL
 CS  .IN            8.625:   CASING SIZE
 CBD .F                42:   CASING BOTTOM DRILLER
 CBL .F                42:   CASING BOTTOM LOGGER
 BS  .IN            7.875:   BIT SIZE
 BSD .F               556:   BIT SIZE AT DEPTH
 DFT .            KCL MUD:   DRILLING FLUID TYPE
 DFD .                8.8:   DRILLING FLUID DENSITY
 DFV .                 33:   DRILLING FLUID VISCOSITY
 DFPH.                8.0:   DRILLING FLUID PH
 DFL .                7.6:   DRILLING FLUID LOSS
 MSS .           FLOWLINE:   MUD SAMPLE SOURCE
 RMS .OHMM            .44:   RESISTIVITY MUD SAMPLE
 MST .F                66:   MUD SAMPLE TEMPERATURE
 RMF .OHMM            .41:   RESISTIVITY MUD FILTRATE SAMPLE
 MFST.F                66:   MUD FILTRATE SAMPLE TEMPERATURE
 MFSS.               MEAS:   MUD FILTRATE SAMPLE SOURCE
 TCS .HRS               3:   TIME CURCULATED STOPPED
 LUN .               7680:   LOGGING UNIT NUMBER
 LUL .               CSPR:   LOGGING UNIT LOCATION
 ENGI.             TAYLOR:   RECORDING ENGINEER
 WITN.               JAPP:   WITNESSED BY
 CLNT.            A2DTECH:   CLIENT CODE
 ORIG.           5" PRINT:   ORIGIN OF DATA
 UWI .       490251028100:   UNIQUE WELL ID
 DICO. A2D Technologies, Inc.:   DIGITIZING COMPANY
~OTHER INFORMATION
~A   DEPT      SPR        ILD        ILM        LL8       CALD        GRD       CORR       RHOB       DPHI   
# ...
  362.5000   -52.2049     5.5097     5.3099     8.4265     8.2310   110.9722     0.0478     2.4277     0.1275
  363.0000   -51.9099     5.7073     5.6116     8.5416     8.2311   112.5526     0.0597     2.4405     0.1227
  363.5000   -51.6149     6.1084     5.9717     8.5985     8.2312   110.0584     0.0370     2.3945     0.1531
  364.0000   -51.4696     6.4559     6.3110     8.5961     8.2313   104.8504     0.0154     2.3659     0.1494
  364.5000   -51.3287     6.8232     6.4874     8.5938     8.2313   104.2314     0.0221     2.4457     0.1296
  365.0000   -51.3376     7.1122     6.5769     8.5910     8.2314   107.1040     0.0250     2.4705     0.1136
  365.5000   -51.4985     7.2110     6.5758     8.5886     8.2315   105.7075     0.0107     2.4787     0.1050
  366.0000   -51.6596     7.1607     6.4398     8.5863     8.2316   105.0579     0.0197     2.4681     0.1060
  366.5000   -51.6705     7.1108     6.2198     8.5840     8.2317   105.2798     0.0091     2.4734     0.1151
  367.0000   -51.6794     6.8683     5.7628     8.5817     8.2318   106.1803     0.0248     2.4862     0.1069
  367.5000   -51.6883     6.5361     5.1935     8.5793     8.2319   107.7596     0.0383     2.5027     0.0973
  368.0000   -51.6972     5.5350     4.8790     8.5770     8.2320   106.6240     0.0465     2.5170     0.0921
  368.5000   -51.7061     4.6273     4.5836     8.5156     8.2320   104.3572     0.0261     2.4876     0.1033
  369.0000   -51.5630     4.5006     4.2175     3.9513     8.2321   102.7691     0.0177     2.4808     0.1102
  369.5000   -51.5719     4.5002     4.1303     4.5676     8.2322   101.6334     0.0148     2.4755     0.1120
  370.0000   -51.5808     4.6585     4.2536     8.2762     8.2323   101.8702     0.0253     2.4589     0.1196
  370.5000   -51.4377     5.0269     4.6128     9.1150     8.2319   103.7406     0.0305     2.4370     0.1267
  371.0000   -51.4468     5.6938     4.8749     6.6758     8.2464   106.8227     0.0386     2.4241     0.1403
  371.5000   -51.4559     6.0787     5.5213     7.7170     8.2606   108.4020     0.0499     2.4219     0.1481
  372.0000   -51.3125     6.4910     6.1675     8.9825     8.2749   105.9090     0.0265     2.4324     0.1475
  372.5000   -51.3236     6.9033     6.6547     9.2960     8.2738   103.4159     0.0229     2.4550     0.1252
  373.0000   -51.3325     7.2650     6.9361     9.5541     8.2882   102.9601     0.0369     2.4828     0.1083
  373.5000   -51.1872     7.5606     7.1795     9.6275     8.2871   103.6335     0.0399     2.4790     0.1092
  374.0000   -51.0442     7.7725     7.3802     9.8848     8.2862   108.8325     0.0178     2.4549     0.1185
  374.5000   -51.0553     7.9352     7.5898    10.0198     8.2691   109.9593     0.0120     2.4582     0.1169
  375.0000   -50.9119     8.1574     7.7536    10.1565     8.2542   108.5218     0.0172     2.4726     0.1104
  375.5000   -50.6172     8.3281     7.9059    10.2945     8.2380   106.5558     0.0134     2.4872     0.1019
  376.0000   -50.6261     8.5024     7.9600    10.3638     8.2219   105.1939     0.0231     2.5022     0.0947
  376.5000   -50.4645     8.5610     8.0143    10.4329     8.2211   103.8320     0.0306     2.5150     0.0821
  377.0000   -50.1902     8.6797     8.0129    10.5024     8.2050   102.6964     0.0388     2.5210     0.0763
  377.5000   -50.0449     8.6791     8.0118    10.4989     8.2042   102.9182     0.0297     2.5074     0.0862
  378.0000   -50.0560     8.6785     8.0108    10.4960     8.2033   104.2715     0.0394     2.5006     0.0897
  378.5000   -50.0649     8.6779     8.0097    10.5661     8.2024   104.2813     0.0235     2.5043     0.0814
  379.0000   -50.0738     8.6772     7.9533    10.5631     8.2015   101.5264     0.0213     2.5126     0.0860
  379.5000   -49.9308     8.6766     7.9522    10.5602     8.2006   100.6382     0.0243     2.5133     0.0928
  380.0000   -49.9397     8.6760     7.8960    10.4840     8.1997   102.8951     0.0520     2.5078     0.0859
  380.5000   -49.9486     8.6754     7.8405    10.3372     8.1988   104.9269     0.0331     2.5012     0.0817
  381.0000   -49.8055     8.7353     7.8394    10.0525     8.1979   104.2438     0.0249     2.4981     0.0910
  381.5000   -49.8146     8.8563     7.9477     9.7756     8.1970   102.6557     0.0211     2.4966     0.0925
  382.0000   -49.8255     8.9173     8.0577     9.6387     8.1961   101.7463     0.0218     2.4973     0.0877
  382.5000   -49.8344     8.8551     8.1690     9.7703     8.1952   101.2894     0.0247     2.5033     0.0868
  383.0000   -49.8433     8.7934     8.2246     9.9731     8.1943   101.5113     0.0321     2.5093     0.0868
  383.5000   -49.8522     8.7928     8.1101    10.2493     8.1933   101.5068     0.0305     2.5153     0.0849
  384.0000   -49.8611     8.8533     8.0516    10.6070     8.1924   101.4359     0.0275     2.5205     0.0789
  384.5000   -50.0220     8.9143     7.9412    10.9771     8.1915    99.2345     0.0327     2.5213     0.0813
  385.0000   -50.1829     9.1639     7.9399    11.2871     8.1906    95.1577     0.0387     2.5166     0.0828
  385.5000   -50.3438     9.1632     7.9388    10.8955     8.1897    90.4021     0.0469     2.5287     0.0762
  386.0000   -50.5046     9.1626     8.0487    10.8168     8.1888    90.1715     0.0528     2.5385     0.0701
  386.5000   -50.5135     8.8502     8.0474    11.5083     8.1879    90.3944     0.0453     2.5294     0.0713
  387.0000   -50.3475     5.6812     5.6914    12.1603     8.1870    90.8425     0.0377     2.5098     0.0825
  387.5000   -50.0754     5.5640     5.4970     6.1306     8.1861    92.4207     0.0249     2.5000     0.0894
  388.0000   -49.9324     5.5253     5.5345     3.6997     8.1852    94.2443     0.0256     2.5067     0.0812
  388.5000   -49.7893     5.5675     5.5721     3.5732     8.1843    97.2864     0.0324     2.5173     0.0809
  389.0000   -49.8004     5.7988     5.6124     5.9998     8.1834   102.1349     0.0392     2.5105     0.0945
  389.5000   -49.6551     6.0444     5.7336    10.0751     8.1825   107.3341     0.0427     2.4743     0.1053
  390.0000   -49.5120     6.4774     6.0944    12.3942     8.1815   115.4745     0.0591     2.4102     0.1297
  390.5000   -49.5232     7.1788     6.9988    12.2174     8.1806   118.1861     0.0673     2.3835     0.1640
  391.0000   -49.2281     8.3370     8.0373    11.5598     8.1797   109.8096     0.0260     2.3891     0.1493
  391.5000   -49.0851     9.6771     9.8918    11.8801     8.1788   103.2441     0.0118     2.4327     0.1215
  392.0000   -48.9240    10.1573    10.3104    12.2100     8.1779    96.9049     0.0289     2.4839     0.0953
  392.5000   -48.4972    10.1564    10.3087    12.4625     8.1770    95.9955     0.0334     2.5110     0.0857
  393.0000   -48.3519    10.1557    10.2361    12.5464     8.1761    95.9910     0.0461     2.5185     0.0799
  393.5000   -48.2088    10.0850    10.1641    12.5422     8.1752    95.5331     0.0430     2.5207     0.0848
  394.0000   -47.7640    10.0843    10.0230    12.2814     8.1743    94.3975     0.0347     2.5109     0.0896
  394.5000   -47.4690     9.9449     9.8156    12.1935     8.1734    92.3569     0.0242     2.5048     0.0871
  395.0000   -47.1739     9.8756     9.6792    12.4457     8.1727    90.7688     0.0211     2.5026     0.0911
  395.5000   -46.7269    10.0217     9.8225    12.4423     8.1727    90.7644     0.0362     2.5095     0.0820
  396.0000   -46.4318    10.6557    10.4933    12.2681     8.1728    92.1174     0.0293     2.5108     0.0835
  396.5000   -45.9848    11.6537    11.6659    12.8112     8.1728    94.3755     0.0195     2.4995     0.0949
  397.0000   -45.6768    13.1059    12.8795    18.6045     8.1728    95.9578     0.0142     2.4881     0.1016
  397.5000   -45.3947    14.5581    14.0930    25.6872     8.1728    97.8130     0.0111     2.4821     0.1046
  398.0000   -44.9499    16.0102    15.3066    31.1661     8.1729    94.3611     0.0103     2.4843     0.1052
  398.5000   -44.8069    17.4624    16.6015    23.7929     8.1729    87.3432     0.0140     2.4911     0.1003
