~VERSION INFORMATION
 VERS.                2.0:   CWLS LOG ASCII STANDARD - VERSION 2.0
 WRAP.                 NO:   ONE LINE PER DEPTH STEP
~WELL INFORMATION
#MNEM.UNIT      DATA TYPE    INFORMATION
#----------   ------------   ------------------------------
 STRT.F           14.5000:   START DEPTH
 STOP.F          750.0000:   STOP DEPTH
 STEP.F            0.5000:   STEP LENGTH
 NULL.          -999.2500:   NO VALUE
 COMP. FENIX & SCISSON INC:   COMPANY
 WELL.       NPR 3 #24-14:   WELL
 FLD .             TEAPOT:   FIELD
 LOC .      S14 T38N R78W:   LOCATION
 CNTY.            NATRONA:   COUNTY
 STAT.            WYOMING:   STATE
 CTRY. UNITED STATES OF AMERICA:   COUNTRY
 SRVC.           BIRDWELL:   SERVICE COMPANY
 DATE.        27-DEC-1978:   LOGDATE
 API .       490251075900:   API NUMBER
~CURVE INFORMATION
#MNEM.UNIT       API CODE    CURVE DESCRIPTION
#----------   ------------   ------------------------------
 DEPT.F                  :   
 SPR .MV     05 010 01 00:   SPONTANEOUS POTENTIAL FROM RES.
 SN  .OHMM   05 040 16 00:   SHORT NORMAL 16"
 IL  .OHMM   05 120 00 00:   INDUCTION LOG
 GRD .GAPI   45 310 01 00:   GAMMA RAY FROM DENSITY LOG
 CALD.IN     45 280 60 00:   CALIPER
 RHOB.G/C3   45 350 01 00:   BULK DENSITY
 DPHI.DEC    45 890 12 00:   DENSITY POROSITY SANDSTONE
 CORR.G/C3   45 356 01 00:   DENSITY CORRECTION
~PARAMETER INFORMATION
#MNEM.UNIT          VALUE    DESCRIPTION
#----------   ------------   ------------------------------
 PD  .                 GL:   PERMANENT DATUM
 EPD .F              5209:   ELEVATION PERMANENT DATUM
 LMF .                 KB:   LOG MEASURED FROM
 DAPD.F                 4:   FEET ABOVE PERMANENT DATUM
 DMF .                 KB:   DRILLING MEASURED FROM
 EKB .F              5212:   KELLING BUSHING
 EGL .F              5209:   GROUND LEVEL
 DATE.           12-27-78:   RUN DATE
 RUN .                  1:   RUN NUMBER
 DD  .F               750:   DEPTH DRILLER
 DL  .F               742:   DEPTH LOGGER
 BLI .F               735:   BOTTOM LOG INTERVAL
 TLI .F                35:   TOP LOG INTERVAL
 CS  .IN            8.625:   CASING SIZE
 CBD .F                40:   CASING BOTTOM DRILLER
 CBL .F                32:   CASING BOTTOM LOGGER
 BS  .IN            7.875:   BIT SIZE
 BSD .F               750:   BIT SIZE AT DEPTH
 DFT .                KCL:   DRILLING FLUID TYPE
 DFD .                8.6:   DRILLING FLUID DENSITY
 DFV .                 35:   DRILLING FLUID VISCOSITY
 DFPH.                9.4:   DRILLING FLUID PH
 DFL .               12.4:   DRILLING FLUID LOSS
 MSS .           FLOWLINE:   MUD SAMPLE SOURCE
 RMS .OHMM            .38:   RESISTIVITY MUD SAMPLE
 MST .F                58:   MUD SAMPLE TEMPERATURE
 RMF .OHMM            .38:   RESISTIVITY MUD FILTRATE SAMPLE
 MFST.F                58:   MUD FILTRATE SAMPLE TEMPERATURE
 RMC .OHMM            .36:   RESISTIVITY MUD CAKE
 MCST.F                60:   MUD CAKE SAMPLE TEMPERATURE
 MFSS.           MEASURED:   MUD FILTRATE SAMPLE SOURCE
 MCSS.           MEASURED:   MUD CAKE SAMPLE SOURCE
 RMB .OHMM            .37:   RESISTIVITY MUD AT BHT
 BHT .F                59:   BOTTOM HOLE TEMPERATURE
 TCS .HRS               2:   TIME CURCULATED STOPPED
 MRT .F                59:   MAXIMUM RECORDED TEMPERATURE
 LUN .               2958:   LOGGING UNIT NUMBER
 LUL .             CASPER:   LOGGING UNIT LOCATION
 ENGI.         B. ROLLINS:   RECORDING ENGINEER
 WITN.           DINSMORE:   WITNESSED BY
 CLNT.            A2DTECH:   CLIENT CODE
 ORIG.           5" PRINT:   ORIGIN OF DATA
 UWI .       490251075900:   UNIQUE WELL ID
 DICO. A2D Technologies, Inc.:   DIGITIZING COMPANY
~OTHER INFORMATION
~A   DEPT      SPR         SN         IL         GRD      CALD       RHOB       DPHI       CORR   
# ...
   55.0000   -48.1020     7.5470     3.4060    93.0010     7.7770     2.4360     0.1490     0.0910
   55.5000   -48.1180     6.5140     3.4380    89.3960     7.7550     2.4370     0.1630     0.0760
   56.0000   -48.7150     5.7270     3.4700    87.9070     7.6910     2.4300     0.1760     0.0570
   56.5000   -49.6530     4.9850     3.5010    91.6200     7.6180     2.3920     0.1820     0.0590
   57.0000   -51.4750     5.0960     3.5900    92.8350     7.7560     2.3810     0.1760     0.0640
   57.5000   -53.2360     5.2790     3.7130    93.3770     7.8980     2.3850     0.1650     0.0690
   58.0000   -53.5190     5.5670     3.9850    94.6260     8.0390     2.4010     0.1590     0.0680
   58.5000   -52.9610     5.4980     4.2500    94.8530     8.1790     2.4160     0.1640     0.0570
   59.0000   -52.4130     5.3410     4.5050    95.0530     8.2070     2.4120     0.1700     0.0460
   59.5000   -52.3060     5.2130     4.5050    94.2820     8.1260     2.4030     0.1710     0.0390
   60.0000   -52.3030     5.1570     4.4400    93.3710     8.1000     2.3960     0.1720     0.0350
   60.5000   -52.3470     5.1350     4.2990    92.4370     8.0770     2.3970     0.1770     0.0310
   61.0000   -52.4610     5.1130     4.1830    92.2070     8.0530     2.3950     0.1850     0.0200
   61.5000   -53.0360     5.0900     4.0980    93.2010     8.0300     2.3750     0.1920     0.0130
   62.0000   -53.6770     5.0680     4.0660    94.6040     8.0060     2.3590     0.1970     0.0120
   62.5000   -53.7010     5.0460     4.0590    94.3070     7.9630     2.3520     0.2030     0.0130
   63.0000   -53.7000     5.0040     4.0520    93.3720     7.8190     2.3450     0.2120     0.0140
   63.5000   -53.7000     4.9160     4.0460    91.8520     7.6770     2.3310     0.2210     0.0160
   64.0000   -53.7000     4.8290     4.0390    89.2960     7.6240     2.3140     0.2370     0.0170
   64.5000   -53.7100     4.6930     3.9980    86.8660     7.5900     2.2880     0.2600     0.0190
   65.0000   -53.9610     4.5390     3.8890    85.8490     7.5670     2.2540     0.2800     0.0210
   65.5000   -54.2190     4.3850     3.7280    85.0430     7.5600     2.2190     0.2990     0.0270
   66.0000   -54.4770     4.2310     3.4700    85.8120     7.5530     2.1840     0.3010     0.0420
   66.5000   -54.7340     4.0770     3.2130    86.2050     7.5460     2.1730     0.2740     0.0550
   67.0000   -54.9910     3.9230     2.8960    86.2120     7.5390     2.1910     0.2470     0.0440
   67.5000   -55.2480     3.7050     2.9390    85.4650     7.5310     2.2540     0.2170     0.0320
   68.0000   -55.5040     3.4680     3.0050    85.0380     7.5290     2.3170     0.1860     0.0280
   68.5000   -55.7110     3.2310     3.0000    84.8490     7.5760     2.3790     0.1730     0.0260
   69.0000   -55.7350     3.0810     2.9930    84.4440     7.6710     2.3910     0.1730     0.0250
   69.5000   -55.7620     3.0610     2.9860    83.4190     7.8760     2.3920     0.1700     0.0250
   70.0000   -55.7900     3.1490     2.9780    83.1790     8.0210     2.3950     0.1640     0.0290
   70.5000   -55.8180     3.2350     3.1440    83.5740     8.2310     2.4000     0.1620     0.0330
   71.0000   -55.8470     3.4650     3.3460    86.3150     8.2060     2.4100     0.1600     0.0380
   71.5000   -55.8780     3.7360     3.5480    90.3630     8.1710     2.4140     0.1640     0.0480
   72.0000   -55.8300     4.4970     4.0880    92.1020     8.1380     2.4140     0.1670     0.0740
   72.5000   -54.4030     5.1560     4.6910    89.8650     8.1040     2.4030     0.1680     0.1170
   73.0000   -53.0800     5.2770     4.9930    87.7980     8.0700     2.3990     0.1640     0.1640
   73.5000   -52.1490     5.3650     5.2190    84.9830     8.0340     2.4110     0.1620     0.2080
   74.0000   -51.6440     5.3160     5.1500    86.6550     7.9530     2.4110     0.1640     0.2290
   74.5000   -51.2510     5.2770     5.0050    90.5830     7.8510     2.4080     0.1690     0.2370
   75.0000   -50.8970     5.2390     4.8610    94.1620     7.9410     2.4030     0.1840     0.2190
   75.5000   -50.7370     5.1920     4.7160    96.2750     7.9220     2.4000     0.2090     0.1880
   76.0000   -50.5880     5.1360     4.5520    96.5460     7.9010     2.3680     0.2020     0.1680
   76.5000   -50.4410     5.0770     4.2350    98.5130     7.8870     2.3360     0.1870     0.1600
   77.0000   -50.2930     4.9300     3.9180   104.2380     7.7990     2.3510     0.1720     0.1620
   77.5000   -50.1360     4.7610     3.6760   104.8300     7.6980     2.3800     0.1560     0.1690
   78.0000   -50.2320     4.4410     3.9970   106.4040     7.6340     2.4260     0.1430     0.1750
   78.5000   -51.2620     4.1020     3.9130   107.0820     7.5820     2.4420     0.1480     0.1640
   79.0000   -52.5610     3.7960     3.7620   102.3360     7.5290     2.4400     0.1520     0.1530
   79.5000   -53.6930     3.6650     3.5460    97.1290     7.4770     2.4280     0.1530     0.1420
   80.0000   -53.7000     3.4690     3.6770    92.5730     7.4130     2.4270     0.1580     0.1200
   80.5000   -53.6980     4.0460     3.9050    90.0670     7.4390     2.4240     0.1880     0.0960
   81.0000   -53.6960     4.2770     4.1330    90.2080     7.4670     2.3780     0.2240     0.0770
   81.5000   -53.5990     4.5720     4.3610    92.6420     7.4370     2.3250     0.2390     0.0980
   82.0000   -52.9340     4.9030     4.5880    98.0330     7.3880     2.2800     0.2060     0.1550
   82.5000   -52.4490     5.0540     4.6370   101.7220     7.2890     2.3160     0.1820     0.1800
   83.0000   -52.3290     5.0930     4.6450   101.7160     7.2100     2.3720     0.1740     0.1510
   83.5000   -52.1990     5.1310     4.6530    99.6570     7.2120     2.3890     0.1720     0.1270
   84.0000   -51.9420     5.1700     4.6600    97.6980     7.2120     2.3940     0.1740     0.1140
   84.5000   -51.0340     5.2080     4.6680    97.3270     7.2430     2.3920     0.1750     0.1020
   85.0000   -50.0720     5.2680     4.6740    97.4710     7.2940     2.3910     0.1740     0.0910
   85.5000   -47.8990     5.2290     4.5740    98.1870     7.2600     2.3910     0.1760     0.0800
   86.0000   -46.2420     5.1450     4.4950    98.8790     7.1800     2.3890     0.1820     0.0690
   86.5000   -45.7100     5.0610     4.4230    99.5190     7.1330     2.3810     0.1940     0.0580
   87.0000   -45.8370     4.9850     4.2310   100.1600     7.2450     2.3720     0.2120     0.0470
   87.5000   -45.9510     4.8060     4.0540    95.3870     7.3760     2.3380     0.2190     0.0400
   88.0000   -46.0600     4.6420     3.8760    95.5130     7.5910     2.3110     0.2130     0.0380
   88.5000   -46.4400     4.4780     3.6990    95.5050     7.7990     2.3110     0.2010     0.0350
   89.0000   -46.9850     4.3150     3.5690    95.0670     7.8010     2.3380     0.2010     0.0340
   89.5000   -47.7690     4.1510     3.5390    97.4740     7.7930     2.3430     0.2030     0.0380
   90.0000   -48.9130     3.9870     3.5080   100.3410     7.7860     2.3420     0.2200     0.0410
   90.5000   -50.0490     3.8230     3.4590    98.3100     7.7790     2.3190     0.2350     0.0440
   91.0000   -51.7460     3.7120     3.3020    92.5290     7.7720     2.2940     0.2470     0.0470
   91.5000   -54.0060     3.6190     3.2520    87.8750     7.7910     2.2750     0.2480     0.0500
   92.0000   -55.0720     3.5540     3.2350    86.8820     7.9560     2.2650     0.2490     0.0530
   92.5000   -55.1190     3.5110     3.2190    86.9780     8.1090     2.2670     0.2660     0.0550
   93.0000   -55.1380     3.4680     3.1730    88.8700     8.1840     2.2480     0.2730     0.0570
   93.5000   -55.1580     3.3710     2.9980    90.4070     8.2040     2.2210     0.2600     0.0660
   94.0000   -55.1780     3.2350     2.8240    91.3030     8.1350     2.2330     0.2280     0.0750
   94.5000   -55.1970     3.0920     2.6180    92.4690     8.0910     2.2840     0.2000     0.0650
   95.0000   -55.2170     2.9490     2.6400    94.4750     8.0650     2.3350     0.1740     0.0540
