~VERSION INFORMATION
 VERS.                2.0:   CWLS LOG ASCII STANDARD - VERSION 2.0
 WRAP.                 NO:   ONE LINE PER DEPTH STEP
~WELL INFORMATION
#MNEM.UNIT      DATA TYPE    INFORMATION
#----------   ------------   ------------------------------
 STRT.F           60.0000:   START DEPTH
 STOP.F         3052.0000:   STOP DEPTH
 STEP.F            0.5000:   STEP LENGTH
 NULL.          -999.2500:   NO VALUE
 COMP.   FLUOR DANIEL INC:   COMPANY
 WELL. NAVAL PETROLEUM RESERVE 3 X-14 #57-14:   WELL
 FLD .            WILDCAT:   FIELD
 LOC .      S14 T38N R78W:   LOCATION
 CNTY.            NATRONA:   COUNTY
 STAT.            WYOMING:   STATE
 CTRY. UNITED STATES OF AMERICA:   COUNTRY
 SRVC.            Unknown:   SERVICE COMPANY
 DATE.        16-MAY-1995:   LOGDATE
 API .       490252272000:   API NUMBER
~CURVE INFORMATION
#MNEM.UNIT       API CODE    CURVE DESCRIPTION
#----------   ------------   ------------------------------
 DEPT.F                  :   
 ROP .FT/HR  91 810 01 00:   RAT OF DRILLING PENETRATION
 TGAS.TC/CC  91 830 01 00:   TOTAL GAS UNIT
~PARAMETER INFORMATION
#MNEM.UNIT          VALUE    DESCRIPTION
#----------   ------------   ------------------------------
 EKB .F              5312:   KELLING BUSHING
 EGL .F              5302:   GROUND LEVEL
 DATE.        16-MAY-1995:   RUN DATE
 RUN .                  1:   RUN NUMBER
 BLI .F              3062:   BOTTOM LOG INTERVAL
 TLI .F                60:   TOP LOG INTERVAL
 ENGI.     C.TOWER/R.HUSK:   RECORDING ENGINEER
 CLNT.            A2DTECH:   CLIENT CODE
 ORIG.           5" PRINT:   ORIGIN OF DATA
 UWI .       490252272000:   UNIQUE WELL ID
 DICO. A2D Technologies, Inc.:   DIGITIZING COMPANY
~OTHER INFORMATION
~A   DEPT        ROP       TGAS 
   60.0000     1.0482     1.3231
   60.5000     1.0526     1.3179
   61.0000     1.0342     1.3126
   61.5000     1.0345     1.3074
   62.0000     1.4273     1.3021
   62.5000     1.5491     1.2969
   63.0000     1.5026     1.2917
   63.5000     1.5497     1.2864
   64.0000     1.5686     1.2812
   64.5000     1.5408     1.2759
   65.0000     1.5411     1.2707
   65.5000     1.5414     1.2655
   66.0000     1.5510     1.2602
   66.5000     1.5513     1.2550
   67.0000     1.5516     1.2497
   67.5000     1.5519     1.2445
   68.0000     1.0101     1.2393
   68.5000     1.0104     1.2340
   69.0000     1.0013     1.2288
   69.5000     1.0016     1.2235
   70.0000     1.7776     1.2183
   70.5000     1.7872     1.2130
   71.0000     1.7875     1.2078
   71.5000     1.7878     1.2026
   72.0000     1.7787     1.1973
   72.5000     1.6668     1.1921
   73.0000     1.6671     1.1868
   73.5000     1.6674     1.1816
   74.0000     1.0322     1.1764
   74.5000     1.0231     1.1711
   75.0000     1.0140     1.1659
   75.5000     1.0049     1.1606
   76.0000     0.9958     1.1554
   76.5000     1.0055     1.1502
   77.0000     1.0058     1.1449
   77.5000     1.0061     1.1397
   78.0000     1.0157     1.1344
   78.5000     1.0160     1.1292
   79.0000     1.0163     1.1240
   79.5000     1.0166     1.1187
   80.0000     1.0169     1.1135
   80.5000     1.0171     1.1082
   81.0000     1.2791     1.1030
   81.5000     1.2887     1.0977
   82.0000     1.2890     1.0925
   82.5000     1.2893     1.0873
   83.0000     1.2895     1.0820
   83.5000     1.2898     1.0768
   84.0000     1.3742     1.0715
   84.5000     1.5147     1.0663
   85.0000     1.5150     1.0611
   85.5000     1.5059     1.0558
   86.0000     1.4968     1.0506
   86.5000     2.0205     1.0453
   87.0000     2.0192     1.0401
   87.5000     2.0117     1.0349
   88.0000     2.0120     1.0296
   88.5000     2.0123     1.0244
   89.0000     2.0126     1.0191
   89.5000     2.0128     1.0139
   90.0000     2.0131     1.0087
   90.5000     1.5274     1.0034
   91.0000     1.5183     0.9982
   91.5000     1.5279     0.9929
   92.0000     1.5282     0.9877
   92.5000     1.5379     0.9824
   93.0000     1.5475     0.9772
   93.5000     1.5478     0.9720
   94.0000     1.5481     0.9667
   94.5000     1.5484     0.9615
   95.0000     1.5580     0.9562
   95.5000     1.5583     0.9510
   96.0000     1.9791     0.9458
   96.5000     1.9887     0.9405
   97.0000     1.9796     0.9353
   97.5000     1.9893     0.9300
   98.0000     1.9895     0.9248
   98.5000     1.2515     0.9196
   99.0000     1.2424     0.9143
   99.5000     1.2428     0.9091
  100.0000     1.2430     0.9038
  100.5000     1.2433     0.8986
  101.0000     1.2436     0.8934
  101.5000     1.2532     0.8881
  102.0000     1.2535     0.8829
  102.5000     1.2538     0.8776
  103.0000     1.2541     0.8724
  103.5000     1.2543     0.8672
  104.0000     1.9929     0.8619
  104.5000     1.9932     0.8567
  105.0000     1.9935     0.8514
  105.5000     1.9937     0.8462
  106.0000     1.9940     0.8409
  106.5000     1.9943     0.8357
  107.0000     1.9946     0.8305
  107.5000     1.9855     0.8252
  108.0000     1.5746     0.8200
  108.5000     1.2851     0.8147
  109.0000     1.2854     0.8095
  109.5000     1.2858     0.8043
  110.0000     1.7253     0.7990
  110.5000     1.7816     0.7938
  111.0000     1.7912     0.7885
  111.5000     1.8009     0.7833
  112.0000     1.5395     0.7781
  112.5000     1.5397     0.7728
  113.0000     1.5307     0.7676
  113.5000     1.5309     0.7623
  114.0000     1.5312     0.7571
  114.5000     1.5315     0.7519
  115.0000     1.5411     0.7466
  115.5000     1.5415     0.7414
  116.0000     1.5417     0.7361
  116.5000     1.5420     0.7309
  117.0000     1.5423     0.7256
  117.5000     1.5519     0.7204
  118.0000     1.5522     0.7152
  118.5000     1.5430     0.7099
  119.0000     1.5434     0.7047
  119.5000     1.5437     0.6994
  120.0000     1.5439     0.6942
  120.5000     1.7685     0.6890
  121.0000     1.7688     0.6837
  121.5000     1.7597     0.6785
  122.0000     1.7600     0.6732
  122.5000     1.7595     0.6680
  123.0000     1.7512     0.6628
  123.5000     1.7609     0.6575
  124.0000     1.7612     0.6523
  124.5000     1.7614     0.6470
  125.0000     1.7617     0.6418
  125.5000     1.7620     0.6366
  126.0000     1.7623     0.6313
  126.5000     1.7625     0.6261
  127.0000     1.7628     0.6208
  127.5000     1.7724     0.6156
  128.0000     1.0344     0.6103
  128.5000     1.0253     0.6051
  129.0000     1.0256     0.5999
  129.5000     1.0259     0.5946
  130.0000     1.2599     0.5894
  130.5000     1.2601     0.5841
  131.0000     1.2604     0.5789
  131.5000     1.2700     0.5737
  132.0000     1.2703     0.5684
  132.5000     0.9901     0.5632
  133.0000     0.9905     0.5579
  133.5000     1.0001     0.5527
  134.0000     1.2901     0.5475
  134.5000     1.2997     0.5422
  135.0000     1.3000     0.5370
  135.5000     1.3003     0.5317
  136.0000     1.3006     0.5265
  136.5000     1.3009     0.5213
  137.0000     1.3012     0.5160
  137.5000     1.3014     0.5108
  138.0000     1.2924     0.5055
  138.5000     1.0309     0.5003
  139.0000     1.0312     0.4950
  139.5000     1.0315     0.4898
  140.0000     1.0318     0.4846
  140.5000     1.2844     0.4793
  141.0000     1.2847     0.4741
  141.5000     1.2850     0.4688
  142.0000     1.2853     0.4636
  142.5000     1.2855     0.4584
  143.0000     1.2858     0.4531
  143.5000     1.2861     0.4479
  144.0000     1.2864     0.4426
  144.5000     1.2866     0.4374
  145.0000     1.2963     0.4322
  145.5000     1.2966     0.4269
  146.0000     1.2969     0.4217
  146.5000     1.2971     0.4164
  147.0000     1.2974     0.4112
  147.5000     1.2977     0.4060
  148.0000     1.2980     0.4007
  148.5000     1.2982     0.3955
  149.0000     1.2985     0.3902
  149.5000     1.2988     0.3850
  150.0000     1.3084     0.3797
  150.5000     1.3089     0.3779
  151.0000     1.3094     0.3760
  151.5000     1.3098     0.3741
  152.0000     1.3331     0.3722
  152.5000     1.7875     0.3703
  153.0000     1.7879     0.3684
  153.5000     1.7884     0.3665
  154.0000     1.6206     0.3646
  154.5000     1.5368     0.3627
  155.0000     1.5374     0.3609
  155.5000     1.5285     0.3590
  156.0000     2.2302     0.3571
  156.5000     2.2397     0.3552
  157.0000     2.2403     0.3533
  157.5000     2.2407     0.3514
  158.0000     1.7926     0.3495
  158.5000     1.7836     0.3476
  159.0000     1.8028     0.3457
  159.5000     1.8033     0.3438
  160.0000     1.0468     0.3420
  160.5000     1.0191     0.3401
  161.0000     1.0197     0.3382
  161.5000     1.0107     0.3363
  162.0000     1.5440     0.3344
  162.5000     1.5444     0.3325
  163.0000     1.5449     0.3306
  163.5000     1.5552     0.3287
  164.0000     2.0037     0.3268
  164.5000     2.0043     0.3250
  165.0000     2.0047     0.3231
  165.5000     2.0052     0.3212
  166.0000     2.0056     0.3193
  166.5000     2.0061     0.3174
  167.0000     2.0159     0.3155
  167.5000     2.0164     0.3136
  168.0000     1.5401     0.3117
  168.5000     1.5407     0.3098
  169.0000     1.5411     0.3079
  169.5000     1.5416     0.3061
  170.0000     0.7850     0.3042
  170.5000     0.7856     0.3023
  171.0000     0.7954     0.3004
  171.5000     0.7958     0.2985
  172.0000     0.7963     0.2966
  172.5000     0.7968     0.2947
  173.0000     0.7972     0.2928
  173.5000     0.8070     0.2909
  174.0000     1.0131     0.2891
  174.5000     1.0136     0.2872
  175.0000     1.0141     0.2853
  175.5000     1.0145     0.2834
  176.0000     1.0150     0.2815
  176.5000     1.0155     0.2796
  177.0000     1.0159     0.2777
  177.5000     1.0164     0.2758
  178.0000     1.0075     0.2739
  178.5000     1.0079     0.2720
  179.0000     1.0085     0.2702
  179.5000     1.0090     0.2683
  180.0000     1.2150     0.2664
  180.5000     1.2809     0.2645
  181.0000     1.2813     0.2626
