~VERSION INFORMATION
 VERS.                2.0:   CWLS LOG ASCII STANDARD - VERSION 2.0
 WRAP.                 NO:   ONE LINE PER DEPTH STEP
~WELL INFORMATION
#MNEM.UNIT      DATA TYPE    INFORMATION
#----------   ------------   ------------------------------
 STRT.F           20.0000:   START DEPTH
 STOP.F          469.0000:   STOP DEPTH
 STEP.F            0.5000:   STEP LENGTH
 NULL.          -999.2500:   NO VALUE
 COMP. FENIX & SCISSON INC:   COMPANY
 WELL.       SX 3FO #26-3:   WELL
 FLD .             TEAPOT:   FIELD
 LOC .       S3 T38N R78W:   LOCATION
 CNTY.            NATRONA:   COUNTY
 STAT.            WYOMING:   STATE
 CTRY. UNITED STATES OF AMERICA:   COUNTRY
 SRVC.              Welex:   SERVICE COMPANY
 DATE.        02-JUL-1980:   LOGDATE
 API .       490251082500:   API NUMBER
~CURVE INFORMATION
#MNEM.UNIT       API CODE    CURVE DESCRIPTION
#----------   ------------   ------------------------------
 DEPT.F                  :   
 CALD.IN     45 280 60 00:   CALIPER
 GRD .GAPI   45 310 01 00:   GAMMA RAY FROM DENSITY LOG
 CORR.G/C3   45 356 01 00:   DENSITY CORRECTION
 RHOB.G/C3   45 350 01 00:   BULK DENSITY
 DPHI.DEC    45 890 12 00:   DENSITY POROSITY SANDSTONE
~PARAMETER INFORMATION
#MNEM.UNIT          VALUE    DESCRIPTION
#----------   ------------   ------------------------------
 PD  .                 GL:   PERMANENT DATUM
 EPD .F              5163:   ELEVATION PERMANENT DATUM
 LMF .                 KB:   LOG MEASURED FROM
 DAPD.F                 5:   FEET ABOVE PERMANENT DATUM
 DMF .                 KB:   DRILLING MEASURED FROM
 EKB .F              5168:   KELLING BUSHING
 EGL .F              5163:   GROUND LEVEL
 DATE.             7-2-80:   RUN DATE
 RUN .                  1:   RUN NUMBER
 DD  .F               470:   DEPTH DRILLER
 DL  .F               472:   DEPTH LOGGER
 BLI .F               470:   BOTTOM LOG INTERVAL
 TLI .F                20:   TOP LOG INTERVAL
 CS  .IN                7:   CASING SIZE
 CBD .F                43:   CASING BOTTOM DRILLER
 BS  .IN             6.25:   BIT SIZE
 BSD .F               470:   BIT SIZE AT DEPTH
 DFT .        AIR DRILLED:   DRILLING FLUID TYPE
 BHT .F                76:   BOTTOM HOLE TEMPERATURE
 TCS .HRS             1.5:   TIME CURCULATED STOPPED
 MRT .F                76:   MAXIMUM RECORDED TEMPERATURE
 ENGI.        REIN/GLASER:   RECORDING ENGINEER
 WITN.            RHOADES:   WITNESSED BY
 CLNT.            A2DTECH:   CLIENT CODE
 ORIG.           5" PRINT:   ORIGIN OF DATA
 UWI .       490251082500:   UNIQUE WELL ID
 DICO. A2D Technologies, Inc.:   DIGITIZING COMPANY
~OTHER INFORMATION
~A   DEPT     CALD         GRD      CORR       RHOB       DPHI   
   20.0000  -999.2500    81.3690  -999.2500  -999.2500  -999.2500
   20.5000  -999.2500    80.1786  -999.2500  -999.2500  -999.2500
   21.0000  -999.2500    78.3326  -999.2500  -999.2500  -999.2500
   21.5000  -999.2500    77.0372  -999.2500  -999.2500  -999.2500
   22.0000  -999.2500    76.2060  -999.2500  -999.2500  -999.2500
   22.5000  -999.2500    76.9902  -999.2500  -999.2500  -999.2500
   23.0000  -999.2500    78.5941  -999.2500  -999.2500  -999.2500
   23.5000  -999.2500    80.1412  -999.2500  -999.2500  -999.2500
   24.0000  -999.2500    81.5519  -999.2500  -999.2500  -999.2500
   24.5000  -999.2500    80.7345  -999.2500  -999.2500  -999.2500
   25.0000  -999.2500    79.3848  -999.2500  -999.2500  -999.2500
   25.5000  -999.2500    78.0066  -999.2500  -999.2500  -999.2500
   26.0000  -999.2500    75.4526  -999.2500  -999.2500  -999.2500
   26.5000  -999.2500    71.6245  -999.2500  -999.2500  -999.2500
   27.0000  -999.2500    67.8201  -999.2500  -999.2500  -999.2500
   27.5000  -999.2500    66.8483  -999.2500  -999.2500  -999.2500
   28.0000  -999.2500    67.7168  -999.2500  -999.2500  -999.2500
   28.5000  -999.2500    67.7245  -999.2500  -999.2500  -999.2500
   29.0000  -999.2500    66.9568  -999.2500  -999.2500  -999.2500
   29.5000  -999.2500    66.9563  -999.2500  -999.2500  -999.2500
   30.0000  -999.2500    68.4556  -999.2500  -999.2500  -999.2500
   30.5000  -999.2500    70.6130  -999.2500  -999.2500  -999.2500
   31.0000  -999.2500    72.7257  -999.2500  -999.2500  -999.2500
   31.5000  -999.2500    74.8472  -999.2500  -999.2500  -999.2500
   32.0000  -999.2500    74.8658  -999.2500  -999.2500  -999.2500
   32.5000  -999.2500    73.9066  -999.2500  -999.2500  -999.2500
   33.0000  -999.2500    74.4323  -999.2500  -999.2500  -999.2500
   33.5000  -999.2500    73.5314  -999.2500  -999.2500  -999.2500
   34.0000  -999.2500    72.4288  -999.2500  -999.2500  -999.2500
   34.5000  -999.2500    71.3220  -999.2500  -999.2500  -999.2500
   35.0000  -999.2500    70.2168  -999.2500  -999.2500  -999.2500
   35.5000  -999.2500    69.1412  -999.2500  -999.2500  -999.2500
   36.0000  -999.2500    68.2508  -999.2500  -999.2500  -999.2500
   36.5000  -999.2500    69.4642  -999.2500  -999.2500  -999.2500
   37.0000  -999.2500    70.3468  -999.2500  -999.2500  -999.2500
   37.5000  -999.2500    63.2418  -999.2500  -999.2500  -999.2500
   38.0000  -999.2500    60.3820  -999.2500  -999.2500  -999.2500
   38.5000  -999.2500    62.3753  -999.2500  -999.2500  -999.2500
   39.0000  -999.2500    65.9185  -999.2500  -999.2500  -999.2500
   39.5000  -999.2500    69.1796  -999.2500  -999.2500  -999.2500
   40.0000  -999.2500    72.4321  -999.2500  -999.2500  -999.2500
   40.5000  -999.2500    73.2625  -999.2500  -999.2500  -999.2500
   41.0000  -999.2500    71.7430  -999.2500  -999.2500  -999.2500
   41.5000  -999.2500    70.1925  -999.2500  -999.2500  -999.2500
   42.0000     7.1461    68.7191    -0.4890     2.1853     0.2926
   42.5000     7.1312    69.2197    -0.4328     2.2133     0.2869
   43.0000     7.1163    69.9650    -0.3872     2.2242     0.2815
   43.5000     7.1041    70.7140    -0.3553     2.2339     0.2731
   44.0000     7.0739    71.4666    -0.2952     2.2458     0.2663
   44.5000     7.0009    73.1376    -0.2334     2.2701     0.2539
   45.0000     6.9205    75.8901    -0.1712     2.3001     0.2280
   45.5000     6.8039    78.7433    -0.1091     2.3466     0.2021
   46.0000     6.6150    84.3253    -0.0476     2.3917     0.1731
   46.5000     6.3753    95.4758     0.0172     2.4367     0.1468
   47.0000     6.3705    99.5566     0.0301     2.4789     0.1252
   47.5000     6.3502   101.8251     0.0321     2.4886     0.1195
   48.0000     6.3302   100.5880     0.0320     2.4888     0.1186
   48.5000     6.3095   101.3514     0.0304     2.4883     0.1203
   49.0000     6.2890   102.7718     0.0288     2.4879     0.1196
   49.5000     6.2684   103.8827     0.0271     2.4916     0.1172
   50.0000     6.2479   104.0953     0.0255     2.4956     0.1144
   50.5000     6.2270   105.0925     0.0240     2.4998     0.1112
   51.0000     6.2229   106.3372     0.0219     2.4993     0.1117
   51.5000     6.2253   107.5624     0.0196     2.4958     0.1135
   52.0000     6.2278   110.1756     0.0187     2.4922     0.1147
   52.5000     6.2303   112.9437     0.0217     2.4933     0.1151
   53.0000     6.2328   113.7625     0.0247     2.4960     0.1140
   53.5000     6.2353   114.3473     0.0276     2.4987     0.1127
   54.0000     6.2378   113.2799     0.0304     2.4999     0.1122
   54.5000     6.2402   113.3005     0.0302     2.4981     0.1131
   55.0000     6.2427   114.8746     0.0266     2.4942     0.1141
   55.5000     6.2452   116.5516     0.0231     2.4903     0.1163
   56.0000     6.2477   118.2404     0.0200     2.4929     0.1191
   56.5000     6.2502   119.6162     0.0227     2.4987     0.1144
   57.0000     6.2527   118.2899     0.0253     2.4974     0.1140
   57.5000     6.2552   115.3269     0.0259     2.4951     0.1145
   58.0000     6.2576   110.9916     0.0260     2.4938     0.1148
   58.5000     6.2601   106.7275     0.0298     2.5044     0.1120
   59.0000     6.2610   102.7170     0.0358     2.4994     0.1100
   59.5000     6.2610   105.0613     0.0277     2.4920     0.1149
   60.0000     6.2610   107.6960     0.0159     2.4846     0.1203
   60.5000     6.2610   107.3939     0.0077     2.4773     0.1254
   61.0000     6.2610   106.5414     0.0074     2.4705     0.1280
   61.5000     6.2610   105.7165     0.0070     2.4649     0.1314
   62.0000     6.2610   108.5026     0.0065     2.4598     0.1332
   62.5000     6.2610   111.0217     0.0060     2.4619     0.1336
   63.0000     6.2610   110.9344     0.0081     2.4640     0.1332
   63.5000     6.2610   110.5433     0.0103     2.4678     0.1307
   64.0000     6.2610   111.4252     0.0115     2.4733     0.1289
   64.5000     6.2610   113.0305     0.0096     2.4752     0.1283
   65.0000     6.2610   114.6275     0.0078     2.4722     0.1290
   65.5000     6.2610   115.5948     0.0059     2.4702     0.1295
   66.0000     6.2610   112.6283     0.0039     2.4739     0.1277
   66.5000     6.2610   109.7691     0.0099     2.4792     0.1249
   67.0000     6.2647   109.3577     0.0166     2.4783     0.1254
   67.5000     6.2734   107.9058     0.0204     2.4768     0.1259
   68.0000     6.2820   105.7973     0.0215     2.4784     0.1255
   68.5000     6.2907   105.5607     0.0253     2.4831     0.1231
   69.0000     6.2996   108.2269     0.0320     2.4878     0.1205
   69.5000     6.2943   110.8059     0.0381     2.4922     0.1176
   70.0000     6.2863   112.2888     0.0382     2.4942     0.1156
   70.5000     6.2783   110.3192     0.0385     2.4961     0.1134
   71.0000     6.2704   110.0336     0.0387     2.4981     0.1118
   71.5000     6.2623   108.0242     0.0390     2.5001     0.1107
   72.0000     6.2600   104.9422     0.0392     2.5020     0.1096
   72.5000     6.2587   106.6653     0.0395     2.5030     0.1092
   73.0000     6.2575   107.5682     0.0397     2.5044     0.1088
   73.5000     6.2563   106.8656     0.0385     2.5050     0.1090
   74.0000     6.2551   107.5530     0.0328     2.5050     0.1096
   74.5000     6.2538   107.5225     0.0325     2.5030     0.1124
   75.0000     6.2526   106.9237     0.0378     2.4994     0.1124
   75.5000     6.2514   106.3071     0.0335     2.4957     0.1139
   76.0000     6.2501   104.5298     0.0285     2.4908     0.1169
   76.5000     6.2489   102.3792     0.0263     2.4847     0.1195
   77.0000     6.2477   103.4246     0.0276     2.4881     0.1196
   77.5000     6.2465   102.9092     0.0286     2.4873     0.1191
   78.0000     6.2452   102.6247     0.0294     2.4833     0.1220
   78.5000     6.2440   103.8633     0.0245     2.4715     0.1274
   79.0000     6.2428   105.5095     0.0137     2.4596     0.1323
   79.5000     6.2415   108.5129     0.0046     2.4554     0.1378
   80.0000     6.2462   111.4284    -0.0007     2.4519     0.1411
   80.5000     6.2550   111.0862    -0.0021     2.4500     0.1419
