~VERSION INFORMATION
 VERS.                2.0:   CWLS LOG ASCII STANDARD - VERSION 2.0
 WRAP.                 NO:   ONE LINE PER DEPTH STEP
~WELL INFORMATION
#MNEM.UNIT      DATA TYPE    INFORMATION
#----------   ------------   ------------------------------
 STRT.M            0.0000:   START DEPTH
 STOP.M          642.0000:   STOP DEPTH
 STEP.M            0.1000:   STEP LENGTH
 NULL.          -999.2500:   NO VALUE
 COMP.   FLUOR DANIEL INC:   COMPANY
 WELL.     71-1 X 3 #71-3:   WELL
 FLD .             TEAPOT:   FIELD
 LOC .       S3 T38N R78W:   LOCATION
 CNTY.            NATRONA:   COUNTY
 STAT.            WYOMING:   STATE
 CTRY. UNITED STATES OF AMERICA:   COUNTRY
 SRVC.      Western Atlas:   SERVICE COMPANY
 DATE.        04-JAN-1995:   LOGDATE
 API .       490252267900:   API NUMBER
~CURVE INFORMATION
#MNEM.UNIT       API CODE    CURVE DESCRIPTION
#----------   ------------   ------------------------------
 DEPT.M                  :   
 RILD.OHMM   07 120 46 00:   INDUCTION LOG DEEP RESISTIVITY
 RILM.OHMM   07 120 44 00:   INDUCTION LOG MEDIUM RESISTIVITY
 GRR .GAPI   07 310 01 00:   GAMMA RAY
~PARAMETER INFORMATION
#MNEM.UNIT          VALUE    DESCRIPTION
#----------   ------------   ------------------------------
 PD  .                 GL:   PERMANENT DATUM
 EPD .F              5123:   ELEVATION PERMANENT DATUM
 LMF .                 KB:   LOG MEASURED FROM
 DAPD.F                10:   FEET ABOVE PERMANENT DATUM
 DMF .                 KB:   DRILLING MEASURED FROM
 EKB .F              5133:   KELLING BUSHING
 EDF .F              5132:   DRILLING FLOOR
 EGL .F              5123:   GROUND LEVEL
 DATE.        04-JAN-1995:   RUN DATE
 RUN .                  1:   RUN NUMBER
 DD  .F               647:   DEPTH DRILLER
 DL  .F               650:   DEPTH LOGGER
 BLI .F               642:   BOTTOM LOG INTERVAL
 TLI .F                96:   TOP LOG INTERVAL
 CS  .IN            9.625:   CASING SIZE
 CBD .F                96:   CASING BOTTOM DRILLER
 CBL .F                96:   CASING BOTTOM LOGGER
 BS  .IN             8.75:   BIT SIZE
 BSD .F               647:   BIT SIZE AT DEPTH
 DFT .                AIR:   DRILLING FLUID TYPE
 MRT .F                91:   MAXIMUM RECORDED TEMPERATURE
 LUN .            HL 6530:   LOGGING UNIT NUMBER
 LUL .             CASPER:   LOGGING UNIT LOCATION
 ENGI.        VERN RAUTIO:   RECORDING ENGINEER
 WITN.        GARY STRONG:   WITNESSED BY
 CLNT.            A2DTECH:   CLIENT CODE
 ORIG.           5" PRINT:   ORIGIN OF DATA
 UWI .       490252267900:   UNIQUE WELL ID
 DICO. A2D Technologies, Inc.:   DIGITIZING COMPANY
~OTHER INFORMATION
~A    DEPT    RILD       RILM        GRR   
# ...
  273.0000    12.0138    11.9526   117.7965
  273.1000    11.9697    11.8792   117.5512
  273.2000    11.9515    11.8792   117.3059
  273.3000    11.8044    11.7855   117.0606
  273.4000    11.8042    11.7153   116.6477
  273.5000    11.7581    11.6982   115.9095
  273.6000    11.6914    11.6318   115.0890
  273.7000    11.6410    11.5537   114.6518
  273.8000    11.6409    11.5537   113.8328
  273.9000    11.6407    11.5537   113.0638
  274.0000    11.5880    11.5291   112.6244
  274.1000    11.5599    11.4637   112.3758
  274.2000    11.5366    11.3943   112.3770
  274.3000    11.4796    11.3641   112.3783
  274.4000    11.4794    11.3318   112.6437
  274.5000    11.4793    11.3154   113.1379
  274.6000    11.4791    11.3154   113.6321
  274.7000    11.4790    11.3121   114.1959
  274.8000    11.4788    11.2371   114.6207
  274.9000    11.4786    11.2371   114.9587
  275.0000    11.4785    11.2371   115.3072
  275.1000    11.4266    11.2371   115.7563
  275.2000    11.3988    11.2371   116.0145
  275.3000    11.3986    11.2371   116.2517
  275.4000    11.3985    11.2371   116.6799
  275.5000    11.3983    11.1907   116.9245
  275.6000    11.3981    11.1593   116.9950
  275.7000    11.3539    11.1593   117.2427
  275.8000    11.3190    11.1551   117.5325
  275.9000    11.3188    11.0820   117.5335
  276.0000    11.3187    11.0820   117.5347
  276.1000    11.3185    11.0820   117.5359
  276.2000    11.3184    11.0820   117.5372
  276.3000    11.2816    11.0820   117.5385
  276.4000    11.2176    11.0820   117.3108
  276.5000    11.1619    11.0820   117.0655
  276.6000    11.1617    11.0820   116.7025
  276.7000    11.1616    11.0820   116.2106
  276.8000    11.1614    11.0820   115.7122
  276.9000    11.1612    11.0820   114.8268
  277.0000    11.1611    11.0820   114.2357
  277.1000    11.1601    11.0820   113.3557
  277.2000    11.0968    11.0820   112.4569
  277.3000    11.0834    11.0820   111.7185
  277.4000    11.0833    11.0820   110.9053
  277.5000    11.0831    11.0820   110.0202
  277.6000    11.0830    11.0820   109.0352
  277.7000    11.0828    11.0820   108.0502
  277.8000    11.0827    11.0820   107.0654
  277.9000    11.0825    11.0820   106.0773
  278.0000    11.0824    11.0882   105.5871
  278.1000    11.0822    11.1593   105.0954
  278.2000    11.0820    11.2152   104.7380
  278.3000    11.0819    11.2371   104.4927
  278.4000    11.0817    11.2651   104.2706
  278.5000    11.0816    11.3154   104.2721
  278.6000    11.0814    11.3154   104.2731
  278.7000    11.0813    11.3797   104.5918
  278.8000    11.0811    11.3943   105.0860
  278.9000    11.1377    11.4303   105.5802
  279.0000    11.1580    11.4955   106.0907
  279.1000    11.1578    11.5537   106.8072
  279.2000    11.1724    11.5537   107.5481
  279.3000    11.2358    11.6125   108.2889
  279.4000    11.2997    11.6342   109.1013
  279.5000    11.3132    11.6642   110.0564
  279.6000    11.3494    11.7153   110.6298
  279.7000    11.4138    11.7167   110.8378
  279.8000    11.4709    11.8510   110.7827
  279.9000    11.4707    11.8792   110.3457
  280.0000    11.5291    11.9178   109.6073
  280.1000    11.5946    11.9620   108.8230
  280.2000    11.6605    11.9620   107.8993
  280.3000    11.7114    11.9620   106.9143
  280.4000    11.7116    11.9620   105.8093
  280.5000    11.7782    11.9153   104.6424
  280.6000    11.7401    11.8792   103.6665
  280.7000    11.7107    11.8461   102.7881
  280.8000    11.6881    11.7135   102.1898
  280.9000    11.6217    11.6342   101.4514
  281.0000    11.5488    11.5810   100.7130
  281.1000    11.4902    11.5537   100.0077
  281.2000    11.4250    11.5060    99.4708
  281.3000    11.3602    11.3943    99.2479
  281.4000    11.3102    11.3943    99.3394
  281.5000    11.3095    11.3346    99.8128
  281.6000    11.1818    11.2482   100.5534
  281.7000    11.1538    11.1526   101.2959
  281.8000    11.1184    11.0820   102.2832
  281.9000    11.0553    11.0794   102.8853
  282.0000    10.9925    11.0053   103.5166
  282.1000    10.9233    10.9541   104.2574
  282.2000    10.8681    10.9292   105.0240
  282.3000    10.8475    10.9056   106.1307
  282.4000    10.8199    10.8437   106.9985
  282.5000    10.7585    10.7784   107.9858
  282.6000    10.6974    10.7784   108.7621
  282.7000    10.6367    10.7345   109.2564
  282.8000    10.5764    10.6735   109.7620
  282.9000    10.5496    10.6297   110.0040
  283.0000    10.5295    10.6228   110.2517
  283.1000    10.4697    10.4830   110.4995
  283.2000    10.4037    10.4830   110.8214
  283.3000    10.4036    10.4464   111.2971
  283.4000    10.3642    10.3871   111.5821
  283.5000    10.3054    10.3384   112.0020
  283.6000    10.2598    10.3384   112.4962
  283.7000    10.2596    10.2824   112.9905
  283.8000    10.2015    10.2241   113.4421
  283.9000    10.1884    10.1958   113.7028
  284.0000    10.1563    10.1788   113.4703
  284.1000    10.1176    10.1211   112.8689
  284.2000    10.1112    10.0551   112.1306
  284.3000    10.0473    10.0551   111.3923
  284.4000    10.0472    10.0551   110.6539
  284.5000    10.0093    10.0317   109.7827
  284.6000     9.9774     9.9747   109.1771
  284.7000     9.9773     9.9164   108.5853
  284.8000     9.9772     9.9164   108.1845
  284.9000     9.9770     9.9164   107.9392
  285.0000     9.9769     9.9164   107.6738
  285.1000     9.9456     9.8991   107.4485
  285.2000     9.9076     9.8478   107.5448
  285.3000     9.9075     9.8478   108.0229
  285.4000     9.9073     9.8478   108.7041
  285.5000     9.8576     9.8116   109.2063
  285.6000     9.8385     9.7796   110.1938
  285.7000     9.8384     9.7796   111.1810
  285.8000     9.8383     9.7796   112.4472
  285.9000     9.8381     9.7250   113.5924
  286.0000     9.8380     9.7119   114.0866
  286.1000     9.8379     9.6819   114.6358
  286.2000     9.8224     9.6447   114.8560
  286.3000     9.7945     9.6447   114.9402
  286.4000     9.7636     9.6447   114.8334
  286.5000     9.7017     9.6447   114.6405
  286.6000     9.7016     9.6447   114.6417
  286.7000     9.7014     9.6447   114.6429
  286.8000     9.7013     9.6326   114.6441
  286.9000     9.7012     9.5779   114.6453
  287.0000     9.7010     9.5779   114.6465
  287.1000     9.7009     9.5779   114.6686
  287.2000     9.6585     9.5779   114.9512
  287.3000     9.6335     9.5779   115.1641
  287.4000     9.6334     9.5779   115.2556
  287.5000     9.6277     9.5779   115.4583
  287.6000     9.5665     9.5779   115.8622
  287.7000     9.5664     9.5779   115.8635
  287.8000     9.5662     9.5779   116.1007
  287.9000     9.5661     9.5779   116.1680
  288.0000     9.5660     9.5779   116.0443
  288.1000     9.5658     9.5779   115.7297
  288.2000     9.5657     9.5779   115.2379
  288.3000     9.5656     9.5779   114.6624
  288.4000     9.5654     9.5779   114.0495
  288.5000     9.5653     9.5779   113.3111
  288.6000     9.5652     9.5779   112.6662
  288.7000     9.5650     9.5779   112.1365
  288.8000     9.5649     9.5779   111.3451
  288.9000     9.5648     9.5779   111.1174
  289.0000     9.5646     9.5642   110.6990
  289.1000     9.5645     9.5116   110.3247
  289.2000     9.5644     9.5116   110.1414
  289.3000     9.5642     9.5116   110.1426
  289.4000     9.5641     9.5116   110.1440
  289.5000     9.5640     9.5116   110.3424
  289.6000     9.5638     9.5116   110.5902
  289.7000     9.5637     9.5116   110.9241
  289.8000     9.5636     9.5116   111.4488
  289.9000     9.5634     9.5116   112.2648
  290.0000     9.5280     9.5116   112.7090
  290.1000     9.4970     9.5116   113.3691
  290.2000     9.4969     9.5116   113.9996
  290.3000     9.4968     9.5116   114.4939
  290.4000     9.4966     9.5116   114.9897
  290.5000     9.4965     9.5445   115.2367
  290.6000     9.4964     9.5779   115.6745
  290.7000     9.4962     9.5779   115.7652
  290.8000     9.4961     9.5779   115.4409
  290.9000     9.4960     9.5779   114.9258
  291.0000     9.4958     9.5779   114.0908
  291.1000     9.4957     9.5779   113.4489
