~VERSION INFORMATION
 VERS.                2.0:   CWLS LOG ASCII STANDARD - VERSION 2.0
 WRAP.                 NO:   ONE LINE PER DEPTH STEP
~WELL INFORMATION
#MNEM.UNIT      DATA TYPE    INFORMATION
#----------   ------------   ------------------------------
 STRT.F           11.0000:   START DEPTH
 STOP.F          804.0000:   STOP DEPTH
 STEP.F            0.1000:   STEP LENGTH
 NULL.          -999.2500:   NO VALUE
 COMP. BROWN JOHN E&C INC:   COMPANY
 WELL. 72-1 STX-34 #72-34:   WELL
 FLD .             TEAPOT:   FIELD
 LOC .      S34 T39N R78W:   LOCATION
 CNTY.            NATRONA:   COUNTY
 STAT.            WYOMING:   STATE
 CTRY. UNITED STATES OF AMERICA:   COUNTRY
 SRVC.     Atlas Wireline:   SERVICE COMPANY
 DATE.        31-JAN-1992:   LOGDATE
 API .       490252250200:   API NUMBER
~CURVE INFORMATION
#MNEM.UNIT       API CODE    CURVE DESCRIPTION
#----------   ------------   ------------------------------
 DEPT.F                  :   
 GRR .GAPI   07 310 01 00:   GAMMA RAY
 RILD.OHMM   07 120 46 00:   INDUCTION LOG DEEP RESISTIVITY
 RILM.OHMM   07 120 44 00:   INDUCTION LOG MEDIUM RESISTIVITY
~PARAMETER INFORMATION
#MNEM.UNIT          VALUE    DESCRIPTION
#----------   ------------   ------------------------------
 PD  .                 GL:   PERMANENT DATUM
 EPD .F              5069:   ELEVATION PERMANENT DATUM
 LMF .                 KB:   LOG MEASURED FROM
 DAPD.F                10:   FEET ABOVE PERMANENT DATUM
 DMF .                 KB:   DRILLING MEASURED FROM
 EKB .F              5079:   KELLING BUSHING
 EDF .F              5078:   DRILLING FLOOR
 EGL .F              5069:   GROUND LEVEL
 DATE.        31-JAN-1992:   RUN DATE
 RUN .                  1:   RUN NUMBER
 DD  .F               814:   DEPTH DRILLER
 DL  .F               813:   DEPTH LOGGER
 BLI .F               804:   BOTTOM LOG INTERVAL
 CS  .IN            9.625:   CASING SIZE
 CBD .F               100:   CASING BOTTOM DRILLER
 CBL .F               104:   CASING BOTTOM LOGGER
 BS  .IN             8.75:   BIT SIZE
 BSD .F               814:   BIT SIZE AT DEPTH
 DFT .                AIR:   DRILLING FLUID TYPE
 MRT .F                90:   MAXIMUM RECORDED TEMPERATURE
 LUN .           HL- 6274:   LOGGING UNIT NUMBER
 LUL .             CASPER:   LOGGING UNIT LOCATION
 ENGI.             RAUTIO:   RECORDING ENGINEER
 WITN.        GARY STRONG:   WITNESSED BY
 CLNT.            A2DTECH:   CLIENT CODE
 ORIG.           5" PRINT:   ORIGIN OF DATA
 UWI .       490252250200:   UNIQUE WELL ID
 DICO. A2D Technologies, Inc.:   DIGITIZING COMPANY
~OTHER INFORMATION
~A   DEPT       GRR      RILD       RILM   
# ...
  793.6000  -999.2500     4.8760     5.0100
  793.7000  -999.2500     4.9319     5.0387
  793.8000  -999.2500     4.9602     5.0675
  793.9000  -999.2500     5.0114     5.0987
  794.0000  -999.2500     5.0526     5.0986
  794.1000  -999.2500     5.0816     5.1402
  794.2000  -999.2500     5.1145     5.1993
  794.3000  -999.2500     5.1787     5.2427
  794.4000  -999.2500     5.2058     5.2474
  794.5000  -999.2500     5.2150     5.3535
  794.6000  -999.2500     5.2433     5.4049
  794.7000  -999.2500     5.2960     5.5062
  794.8000  -999.2500     5.3264     5.6206
  794.9000  -999.2500     5.3627     5.7059
  795.0000  -999.2500     5.3878     5.7400
  795.1000  -999.2500     5.4187     5.8355
  795.2000  -999.2500     5.4498     5.9113
  795.3000  -999.2500     5.4810     5.9793
  795.4000  -999.2500     5.5146     6.0375
  795.5000  -999.2500     5.5146     6.0750
  795.6000  -999.2500     5.5373     6.1542
  795.7000  -999.2500     5.5851     6.1848
  795.8000  -999.2500     5.6585     6.1971
  795.9000  -999.2500     5.7582     6.2278
  796.0000  -999.2500     5.9135     6.2994
  796.1000  -999.2500     6.0873     6.3723
  796.2000  -999.2500     6.2551     6.5191
  796.3000  -999.2500     6.3999     6.6405
  796.4000  -999.2500     6.5548     6.7555
  796.5000  -999.2500     6.7524     6.8726
  796.6000  -999.2500     6.9030     6.9913
  796.7000  -999.2500     7.0934     7.1243
  796.8000  -999.2500     7.2774     7.2733
  796.9000  -999.2500     7.4328     7.4125
  797.0000  -999.2500     7.5613     7.5408
  797.1000  -999.2500     7.7105     7.6711
  797.2000  -999.2500     7.8258     7.8038
  797.3000  -999.2500     7.9911     7.9651
  797.4000  -999.2500     8.1964     8.1525
  797.5000  -999.2500     8.4140     8.3321
  797.6000  -999.2500     8.5619     8.4581
  797.7000  -999.2500     8.6590     8.5553
  797.8000  -999.2500     8.7588     8.6602
  797.9000  -999.2500     8.8320     8.7065
  798.0000  -999.2500     8.8661     8.7564
  798.1000  -999.2500     8.8715     8.8066
  798.2000  -999.2500     8.9282     8.8570
  798.3000  -999.2500     8.9282     8.9047
  798.4000  -999.2500     8.9624     8.9045
  798.5000  -999.2500     8.9908     8.9474
  798.6000  -999.2500     8.9908     8.9987
  798.7000  -999.2500     8.9912     9.0503
  798.8000  -999.2500     9.0428     9.1020
  798.9000  -999.2500     9.0538     9.1559
  799.0000  -999.2500     9.0538     9.1558
  799.1000  -999.2500     9.0719     9.1557
  799.2000  -999.2500     9.1172     9.1834
  799.3000  -999.2500     9.1172     9.2360
  799.4000  -999.2500     9.1172     9.2840
  799.5000  -999.2500     9.1172     9.2838
  799.6000  -999.2500     9.1172     9.3303
  799.7000  -999.2500     9.1172     9.3486
  799.8000  -999.2500     9.1189     9.3484
  799.9000  -999.2500     9.1811     9.3600
  800.0000  -999.2500     9.1811     9.4136
  800.1000  -999.2500     9.1811     9.4135
  800.2000  -999.2500     9.2008     9.4134
  800.3000  -999.2500     9.2454     9.4437
  800.4000  -999.2500     9.2454     9.4790
  800.5000  -999.2500     9.2951     9.4857
  800.6000  -999.2500     9.3102     9.5451
  800.7000  -999.2500     9.3368     9.5948
  800.8000  -999.2500     9.3755     9.6117
  800.9000  -999.2500     9.3786     9.6375
  801.0000  -999.2500     9.4412     9.6788
  801.1000  -999.2500     9.4412     9.6804
  801.2000  -999.2500     9.4747     9.7462
  801.3000  -999.2500     9.4857     9.7917
  801.4000  -999.2500     9.4315     9.8478
  801.5000  -999.2500     9.3755     9.9042
  801.6000  -999.2500     9.3241     9.9518
  801.7000  -999.2500     9.0783     9.9517
  801.8000  -999.2500     6.8476    10.0053
  801.9000  -999.2500  -999.2500    10.0627
  802.0000  -999.2500  -999.2500    10.1204
  802.1000  -999.2500  -999.2500    10.1783
  802.2000  -999.2500  -999.2500    10.2326
  802.3000  -999.2500  -999.2500    10.2325
  802.4000  -999.2500  -999.2500    10.2822
  802.5000  -999.2500  -999.2500    10.3038
  802.6000  -999.2500  -999.2500    10.3281
  802.7000  -999.2500  -999.2500    10.3872
  802.8000  -999.2500  -999.2500    10.4482
  802.9000  -999.2500  -999.2500    10.4480
  803.0000  -999.2500  -999.2500    10.4933
  803.1000  -999.2500  -999.2500    10.5209
  803.2000  -999.2500  -999.2500    10.5400
  803.3000  -999.2500  -999.2500    10.5943
  803.4000  -999.2500  -999.2500    10.5941
  803.5000  -999.2500  -999.2500    10.5940
  803.6000  -999.2500  -999.2500    10.6343
  803.7000  -999.2500  -999.2500    10.6679
  803.8000  -999.2500  -999.2500    10.6816
  803.9000  -999.2500  -999.2500    10.7423
  804.0000  -999.2500  -999.2500    10.7421
