~VERSION INFORMATION
 VERS.                2.0:   CWLS LOG ASCII STANDARD - VERSION 2.0
 WRAP.                 NO:   ONE LINE PER DEPTH STEP
~WELL INFORMATION
#MNEM.UNIT      DATA TYPE    INFORMATION
#----------   ------------   ------------------------------
 STRT.F          432.0000:   START DEPTH
 STOP.F         1258.0000:   STOP DEPTH
 STEP.F            0.5000:   STEP LENGTH
 NULL.          -999.2500:   NO VALUE
 COMP. FENIX & SCISSON INC:   COMPANY
 WELL.   12 SHX 34 #12-34:   WELL
 FLD .            WILDCAT:   FIELD
 LOC .      S34 T39N R78W:   LOCATION
 CNTY.            NATRONA:   COUNTY
 STAT.            WYOMING:   STATE
 CTRY. UNITED STATES OF AMERICA:   COUNTRY
 SRVC.              Welex:   SERVICE COMPANY
 DATE.        23-APR-1979:   LOGDATE
 API .       490251078200:   API NUMBER
~CURVE INFORMATION
#MNEM.UNIT       API CODE    CURVE DESCRIPTION
#----------   ------------   ------------------------------
 DEPT.F                  :   
 CALD.IN     45 280 60 00:   CALIPER
 GRD .GAPI   45 310 01 00:   GAMMA RAY FROM DENSITY LOG
 RHOB.G/C3   45 350 01 00:   BULK DENSITY
 DPHI.DEC    45 890 12 00:   DENSITY POROSITY SANDSTONE
 CORR.G/C3   45 356 01 00:   DENSITY CORRECTION
~PARAMETER INFORMATION
#MNEM.UNIT          VALUE    DESCRIPTION
#----------   ------------   ------------------------------
 PD  .                 GL:   PERMANENT DATUM
 EPD .F              5092:   ELEVATION PERMANENT DATUM
 LMF .                 KB:   LOG MEASURED FROM
 DAPD.F                10:   FEET ABOVE PERMANENT DATUM
 DMF .                 KB:   DRILLING MEASURED FROM
 EKB .F              5102:   KELLING BUSHING
 EGL .F              5092:   GROUND LEVEL
 DATE.            4-23-79:   RUN DATE
 RUN .                  1:   RUN NUMBER
 DD  .F              1260:   DEPTH DRILLER
 DL  .F              1260:   DEPTH LOGGER
 BLI .F              1258:   BOTTOM LOG INTERVAL
 TLI .F               446:   TOP LOG INTERVAL
 CS  .IN            9.625:   CASING SIZE
 CBD .F               440:   CASING BOTTOM DRILLER
 BS  .IN            8.375:   BIT SIZE
 BSD .F              1260:   BIT SIZE AT DEPTH
 DFT .                OIL:   DRILLING FLUID TYPE
 DFD .                8.7:   DRILLING FLUID DENSITY
 TCS .HRS               1:   TIME CURCULATED STOPPED
 ENGI.               REIN:   RECORDING ENGINEER
 WITN.              AMEND:   WITNESSED BY
 CLNT.            A2DTECH:   CLIENT CODE
 ORIG.           5" PRINT:   ORIGIN OF DATA
 UWI .       490251078200:   UNIQUE WELL ID
 DICO. A2D Technologies, Inc.:   DIGITIZING COMPANY
~OTHER INFORMATION
~A   DEPT     CALD         GRD      RHOB       DPHI       CORR   
# ...
 1225.0000     8.4122    91.0135     2.4937     0.0341     0.0070
 1225.5000     8.4127    92.2087     2.5005     0.0316     0.0092
 1226.0000     8.4133    90.5199     2.5069     0.0326     0.0114
 1226.5000     8.4139    87.3966     2.5082     0.0317     0.0131
 1227.0000     8.4145    84.2375     2.5086     0.0293     0.0110
 1227.5000     8.4151    83.5602     2.4961     0.0278     0.0089
 1228.0000     8.4157    87.5598     2.4837     0.0395     0.0068
 1228.5000     8.4163    89.8874     2.4711     0.0499     0.0050
 1229.0000     8.4169    87.3740     2.4700     0.0491     0.0050
 1229.5000     8.4175    84.7873     2.4832     0.0433     0.0050
 1230.0000     8.4181    90.0213     2.4965     0.0361     0.0051
 1230.5000     8.4186    90.6328     2.5102     0.0289     0.0040
 1231.0000     8.4192    85.7357     2.5131     0.0241     0.0025
 1231.5000     8.4198    82.8045     2.5114     0.0225     0.0010
 1232.0000     8.4204    84.8003     2.5071     0.0276    -0.0005
 1232.5000     8.4210    87.0117     2.5028     0.0308    -0.0020
 1233.0000     8.4216    88.5618     2.4985     0.0332    -0.0026
 1233.5000     8.4222    90.0920     2.4947     0.0360    -0.0012
 1234.0000     8.4228    91.3926     2.5004     0.0334     0.0002
 1234.5000     8.4234    90.1319     2.5073     0.0293     0.0016
 1235.0000     8.4240    88.8206     2.5142     0.0253     0.0030
 1235.5000     8.4246    87.5443     2.5206     0.0233     0.0044
 1236.0000     8.4252    91.1247     2.5183     0.0249     0.0058
 1236.5000     8.4257    93.0901     2.5144     0.0265     0.0072
 1237.0000     8.4263    90.9249     2.5175     0.0265     0.0086
 1237.5000     8.4269    88.5371     2.5243     0.0193     0.0100
 1238.0000     8.4275    87.0586     2.5299     0.0170     0.0114
 1238.5000     8.4281    89.0800     2.5266     0.0167     0.0128
 1239.0000     8.4287    89.1590     2.5331     0.0140     0.0151
 1239.5000     8.4293    85.5357     2.5353     0.0116     0.0105
 1240.0000     8.4299    89.6700     2.5287     0.0144     0.0061
 1240.5000     8.4305    93.1544     2.5220     0.0186     0.0030
 1241.0000     8.4311    91.3850     2.5153     0.0228     0.0073
 1241.5000     8.4317    89.6481     2.5157     0.0262     0.0119
 1242.0000     8.4323    87.7822     2.5244     0.0233     0.0164
 1242.5000     8.4328    89.5617     2.5322     0.0152     0.0210
 1243.0000     8.4334    92.2778     2.5287     0.0153     0.0232
 1243.5000     8.4340    94.7795     2.5242     0.0187     0.0216
 1244.0000     8.4346    93.4392     2.5197     0.0196     0.0187
 1244.5000     8.4352    91.9905     2.5182     0.0177     0.0157
 1245.0000     8.4358    90.5153     2.5176     0.0187     0.0128
 1245.5000     8.4364    90.2032     2.5080     0.0233     0.0099
 1246.0000     8.4370  -999.2500     2.5002     0.0310     0.0070
 1246.5000     8.4376  -999.2500     2.5015     0.0310     0.0040
 1247.0000     8.4382  -999.2500     2.5081     0.0292     0.0009
 1247.5000     8.4388  -999.2500     2.5032     0.0289     0.0010
 1248.0000     8.4394  -999.2500     2.4931     0.0318     0.0010
 1248.5000     8.4399  -999.2500     2.4957     0.0346     0.0025
 1249.0000     8.4405  -999.2500     2.5041     0.0346     0.0051
 1249.5000     8.4411  -999.2500     2.5117     0.0307     0.0077
 1250.0000     8.4417  -999.2500     2.5053     0.0253     0.0105
 1250.5000     8.4423  -999.2500     2.4890     0.0300     0.0062
 1251.0000     8.4429  -999.2500     2.4727     0.0390    -0.0006
 1251.5000     8.4435  -999.2500     2.4676     0.0475    -0.0069
 1252.0000     8.4441  -999.2500     2.4798     0.0475    -0.0071
 1252.5000     8.4447  -999.2500     2.4975     0.0392    -0.0031
 1253.0000     8.4453  -999.2500     2.5058     0.0327     0.0045
 1253.5000     8.4459  -999.2500     2.5001     0.0290     0.0120
 1254.0000     8.4464  -999.2500     2.4956     0.0318     0.0131
 1254.5000     8.4462  -999.2500     2.5126     0.0280     0.0153
 1255.0000     8.4468  -999.2500     2.5360     0.0166     0.0312
 1255.5000     8.4613  -999.2500     2.5425     0.0112     0.0449
 1256.0000     8.4760  -999.2500     2.5336     0.0155     0.0507
 1256.5000     8.5020  -999.2500     2.5234     0.0201     0.0567
 1257.0000     8.5250  -999.2500     2.5143     0.0205     0.0632
 1257.5000     8.5244  -999.2500     2.5070     0.0201     0.0636
 1258.0000     8.5244  -999.2500     2.5024     0.0189     0.0635
