~VERSION INFORMATION
 VERS.                2.0:   CWLS LOG ASCII STANDARD - VERSION 2.0
 WRAP.                 NO:   ONE LINE PER DEPTH STEP
~WELL INFORMATION
#MNEM.UNIT      DATA TYPE    INFORMATION
#----------   ------------   ------------------------------
 STRT.F            0.0000:   START DEPTH
 STOP.F          534.0000:   STOP DEPTH
 STEP.F            0.1000:   STEP LENGTH
 NULL.          -999.2500:   NO VALUE
 COMP.       F D SERV INC:   COMPANY
 WELL. NAVAL PETROLEUM RESERVE 3 SX-1 #71-2-10:   WELL
 FLD .            N.P.R 3:   FIELD
 LOC .      S10 T38N R78W:   LOCATION
 CNTY.            NATRONA:   COUNTY
 STAT.            WYOMING:   STATE
 CTRY. UNITED STATES OF AMERICA:   COUNTRY
 SRVC.     Atlas Wireline:   SERVICE COMPANY
 DATE.        07-DEC-1992:   LOGDATE
 API .       490252257200:   API NUMBER
~CURVE INFORMATION
#MNEM.UNIT       API CODE    CURVE DESCRIPTION
#----------   ------------   ------------------------------
 DEPT.F                  :   
 GRR .GAPI   07 310 01 00:   GAMMA RAY
 RILD.OHMM   07 120 46 00:   INDUCTION LOG DEEP RESISTIVITY
 RILM.OHMM   07 120 44 00:   RESITIVITY LONG MEDIUM
~PARAMETER INFORMATION
#MNEM.UNIT          VALUE    DESCRIPTION
#----------   ------------   ------------------------------
 PD  .                 GL:   PERMANENT DATUM
 EPD .F              5165:   ELEVATION PERMANENT DATUM
 LMF .                 KB:   LOG MEASURED FROM
 DAPD.F                10:   FEET ABOVE PERMANENT DATUM
 DMF .                 KB:   DRILLING MEASURED FROM
 EKB .F              5175:   KELLING BUSHING
 EDF .F              5174:   DRILLING FLOOR
 EGL .F              5165:   GROUND LEVEL
 DATE.        07-DEC-1992:   RUN DATE
 RUN .                  1:   RUN NUMBER
 DD  .F               540:   DEPTH DRILLER
 DL  .F               542:   DEPTH LOGGER
 BLI .F               534:   BOTTOM LOG INTERVAL
 CS  .IN            8.625:   CASING SIZE
 CBD .F                78:   CASING BOTTOM DRILLER
 CBL .F                82:   CASING BOTTOM LOGGER
 BS  .IN            7.875:   BIT SIZE
 BSD .F               540:   BIT SIZE AT DEPTH
 DFT .           AIR FOAM:   DRILLING FLUID TYPE
 BHT .F                70:   BOTTOM HOLE TEMPERATURE
 MRT .F                70:   MAXIMUM RECORDED TEMPERATURE
 LUN .           HL- 6345:   LOGGING UNIT NUMBER
 LUL .         FT. MORGAN:   LOGGING UNIT LOCATION
 ENGI.             BURLEY:   RECORDING ENGINEER
 WITN.        GARY STRONG:   WITNESSED BY
 CLNT.            A2DTECH:   CLIENT CODE
 ORIG.           5" PRINT:   ORIGIN OF DATA
 UWI .       490252257200:   UNIQUE WELL ID
 DICO. A2D Technologies, Inc.:   DIGITIZING COMPANY
~OTHER INFORMATION
~A    DEPT      GRR      RILD       RILM   
# ...
  327.6000    80.6337    29.9753    39.2326
  327.7000    80.6300    29.9749    39.3226
  327.8000    80.6262    29.9744    39.4133
  327.9000    80.6228    29.9740    39.6420
  328.0000    80.4289    29.9736    39.8718
  328.1000    80.3120    29.9732    39.8705
  328.2000    80.2202    29.9728    39.8696
  328.3000    79.9640    29.9723    39.5922
  328.4000    79.6939    29.9719    39.2238
  328.5000    79.2129    29.9715    38.9952
  328.6000    78.5164    29.9711    38.7678
  328.7000    77.8921    29.9707    38.3191
  328.8000    77.3835    29.8017    37.8753
  328.9000    76.9097    29.7613    37.3072
  329.0000    76.6371    29.7609    36.7452
  329.1000    76.3973    29.7605    36.3190
  329.2000    76.1412    29.7600    35.8976
  329.3000    76.0194    29.7596    35.3990
  329.4000    76.0158    29.5927    34.9093
  329.5000    76.0445    29.5517    34.4238
  329.6000    76.3117    29.5513    34.0247
  329.7000    76.5422    29.4888    33.5916
  329.8000    76.6082    29.3173    33.0088
  329.9000    76.8683    29.1402    32.5503
  330.0000    77.3697    28.9776    32.2488
  330.1000    77.8712    28.6827    31.9860
  330.2000    78.4143    28.4426    31.7263
  330.3000    78.8739    28.2773    31.3583
  330.4000    79.3752    28.1128    30.9945
  330.5000    79.8765    27.9422    30.7780
  330.6000    80.2995    27.7871    30.4929
  330.7000    80.5212    27.6257    30.2444
  330.8000    80.5168    27.5536    29.9988
  330.9000    80.5135    27.4408    29.6509
  331.0000    80.5099    27.1468    29.3069
  331.1000    80.5062    26.9812    29.3059
  331.2000    80.5026    26.9809    29.3052
  331.3000    80.4989    26.8632    29.3044
  331.4000    80.4949    26.7071    29.3036
  331.5000    80.4917    26.5519    29.3028
  331.6000    80.6636    26.3975    29.3020
  331.7000    80.7879    26.2358    29.3011
  331.8000    80.7842    26.0916    29.3003
  331.9000    80.7806    26.0526    29.2995
  332.0000    80.7765    25.9700    29.2987
  332.1000    80.7733    25.8191    29.2639
  332.2000    80.7696    25.6690    29.0933
  332.3000    80.7660    25.5110    29.0925
  332.4000    80.6200    25.5107    28.9569
  332.5000    80.1517    25.4009    28.7882
  332.6000    80.1477    25.3325    28.6205
  332.7000    79.7009    25.3321    28.4867
  332.8000    79.1923    25.3318    28.4859
  332.9000    78.6837    25.3314    28.0902
  333.0000    78.1062    25.1936    27.9594
  333.1000    77.3451    25.1544    27.7965
  333.2000    76.4839    25.0761    27.5708
  333.3000    75.8226    24.9787    27.2825
  333.4000    75.2299    24.9591    27.1234
  333.5000    74.8387    24.8042    26.7467
  333.6000    74.5162    24.8038    26.4989
  333.7000    74.0382    24.6985    26.1919
  333.8000    74.0341    24.6306    25.8884
  333.9000    74.0310    24.5833    25.5881
  334.0000    74.0273    24.4404    25.2912
  334.1000    74.0237    24.2879    24.9399
  334.2000    74.0200    24.1571    24.8237
  334.3000    74.0164    24.0168    24.5948
  334.4000    74.0122    23.9501    24.3101
  334.5000    74.0091    23.8601    24.0266
  334.6000    74.0055    23.5837    23.7478
  334.7000    74.2268    23.2894    23.6096
  334.8000    74.7282    23.1647    23.3635
  334.9000    75.2719    22.9341    23.1731
  335.0000    77.0252    22.6686    22.9849
  335.1000    77.4462    22.4061    22.7446
  335.2000    78.4307    22.1617    22.6120
  335.3000    79.4696    22.0222    22.3503
  335.4000    80.4008    21.6732    22.1940
  335.5000    81.8877    21.2984    22.0648
  335.6000    82.7696    20.9921    21.8856
  335.7000    83.8146    20.7866    21.6567
  335.8000    84.9150    20.6658    21.5305
  335.9000    85.7060    20.5352    21.4052
  336.0000    86.0941    20.5349    21.2805
  336.1000    86.0904    20.4500    21.1566
  336.2000    86.0861    20.3915    21.0333
  336.3000    86.0832    20.3912    20.9107
  336.4000    85.7671    20.3781    20.7888
  336.5000    85.0481    20.2487    20.6436
  336.6000    84.1971    20.2484    20.5474
  336.7000    83.9410    20.2482    20.4278
  336.8000    83.6363    20.1885    20.3559
  336.9000    83.6334    20.1067    20.3553
  337.0000    83.6297    20.0943    20.3548
  337.1000    83.5233    19.9662    20.2126
  337.2000    83.3190    19.8615    20.2121
  337.3000    83.3153    19.8267    20.1413
  337.4000    83.3110    19.8265    20.0705
  337.5000    83.3080    19.7917    20.0699
  337.6000    83.3044    19.6880    20.0693
  337.7000    83.3008    19.6877    19.9525
  337.8000    83.2478    19.6874    19.9287
  337.9000    82.9900    19.6871    19.9281
  338.0000    82.9863    19.6302    19.9276
  338.1000    82.9827    19.5496    19.9502
  338.2000    82.9791    19.5493    20.0660
  338.3000    82.7796    19.5490    20.0654
  338.4000    82.3648    19.5488    20.0649
  338.5000    82.3611    19.5485    20.0643
  338.6000    82.8544    19.5482    20.1106
  338.7000    83.1583    19.5480    20.2038
  338.8000    83.4072    19.5477    20.2031
  338.9000    83.9426    19.5474    20.3204
  339.0000    84.9490    19.5471    20.3434
  339.1000    85.9811    19.5469    20.3429
  339.2000    87.4538    19.6021    20.3423
  339.3000    88.5750    19.6833    20.3654
  339.4000    89.2933    19.6830    20.4836
  339.5000    89.7946    19.6827    20.4830
  339.6000    90.2539    19.6825    20.4824
  339.7000    90.5116    19.6822    20.5536
  339.8000    90.7516    19.6819    20.6247
  339.9000    90.8079    19.6816    20.6482
  340.0000    90.9459    19.6814    20.7680
  340.1000    91.1948    19.6810    20.7674
  340.2000    91.4045    19.6808    20.8637
  340.3000    91.4001    19.6805    20.9116
  340.4000    91.3967    19.6803    20.9110
  340.5000    91.3930    19.6800    20.9104
  340.6000    91.3894    19.6797    20.9099
  340.7000    91.3857    19.6794    20.9093
  340.8000    91.3821    19.6792    20.9087
  340.9000    91.3783    19.6789    20.9081
  341.0000    91.3748    19.6786    20.9075
  341.1000    91.3712    19.6783    20.9069
  341.2000    91.3675    19.6781    20.9064
  341.3000    91.3639    19.6777    20.9058
  341.4000    91.3602    19.6775    20.9052
  341.5000    91.3564    19.6772    20.9046
  341.6000    91.3530    19.6770    20.9040
  341.7000    91.3493    19.6767    20.9034
  341.8000    91.3457    19.6840    20.9029
  341.9000    91.3420    19.8140    20.9022
  342.0000    91.0147    19.8137    20.9993
  342.1000    88.2996    19.8135    21.0475
  342.2000    88.5301    19.8132    21.0469
  342.3000    88.4131    19.8432    21.0708
  342.4000    88.4209    19.9515    21.1931
  342.5000    88.5888    19.9511    21.1923
  342.6000    88.5851    20.0510    21.1919
  342.7000    88.5812    20.1677    21.2655
  342.8000    88.5779    20.2309    21.3391
  342.9000    88.3937    20.2306    21.3634
  343.0000    88.2671    20.2304    21.4873
  343.1000    88.1064    20.2300    21.4866
  343.2000    87.5977    20.3307    21.4861
  343.3000    87.0418    20.3713    21.5607
  343.4000    86.5805    20.4248    21.6353
  343.5000    85.8938    20.5134    21.6600
  343.6000    85.2597    20.5193    21.7856
  343.7000    84.8271    20.6566    21.7850
  343.8000    84.5459    20.7588    21.8861
  343.9000    83.9851    20.8008    22.0131
  344.0000    83.9818    20.8005    22.1408
  344.1000    83.8025    20.8302    22.2693
  344.2000    83.5464    20.9457    22.3985
  344.3000    83.3639    20.9453    22.5545
  344.4000    83.3602    20.9451    22.6593
  344.5000    83.3562    20.9448    22.7908
  344.6000    83.3530    20.9987    22.8697
  344.7000    83.3493    21.0909    22.9226
  344.8000    83.3457    21.0906    23.1898
  344.9000    83.3420    21.0903    23.3514
  345.0000    83.3384    21.1935    23.3509
  345.1000    83.3343    21.2375    23.3502
  345.2000    83.3311    21.2372    23.4040
  345.3000    84.1813    21.2369    23.5124
  345.4000    85.3204    21.2412    23.5117
  345.5000    86.1892    21.3851    23.5109
  345.6000    86.7083    21.3849    23.4014
  345.7000    87.5613    21.3846    23.3463
