~VERSION INFORMATION
 VERS.                2.0:   CWLS LOG ASCII STANDARD - VERSION 2.0
 WRAP.                 NO:   ONE LINE PER DEPTH STEP
~WELL INFORMATION
#MNEM.UNIT      DATA TYPE    INFORMATION
#----------   ------------   ------------------------------
 STRT.F           30.0000:   START DEPTH
 STOP.F          626.0000:   STOP DEPTH
 STEP.F            0.5000:   STEP LENGTH
 NULL.          -999.2500:   NO VALUE
 COMP.       F D SERV INC:   COMPANY
 WELL.    63-2 SX-3 #63-3:   WELL
 FLD .             TEAPOT:   FIELD
 LOC .       S3 T38N R78W:   LOCATION
 CNTY.            NATRONA:   COUNTY
 STAT.            WYOMING:   STATE
 CTRY. UNITED STATES OF AMERICA:   COUNTRY
 SRVC.     Atlas Wireline:   SERVICE COMPANY
 DATE.        29-APR-1992:   LOGDATE
 API .       490252251900:   API NUMBER
~CURVE INFORMATION
#MNEM.UNIT       API CODE    CURVE DESCRIPTION
#----------   ------------   ------------------------------
 DEPT.F                  :   
 CALD.IN     45 280 60 00:   CALIPER FROM DENSITY
 CORR.G/C3   45 356 01 00:   DENSITY CORRECTION
 DEN .G/C3   45 350 01 00:   COMPENSATED BULK DENSTIY
 GRD .GAPI   45 310 01 00:   GAMMA RAY FROM DENSITY LOG
 PORD.DEC    45 890 12 00:   POROSITY DENSITY SANDSTONE
 RILD.OHMM   07 120 46 00:   INDUCTION LOG DEEP RESISTIVITY
 RILM.OHMM   07 120 44 00:   INDUCTION LOG MEDIUM RESISTIVITY
~PARAMETER INFORMATION
#MNEM.UNIT          VALUE    DESCRIPTION
#----------   ------------   ------------------------------
 PD  .                 GL:   PERMANENT DATUM
 EPD .F              5160:   ELEVATION PERMANENT DATUM
 LMF .                 KB:   LOG MEASURED FROM
 DAPD.F                 5:   FEET ABOVE PERMANENT DATUM
 DMF .                 KB:   DRILLING MEASURED FROM
 EKB .F              5165:   KELLING BUSHING
 EGL .F              5160:   GROUND LEVEL
 DATE.        29-APR-1992:   RUN DATE
 RUN .                  1:   RUN NUMBER
 DD  .F               630:   DEPTH DRILLER
 DL  .F               629:   DEPTH LOGGER
 BLI .F               626:   BOTTOM LOG INTERVAL
 CS  .IN            8.625:   CASING SIZE
 CBD .F                45:   CASING BOTTOM DRILLER
 CBL .F                45:   CASING BOTTOM LOGGER
 BS  .IN            7.875:   BIT SIZE
 BSD .F               630:   BIT SIZE AT DEPTH
 DFT .                AIR:   DRILLING FLUID TYPE
 LUN .            HL-6212:   LOGGING UNIT NUMBER
 LUL .             CASPER:   LOGGING UNIT LOCATION
 ENGI.             ZIEGEN:   RECORDING ENGINEER
 WITN.             STRONG:   WITNESSED BY
 CLNT.            A2DTECH:   CLIENT CODE
 ORIG.           5" PRINT:   ORIGIN OF DATA
 UWI .       490252251900:   UNIQUE WELL ID
 DICO. A2D Technologies, Inc.:   DIGITIZING COMPANY
~OTHER INFORMATION
~A   DEPT     CALD       CORR        DEN        GRD       PORD       RILD       RILM   
# ...
  485.0000     8.2594    -0.0060     2.4307   154.3491     0.1312    14.9514    13.7350
  485.5000     8.2561    -0.0045     2.4360   153.7359     0.1276    14.6633    13.3559
  486.0000     8.2424     0.0016     2.4443   152.2164     0.1234    14.2672    13.0777
  486.5000     8.2415     0.0000     2.4548   151.3011     0.1203    13.7777    12.9845
  487.0000     8.2406    -0.0075     2.4676   150.3858     0.1146    13.3976    12.8920
  487.5000     8.2397    -0.0136     2.4744   149.4706     0.1095    13.3949    12.8001
  488.0000     8.2388    -0.0091     2.4736   148.2531     0.1074    13.3921    12.7088
  488.5000     8.2379     0.0015     2.4721   150.0569     0.1068    13.2967    12.6182
  489.0000     8.2370     0.0105     2.4728   153.0691     0.1061    13.2020    12.4416
  489.5000     8.2361     0.0090     2.4782   154.8728     0.1017    13.1079    12.3529
  490.0000     8.2352     0.0029     2.4788   155.4682     0.1023    13.0146    12.2648
  490.5000     8.2494    -0.0031     2.4781   155.1571     0.1038    13.0119    12.2623
  491.0000     8.2636    -0.0046     2.4728   153.0212     0.1056    13.0092    12.3452
  491.5000     8.2929    -0.0046     2.4743   151.7875     0.1059    12.9165    12.3426
  492.0000     8.2920    -0.0031     2.4833   151.8510     0.1014    13.0045    12.3401
  492.5000     8.2911    -0.0001     2.4893   153.9106     0.0974    13.0011    12.3446
  493.0000     8.2902     0.0013     2.4908   154.8102     0.0962    13.0896    12.5947
  493.5000     8.2893     0.0045     2.4945   155.4055     0.0950    13.0862    12.6798
  494.0000     8.2882     0.0073     2.4983   155.6987     0.0923    13.2671    12.7774
  494.5000     8.2873     0.0073     2.5005   154.1769     0.0902    13.3567    12.9415
  495.0000     8.2714     0.0043     2.4960   153.5660     0.0914    13.4469    12.9387
  495.5000     8.2554     0.0013     2.4877   154.7633     0.0953    13.3505    12.7413
  496.0000     8.2545    -0.0003     2.4839   155.3586     0.0995    13.2554    12.5784
  496.5000     8.2385     0.0012     2.4809   155.3496     0.1014    13.1609    12.3164
  497.0000     8.2225     0.0012     2.4794   155.3407     0.1020    13.0672    12.2286
  497.5000     8.2216    -0.0003     2.4786   155.3317     0.1020    12.9741    12.1415
  498.0000     8.2208    -0.0033     2.4786   155.3228     0.1020    12.7041    12.1389
  498.5000     8.2199    -0.0049     2.4787   155.3138     0.1017    12.6136    12.0524
  499.0000     8.2190    -0.0034     2.4831   155.9091     0.1002    12.5238    12.0499
  499.5000     8.2181    -0.0034     2.4898   158.0150     0.0947    12.3486    11.9640
  500.0000     8.2172    -0.0030     2.5006   160.1810     0.0902    12.2609    11.9491
  500.5000     8.2270    -0.0004     2.5034   161.6165     0.0890    12.2583    11.7909
  501.0000     8.2314     0.0012     2.5026   161.6012     0.0881    12.0866    11.7120
  501.5000     8.2308     0.0057     2.4996   160.9789     0.0902    12.0841    11.7104
  502.0000     8.2304     0.0057     2.4973   159.7555     0.0914    12.0816    11.7088
  502.5000     8.2299     0.0103     2.4973   159.1364     0.0917    11.9956    11.7072
  503.0000     8.2295     0.0163     2.4974   159.7258     0.0914    11.9931    11.7055
  503.5000     8.2140     0.0238     2.4996   161.8257     0.0911    11.9906    11.7039
  504.0000     8.2135     0.0284     2.5033   161.5087     0.0903    11.9881    11.7131
  504.5000     8.2131     0.0254     2.5094   159.6812     0.0891    12.0692    11.9595
  505.0000     8.2277     0.0179     2.5116   159.3679     0.0854    12.0666    12.0426
  505.5000     8.2273     0.0103     2.5124   160.5615     0.0818    12.1481    12.1108
  506.0000     8.2268     0.0058     2.5116   158.4281     0.0815    12.4012    12.0249
  506.5000     8.2264     0.0074     2.5108   156.2984     0.0830    12.3128    11.8574
  507.0000     8.2109     0.0023     2.5093   154.7730     0.0846    12.2251    11.6922
  507.5000     8.2255    -0.0062     2.5086   155.6645     0.0855    12.0541    11.6906
  508.0000     8.2251     0.0059     2.5078   158.3842     0.0858    12.0516    11.6081
  508.5000     8.2245     0.0134     2.5070   159.5622     0.0858    12.0491    11.5261
  509.0000     8.2241     0.0089     2.5085   157.9517     0.0852    11.9633    11.5245
  509.5000     8.2236    -0.0016     2.5093   156.5076     0.0846    11.7921    11.6036
  510.0000     8.2081    -0.0046     2.5109   158.3054     0.0837    11.6309    11.4416
  510.5000     8.2228     0.0060     2.5138   159.5027     0.0822    11.3888    11.1265
  511.0000     8.2223     0.0090     2.5183   162.2032     0.0801    11.3076    10.9715
  511.5000     8.2218     0.0075     2.5198   163.0984     0.0792    11.2271    10.8941
  512.0000     8.2063     0.0030     2.5168   161.8713     0.0804    11.2363    10.8926
  512.5000     8.2059    -0.0045     2.5138   162.1586     0.0810    11.3794    10.8157
  513.0000     8.2054    -0.0105     2.5145   163.6543     0.0810    11.3770    10.7393
  513.5000     8.2050     0.0000     2.5205   165.1500     0.0807    11.2955    10.6635
  514.0000     8.2045    -0.0015     2.5243   166.6457     0.0789    11.1374    10.5149
  514.5000     8.2041    -0.0013     2.5265   168.1414     0.0744    10.9057    10.4407
  515.0000     8.2187     0.0078     2.5265   167.8244     0.0744    10.6787    10.1532
  515.5000     8.2183     0.0137     2.5235   166.9032     0.0772    10.4565     9.9424
  516.0000     8.2177     0.0076     2.5145   169.0273     0.0831    10.1681     9.8723
  516.5000     8.2173     0.0001     2.5083   172.6403     0.0865     9.8876     9.7347
  517.0000     8.2168    -0.0029     2.5084   174.5037     0.0856     9.6149     9.5991
  517.5000     8.2013     0.0002     2.5099   178.0182     0.0847     9.3497     9.0790
  518.0000     8.1858     0.0017     2.5107   179.5139     0.0841     9.0918     8.5871
  518.5000     8.1853     0.0017     2.5084   179.8049     0.0850     8.7191     8.1218
  519.0000     8.1849    -0.0013     2.5046   180.6927     0.0892     8.0766     7.6817
  519.5000     8.1844    -0.0058     2.4941   183.6989     0.0950     7.1265     7.0175
  520.0000     8.1992    -0.0103     2.4782   194.1294     0.1049     6.1587     5.8167
  520.5000     8.1986     0.0063     2.4420   204.8160     0.1221     5.8654     5.2404
  521.0000     8.1982     0.0244     2.4142   209.0307     0.1432     5.7833     4.8881
  521.5000     8.1827     0.0289     2.4111   204.4841     0.1447     5.7422     4.8536
  522.0000     8.1822     0.0229     2.4360   180.3141     0.1318     5.7013     4.9208
  522.5000     8.1818     0.0138     2.5151   173.5297     0.1001     5.8200     5.3478
  523.0000     8.1812     0.0062     2.5302   172.7200     0.0830     5.9412     5.8932
  523.5000     8.1657     0.0064     2.5347   174.5178     0.0723     6.1072     6.1008
  524.0000     8.1652     0.0139     2.5377   172.6865     0.0691     6.3216     6.0997
  524.5000     8.1497     0.0185     2.5392   166.9314     0.0679     6.9652     7.2555
  525.0000     8.1493     0.0139     2.5362   163.8954     0.0688     7.8955     8.1072
  525.5000     8.1488     0.0109     2.5324   163.5822     0.0709     8.9385     8.8721
  526.0000     8.1484     0.0110     2.5301   170.2101     0.0727     9.7805     9.5089
  526.5000     8.1328     0.0080     2.5309   177.7481     0.0712     9.9847     9.6406
  527.0000     8.1324     0.0065     2.5339   181.6607     0.0703    10.0522     9.8423
  527.5000     8.1470     0.0050     2.5331   181.0416     0.0700    10.1201    10.0481
  528.0000     8.1466     0.0065     2.5331   174.6823     0.0694    10.1175    10.1168
  528.5000     8.1462     0.0080     2.5364   170.1357     0.0688    10.2573    10.0453
  529.0000     8.1608     0.0065     2.5436   165.2870     0.0673    10.3261    10.0439
  529.5000     8.1603     0.0065     2.5474   165.2719     0.0631    10.6885    10.1126
  530.0000     8.1598     0.0050     2.5482   164.9547     0.0604    10.9877    10.3960
