~VERSION INFORMATION
 VERS.                2.0:   CWLS LOG ASCII STANDARD - VERSION 2.0
 WRAP.                 NO:   ONE LINE PER DEPTH STEP
~WELL INFORMATION
#MNEM.UNIT      DATA TYPE    INFORMATION
#----------   ------------   ------------------------------
 STRT.F            0.0000:   START DEPTH
 STOP.F          550.0000:   STOP DEPTH
 STEP.F            0.1000:   STEP LENGTH
 NULL.          -999.2500:   NO VALUE
 COMP.       F D SERV INC:   COMPANY
 WELL. NAVAL PETROLEUM RESERVE 3 SX-3 #77-4-3:   WELL
 FLD .          N.P.R. #3:   FIELD
 LOC .       S3 T38N R78W:   LOCATION
 CNTY.            NATRONA:   COUNTY
 STAT.            WYOMING:   STATE
 CTRY. UNITED STATES OF AMERICA:   COUNTRY
 SRVC.      Western Atlas:   SERVICE COMPANY
 DATE.        28-OCT-1992:   LOGDATE
 API .       490252255100:   API NUMBER
~CURVE INFORMATION
#MNEM.UNIT       API CODE    CURVE DESCRIPTION
#----------   ------------   ------------------------------
 DEPT.F                  :   
 GRR .GAPI   07 310 01 00:   GAMMA RAY FROM RESISTIVITY
 RILD.OHMM   07 120 46 00:   DEEP INDUCTION RESISTIVITY
 RILM.OHMM   07 120 44 00:   INDUCTION LOG MEDIUM RESISTIVITY
~PARAMETER INFORMATION
#MNEM.UNIT          VALUE    DESCRIPTION
#----------   ------------   ------------------------------
 PD  .                 GL:   PERMANENT DATUM
 EPD .F              5160:   ELEVATION PERMANENT DATUM
 LMF .                 KB:   LOG MEASURED FROM
 DAPD.F                10:   FEET ABOVE PERMANENT DATUM
 DMF .                 KB:   DRILLING MEASURED FROM
 EKB .F              5170:   KELLING BUSHING
 EDF .F              5169:   DRILLING FLOOR
 EGL .F              5160:   GROUND LEVEL
 DATE.        28-OCT-1992:   RUN DATE
 RUN .                  1:   RUN NUMBER
 DD  .F               555:   DEPTH DRILLER
 DL  .F               558:   DEPTH LOGGER
 BLI .F               550:   BOTTOM LOG INTERVAL
 CS  .IN            8.625:   CASING SIZE
 CBD .F                54:   CASING BOTTOM DRILLER
 CBL .F                54:   CASING BOTTOM LOGGER
 BS  .IN            7.875:   BIT SIZE
 BSD .F               555:   BIT SIZE AT DEPTH
 DFT .           AIR FOAM:   DRILLING FLUID TYPE
 TCS .HRS               1:   TIME CURCULATED STOPPED
 MRT .F                65:   MAXIMUM RECORDED TEMPERATURE
 LUN .            HL-6274:   LOGGING UNIT NUMBER
 LUL .             CASPER:   LOGGING UNIT LOCATION
 ENGI.             RAUTIO:   RECORDING ENGINEER
 WITN.     BRUCE ANDERSON:   WITNESSED BY
 CLNT.            A2DTECH:   CLIENT CODE
 ORIG.           5" PRINT:   ORIGIN OF DATA
 UWI .       490252255100:   UNIQUE WELL ID
 DICO. A2D Technologies, Inc.:   DIGITIZING COMPANY
~OTHER INFORMATION
~A    DEPT      GRR      RILD       RILM   
# ...
  309.4000   132.1740     5.8158     5.5602
  309.5000   133.0372     5.8565     5.6710
  309.6000   133.9771     5.8571     5.7819
  309.7000   134.7386     5.8578     5.8831
  309.8000   135.8979     5.8585     5.9860
  309.9000   137.3782     5.8662     6.0890
  310.0000   138.8118     5.9010     6.1712
  310.1000   139.5130     5.9017     6.2928
  310.2000   139.5094     5.9297     6.3924
  310.3000   139.4880     5.9648     6.4667
  310.4000   138.8973     6.0002     6.5508
  310.5000   138.0564     6.0357     6.6665
  310.6000   136.7301     6.0723     6.8493
  310.7000   135.4342     6.1770     6.9828
  310.8000   134.4250     6.2578     7.1464
  310.9000   133.4158     6.3314     7.3136
  311.0000   132.2290     6.3924     7.4846
  311.1000   131.6048     6.4420     7.6574
  311.2000   130.6909     6.5609     7.7624
  311.3000   129.7874     6.6712     7.8366
  311.4000   129.0844     6.7595     7.9564
  311.5000   128.5780     6.9044     8.0758
  311.6000   127.9776     7.0935     8.1686
  311.7000   127.7700     7.2545     8.2584
  311.8000   127.0532     7.3915     8.3482
  311.9000   126.1473     7.5532     8.4376
  312.0000   125.4944     7.6662     8.4958
  312.1000   125.2395     7.7799     8.5355
  312.2000   124.9346     7.9462     8.5849
  312.3000   124.9317     8.1745     8.6549
  312.4000   125.0796     8.3854     8.7554
  312.5000   125.3273     8.5192     8.8570
  312.6000   125.6249     8.6694     8.9083
  312.7000   126.1257     8.8223     9.0014
  312.8000   126.3726     9.0084     9.0745
  312.9000   126.8700     9.2592     9.1270
  313.0000   127.4319     9.3813     9.1901
  313.1000   127.9938     9.4302     9.2978
  313.2000   128.2224     9.4491     9.2975
  313.3000   128.3162     9.4760     9.3399
  313.4000   128.5179     9.5175     9.3939
  313.5000   128.5135     9.5221     9.4482
  313.6000   128.5100     9.5867     9.5028
  313.7000   128.5063     9.5877     9.5587
  313.8000   128.6485     9.5889     9.5585
  313.9000   128.8012     9.6149     9.6015
  314.0000   128.7976     9.6583     9.6247
  314.1000   128.7939     9.6596     9.6454
  314.2000   128.7903     9.6610     9.7012
  314.3000   128.9809     9.7086     9.7588
  314.4000   129.3720     9.7308     9.8137
  314.5000   129.7784     9.7320     9.8265
  314.6000   130.0680     9.7332     9.8262
  314.7000   130.5848     9.7344     9.8259
  314.8000   130.8237     9.7359     9.8257
  314.9000   131.2632     9.7369     9.8254
  315.0000   131.7623     9.7721     9.8251
  315.1000   132.1712     9.8074     9.8248
  315.2000   132.4584     9.8086     9.8246
  315.3000   132.9799     9.8099     9.8243
  315.4000   133.4566     9.8111     9.8240
  315.5000   134.1451     9.8123     9.8237
  315.6000   134.6184     9.8465     9.8235
  315.7000   134.9540     9.9048     9.8660
  315.8000   135.4159     9.9733     9.8915
  315.9000   135.6771    10.0947     9.9312
  316.0000   135.9113    10.2093    10.0466
  316.1000   135.7853    10.3294    10.1700
  316.2000   135.6665    10.4509    10.3380
  316.3000   135.4921    10.5737    10.5191
  316.4000   135.0204    10.6980    10.6361
  316.5000   134.7490    10.8313    10.7398
  316.6000   134.0400    10.9511    10.9189
  316.7000   133.0977    11.0800    11.0543
  316.8000   132.0886    11.2103    11.2350
  316.9000   130.8305    11.3637    11.4318
  317.0000   129.0675    11.5637    11.6680
  317.1000   127.1744    11.7846    11.9180
  317.2000   126.0066    11.9117    12.1263
  317.3000   124.9283    12.1522    12.3547
  317.4000   123.6568    12.4381    12.4874
  317.5000   122.2257    12.6855    12.6326
  317.6000   120.8762    12.8639    12.7794
  317.7000   118.6934    13.3692    12.9040
  317.8000   115.6946    13.7931    12.9874
  317.9000   112.4236    14.1111    13.1513
  318.0000   109.1523    14.3598    13.2911
  318.1000   106.1932    14.6127    13.5016
  318.2000   103.9272    14.8699    13.6970
  318.3000   101.4510    15.1669    13.8812
  318.4000    98.9395    15.3218    14.1237
  318.5000    96.8801    15.4425    14.3947
  318.6000    94.8640    15.5755    14.6227
  318.7000    92.2190    15.7353    14.8788
  318.8000    88.7212    15.8240    15.0950
  318.9000    85.1150    15.8263    15.2704
  319.0000    82.1796    15.9835    15.4564
  319.1000    80.1320    16.1116    15.7556
  319.2000    78.1241    16.2071    16.0025
  319.3000    75.9731    16.3468    16.2172
  319.4000    74.7803    16.6344    16.4528
  319.5000    74.2171    16.9811    16.7122
  319.6000    73.9907    17.1449    16.9063
  319.7000    73.5633    17.3465    17.1255
  319.8000    73.1786    17.5087    17.3018
  319.9000    72.9946    17.6546    17.5030
  320.0000    72.9708    17.9653    17.7064
  320.1000    72.6848    18.1040    17.8830
  320.2000    72.4608    18.2428    17.9943
  320.3000    72.2058    18.3815    18.2297
  320.4000    71.9509    18.5203    18.4154
  320.5000    71.6959    18.6590    18.6295
  320.6000    71.4586    18.8287    18.8460
  320.7000    71.4545    19.0307    19.0350
  320.8000    71.4514    19.1471    19.1525
  320.9000    71.4477    19.2570    19.4052
  321.0000    71.4441    19.3711    19.5024
  321.1000    71.4405    19.4859    19.6910
  321.2000    71.4369    19.6013    19.8663
  321.3000    71.4327    19.7175    19.9811
  321.4000    71.4296    19.8408    20.0899
  321.5000    71.4260    19.9518    20.0892
  321.6000    71.4224    20.0701    20.1887
  321.7000    71.3550    20.1266    20.2285
  321.8000    71.1130    20.1676    20.2280
  321.9000    71.1088    20.2871    20.2274
  322.0000    70.8923    20.4169    20.2325
  322.1000    70.6373    20.5282    20.3675
  322.2000    70.3823    20.6499    20.3670
  322.3000    70.1885    20.7110    20.3664
  322.4000    70.1640    20.7136    20.4182
  322.5000    69.5765    20.7162    20.4791
  322.6000    69.3624    20.7191    20.3647
  322.7000    68.7867    20.5082    20.3641
  322.8000    68.1385    20.4372    20.3636
  322.9000    67.6322    20.4398    20.3630
  323.0000    67.1178    20.4423    20.3625
  323.1000    66.2314    20.4449    20.3619
  323.2000    65.6022    20.4475    20.3613
  323.3000    64.8447    20.4500    20.3607
  323.4000    63.9800    20.4526    20.2630
  323.5000    63.0273    20.4552    20.1455
  323.6000    62.2585    20.4577    20.0776
  323.7000    60.7716    20.4603    20.0770
  323.8000    59.9436    20.4633    20.0742
  323.9000    58.3126    20.4654    19.9365
  324.0000    57.1360    20.4680    19.7486
  324.1000    57.1323    20.5226    19.6599
  324.2000    57.1287    20.6163    19.6124
  324.3000    57.1244    20.6189    19.4986
  324.4000    57.1214    20.6219    19.3853
  324.5000    57.2709    20.6240    19.2513
  324.6000    57.9279    20.6266    19.2508
  324.7000    59.0264    20.6292    19.2503
  324.8000    59.5263    20.6318    19.2049
  324.9000    60.4259    20.6344    19.1157
  325.0000    61.6313    20.6370    19.1151
  325.1000    63.7382    20.6395    19.2257
  325.2000    65.9485    20.6421    19.2476
  325.3000    67.6555    20.6447    19.2471
  325.4000    69.1698    20.6473    19.2906
  325.5000    73.6613    20.6500    19.3806
  325.6000    76.3915    20.6525    19.3799
  325.7000    78.2056    20.5628    19.4909
  325.8000    80.0027    20.5143    19.5142
  325.9000    82.5883    20.5168    19.5802
  326.0000    86.6706    20.5194    19.6934
  326.1000    88.6458    20.5221    19.8283
  326.2000    89.4735    20.5245    20.0630
  326.3000    89.8268    20.5271    20.1768
  326.4000    90.0745    20.5948    20.2021
  326.5000    90.2786    20.7168    20.2692
  326.6000    89.9721    20.8395    20.3864
  326.7000    89.4787    20.9714    20.5042
  326.8000    89.1666    20.9738    20.6261
  326.9000    88.6248    21.0649    20.7420
  327.0000    87.7744    21.1897    20.7691
  327.1000    86.8073    21.3153    20.8370
  327.2000    86.0228    21.4415    20.9574
  327.3000    85.0492    21.5803    21.0785
  327.4000    84.0402    21.5828    21.2050
  327.5000    83.3132    21.6735    21.3229
