~VERSION INFORMATION
 VERS.                2.0:   CWLS LOG ASCII STANDARD - VERSION 2.0
 WRAP.                 NO:   ONE LINE PER DEPTH STEP
~WELL INFORMATION
#MNEM.UNIT      DATA TYPE    INFORMATION
#----------   ------------   ------------------------------
 STRT.F            0.0000:   START DEPTH
 STOP.F         1008.0000:   STOP DEPTH
 STEP.F            0.5000:   STEP LENGTH
 NULL.          -999.2500:   NO VALUE
 COMP. LAWRENCE/ALLISON INC:   COMPANY
 WELL. NPR 3 #51-61-SX-14:   WELL
 FLD .             TEAPOT:   FIELD
 LOC .      S14 T38N R78W:   LOCATION
 CNTY.            NATRONA:   COUNTY
 STAT.            WYOMING:   STATE
 CTRY. UNITED STATES OF AMERICA:   COUNTRY
 SRVC.      Dresser Atlas:   SERVICE COMPANY
 DATE.        05-FEB-1986:   LOGDATE
 API .       490251106600:   API NUMBER
~CURVE INFORMATION
#MNEM.UNIT       API CODE    CURVE DESCRIPTION
#----------   ------------   ------------------------------
 DEPT.F                  :   
 GRR .GAPI   07 310 01 00:   GAMMA RAY FROM RES. LOG.
 RILD.OHMM   10 120 46 00:   INDUCTION LOG DEEP RESISTIVITY
 RILM.OHMM   07 120 44 00:   INDUCTION LOG MEDIUM RESISTIVITY
 CALD.IN     45 280 60 00:   CALIPER
 DEN .G/C3   45 350 01 00:   COMPENSATED BULK DENSTIY
 CORR.G/C3   45 356 01 00:   DENSITY CORRECTION
 PORD.DEC    45 890 10 00:   POROSITY DENSITY LIMESTONE
~PARAMETER INFORMATION
#MNEM.UNIT          VALUE    DESCRIPTION
#----------   ------------   ------------------------------
 PD  .                 GL:   PERMANENT DATUM
 EPD .F              5225:   ELEVATION PERMANENT DATUM
 LMF .                 GL:   LOG MEASURED FROM
 DMF .                 GL:   DRILLING MEASURED FROM
 EGL .F              5225:   GROUND LEVEL
 DATE.             2-5-86:   RUN DATE
 RUN .                  1:   RUN NUMBER
 DD  .F              1010:   DEPTH DRILLER
 DL  .F              1008:   DEPTH LOGGER
 BLI .F              1008:   BOTTOM LOG INTERVAL
 CS  .IN            8.625:   CASING SIZE
 CBD .F                86:   CASING BOTTOM DRILLER
 CBL .F                84:   CASING BOTTOM LOGGER
 BS  .IN             6.25:   BIT SIZE
 BSD .F              1010:   BIT SIZE AT DEPTH
 DFT .                AIR:   DRILLING FLUID TYPE
 LUN .            HL 6264:   LOGGING UNIT NUMBER
 LUL .           GILLETTE:   LOGGING UNIT LOCATION
 ENGI.           FAHLSING:   RECORDING ENGINEER
 WITN.              FIVAS:   WITNESSED BY
 CLNT.            A2DTECH:   CLIENT CODE
 ORIG.       2", 5" PRINT:   ORIGIN OF DATA
 UWI .       490251106600:   UNIQUE WELL ID
 DICO. A2D Technologies, Inc.:   DIGITIZING COMPANY
~OTHER INFORMATION
~A    DEPT      GRR      RILD       RILM       CALD        DEN       CORR       PORD   
# ...
  728.0000   123.0006     2.3232     2.1380     6.5965     2.2566     0.0919     0.2475
  728.5000   115.3592     2.1978     2.1184     6.5853     2.2660     0.1126     0.2501
  729.0000   107.3363     2.2895     2.1978     6.5333     2.2880     0.1043     0.2354
  729.5000   110.7955     2.5260     2.3379     6.5310     2.3148     0.0897     0.2218
  730.0000   116.1497     2.7868     2.5047     6.5890     2.3256     0.1113     0.2107
  730.5000   121.5289     3.0746     2.6834     6.5922     2.3347     0.1413     0.2006
  731.0000   126.8609     3.3921     2.9693     6.5519     2.3745     0.1257     0.1796
  731.5000   131.2551     3.7424     3.5541     6.5412     2.4314     0.1014     0.1533
  732.0000   134.1540     4.1288     3.9378     6.5319     2.4711     0.0942     0.1311
  732.5000   137.0928     4.5565     4.2556     6.5224     2.4806     0.0999     0.1160
  733.0000   138.3675     4.9349     4.5990     6.5132     2.4888     0.1059     0.1143
  733.5000   136.2001     5.2924     4.9702     6.5272     2.4901     0.1120     0.1128
  734.0000   131.0198     5.6180     5.1241     6.5619     2.4869     0.1141     0.1167
  734.5000   125.9166     5.5769     5.0772     6.5968     2.4740     0.0914     0.1241
  735.0000   123.4324     5.4139     4.9318     6.6106     2.4597     0.0668     0.1315
  735.5000   130.2265     5.1743     4.7091     6.6127     2.4519     0.0528     0.1367
  736.0000   135.4564     4.9452     4.4963     6.6145     2.4506     0.0499     0.1379
  736.5000   134.8003     4.7263     4.2932     6.6164     2.4432     0.0620     0.1408
  737.0000   135.3138     4.5171     4.0993     6.6182     2.4233     0.0738     0.1518
  737.5000   141.1961     4.3171     3.9141     6.6201     2.4036     0.0856     0.1631
  738.0000   146.2578     4.1260     3.8525     6.6220     2.4002     0.0973     0.1677
  738.5000   145.1494     4.0712     3.8525     6.6238     2.4166     0.0966     0.1553
  739.0000   136.0954     4.1445     3.8881     6.6257     2.4330     0.0944     0.1477
  739.5000   130.0749     4.2238     4.0697     6.6275     2.4304     0.0950     0.1480
  740.0000   124.8619     4.4683     4.2611     6.6294     2.4331     0.1087     0.1484
  740.5000   123.2871     4.7224     4.4614     6.6271     2.4575     0.1220     0.1372
  741.0000   127.0437     4.9910     4.6711     6.6212     2.4818     0.1357     0.1200
  741.5000   130.8084     5.2748     4.8938     6.6152     2.4927     0.1426     0.1122
  742.0000   134.0903     5.5748     5.2224     6.6093     2.5011     0.1479     0.1071
  742.5000   133.2781     5.8919     5.5803     6.6033     2.5094     0.1504     0.1024
  743.0000   130.7577     6.2270     5.9890     6.5974     2.5180     0.1420     0.0952
  743.5000   129.8871     6.5022     6.1516     6.5915     2.5196     0.1044     0.0956
  744.0000   131.1830     6.6599     6.3311     6.5767     2.5191     0.0713     0.0960
  744.5000   132.4982     6.8785     6.5090     6.5594     2.5226     0.0941     0.0937
  745.0000   133.6564     6.8155     6.4778     6.5420     2.5262     0.1159     0.0913
  745.5000   132.5908     6.9224     6.4302     6.5246     2.5291     0.1324     0.0888
  746.0000   131.4019     6.9421     6.3774     6.5095     2.5270     0.1440     0.0926
  746.5000   131.0645     6.7648     6.2956     6.5147     2.5185     0.1402     0.0968
  747.0000   133.7467     6.6363     6.2150     6.5209     2.5097     0.1261     0.1010
  747.5000   133.8371     6.5103     6.1354     6.5270     2.5032     0.1117     0.1052
  748.0000   133.9900     6.3211     6.0566     6.5331     2.4995     0.0971     0.1077
  748.5000   135.0174     6.0770     5.9481     6.5393     2.4957     0.0925     0.1100
  749.0000   138.2750     5.8424     5.6934     6.5454     2.4920     0.0888     0.1123
  749.5000   139.8310     5.6168     5.4496     6.5499     2.4881     0.0932     0.1142
  750.0000   136.9963     5.3999     5.2162     6.5438     2.4873     0.0991     0.1152
  750.5000   134.6537     5.1914     4.9928     6.5378     2.4985     0.1091     0.1090
  751.0000   136.6409     4.9909     4.7569     6.5318     2.5070     0.1189     0.1022
  751.5000   138.5664     4.7982     4.5252     6.5259     2.5043     0.1222     0.1008
  752.0000   139.8660     4.6128     4.3047     6.5199     2.4950     0.1058     0.1096
  752.5000   140.9460     4.4348     4.0951     6.5140     2.4859     0.0698     0.1159
  753.0000   140.2924     4.2636     3.9241     6.5129     2.4767     0.0559     0.1212
  753.5000   132.5835     4.2238     3.8881     6.5362     2.4709     0.0601     0.1248
  754.0000   124.3100     4.4280     4.1486     6.5593     2.4710     0.0858     0.1248
  754.5000   119.9911     4.6404     4.3485     6.5828     2.4710     0.1098     0.1248
  755.0000   129.7169     4.8629     4.5579     6.5948     2.4710     0.1158     0.1250
  755.5000   138.4485     5.0962     4.7775     6.6050     2.4710     0.0992     0.1255
  756.0000   140.4991     5.3406     5.0077     6.6150     2.4687     0.0826     0.1271
  756.5000   138.1619     5.5968     5.2489     6.6251     2.4658     0.0852     0.1287
  757.0000   138.8931     5.8652     5.5018     6.6351     2.4628     0.0987     0.1303
  757.5000   139.6075     6.1472     5.7671     6.6452     2.4650     0.1125     0.1282
  758.0000   137.4918     6.4487     6.0465     6.6445     2.4717     0.1217     0.1243
  758.5000   135.1354     6.6802     6.3286     6.6342     2.4733     0.1142     0.1224
  759.0000   136.6420     6.8155     6.3947     6.6238     2.4737     0.1033     0.1232
  759.5000   138.7440     6.8785     6.3904     6.6134     2.4741     0.0925     0.1240
  760.0000   140.9211     6.9421     6.3904     6.6184     2.4768     0.0815     0.1211
  760.5000   140.0766     6.9427     6.3904     6.6358     2.4779     0.0709     0.1203
  761.0000   138.5238     6.9182     6.3904     6.6511     2.4780     0.0705     0.1201
  761.5000   136.9656     6.8775     6.3904     6.6207     2.4800     0.0736     0.1190
  762.0000   138.9229     6.8374     6.3904     6.5834     2.4892     0.0878     0.1148
  762.5000   141.2365     6.7976     6.3904     6.5504     2.4982     0.1015     0.1107
  763.0000   141.1243     6.7579     6.3904     6.5688     2.5021     0.1144     0.1068
  763.5000   139.6334     6.7185     6.3904     6.5616     2.5026     0.1230     0.1052
  764.0000   138.1097     6.6794     6.3904     6.5524     2.5031     0.1294     0.1064
  764.5000   136.5647     6.6299     6.3904     6.5434     2.4941     0.1035     0.1122
  765.0000   134.0681     6.6667     6.3904     6.5343     2.4814     0.0778     0.1177
  765.5000   130.0818     6.7172     6.3904     6.5422     2.4750     0.0521     0.1228
  766.0000   127.0486     6.7684     6.3904     6.5658     2.4750     0.0397     0.1220
  766.5000   129.6655     6.8156     6.3904     6.5618     2.4747     0.0347     0.1237
  767.0000   133.5347     6.8156     6.3903     6.5515     2.4687     0.0486     0.1263
  767.5000   137.2959     6.8155     6.3899     6.5408     2.4680     0.0687     0.1278
  768.0000   139.1771     6.8154     6.3886     6.5310     2.4734     0.0883     0.1238
  768.5000   137.8249     6.8152     6.5090     6.5635     2.4792     0.0926     0.1198
  769.0000   139.2455     6.8159     6.5090     6.5577     2.4786     0.0874     0.1213
  769.5000   140.6356     6.7198     6.2418     6.5422     2.4751     0.0824     0.1238
  770.0000   141.0995     6.5382     6.0576     6.5262     2.4784     0.0773     0.1204
  770.5000   138.2064     6.3615     5.8788     6.5112     2.4880     0.0734     0.1138
  771.0000   136.5191     6.1896     5.7052     6.5462     2.5026     0.0958     0.1071
  771.5000   139.7684     6.0224     5.5361     6.5690     2.5111     0.1195     0.1000
  772.0000   144.3832     5.8597     5.3661     6.5626     2.4983     0.1229     0.0999
  772.5000   148.9091     5.7013     5.3263     6.5565     2.4781     0.0900     0.1152
  773.0000   151.8187     5.5473     5.2868     6.5502     2.4579     0.0894     0.1322
