~VERSION INFORMATION
 VERS.                2.0:   CWLS LOG ASCII STANDARD - VERSION 2.0
 WRAP.                 NO:   ONE LINE PER DEPTH STEP
~WELL INFORMATION
#MNEM.UNIT      DATA TYPE    INFORMATION
#----------   ------------   ------------------------------
 STRT.F         1596.0000:   START DEPTH
 STOP.F         3210.0000:   STOP DEPTH
 STEP.F            0.5000:   STEP LENGTH
 NULL.          -999.2500:   NO VALUE
 COMP.   FLUOR DANIEL INC:   COMPANY
 WELL. NAVAL PETROLEUM RESERVE 3 X-23 #73-23:   WELL
 FLD .             TEAPOT:   FIELD
 LOC .      S23 T38N R78W:   LOCATION
 CNTY.            NATRONA:   COUNTY
 STAT.            WYOMING:   STATE
 CTRY. UNITED STATES OF AMERICA:   COUNTRY
 SRVC.            Unknown:   SERVICE COMPANY
 DATE.        29-JAN-1995:   LOGDATE
 API .       490252265000:   API NUMBER
~CURVE INFORMATION
#MNEM.UNIT       API CODE    CURVE DESCRIPTION
#----------   ------------   ------------------------------
 DEPT.F                  :   
 TGAS.TC/CC  91 830 01 00:   TOTAL GAS UNIT
 ROP .FT/HR  91 810 01 00:   RAT OF DRILLING PENETRATION
~PARAMETER INFORMATION
#MNEM.UNIT          VALUE    DESCRIPTION
#----------   ------------   ------------------------------
 EKB .F              5433:   KELLING BUSHING
 EGL .F              5423:   GROUND LEVEL
 DATE.        29-JAN-1995:   RUN DATE
 RUN .                  1:   RUN NUMBER
 BLI .F              3210:   BOTTOM LOG INTERVAL
 TLI .F              1600:   TOP LOG INTERVAL
 WITN.     C.TOWER/R.HUSK:   WITNESSED BY
 CLNT.            A2DTECH:   CLIENT CODE
 ORIG.           5" PRINT:   ORIGIN OF DATA
 UWI .       490252265000:   UNIQUE WELL ID
 DICO. A2D Technologies, Inc.:   DIGITIZING COMPANY
~OTHER INFORMATION
~A  DEPT        TGAS        ROP 
# ...
 2689.5000     1.1416     0.5283
 2690.0000     1.1416     0.5283
 2690.5000     1.1416     0.5283
 2691.0000     0.9514     0.5283
 2691.5000     0.9514     0.5283
 2692.0000     0.9514     0.5283
 2692.5000     0.7611     0.5283
 2693.0000     0.7611     0.5283
 2693.5000     0.9514     0.5283
 2694.0000     0.9514     0.5283
 2694.5000     1.0505     0.5283
 2695.0000     1.1416     0.5283
 2695.5000     0.9514     0.5283
 2696.0000     0.9514     0.5292
 2696.5000     0.9514     0.5377
 2697.0000     0.7611     0.5377
 2697.5000     0.7611     0.5283
 2698.0000     0.7611     0.5283
 2698.5000     0.7611     0.5283
 2699.0000     0.7611     0.5283
 2699.5000     0.7611     0.5283
 2700.0000     0.7611     0.5283
 2700.5000     0.7611     0.5283
 2701.0000     0.7611     0.5283
 2701.5000     0.7611     0.5283
 2702.0000     0.7611     0.5328
 2702.5000     0.7611     0.5337
 2703.0000     0.7611     0.5283
 2703.5000     0.9514     0.5229
 2704.0000     1.0307     0.5175
 2704.5000     1.1416     0.5121
 2705.0000     1.1416     0.5070
 2705.5000     1.0792     0.5068
 2706.0000     0.9919     0.5066
 2706.5000     0.9045     0.5063
 2707.0000     0.8171     0.5061
 2707.5000     0.7297     0.6568
 2708.0000     0.6467     0.6566
 2708.5000     0.6526     0.6563
 2709.0000     0.6564     0.6467
 2709.5000     0.6620     0.6464
 2710.0000     0.6660     0.6462
 2710.5000     0.6707     0.6460
 2711.0000     0.6762     0.6458
 2711.5000     0.8712     0.6476
 2712.0000     0.8753     0.6492
 2712.5000     0.8800     0.6507
 2713.0000     0.8848     0.6523
 2713.5000     0.8900     0.6540
 2714.0000     0.9831     0.7953
 2714.5000     0.8983     0.7950
 2715.0000     0.9042     0.7948
 2715.5000     0.9089     0.8040
 2716.0000     0.7222     0.7943
 2716.5000     0.7281     0.8036
 2717.0000     0.5413     0.8033
 2717.5000     0.5472     0.7182
 2718.0000     0.7422     0.5575
 2718.5000     0.7469     0.5573
 2719.0000     0.7517     0.5571
 2719.5000     0.7563     0.5474
 2720.0000     0.7611     0.5472
 2720.5000     0.9561     0.5469
 2721.0000     0.9609     0.5463
 2721.5000     0.7753     0.5456
 2722.0000     0.7801     0.5448
 2722.5000     0.7849     0.5441
 2723.0000     0.7906     0.5434
 2723.5000     0.7953     0.5426
 2724.0000     0.6086     0.5419
 2724.5000     0.8047     0.5412
 2725.0000     0.8095     0.5404
 2725.5000     0.8142     0.5397
 2726.0000     0.8189     0.5389
 2726.5000     0.8236     0.5382
 2727.0000     0.8283     0.5375
 2727.5000     0.8325     0.5367
 2728.0000     0.8378     0.5359
 2728.5000     0.8425     0.6589
 2729.0000     0.8472     0.6500
 2729.5000     0.6605     0.6410
 2730.0000     0.8566     0.6415
 2730.5000     0.6707     0.6421
 2731.0000     0.6755     0.6330
 2731.5000     0.6802     0.6335
 2732.0000     0.7104     0.6340
 2732.5000     0.8805     0.6344
 2733.0000     0.8848     0.6349
 2733.5000     0.8895     0.6259
 2734.0000     0.8943     0.6285
 2734.5000     0.8989     0.6364
 2735.0000     0.7132     0.6368
 2735.5000     0.8066     0.6373
 2736.0000     0.9133     0.6377
 2736.5000     0.9184     0.6383
 2737.0000     0.9228     0.6387
 2737.5000     0.9276     0.6392
 2738.0000     1.1226     0.6301
 2738.5000     1.1282     0.6307
 2739.0000     1.3231     0.6311
 2739.5000     1.3272     0.6222
 2740.0000     1.3323     1.0094
 2740.5000     1.3369     1.0004
 2741.0000     1.3415     0.9914
 2741.5000     1.3462     0.9920
 2742.0000     1.5421     0.8132
 2742.5000     1.4327     0.8137
 2743.0000     1.2983     0.8142
 2743.5000     1.1640     0.8051
 2744.0000     1.0297     0.8151
 2744.5000     0.8954     0.7967
 2745.0000     0.7611     0.7877
 2745.5000     0.7611     0.7882
 2746.0000     0.7354     0.7887
 2746.5000     0.5708     0.7892
 2747.0000     0.5708     0.7897
 2747.5000     0.5708     0.7996
 2748.0000     0.5708     0.8094
 2748.5000     0.7611     0.8193
 2749.0000     0.7611     0.8199
 2749.5000     0.7611     0.8204
 2750.0000     0.8668     0.5754
 2750.5000     0.9514     0.5760
 2751.0000     0.9514     0.5764
 2751.5000     1.1416     0.5769
 2752.0000     1.1416     0.5774
 2752.5000     1.1416     0.5779
 2753.0000     1.1416     0.5688
 2753.5000     1.2770     0.5694
 2754.0000     1.3319     0.5698
 2754.5000     1.3319     0.5703
 2755.0000     1.3530     0.5708
 2755.5000     1.5222     0.5712
 2756.0000     1.5222     0.5717
 2756.5000     1.5222     0.5722
 2757.0000     1.5222     0.5726
 2757.5000     1.3319     0.5725
 2758.0000     1.2621     0.5722
 2758.5000     0.9514     0.5718
 2759.0000     0.9514     0.5715
 2759.5000     0.9514     0.5710
 2760.0000     0.9514     0.5707
 2760.5000     1.0529     0.5704
 2761.0000     1.1416     0.5700
 2761.5000     1.1416     0.6641
 2762.0000     1.3319     0.6637
 2762.5000     1.3319     0.6633
 2763.0000     1.1416     0.6630
 2763.5000     1.1416     0.6721
 2764.0000     1.1416     0.6717
 2764.5000     1.1416     0.6713
 2765.0000     1.1416     0.6710
 2765.5000     1.1416     0.6706
 2766.0000     1.1416     0.6702
 2766.5000     1.1416     0.6699
 2767.0000     1.1416     0.6791
 2767.5000     1.1416     0.6786
 2768.0000     0.9514     0.6783
 2768.5000     0.9514     0.6779
 2769.0000     0.9514     0.6776
 2769.5000     0.9514     0.6678
 2770.0000     0.9514     0.7335
 2770.5000     1.1416     0.7614
 2771.0000     1.1416     0.7611
 2771.5000     1.1416     0.7607
 2772.0000     1.1416     0.7603
 2772.5000     1.1416     0.7600
 2773.0000     1.3319     0.7596
 2773.5000     1.3319     0.7593
 2774.0000     1.1416     0.7685
 2774.5000     1.2138     0.7680
 2775.0000     1.3319     0.7677
 2775.5000     1.1416     0.7673
 2776.0000     1.3319     0.9745
 2776.5000     1.3319     0.9844
 2777.0000     1.3319     0.9943
 2777.5000     1.3319     0.8602
 2778.0000     1.3319     0.7561
 2778.5000     1.3319     0.7557
 2779.0000     1.3319     0.7649
 2779.5000     1.3319     0.7739
 2780.0000     1.5222     0.7831
 2780.5000     1.5222     0.7826
 2781.0000     1.5222     0.7823
 2781.5000     1.5222     0.7820
 2782.0000     1.5222     0.7910
 2782.5000     1.5222     0.7928
 2783.0000     1.4636     0.7947
 2783.5000     1.3319     0.7968
 2784.0000     1.3319     0.6923
 2784.5000     1.3882     0.6822
 2785.0000     1.5222     0.6815
 2785.5000     1.5222     0.6808
 2786.0000     1.5222     0.6801
 2786.5000     1.5222     0.6794
 2787.0000     1.5222     0.6787
 2787.5000     1.5222     0.6781
 2788.0000     1.5222     0.6774
 2788.5000     1.5014     0.6767
 2789.0000     1.4468     0.6759
 2789.5000     1.3922     0.6752
 2790.0000     1.3376     0.6745
 2790.5000     1.2830     0.6737
 2791.0000     1.2284     0.6730
 2791.5000     1.1738     0.6629
 2792.0000     1.1192     0.6622
 2792.5000     1.0646     0.6615
 2793.0000     1.0101     0.6608
 2793.5000     0.9555     0.6601
 2794.0000     0.9323     0.6594
 2794.5000     1.1084     0.6682
 2795.0000     1.0941     0.6675
 2795.5000     1.0798     0.6666
 2796.0000     1.0627     0.6659
 2796.5000     1.0485     0.6558
 2797.0000     1.0343     0.6551
 2797.5000     0.8298     0.6544
 2798.0000     0.8156     0.7577
 2798.5000     0.6111     0.7568
 2799.0000     0.7907     0.7467
 2799.5000     0.7754     0.7460
 2800.0000     0.7587     0.7547
 2800.5000     0.7445     0.7635
 2801.0000     0.7326     0.7722
 2801.5000     0.7548     0.7713
 2802.0000     0.8943     0.7706
 2802.5000     0.8780     0.7699
 2803.0000     0.8637     0.7693
 2803.5000     0.8495     0.8346
 2804.0000     0.8353     0.9662
 2804.5000     0.8229     0.9749
 2805.0000     0.8087     0.9740
 2805.5000     0.7927     0.9922
 2806.0000     0.7785     1.2462
 2806.5000     0.5740     1.2455
 2807.0000     0.5613     1.2543
 2807.5000     0.5470     1.2723
 2808.0000     0.5313     1.0546
 2808.5000     0.5185     1.0258
 2809.0000     0.4441     1.0345
 2809.5000     0.3020     1.0337
 2810.0000     0.4907     0.7501
 2810.5000     0.4990     0.7589
