~VERSION INFORMATION
 VERS.                2.0:   CWLS LOG ASCII STANDARD - VERSION 2.0
 WRAP.                 NO:   ONE LINE PER DEPTH STEP
~WELL INFORMATION
#MNEM.UNIT      DATA TYPE    INFORMATION
#----------   ------------   ------------------------------
 STRT.F           12.0000:   START DEPTH
 STOP.F          754.0000:   STOP DEPTH
 STEP.F            0.5000:   STEP LENGTH
 NULL.          -999.2500:   NO VALUE
 COMP. FENIX & SCISSON INC:   COMPANY
 WELL.    62 SX 34 #62-34:   WELL
 FLD .             TEAPOT:   FIELD
 LOC .      S34 T39N R78W:   LOCATION
 CNTY.            NATRONA:   COUNTY
 STAT.            WYOMING:   STATE
 CTRY. UNITED STATES OF AMERICA:   COUNTRY
 SRVC.            Unknown:   SERVICE COMPANY
 DATE.        20-AUG-1978:   LOGDATE
 API .       490251070200:   API NUMBER
~CURVE INFORMATION
#MNEM.UNIT       API CODE    CURVE DESCRIPTION
#----------   ------------   ------------------------------
 DEPT.F                  :   
 SPR .MV     05 010 01 00:   SPONTANEOUS POTENTIAL FROM RES.
 SN  .OHMM   05 040 16 00:   SHORT NORMAL 16"
 ILD .OHMM   05 120 46 00:   INDUCTION LOG DEEP
 GRD .GAPI   45 310 01 00:   GAMMA RAY FROM DENSITY LOG
 CALD.IN     45 280 60 00:   CALIPER
 RHOB.G/C3   45 350 01 00:   BULK DENSITY
 DPHI.DEC    45 890 12 00:   DENSITY POROSITY SANDSTONE
 CORR.G/C3   45 356 01 00:   DENSITY CORRECTION
~PARAMETER INFORMATION
#MNEM.UNIT          VALUE    DESCRIPTION
#----------   ------------   ------------------------------
 PD  .                 GL:   PERMANENT DATUM
 EPD .F              5039:   ELEVATION PERMANENT DATUM
 LMF .                 KB:   LOG MEASURED FROM
 DAPD.F                 4:   FEET ABOVE PERMANENT DATUM
 DMF .                 KB:   DRILLING MEASURED FROM
 EKB .F              5043:   KELLING BUSHING
 EGL .F              5039:   GROUND LEVEL
 DATE.            8-20-78:   RUN DATE
 RUN .                  1:   RUN NUMBER
 DD  .F               750:   DEPTH DRILLER
 DL  .F               755:   DEPTH LOGGER
 BLI .F               749:   BOTTOM LOG INTERVAL
 TLI .F                30:   TOP LOG INTERVAL
 CS  .IN            8.625:   CASING SIZE
 CBD .F                30:   CASING BOTTOM DRILLER
 CBL .F                34:   CASING BOTTOM LOGGER
 BS  .IN            7.875:   BIT SIZE
 BSD .F               750:   BIT SIZE AT DEPTH
 DFT .            KCL MUD:   DRILLING FLUID TYPE
 DFD .                8.6:   DRILLING FLUID DENSITY
 DFV .                 30:   DRILLING FLUID VISCOSITY
 DFPH.                9.5:   DRILLING FLUID PH
 DFL .               10.4:   DRILLING FLUID LOSS
 MSS .          FLOW LINE:   MUD SAMPLE SOURCE
 RMS .OHMM            .28:   RESISTIVITY MUD SAMPLE
 MST .F                76:   MUD SAMPLE TEMPERATURE
 RMF .OHMM            .24:   RESISTIVITY MUD FILTRATE SAMPLE
 MFST.F                80:   MUD FILTRATE SAMPLE TEMPERATURE
 RMC .OHMM            .34:   RESISTIVITY MUD CAKE
 MCST.F                82:   MUD CAKE SAMPLE TEMPERATURE
 MFSS.               MEAS:   MUD FILTRATE SAMPLE SOURCE
 MCSS.               MEAS:   MUD CAKE SAMPLE SOURCE
 BHT .F                72:   BOTTOM HOLE TEMPERATURE
 TCS .HRS               3:   TIME CURCULATED STOPPED
 MRT .F                72:   MAXIMUM RECORDED TEMPERATURE
 LUN .               2958:   LOGGING UNIT NUMBER
 LUL .               CASP:   LOGGING UNIT LOCATION
 ENGI.           REYNOLDS:   RECORDING ENGINEER
 WITN.              AMEND:   WITNESSED BY
 CLNT.            A2DTECH:   CLIENT CODE
 ORIG.           5" PRINT:   ORIGIN OF DATA
 UWI .       490251070200:   UNIQUE WELL ID
 DICO. A2D Technologies, Inc.:   DIGITIZING COMPANY
~OTHER INFORMATION
~A   DEPT      SPR         SN        ILD         GRD      CALD       RHOB       DPHI       CORR   
# ...
  295.5000   -64.0155     7.9493     8.6575   100.2375     8.0884     2.4712     0.1244     0.0176
  296.0000   -64.0155     8.0289     8.7137   101.7089     8.0750     2.4746     0.1228     0.0182
  296.5000   -64.0155     8.0431     8.7698   101.8648     8.0615     2.4776     0.1234     0.0187
  297.0000   -64.0155     8.0431     8.8261   101.4921     8.0479     2.4755     0.1238     0.0192
  297.5000   -64.0155     8.0432     8.8829    98.3266     8.0344     2.4745     0.1234     0.0230
  298.0000   -64.0155     8.0431     8.9400    95.7961     8.0210     2.4835     0.1164     0.0286
  298.5000   -64.0155     8.0432     8.9821    95.9225     8.0078     2.4924     0.1120     0.0338
  299.0000   -64.0155     8.0431     8.8718    96.0316     7.9890     2.4907     0.1156     0.0269
  299.5000   -64.0155     8.0431     8.7857    96.5541     7.9085     2.4823     0.1285     0.0195
  300.0000   -64.0155     7.9781     8.7005    98.3186     7.8268     2.4717     0.1320     0.0119
  300.5000   -64.0155     7.9188     8.6161    99.9323     7.7453     2.4617     0.1299     0.0116
  301.0000   -64.0155     7.8600     8.5325    97.0039     7.6638     2.4654     0.1275     0.0118
  301.5000   -64.0155     7.8015     8.4497    93.8147     7.5830     2.4693     0.1251     0.0121
  302.0000   -64.0155     7.7432     8.3677    93.1576     7.5404     2.4722     0.1244     0.0123
  302.5000   -64.0155     7.6808     8.2581    96.1547     7.5506     2.4729     0.1270     0.0125
  303.0000   -64.0155     7.7112     8.2264    99.4507     7.5596     2.4703     0.1304     0.0127
  303.5000   -64.0155     7.7537     8.1925   101.9172     7.5688     2.4615     0.1367     0.0129
  304.0000   -64.0155     7.7959     8.1786   101.4314     7.5767     2.4520     0.1450     0.0132
  304.5000   -64.0155     7.8242     8.1599    99.6559     7.5972     2.4424     0.1502     0.0134
  305.0000   -64.0178     7.8241     8.1411    99.9203     7.6263     2.4324     0.1515     0.0152
  305.5000   -64.0221     7.8242     8.1223   100.1641     7.6558     2.4297     0.1515     0.0185
  306.0000   -64.0265     7.8243     8.1035    99.5984     7.6854     2.4421     0.1447     0.0219
  306.5000   -64.0308     7.8234     8.0845    98.1220     7.7149     2.4555     0.1285     0.0254
  307.0000   -64.0351     7.6892     8.0655    96.6560     7.7444     2.4696     0.1242     0.0220
  307.5000   -64.0395     7.5134     8.0508    95.2398     7.7739     2.4729     0.1262     0.0181
  308.0000   -64.0438     7.3429     7.9052    95.6405     7.8035     2.4709     0.1276     0.0143
  308.5000   -64.0481     7.2689     7.7989    97.0046     7.8330     2.4690     0.1275     0.0116
  309.0000   -64.0524     7.2783     7.7525    98.0828     7.8625     2.4690     0.1274     0.0122
  309.5000   -64.0568     7.2863     7.7642    98.1562     7.8920     2.4696     0.1272     0.0127
  310.0000   -64.0611     7.2943     7.7727    98.2808     7.9215     2.4701     0.1268     0.0132
  310.5000   -64.0654     7.3023     7.7813    99.0436     7.9510     2.4710     0.1254     0.0137
  311.0000   -64.0697     7.3103     7.7899    99.8356     7.9804     2.4719     0.1248     0.0143
  311.5000   -64.0741     7.3184     7.7984   100.6967     8.0001     2.4728     0.1255     0.0148
  312.0000   -64.0784     7.3264     7.8070   101.5523     8.0103     2.4722     0.1264     0.0154
  312.5000   -64.0827     7.3356     7.8153   102.4080     8.0205     2.4708     0.1224     0.0180
  313.0000   -64.0871     7.3226     7.8242   103.2622     8.0307     2.4805     0.1153     0.0230
  313.5000   -64.0914     7.3056     7.8762   104.1232     8.0409     2.4901     0.1132     0.0276
  314.0000   -64.0957     7.2888     7.9283   104.5371     8.0510     2.4871     0.1151     0.0273
  314.5000   -64.1000     7.2720     7.9808   104.6668     8.0612     2.4842     0.1178     0.0269
  315.0000   -64.1044     7.2552     8.0431   104.7983     8.0714     2.4815     0.1204     0.0266
  315.5000   -64.1087     7.2385     7.9395   105.3209     8.0816     2.4788     0.1231     0.0262
  316.0000   -64.1130     7.2217     7.7756   106.5511     8.0914     2.4757     0.1258     0.0259
  316.5000   -64.1173     7.2060     7.6151   107.7754     8.0971     2.4726     0.1267     0.0256
  317.0000   -64.1217     7.1103     7.4579   109.0277     8.1171     2.4723     0.1251     0.0269
  317.5000   -64.1260     7.0021     7.3039   109.0150     8.1044     2.4748     0.1235     0.0304
  318.0000   -64.1303     6.8950     7.1532   107.2572     8.0582     2.4774     0.1210     0.0408
  318.5000   -64.1347     6.7896     7.0710   105.4473     7.9561     2.4825     0.1163     0.0542
  319.0000   -64.1390     6.6858     7.0710   105.1707     7.8427     2.4875     0.1116     0.0536
  319.5000   -64.1433     6.5836     7.0710   105.2934     7.7299     2.4924     0.1098     0.0466
  320.0000   -64.1476     6.5088     7.0710   105.4292     7.6163     2.4941     0.1128     0.0398
  320.5000   -64.1519     6.5256     7.0710   105.5602     7.4985     2.4861     0.1164     0.0329
  321.0000   -64.1563     6.5508     7.0709   105.5850     7.4554     2.4785     0.1222     0.0258
  321.5000   -64.1606     6.5692     7.0717   104.8937     7.4567     2.4708     0.1276     0.0259
  322.0000   -64.1649     6.6377     7.0690   104.1975     7.4565     2.4632     0.1329     0.0265
  322.5000   -64.1693     6.7407     7.1552   103.9241     7.4612     2.4555     0.1382     0.0271
  323.0000   -64.1736     6.8454     7.2343   104.0035     7.5112     2.4480     0.1436     0.0276
  323.5000   -64.1779     6.9517     7.3143   103.6606     7.5602     2.4402     0.1489     0.0282
  324.0000   -64.1822     7.0079     7.3952   100.1878     7.6085     2.4280     0.1547     0.0288
  324.5000   -64.1866     7.0137     7.4039    96.9571     7.6569     2.4252     0.1533     0.0293
  325.0000   -64.1909     7.0195     7.4039    96.4177     7.7053     2.4273     0.1511     0.0295
  325.5000   -64.1952     7.0253     7.4039    96.4357     7.7534     2.4470     0.1402     0.0294
  326.0000   -64.1995     7.0311     7.4039    96.7928     7.8001     2.4703     0.1302     0.0276
  326.5000   -64.2039     7.0369     7.4039    97.5467     7.8568     2.4727     0.1240     0.0200
  327.0000   -64.2083     7.0427     7.4038    99.6774     7.9115     2.4683     0.1268     0.0133
  327.5000   -64.2126     7.0485     7.4038    99.7557     7.9660     2.4637     0.1301     0.0124
  328.0000   -64.2109     7.0543     7.4033    97.5187     8.0211     2.4591     0.1336     0.0123
  328.5000   -64.1807     7.0602     7.4501    98.1884     8.0435     2.4551     0.1336     0.0155
  329.0000   -64.1503     7.0659     7.4916   100.4428     8.0556     2.4651     0.1288     0.0187
  329.5000   -64.1200     7.0712     7.5333   102.0223     8.0674     2.4753     0.1202     0.0219
  330.0000   -64.0899     7.0776     7.5751   101.6945     8.0792     2.4855     0.1124     0.0253
  330.5000   -64.0593     7.0848     7.6111   102.1248     8.0911     2.4957     0.1046     0.0258
  331.0000   -64.0301     7.0919     7.6166   105.2230     8.1029     2.5058     0.0966     0.0260
  331.5000   -63.8501     7.0990     7.6267   108.2414     8.1147     2.5122     0.0936     0.0264
  332.0000   -63.5507     7.1062     7.6368   111.2906     8.1266     2.5019     0.1070     0.0267
  332.5000   -63.2515     7.1133     7.6468   111.6948     8.1384     2.4896     0.1280     0.0269
  333.0000   -62.9496     7.1204     7.6571   103.0171     8.1503     2.4772     0.1280     0.0273
  333.5000   -62.8229     7.1276     7.6727    96.2882     8.1621     2.4700     0.1274     0.0294
  334.0000   -62.8206     7.1373     7.6826    96.9449     8.1734     2.4704     0.1268     0.0375
  334.5000   -62.8205     7.1129     7.5884    98.0588     8.1363     2.4765     0.1225     0.0452
  335.0000   -62.8208     7.0506     7.5174    99.1834     8.0359     2.4825     0.1177     0.0530
  335.5000   -62.8208     6.9888     7.4500   100.1873     7.9363     2.4884     0.1129     0.0610
