~VERSION INFORMATION
 VERS.                2.0:   CWLS LOG ASCII STANDARD - VERSION 2.0
 WRAP.                 NO:   ONE LINE PER DEPTH STEP
~WELL INFORMATION
#MNEM.UNIT      DATA TYPE    INFORMATION
#----------   ------------   ------------------------------
 STRT.F            0.0000:   START DEPTH
 STOP.F          404.0000:   STOP DEPTH
 STEP.F            0.1000:   STEP LENGTH
 NULL.          -999.2500:   NO VALUE
 COMP.   FLUOR DANIEL INC:   COMPANY
 WELL.   62-1 X 10 #62-10:   WELL
 FLD .             TEAPOT:   FIELD
 LOC .      S10 T38N R78W:   LOCATION
 CNTY.            NATRONA:   COUNTY
 STAT.            WYOMING:   STATE
 CTRY. UNITED STATES OF AMERICA:   COUNTRY
 SRVC.      Western Atlas:   SERVICE COMPANY
 DATE.        29-MAR-1995:   LOGDATE
 API .       490252270300:   API NUMBER
~CURVE INFORMATION
#MNEM.UNIT       API CODE    CURVE DESCRIPTION
#----------   ------------   ------------------------------
 DEPT.F                  :   
 GRR .GAPI   07 310 01 00:   GAMMA RAY
 RILD.OHMM   07 120 46 00:   INDUCTION LOG DEEP RESISTIVITY
 RILM.OHMM   07 120 44 00:   RESITIVITY LONG MEDIUM
~PARAMETER INFORMATION
#MNEM.UNIT          VALUE    DESCRIPTION
#----------   ------------   ------------------------------
 PD  .                 GL:   PERMANENT DATUM
 EPD .F              5160:   ELEVATION PERMANENT DATUM
 LMF .                 KB:   LOG MEASURED FROM
 DAPD.F                10:   FEET ABOVE PERMANENT DATUM
 DMF .                 KB:   DRILLING MEASURED FROM
 EKB .F              5170:   KELLING BUSHING
 EDF .F              5169:   DRILLING FLOOR
 EGL .F              5160:   GROUND LEVEL
 DATE.        29-MAR-1995:   RUN DATE
 RUN .                  1:   RUN NUMBER
 DD  .F               455:   DEPTH DRILLER
 DL  .F               416:   DEPTH LOGGER
 BLI .F               408:   BOTTOM LOG INTERVAL
 TLI .F                95:   TOP LOG INTERVAL
 CS  .IN            9.625:   CASING SIZE
 CBD .F                95:   CASING BOTTOM DRILLER
 CBL .F                95:   CASING BOTTOM LOGGER
 BS  .IN             8.75:   BIT SIZE
 BSD .F               455:   BIT SIZE AT DEPTH
 DFT .                AIR:   DRILLING FLUID TYPE
 MRT .F               204:   MAXIMUM RECORDED TEMPERATURE
 LUN .            HL 6530:   LOGGING UNIT NUMBER
 LUL .             CASPER:   LOGGING UNIT LOCATION
 ENGI.        VERN RAUTIO:   RECORDING ENGINEER
 WITN.        GARY STRONG:   WITNESSED BY
 CLNT.            A2DTECH:   CLIENT CODE
 ORIG.           5" PRINT:   ORIGIN OF DATA
 UWI .       490252270300:   UNIQUE WELL ID
 DICO. A2D Technologies, Inc.:   DIGITIZING COMPANY
~OTHER INFORMATION
~A    DEPT      GRR      RILD       RILM   
# ...
  327.6000   100.3359     2.3053     2.3797
  327.7000   100.7337     2.2918     2.3740
  327.8000   101.0578     2.2813     2.3739
  327.9000   101.5697     2.2807     2.3739
  328.0000   102.1298     2.2654     2.3739
  328.1000   102.3618     2.2654     2.3650
  328.2000   102.8034     2.2654     2.3574
  328.3000   103.1759     2.2588     2.3573
  328.4000   103.3388     2.2496     2.3573
  328.5000   103.3866     2.2479     2.3573
  328.6000   103.6416     2.2340     2.3572
  328.7000   103.3407     2.2215     2.3572
  328.8000   103.3412     2.2184     2.3572
  328.9000   103.0124     2.2184     2.3571
  329.0000   102.5018     2.2184     2.3571
  329.1000   101.9911     2.2155     2.3571
  329.2000   101.5071     2.2030     2.3570
  329.3000   101.2326     2.2029     2.3570
  329.4000   101.2332     2.2029     2.3570
  329.5000   101.0438     2.2116     2.3569
  329.6000   100.9327     2.2182     2.3569
  329.7000   100.9333     2.2222     2.3569
  329.8000   100.9858     2.2353     2.3568
  329.9000   101.2421     2.2491     2.3568
  330.0000   101.5386     2.2616     2.3568
  330.1000   101.7544     2.2852     2.3567
  330.2000   102.1800     2.3043     2.3567
  330.3000   102.6918     2.3233     2.3589
  330.4000   103.2808     2.3507     2.3731
  330.5000   103.9859     2.3780     2.3730
  330.6000   104.2570     2.3940     2.3841
  330.7000   104.0169     2.4303     2.3981
  330.8000   103.7619     2.4638     2.4122
  330.9000   103.5069     2.4928     2.4299
  331.0000   103.3544     2.5223     2.4585
  331.1000   103.2985     2.5539     2.4910
  331.2000   103.0540     2.6019     2.5299
  331.3000   103.0547     2.6309     2.5643
  331.4000   102.8352     2.6740     2.6024
  331.5000   102.5802     2.7122     2.6433
  331.6000   102.4531     2.7442     2.6745
  331.7000   102.3718     2.7801     2.7071
  331.8000   102.1526     2.8295     2.7692
  331.9000   102.1533     2.8873     2.8220
  332.0000   101.9085     2.9607     2.8926
  332.1000   101.6535     3.0613     2.9786
  332.2000   101.2453     3.1711     3.0671
  332.3000   100.5204     3.2726     3.1591
  332.4000    99.5595     3.3528     3.2875
  332.5000    98.7633     3.4585     3.4074
  332.6000    97.3310     3.5360     3.5359
  332.7000    95.7591     3.6530     3.6737
  332.8000    94.3275     3.7581     3.8274
  332.9000    93.0502     3.8474     3.9808
  333.0000    91.6864     3.9387     4.1047
  333.1000    90.1125     4.0321     4.2214
  333.2000    88.2848     4.1426     4.3872
  333.3000    86.7855     4.2264     4.5551
  333.4000    85.6603     4.3441     4.7067
  333.5000    84.3226     4.4606     4.8402
  333.6000    82.5661     4.5666     4.9548
  333.7000    80.7192     4.6749     5.0896
  333.8000    79.5205     4.7928     5.1931
  333.9000    79.2393     4.8460     5.3164
  334.0000    79.0106     4.9252     5.4426
  334.1000    78.9388     5.0128     5.5615
  334.2000    78.9394     5.1018     5.6559
  334.3000    79.0310     5.1859     5.7265
  334.4000    79.2873     5.2488     5.8222
  334.5000    79.5445     5.3930     5.8992
  334.6000    80.1485     5.5294     5.9890
  334.7000    80.7746     5.6495     6.0953
  334.8000    81.5421     5.7664     6.1957
  334.9000    82.3095     5.8928     6.2686
  335.0000    82.9361     6.0059     6.3542
  335.1000    83.1924     6.1962     6.4174
  335.2000    83.4703     6.2994     6.4931
  335.3000    83.4709     6.4402     6.5512
  335.4000    83.4715     6.5266     6.5896
  335.5000    83.4721     6.5801     6.6326
  335.6000    83.3769     6.6496     6.7165
  335.7000    83.1220     6.6897     6.7531
  335.8000    82.8706     6.7811     6.7631
  335.9000    82.8713     6.8487     6.7854
  336.0000    82.4454     6.8757     6.8252
  336.1000    82.1020     6.8951     6.8652
  336.2000    81.9680     6.9356     6.9055
  336.3000    81.9686     6.9764     6.9530
  336.4000    81.9403     7.0201     6.9529
  336.5000    81.6682     7.0587     6.9793
  336.6000    81.6688     7.0689     7.0203
  336.7000    81.6694     7.0925     7.0615
  336.8000    81.6700     7.1342     7.1029
  336.9000    81.7710     7.1675     7.1481
  337.0000    81.9729     7.1674     7.1480
  337.1000    81.9817     7.1672     7.1479
  337.2000    82.2758     7.1672     7.1479
  337.3000    82.7119     7.1671     7.1478
  337.4000    83.0520     7.1670     7.1477
  337.5000    83.4338     7.1669     7.1476
  337.6000    83.9457     7.1668     7.1474
  337.7000    84.4239     7.1666     7.1132
  337.8000    84.6926     7.1275     7.0715
  337.9000    84.9363     7.0856     7.0300
  338.0000    84.9955     7.0675     6.9888
  338.1000    84.9961     7.0356     6.9478
  338.2000    84.9967     6.9615     6.9031
  338.3000    84.9384     6.9215     6.8304
  338.4000    84.6705     6.9213     6.7791
  338.5000    84.0936     6.8872     6.7394
  338.6000    83.8717     6.8733     6.6998
  338.7000    83.4403     6.8540     6.6605
  338.8000    82.7993     6.8138     6.6210
  338.9000    82.1174     6.7737     6.5751
  339.0000    81.5304     6.7311     6.5133
  339.1000    80.4772     6.6944     6.4607
  339.2000    79.4866     6.6551     6.4228
  339.3000    78.8684     6.6160     6.3851
  339.4000    78.3577     6.5772     6.3477
  339.5000    78.0664     6.5385     6.3064
  339.6000    78.0670     6.5001     6.2735
  339.7000    78.0851     6.4557     6.2367
  339.8000    78.3699     6.4240     6.2001
  339.9000    78.8245     6.4109     6.1761
  340.0000    79.1553     6.3931     6.1703
  340.1000    79.5464     6.3555     6.1332
  340.2000    80.0582     6.3222     6.1331
  340.3000    80.5273     6.3221     6.1330
  340.4000    80.7867     6.2877     6.1329
  340.5000    81.3908     6.2508     6.1328
  340.6000    81.8039     6.2141     6.1328
  340.7000    82.3157     6.1776     6.1327
  340.8000    82.8275     6.1484     6.1326
  340.9000    83.3393     6.1478     6.1325
  341.0000    83.8512     6.1057     6.1324
  341.1000    84.4109     6.0462     6.1323
  341.2000    84.6431     5.9983     6.1322
  341.3000    84.8993     5.9795     6.1270
  341.4000    85.0160     5.9593     6.0897
  341.5000    84.9231     5.8932     6.0896
  341.6000    84.7154     5.8560     6.0895
  341.7000    84.7147     5.8242     6.0682
  341.8000    84.4152     5.7649     6.0472
  341.9000    84.4157     5.7162     6.0471
  342.0000    84.2514     5.6826     6.0470
  342.1000    84.1152     5.6428     6.0469
  342.2000    84.0430     5.5771     6.0163
  342.3000    83.8147     5.5389     6.0050
  342.4000    83.8154     5.5119     5.9874
  342.5000    83.8160     5.5004     5.9523
  342.6000    83.8166     5.5004     5.9219
  342.7000    83.9614     5.4911     5.9218
  342.8000    84.1195     5.4588     5.8889
  342.9000    84.1201     5.4242     5.8544
  343.0000    84.1207     5.3949     5.8200
  343.1000    84.1214     5.3865     5.7859
  343.2000    84.3375     5.3865     5.7520
  343.3000    84.5936     5.3864     5.7182
  343.4000    84.9733     5.3863     5.6797
  343.5000    85.4078     5.3862     5.6514
  343.6000    85.6953     5.3862     5.5964
  343.7000    86.2365     5.3861     5.5467
  343.8000    86.4780     5.3860     5.5141
  343.9000    86.7342     5.3713     5.4780
  344.0000    86.8416     5.3486     5.4099
  344.1000    86.8422     5.3485     5.3802
  344.2000    86.7861     5.3484     5.3487
  344.3000    86.5205     5.3196     5.2997
  344.4000    85.9391     5.2998     5.2496
  344.5000    85.4992     5.2842     5.2126
  344.6000    84.8144     5.2628     5.1523
  344.7000    84.1764     5.2378     5.1172
  344.8000    83.7478     5.2374     5.0921
  344.9000    83.5287     5.2014     5.0622
  345.0000    83.5294     5.1761     5.0325
  345.1000    83.5300     5.1457     5.0115
  345.2000    83.5306     5.1155     5.0114
  345.3000    83.8382     5.0854     5.0114
  345.4000    84.3500     5.0556     4.9842
  345.5000    84.8617     5.0234     4.9766
  345.6000    85.3735     4.9964     4.9765
  345.7000    85.9470     4.9670     4.9764
