~VERSION INFORMATION
 VERS.                2.0:   CWLS LOG ASCII STANDARD - VERSION 2.0
 WRAP.                 NO:   ONE LINE PER DEPTH STEP
~WELL INFORMATION
#MNEM.UNIT      DATA TYPE    INFORMATION
#----------   ------------   ------------------------------
 STRT.F            0.0000:   START DEPTH
 STOP.F          649.0000:   STOP DEPTH
 STEP.F            0.1000:   STEP LENGTH
 NULL.          -999.2500:   NO VALUE
 COMP.   FLUOR DANIEL INC:   COMPANY
 WELL.     17-1 X 2 #17-2:   WELL
 FLD .             TEAPOT:   FIELD
 LOC .       S2 T38N R78W:   LOCATION
 CNTY.            NATRONA:   COUNTY
 STAT.            WYOMING:   STATE
 CTRY. UNITED STATES OF AMERICA:   COUNTRY
 SRVC.      Western Atlas:   SERVICE COMPANY
 DATE.        20-MAY-1995:   LOGDATE
 API .       490252271000:   API NUMBER
~CURVE INFORMATION
#MNEM.UNIT       API CODE    CURVE DESCRIPTION
#----------   ------------   ------------------------------
 DEPT.F                  :   
 GRR .GAPI   07 310 01 00:   GAMMA RAY
 RILD.OHMM   07 120 46 00:   INDUCTION LOG DEEP RESISTIVITY
 RILM.OHMM   07 120 44 00:   RESITIVITY LOG MEDIUM
~PARAMETER INFORMATION
#MNEM.UNIT          VALUE    DESCRIPTION
#----------   ------------   ------------------------------
 PD  .                 GL:   PERMANENT DATUM
 EPD .F              5145:   ELEVATION PERMANENT DATUM
 LMF .                 KB:   LOG MEASURED FROM
 DAPD.F                10:   FEET ABOVE PERMANENT DATUM
 DMF .                 KB:   DRILLING MEASURED FROM
 EKB .F              5155:   KELLING BUSHING
 EDF .F              5154:   DRILLING FLOOR
 EGL .F              5145:   GROUND LEVEL
 DATE.        20-MAY-1995:   RUN DATE
 RUN .                  1:   RUN NUMBER
 DD  .F               657:   DEPTH DRILLER
 DL  .F               657:   DEPTH LOGGER
 BLI .F               649:   BOTTOM LOG INTERVAL
 CS  .IN            9.625:   CASING SIZE
 CBD .F                82:   CASING BOTTOM DRILLER
 CBL .F                82:   CASING BOTTOM LOGGER
 BS  .IN             8.75:   BIT SIZE
 BSD .F               657:   BIT SIZE AT DEPTH
 DFT .                AIR:   DRILLING FLUID TYPE
 MRT .F                92:   MAXIMUM RECORDED TEMPERATURE
 LUN .            HL 6530:   LOGGING UNIT NUMBER
 LUL .             CASPER:   LOGGING UNIT LOCATION
 ENGI.        VERN RAUTIO:   RECORDING ENGINEER
 WITN.        STEVE HARDY:   WITNESSED BY
 CLNT.            A2DTECH:   CLIENT CODE
 ORIG.           5" PRINT:   ORIGIN OF DATA
 UWI .       490252271000:   UNIQUE WELL ID
 DICO. A2D Technologies, Inc.:   DIGITIZING COMPANY
~OTHER INFORMATION
~A    DEPT      GRR      RILD       RILM   
# ...
  254.8000   117.7806     6.4157     6.1786
  254.9000   118.0673     6.4524     6.2382
  255.0000   118.2805     6.4895     6.2739
  255.1000   118.8447     6.4971     6.3151
  255.2000   119.3838     6.5185     6.3768
  255.3000   119.6827     6.5429     6.4268
  255.4000   120.1907     6.5475     6.4636
  255.5000   120.6777     6.5889     6.5070
  255.6000   121.3635     6.6229     6.5854
  255.7000   121.9745     6.6353     6.6566
  255.8000   122.4720     6.6525     6.6782
  255.9000   122.9176     6.6820     6.6971
  256.0000   122.9203     6.6821     6.7355
  256.1000   122.9225     6.7205     6.7740
  256.2000   123.0902     6.7591     6.8203
  256.3000   123.2290     6.7978     6.8518
  256.4000   123.2314     6.8241     6.8685
  256.5000   123.2368     6.8292     6.8826
  256.6000   123.4868     6.8787     6.9220
  256.7000   123.9332     6.9282     6.9657
  256.8000   124.4308     6.9777     6.9660
  256.9000   125.0167     7.0271     6.9929
  257.0000   125.8302     7.0766     7.0329
  257.1000   127.1700     7.1261     7.0646
  257.2000   128.5381     7.1756     7.0650
  257.3000   129.8524     7.2250     7.0654
  257.4000   130.9731     7.2669     7.0658
  257.5000   131.9658     7.2758     7.0662
  257.6000   132.9471     7.2760     7.0788
  257.7000   133.8212     7.2762     7.1162
  257.8000   134.0280     7.2764     7.1166
  257.9000   134.2779     7.2766     7.1513
  258.0000   134.4314     7.2768     7.1669
  258.1000   134.4338     7.2770     7.1834
  258.2000   134.4363     7.2772     7.2245
  258.3000   134.2027     7.2774     7.2683
  258.4000   133.9576     7.2776     7.0941
  258.5000   133.7124     7.2778     7.0942
  258.6000   133.3201     7.2780     7.0943
  258.7000   132.6188     7.2782     7.0944
  258.8000   132.3394     7.2784     7.0945
  258.9000   131.7025     7.2786     7.0946
  259.0000   131.4389     7.2788     7.0947
  259.1000   131.2318     7.2790     7.0948
  259.2000   130.8404     7.2792     7.1227
  259.3000   130.8429     7.2794     7.1444
  259.4000   130.6011     7.2796     7.1445
  259.5000   130.5460     7.2799     7.1446
  259.6000   130.5484     7.2801     7.1447
  259.7000   130.4690     7.2803     7.1448
  259.8000   130.2513     7.2805     7.1449
  259.9000   130.2542     7.2807     7.1450
  260.0000   130.2564     7.2809     7.1451
  260.1000   130.0917     7.2811     7.1452
  260.2000   129.8465     7.2813     7.1453
  260.3000   129.5424     7.2477     7.1454
  260.4000   129.0546     7.2310     7.1248
  260.5000   128.7607     7.2156     7.0961
  260.6000   128.1677     7.1744     7.0962
  260.7000   127.5716     7.1312     7.0964
  260.8000   127.0790     7.1314     7.0964
  260.9000   126.5503     7.1019     7.0708
  261.0000   125.7558     7.0821     7.0476
  261.1000   125.5286     7.0823     7.0476
  261.2000   125.2835     7.0794     7.0477
  261.3000   125.0383     7.0334     7.0478
  261.4000   124.8603     6.9989     7.0479
  261.5000   124.8627     6.9848     7.0259
  261.6000   124.8656     6.9509     6.9994
  261.7000   124.8676     6.8883     6.9995
  261.8000   124.8700     6.8885     6.9996
  261.9000   124.7741     6.8494     6.9639
  262.0000   124.5727     6.7801     6.9244
  262.1000   124.5757     6.7244     6.9034
  262.2000   124.5780     6.6993     6.8938
  262.3000   124.3968     6.6946     6.8547
  262.4000   124.2812     6.6531     6.8085
  262.5000   124.2836     6.5840     6.7772
  262.6000   124.2860     6.5349     6.7161
  262.7000   124.2887     6.4799     6.6542
  262.8000   124.2908     6.4157     6.6165
  262.9000   124.2932     6.3791     6.5767
  263.0000   124.7220     6.3365     6.5067
  263.1000   125.6097     6.3066     6.4596
  263.2000   126.1104     6.2706     6.4229
  263.3000   126.6047     6.2208     6.3865
  263.4000   127.1023     6.1562     6.3477
  263.5000   127.5999     6.1198     6.2654
  263.6000   128.0137     6.0527     6.2350
  263.7000   128.2636     6.0094     6.1774
  263.8000   128.5384     5.9751     6.1074
  263.9000   128.3175     5.9411     6.0382
  264.0000   128.0724     5.9039     5.9686
  264.1000   127.9421     5.8286     5.9022
  264.2000   127.9445     5.7994     5.8355
  264.3000   127.9403     5.7445     5.7874
  264.4000   127.6481     5.6935     5.7331
  264.5000   127.4500     5.6536     5.6394
  264.6000   127.2048     5.5891     5.5689
  264.7000   126.8678     5.5255     5.5124
  264.8000   126.3751     5.4876     5.4085
  264.9000   125.8499     5.4382     5.3280
  265.0000   125.6209     5.3874     5.2832
  265.1000   125.7301     5.3567     5.1951
  265.2000   125.8570     5.3241     5.1600
  265.3000   125.9284     5.2676     5.1363
  265.4000   126.1635     5.2290     5.0901
  265.5000   126.1663     5.1992     5.0431
  265.6000   125.9600     5.1695     5.0145
  265.7000   125.8691     5.1400     4.9843
  265.8000   125.7713     5.1063     4.9844
  265.9000   125.5718     5.0816     4.9640
  266.0000   125.5747     5.0710     4.9500
  266.1000   125.5771     5.0712     4.9582
  266.2000   125.2086     5.0713     4.9847
  266.3000   124.1906     5.0715     4.9847
  266.4000   122.7849     5.0431     4.9848
  266.5000   121.5496     5.0364     4.9849
  266.6000   120.1596     5.0366     4.9849
  266.7000   119.0786     5.0367     4.9907
  266.8000   118.1682     5.0368     5.0198
  266.9000   117.4280     5.0370     5.0199
  267.0000   116.5794     5.0371     5.0199
  267.1000   115.3437     5.0373     5.0200
  267.2000   114.1084     5.0374     5.0201
  267.3000   112.8728     5.0448     5.0201
  267.4000   111.6375     5.0730     5.0202
  267.5000   110.6587     5.0732     5.0459
  267.6000   110.1973     5.0972     5.0553
  267.7000   109.9296     5.1446     5.0554
  267.8000   109.9318     5.1926     5.0555
  267.9000   109.9342     5.2277     5.0568
  268.0000   110.8698     5.2911     5.1263
  268.1000   112.6650     5.3495     5.1500
  268.2000   113.9136     5.4346     5.1795
  268.3000   115.6759     5.4961     5.2202
  268.4000   116.4853     5.5473     5.2801
  268.5000   118.5128     5.6382     5.3446
  268.6000   120.7700     5.6751     5.4311
  268.7000   122.1388     5.7611     5.5022
  268.8000   122.9274     5.8393     5.5814
  268.9000   123.8620     5.9070     5.6684
  269.0000   124.4967     5.9753     5.7334
  269.1000   124.9943     6.0445     5.8093
  269.2000   125.4919     6.1146     5.8659
  269.3000   125.9726     6.1575     5.9333
  269.4000   126.2604     6.2135     6.0014
  269.5000   126.4726     6.2855     6.0702
  269.6000   126.7226     6.3532     6.1414
  269.7000   126.8706     6.3929     6.1415
  269.8000   126.8730     6.4611     6.1952
  269.9000   126.8755     6.5095     6.2663
  270.0000   126.3951     6.5289     6.3147
  270.1000   125.7151     6.5495     6.3226
  270.2000   124.9750     6.6232     6.4031
  270.3000   124.3138     6.6678     6.4686
  270.4000   123.8210     6.7001     6.4928
  270.5000   123.2703     6.7149     6.5268
  270.6000   122.6171     6.7307     6.5927
  270.7000   122.2055     6.7697     6.6304
  270.8000   121.8502     6.8100     6.6760
  270.9000   121.3575     6.8483     6.6761
  271.0000   120.8688     6.8581     6.6985
  271.1000   120.8712     6.8796     6.7369
  271.2000   120.8736     6.9066     6.7754
  271.3000   120.8760     6.9109     6.8169
  271.4000   121.0530     6.9554     6.8533
  271.5000   121.5837     6.9912     6.8646
  271.6000   122.3918     7.0317     6.8842
  271.7000   123.0738     7.0724     6.9126
  271.8000   123.9915     7.1036     6.9151
  271.9000   124.9843     7.1038     6.9609
  272.0000   126.1057     7.1040     6.9610
  272.1000   127.6447     7.1371     6.9861
  272.2000   130.8529     7.1785     7.0097
  272.3000   132.6882     7.2045     7.0175
  272.4000   133.8715     7.2112     7.0587
  272.5000   134.3691     7.2555     7.0588
  272.6000   134.7837     7.2557     7.0589
  272.7000   134.7863     7.2559     7.0590
  272.8000   135.0234     7.2772     7.0721
  272.9000   135.0926     7.3072     7.1084
