~VERSION INFORMATION
 VERS.                2.0:   CWLS LOG ASCII STANDARD - VERSION 2.0
 WRAP.                 NO:   ONE LINE PER DEPTH STEP
~WELL INFORMATION
#MNEM.UNIT      DATA TYPE    INFORMATION
#----------   ------------   ------------------------------
 STRT.F            9.0000:   START DEPTH
 STOP.F          512.0000:   STOP DEPTH
 STEP.F            0.5000:   STEP LENGTH
 NULL.          -999.2500:   NO VALUE
 COMP. LAWRENCE-ALLISON &AS:   COMPANY
 WELL. NPR 3 #61-21SX10UP2:   WELL
 FLD .             TEAPOT:   FIELD
 LOC .      S10 T38N R78W:   LOCATION
 CNTY.            NATRONA:   COUNTY
 STAT.            WYOMING:   STATE
 CTRY. UNITED STATES OF AMERICA:   COUNTRY
 SRVC.      Dresser Atlas:   SERVICE COMPANY
 DATE.        13-DEC-1984:   LOGDATE
 API .       490251100500:   API NUMBER
~CURVE INFORMATION
#MNEM.UNIT       API CODE    CURVE DESCRIPTION
#----------   ------------   ------------------------------
 DEPT.F                  :   
 PORD.DEC    45 890 12 00:   POROSITY DENSITY SANDSTONE
 CNCF.DEC    42 890 03 00:   NEUTRON POROSITY SANDSTONE
 GRD .GAPI   45 310 01 00:   GAMMA RAY FROM DENSITY LOG
 CALD.IN     45 280 60 00:   CALIPER FROM DENSITY LOG
 CORR.G/C3   45 356 01 00:   DENSITY CORRECTION
 DEN .G/C3   45 350 01 00:   COMPENSATED BULK DENSTIY
 AC  .US/F   60 520 00 00:   ACCOUSTIC
 RILD.OHMM   07 120 46 00:   INDUCTION LOG DEEP RESISTIVITY
 RILM.OHMM   07 120 44 00:   INDUCTION LOG MEDIUM RESISTIVITY
 RFOC.OHMM   07 220 04 00:   RESISTIVITY FOCUSED LOG
 SPR .MV     11 010 01 00:   SPONTANEOUS POTENTIAL FROM RES.
 RS  .OHMM   11 220 09 00:   RESISTIVITY SHALLOW
 RD  .OHMM   11 220 10 00:   RESISTIVITY DEEP
~PARAMETER INFORMATION
#MNEM.UNIT          VALUE    DESCRIPTION
#----------   ------------   ------------------------------
 PD  .                 GL:   PERMANENT DATUM
 EPD .F              5157:   ELEVATION PERMANENT DATUM
 LMF .                 GL:   LOG MEASURED FROM
 DMF .                 GL:   DRILLING MEASURED FROM
 EGL .F              5157:   GROUND LEVEL
 DATE.         12-13-1984:   RUN DATE
 RUN .                  1:   RUN NUMBER
 DD  .F               514:   DEPTH DRILLER
 DL  .F               513:   DEPTH LOGGER
 BLI .F               512:   BOTTOM LOG INTERVAL
 TLI .F                20:   TOP LOG INTERVAL
 CS  .IN            8.625:   CASING SIZE
 CBD .F                20:   CASING BOTTOM DRILLER
 CBL .F                20:   CASING BOTTOM LOGGER
 BS  .IN            7.875:   BIT SIZE
 BSD .F               514:   BIT SIZE AT DEPTH
 DFT .          KCL WATER:   DRILLING FLUID TYPE
 MSS .           FLOWLINE:   MUD SAMPLE SOURCE
 RMS .OHMM            .17:   RESISTIVITY MUD SAMPLE
 MST .F                95:   MUD SAMPLE TEMPERATURE
 RMF .OHMM            .08:   RESISTIVITY MUD FILTRATE SAMPLE
 MFST.F                95:   MUD FILTRATE SAMPLE TEMPERATURE
 RMC .OHMM            .14:   RESISTIVITY MUD CAKE
 MCST.F                95:   MUD CAKE SAMPLE TEMPERATURE
 MFSS.               CALC:   MUD FILTRATE SAMPLE SOURCE
 MCSS.               CALC:   MUD CAKE SAMPLE SOURCE
 TCS .HRS              10:   TIME CURCULATED STOPPED
 MRT .F               100:   MAXIMUM RECORDED TEMPERATURE
 LUN .               6270:   LOGGING UNIT NUMBER
 LUL .                 FM:   LOGGING UNIT LOCATION
 ENGI.            LEBSOCK:   RECORDING ENGINEER
 WITN.        GREG GROOMS:   WITNESSED BY
 CLNT.            A2DTECH:   CLIENT CODE
 ORIG.           5" PRINT:   ORIGIN OF DATA
 UWI .       490251100500:   UNIQUE WELL ID
 DICO. A2D Technologies, Inc.:   DIGITIZING COMPANY
~OTHER INFORMATION
~A    DEPT    PORD       CNCF        GRD       CALD       CORR        DEN          AC      RILD       RILM       RFOC        SPR         RS         RD   
# ...
  451.0000     0.1096     0.2656   102.0422     7.6657     0.0229     2.4932    94.9899    10.7947    11.2098    12.1478   -71.0774    12.4202    12.9905
  451.5000     0.1060     0.2747   103.4352     7.6884     0.0288     2.5022    95.2221    10.7889    11.0407    12.0583   -71.3833    12.4141    13.1681
  452.0000     0.1031     0.2857   106.8916     7.6881     0.0333     2.5082    95.3789    10.7086    10.8940    11.8857   -71.6860    12.4001    13.2544
  452.5000     0.1034     0.2830   107.1537     7.6877     0.0302     2.5090    95.3849    10.7019    10.7388    11.8808   -71.9418    12.3163    13.2475
  453.0000     0.1077     0.2700   104.7560     7.6723     0.0135     2.5014    95.3909    10.6222    10.7351    11.7117   -72.1975    12.1406    13.2420
  453.5000     0.1162     0.2649   103.2321     7.6570    -0.0198     2.4908    95.3213    10.6167    10.6569    11.6256   -72.4532    12.0508    13.2365
  454.0000     0.1213     0.2641   105.1862     7.6416    -0.0153     2.4802    95.1765    10.6867    10.5792    11.6208   -72.7089    12.1291    13.3246
  454.5000     0.1202     0.2641   107.1410     7.6262     0.0057     2.4771    95.0317    10.7558    10.5022    11.5355   -73.0678    12.1218    13.4119
  455.0000     0.1135     0.2642   107.5906     7.6259     0.0224     2.4827    94.8869    10.8253    10.4986    11.5307   -73.2237    12.1159    13.4998
  455.5000     0.1093     0.2627   105.3278     7.6256     0.0314     2.4933    94.8929    10.8952    10.4949    11.6065   -73.3796    12.1959    13.4928
  456.0000     0.1087     0.2528   103.0658     7.6253     0.0308     2.4990    94.9743    11.1178    10.5656    11.6017   -73.5356    12.1885    13.4872
  456.5000     0.1070     0.2467   102.0093     7.6250     0.0205     2.4982    95.0558    11.2677    10.8595    11.7607   -73.6915    12.2690    13.4816
  457.0000     0.1049     0.2441   106.8249     7.6399     0.0316     2.5050    95.2192    11.5797    10.7804    11.9195   -73.8474    12.1767    13.4760
  457.5000     0.1010     0.2463   107.8768     7.6546     0.0475     2.5110    95.3784    11.9834    10.0514    11.9146   -74.0033    12.1709    13.4704
  458.0000     0.1022     0.2508   105.6141     7.6543     0.0520     2.5110    95.5264    11.9772     9.3067    11.9096   -74.1592    12.0808    13.3716
  458.5000     0.1058     0.2533   101.6954     7.6540     0.0474     2.5072    95.6079    11.7238     8.6171    11.7401   -74.3151    11.8262    13.1816
  459.0000     0.1122     0.2543   100.4876     7.6537     0.0398     2.4988    95.6905    11.3171     8.0906    11.4927   -74.3211    11.5769    12.7264
  459.5000     0.1144     0.2534    99.7316     7.6383     0.0321     2.4913    95.9227    10.8489     7.5963    11.0930   -74.0272    11.0993    12.2869
  460.0000     0.1125     0.2519    98.2226     7.6078     0.0245     2.4905    96.3812    10.3279     7.1321    10.5580   -73.8833    10.6414    11.7805
  460.5000     0.1095     0.2508    96.2618     7.5924     0.0229     2.4950    97.3676     9.9006     6.6498    10.1888   -73.5894     9.9922    11.2949
  461.0000     0.1068     0.2514    97.6142     7.5921     0.0304     2.5003    98.5802     9.3599     6.3311     9.8207   -73.4453     9.4479    10.7544
  461.5000     0.1081     0.2611   100.4727     7.5918     0.0349     2.5033    99.4912     8.3116     6.0277     9.4369   -73.0017     9.1213    10.2398
  462.0000     0.1133     0.2815   101.5246     7.6217     0.0257     2.4987   100.2513     7.3177     5.6563     9.0471   -72.8576     8.7450     9.7497
  462.5000     0.1175     0.2849   101.0691     7.6214     0.0106     2.4904   101.0114     6.3863     5.1917     8.7950   -72.8637     8.5015     9.2189
  463.0000     0.1218     0.2759   100.4637     7.6362     0.0105     2.4813   102.0732     5.0336     4.5969     8.6097   -72.7196     8.0944     8.6543
  463.5000     0.1288     0.2747   100.4322     7.6208     0.0134     2.4767   103.3613     4.3735     3.7962     8.3698   -72.7257     7.4958     7.8469
  464.0000     0.1394     0.2860   101.5119     7.6205     0.0194     2.4692   106.0068     3.4502     3.0825     8.0240   -72.5817     6.5211     6.9624
  464.5000     0.1560     0.3663   104.3704     7.6202     0.0269     2.4525   110.3114     3.1067     2.7372     7.1753   -72.5878     5.5949     5.9288
  465.0000     0.1763     0.3669   107.2288     7.6500     0.0389     2.3989   114.2390     2.8366     2.4993     5.8205   -72.5938     4.6689     5.0837
  465.5000     0.2207     0.3521   109.0331     7.6800     0.0433     2.3489   120.4290     2.8749     2.3630     4.4039   -72.5997     3.7894     4.1479
  466.0000     0.2458     0.3449   105.8674     7.6796     0.0342     2.3104   128.8060     2.9545     2.4631     3.4025   -72.6057     3.2064     3.3680
  466.5000     0.2721     0.3365   104.9608     7.6642     0.0266     2.2228   132.2056     3.0152     2.6583     3.0218   -72.6117     2.8482     2.9164
  467.0000     0.2863     0.3009   104.2018     7.6488     0.0355     2.1994   129.4213     3.0776     2.8097     3.2834   -72.6177     2.9473     2.8396
  467.5000     0.2818     0.2901   102.8238     7.6485     0.0386     2.2433   122.5645     3.2067     3.0325     3.7723   -72.6237     3.3846     3.1026
  468.0000     0.2308     0.2666    99.0603     7.6482     0.0218     2.2922   111.8616     3.4600     3.2958     4.8112   -72.6297     4.1086     3.9191
  468.5000     0.1399     0.2621    92.5995     7.6178     0.0051     2.4266   105.8344     3.8119     3.6576     6.8115   -72.6357     5.5734     5.3355
  469.0000     0.1166     0.2669    95.2168     7.6024     0.0083     2.4689   101.4664     4.0001     4.1738     7.9910   -72.6417     6.8602     6.8910
  469.5000     0.1148     0.2679   100.1009     7.6172     0.0219     2.4863   100.8564     4.6269     5.1066     8.0480   -72.4977     7.6092     7.7448
  470.0000     0.1174     0.2667   102.2283     7.6169     0.0325     2.4893   100.8750     5.9820     5.9091     8.2174   -72.3537     8.2090     8.4869
  470.5000     0.1216     0.2676   101.6229     7.6166     0.0413     2.4847   100.6548     7.9522     6.4221     8.4491   -72.3598     8.6735     8.9681
  471.0000     0.1234     0.2729    99.5115     7.6313     0.0379     2.4771   100.2837     8.1159     6.8831     8.8551   -72.3528     9.1009     9.4110
  471.5000     0.1243     0.2812    98.3037     7.6310     0.0198     2.4749    99.7618     7.9995     7.2246     9.1650   -72.2217     9.4180     9.8074
  472.0000     0.1255     0.2840    98.6019     7.6308     0.0121     2.4741    99.6159     8.1075     7.4262     9.4199   -72.2119     9.6800    10.0097
  472.5000     0.1280     0.2835   101.1592     7.6455     0.0136     2.4710    99.8504     8.3318     7.5805     9.4828   -72.0838     9.8804    10.2875
  473.0000     0.1301     0.2826   103.5658     7.6452     0.0226     2.4680   100.1569     8.5031     7.7379     9.6118   -72.0900     9.9410    10.4997
  473.5000     0.1292     0.2814   105.8218     7.6600     0.0300     2.4642   100.3949     8.7408     8.0696     9.6068   -72.0960    10.0054    10.6433
  474.0000     0.1220     0.2772   107.4755     7.6748     0.0224     2.4634   100.6295     9.0432     8.3485     9.6710   -72.1020    10.1404    10.7130
  474.5000     0.1157     0.2718   108.8279     7.6745    -0.0033     2.4740   100.8537     9.0384     7.9901     9.6660   -71.9578    10.2061    10.7075
  475.0000     0.1151     0.2704   109.7293     7.6742    -0.0276     2.4868   101.0106     9.0337     7.6026     9.6620   -71.9640    10.2010    10.7030
  475.5000     0.1169     0.2707   109.7255     7.6588    -0.0231     2.4899   101.1686     8.9654     7.1541     9.6643   -71.9700    10.2673    10.7732
  476.0000     0.1212     0.2716   109.5720     7.6434    -0.0081     2.4867   101.3254     8.8987     6.9551     9.6744   -71.9760    10.2611    10.7687
  476.5000     0.1258     0.2735   109.1172     7.6281     0.0069     2.4814   101.4068     8.8325     7.0503     9.6844   -71.8318    10.3288    10.7642
