~VERSION INFORMATION
 VERS.                2.0:   CWLS LOG ASCII STANDARD - VERSION 2.0
 WRAP.                 NO:   ONE LINE PER DEPTH STEP
~WELL INFORMATION
#MNEM.UNIT      DATA TYPE    INFORMATION
#----------   ------------   ------------------------------
 STRT.F           25.0000:   START DEPTH
 STOP.F          681.0000:   STOP DEPTH
 STEP.F            0.5000:   STEP LENGTH
 NULL.          -999.2500:   NO VALUE
 COMP. FENIX & SCISSON INC:   COMPANY
 WELL.    56-SX-34 #56-34:   WELL
 FLD .             TEAPOT:   FIELD
 LOC .      S34 T39N R78W:   LOCATION
 CNTY.            NATRONA:   COUNTY
 STAT.            WYOMING:   STATE
 CTRY. UNITED STATES OF AMERICA:   COUNTRY
 SRVC.            Unknown:   SERVICE COMPANY
 DATE.        28-JAN-1979:   LOGDATE
 API .       490251077200:   API NUMBER
~CURVE INFORMATION
#MNEM.UNIT       API CODE    CURVE DESCRIPTION
#----------   ------------   ------------------------------
 DEPT.F                  :   
 SPR .MV     05 010 01 00:   SPONTANEOUS POTENTIAL FROM RES.
 DRHO.G/C3   45 356 01 00:   DENSITY CORRECTION
 RHOB.G/C3   45 350 01 00:   BULK DENSITY
 DPHI.DEC    45 890 12 00:   DENSITY POROSITY SANDSTONE
 CALD.IN     45 280 60 00:   CALIPER
 GRD .GAPI   45 310 01 00:   GAMMA RAY FROM DENSITY LOG
 SN  .OHMM   05 040 16 00:   SHORT NORMAL 16'
 ILD .OHMM   05 120 46 00:   INDUCTION LOG DEEP RESISTIVITY
~PARAMETER INFORMATION
#MNEM.UNIT          VALUE    DESCRIPTION
#----------   ------------   ------------------------------
 PD  .                 GL:   PERMANENT DATUM
 EPD .F              5088:   ELEVATION PERMANENT DATUM
 LMF .                 KB:   LOG MEASURED FROM
 DAPD.F                 4:   FEET ABOVE PERMANENT DATUM
 DMF .                 KB:   DRILLING MEASURED FROM
 EKB .F              5092:   KELLING BUSHING
 EGL .F              5088:   GROUND LEVEL
 DATE.            1-28-79:   RUN DATE
 RUN .                  1:   RUN NUMBER
 DD  .F               680:   DEPTH DRILLER
 DL  .F               681:   DEPTH LOGGER
 BLI .F               679:   BOTTOM LOG INTERVAL
 TLI .F                40:   TOP LOG INTERVAL
 CS  .IN            8.625:   CASING SIZE
 CBD .F                40:   CASING BOTTOM DRILLER
 CBL .F                40:   CASING BOTTOM LOGGER
 BS  .IN            7.875:   BIT SIZE
 BSD .F               680:   BIT SIZE AT DEPTH
 DFT .                KCL:   DRILLING FLUID TYPE
 DFD .                8.9:   DRILLING FLUID DENSITY
 DFV .                 43:   DRILLING FLUID VISCOSITY
 DFPH.                8.5:   DRILLING FLUID PH
 DFL .                9.8:   DRILLING FLUID LOSS
 MSS .           FLOWLINE:   MUD SAMPLE SOURCE
 RMS .OHMM            1.5:   RESISTIVITY MUD SAMPLE
 MST .F                66:   MUD SAMPLE TEMPERATURE
 RMF .OHMM            1.3:   RESISTIVITY MUD FILTRATE SAMPLE
 MFST.F                76:   MUD FILTRATE SAMPLE TEMPERATURE
 RMC .OHMM            1.3:   RESISTIVITY MUD CAKE
 MCST.F                78:   MUD CAKE SAMPLE TEMPERATURE
 MFSS.           MEASURED:   MUD FILTRATE SAMPLE SOURCE
 MCSS.           MEASURED:   MUD CAKE SAMPLE SOURCE
 RMB .OHMM            1.3:   RESISTIVITY MUD AT BHT
 BHT .F                76:   BOTTOM HOLE TEMPERATURE
 TCS .HRS               3:   TIME CURCULATED STOPPED
 MRT .F                76:   MAXIMUM RECORDED TEMPERATURE
 LUN .               3006:   LOGGING UNIT NUMBER
 LUL .             CASPER:   LOGGING UNIT LOCATION
 ENGI.            ROLLINS:   RECORDING ENGINEER
 WITN.              AMEND:   WITNESSED BY
 CLNT.            A2DTECH:   CLIENT CODE
 ORIG.       2", 5" PRINT:   ORIGIN OF DATA
 UWI .       490251077200:   UNIQUE WELL ID
 DICO. A2D Technologies, Inc.:   DIGITIZING COMPANY
~OTHER INFORMATION
~A   DEPT      SPR       DRHO       RHOB       DPHI       CALD         GRD        SN        ILD   
# ...
  592.0000   -52.3762     0.1734     2.3498     0.1865     8.0267    67.9310    21.8365    21.2390
  592.5000   -52.3762     0.1136     2.3520     0.1801     8.0197    67.9198    21.8365    21.2390
  593.0000   -52.3762     0.0519     2.3660     0.1750     8.0124    67.9645    21.8365    21.2384
  593.5000   -52.3762     0.0451     2.3720     0.1713     8.0049    64.6778    21.8367    21.2424
  594.0000   -52.3761     0.0423     2.3789     0.1644     7.9971    62.0225    21.8378    21.2355
  594.5000   -52.3764     0.0396     2.4190     0.1500     7.9983    61.8987    21.8393    21.4011
  595.0000   -52.3889     0.0398     2.4543     0.1333     8.0027    60.8451    21.7274    21.1604
  595.5000   -52.4686     0.0460     2.4554     0.1461     8.0072    61.0104    21.3946    20.9223
  596.0000   -52.5543     0.0492     2.4093     0.1745     8.0118    63.6566    20.6228    20.6869
  596.5000   -52.4512     0.0473     2.3583     0.1919     8.0163    66.3407    19.8789    20.4542
  597.0000   -51.5176     0.0454     2.3445     0.1922     8.0208    68.9289    19.1848    20.2241
  597.5000   -50.5823     0.0435     2.3436     0.1922     8.0253    68.5407    18.8784    19.9966
  598.0000   -50.4084     0.0417     2.3437     0.1916     8.0297    66.5732    18.5863    19.7716
  598.5000   -50.4099     0.0443     2.3441     0.1907     8.0352    66.6965    18.2987    19.5492
  599.0000   -50.4175     0.0472     2.3445     0.1914     8.0765    67.4735    18.0156    19.3292
  599.5000   -50.4263     0.0498     2.3434     0.1920     8.1220    68.2498    17.7367    19.1118
  600.0000   -50.4348     0.0438     2.3412     0.1926     8.1370    68.4946    17.4903    18.8968
  600.5000   -50.4431     0.0402     2.3391     0.1931     8.1424    67.0792    17.2250    18.6842
  601.0000   -50.4515     0.0424     2.3375     0.1931     8.1474    67.9644    16.9341    18.4740
  601.5000   -50.4599     0.0435     2.3379     0.1921     8.1524    69.6025    16.6483    18.2964
  602.0000   -50.4683     0.0431     2.3399     0.1911     8.1574    71.2474    16.3676    18.2102
  602.5000   -50.4767     0.0427     2.3418     0.1902     8.1625    72.7096    16.0919    18.1252
  603.0000   -50.4851     0.0423     2.3438     0.1889     8.1675    73.1596    16.0943    18.0404
  603.5000   -50.4934     0.0419     2.3480     0.1858     8.1725    73.6390    16.0936    17.9558
  604.0000   -50.5018     0.0417     2.3575     0.1826     8.1776    73.9017    16.0935    17.8717
  604.5000   -50.5102     0.0435     2.3580     0.1812     8.1826    73.4450    16.0936    17.8122
  605.0000   -50.5186     0.0455     2.3626     0.1790     8.1877    72.9922    16.0935    17.7799
  605.5000   -50.5270     0.0475     2.3699     0.1753     8.1927    71.9058    16.0931    17.7477
  606.0000   -50.5354     0.0462     2.3766     0.1726     8.1978    70.4227    16.0932    17.7155
  606.5000   -50.5437     0.0446     2.3788     0.1705     8.2028    69.6922    16.0971    17.6833
  607.0000   -50.5521     0.0440     2.3830     0.1698     8.2078    66.0499    15.9273    17.6528
  607.5000   -50.5605     0.0455     2.3836     0.1697     8.2127    64.6652    15.7731    17.5733
  608.0000   -50.5688     0.0470     2.3830     0.1696     8.2134    64.7166    15.6204    17.4796
  608.5000   -50.5790     0.0486     2.3824     0.1695     8.1966    66.4352    15.4692    17.3865
  609.0000   -50.5885     0.0501     2.3818     0.1694     8.1758    70.0048    15.3194    17.1908
  609.5000   -50.5539     0.0516     2.3826     0.1692     8.1542    73.4390    15.1352    16.8343
  610.0000   -50.2090     0.0513     2.3838     0.1691     8.1423    73.0244    14.8918    16.4852
  610.5000   -49.8788     0.0502     2.3847     0.1690     8.1336    71.7015    14.6522    16.1433
  611.0000   -49.5549     0.0484     2.3843     0.1690     8.1346    71.6538    14.4165    15.8086
  611.5000   -49.4031     0.0459     2.3833     0.1724     8.1353    73.1265    14.1847    15.5079
  612.0000   -49.3939     0.0435     2.3745     0.1793     8.1359    72.7350    13.9565    15.3180
  612.5000   -49.3849     0.0410     2.3657     0.1798     8.1366    72.3776    13.7320    15.1456
  613.0000   -49.3767     0.0385     2.3643     0.1780     8.1373    72.0064    13.5111    14.9749
  613.5000   -49.3685     0.0360     2.3673     0.1720     8.1380    71.0359    13.2938    14.8060
  614.0000   -49.3602     0.0356     2.3760     0.1639     8.1387    70.4430    13.0240    14.6389
  614.5000   -49.3519     0.0368     2.3881     0.1582     8.1394    73.5106    12.7469    14.4736
  615.0000   -49.3437     0.0381     2.4003     0.1562     8.1400    77.8671    12.4768    14.3103
  615.5000   -49.3354     0.0393     2.4068     0.1565     8.1407    80.0561    12.1960    14.1488
  616.0000   -49.3272     0.0394     2.4072     0.1563     8.1414    76.2885    12.1739    13.9891
  616.5000   -49.3189     0.0391     2.4077     0.1562     8.1421    72.1294    12.1500    13.8312
  617.0000   -49.3107     0.0387     2.4079     0.1527     8.1428    74.2853    12.1270    13.7485
  617.5000   -49.3024     0.0384     2.4166     0.1459     8.1435    77.5788    12.1041    13.7351
  618.0000   -49.2941     0.0381     2.4347     0.1393     8.1442    80.3413    12.0812    13.7217
  618.5000   -49.2859     0.0378     2.4404     0.1372     8.1449    78.6210    12.0584    13.7083
  619.0000   -49.2776     0.0374     2.4456     0.1354     8.1456    77.3979    12.0356    13.6949
  619.5000   -49.2694     0.0371     2.4507     0.1357     8.1462    79.3422    12.0129    13.6815
  620.0000   -49.2611     0.0368     2.4486     0.1352     8.1469    80.3031    11.9899    13.6682
  620.5000   -49.2529     0.0365     2.4479     0.1347     8.1476    79.0734    11.9698    13.6548
  621.0000   -49.2446     0.0362     2.4486     0.1351     8.1483    74.8585    11.9626    13.6415
  621.5000   -49.2364     0.0358     2.4468     0.1363     8.1490    72.9366    11.9553    13.6282
  622.0000   -49.2281     0.0357     2.4429     0.1374     8.1497    76.4849    11.9480    13.6149
  622.5000   -49.2198     0.0416     2.4431     0.1351     8.1504    79.0368    11.9407    13.6016
  623.0000   -49.2116     0.0475     2.4497     0.1317     8.1511    78.9998    11.9333    13.5883
  623.5000   -49.2033     0.0456     2.4560     0.1326     8.1517    77.8846    11.9260    13.5751
  624.0000   -49.1951     0.0435     2.4540     0.1339     8.1525    76.5596    11.9187    13.5618
  624.5000   -49.1868     0.0417     2.4509     0.1349     8.1531    75.7774    11.9114    13.5486
  625.0000   -49.1786     0.0432     2.4494     0.1327     8.1563    76.2716    11.9041    13.5354
  625.5000   -49.1703     0.0448     2.4579     0.1283     8.1617    79.0464    11.8968    13.5222
  626.0000   -49.1620     0.0463     2.4652     0.1267     8.1672    82.6494    11.8895    13.5090
  626.5000   -49.1538     0.0482     2.4641     0.1269     8.1727    84.5064    11.8822    13.4847
  627.0000   -49.1455     0.0519     2.4631     0.1272     8.1781    80.9267    11.8751    13.4400
  627.5000   -49.1373     0.0556     2.4650     0.1265     8.1836    81.0809    11.8634    13.3954
  628.0000   -49.1290     0.0593     2.4681     0.1249     8.1890    80.3302    11.8657    13.3509
  628.5000   -49.1208     0.0602     2.4694     0.1245     8.1945    79.9908    11.7337    13.3066
  629.0000   -49.1125     0.0608     2.4701     0.1245     8.2000    79.2212    11.6184    13.2625
  629.5000   -49.1043     0.0615     2.4708     0.1245     8.2055    76.3970    11.5043    13.2185
  630.0000   -49.0960     0.0588     2.4703     0.1248     8.2109    74.1585    11.3913    13.1747
  630.5000   -49.0877     0.0556     2.4687     0.1261     8.2164    75.3316    11.3250    13.1310
  631.0000   -49.0795     0.0523     2.4655     0.1267     8.2219    76.9144    11.3343    13.0799
  631.5000   -49.0712     0.0514     2.4657     0.1262     8.2274    82.2909    11.3404    13.0291
  632.0000   -49.0630     0.0510     2.4668     0.1257     8.2322    83.3112    11.3467    12.9785
