~VERSION INFORMATION
 VERS.                2.0:   CWLS LOG ASCII STANDARD - VERSION 2.0
 WRAP.                 NO:   ONE LINE PER DEPTH STEP
~WELL INFORMATION
#MNEM.UNIT      DATA TYPE    INFORMATION
#----------   ------------   ------------------------------
 STRT.F         1378.5000:   START DEPTH
 STOP.F         2344.0000:   STOP DEPTH
 STEP.F            0.5000:   STEP LENGTH
 NULL.          -999.2500:   NO VALUE
 COMP. BROWN JOHN E&C INC:   COMPANY
 WELL. NAVAL PETROLEUM RESERVE 3 STX- #26-10:   WELL
 FLD .             TEAPOT:   FIELD
 LOC .      S10 T38N R78W:   LOCATION
 CNTY.            NATRONA:   COUNTY
 STAT.            WYOMING:   STATE
 CTRY. UNITED STATES OF AMERICA:   COUNTRY
 SRVC.            Unknown:   SERVICE COMPANY
 DATE.        22-MAY-1991:   LOGDATE
 API .       490251107400:   API NUMBER
~CURVE INFORMATION
#MNEM.UNIT       API CODE    CURVE DESCRIPTION
#----------   ------------   ------------------------------
 DEPT.F                  :   
 ROP .MIN/FT 91 810 01 00:   RATE OF DRILLING PENETRATION
 TGAS.UNITS  91 830 01 00:   TOTAL GAS FROM HOTWIRE
~PARAMETER INFORMATION
#MNEM.UNIT          VALUE    DESCRIPTION
#----------   ------------   ------------------------------
 EKB .F              5231:   KELLING BUSHING
 EGL .F              5221:   GROUND LEVEL
 DATE.            5-22-91:   RUN DATE
 DD  .F              2343:   DEPTH DRILLER
 BLI .F              2343:   BOTTOM LOG INTERVAL
 TLI .F              1378:   TOP LOG INTERVAL
 CS  .IN            8.625:   CASING SIZE
 CBD .F               709:   CASING BOTTOM DRILLER
 TCS .HRS            0030:   TIME CURCULATED STOPPED
 TLAB.HRS            0415:   TIME LOGGER AT BOTTOM
 ENGI.              TOWER:   RECORDING ENGINEER
 WITN.               HUSK:   WITNESSED BY
 CLNT.            A2DTECH:   CLIENT CODE
 ORIG.           5" PRINT:   ORIGIN OF DATA
 UWI .       490251107400:   UNIQUE WELL ID
 DICO. A2D Technologies, Inc.:   DIGITIZING COMPANY
~OTHER INFORMATION
~A  DEPT         ROP       TGAS 
# ...
 1621.5000     0.3586    10.5650
 1622.0000     0.3368    11.5193
 1622.5000     0.3072    12.4582
 1623.0000     0.2940    13.4734
 1623.5000     0.2955    14.2893
 1624.0000     0.2971    15.4654
 1624.5000     0.2986    16.8442
 1625.0000     0.3002    18.1289
 1625.5000     0.3017    18.4726
 1626.0000     0.3032    17.6498
 1626.5000     0.3048    16.7542
 1627.0000     0.3063    15.7746
 1627.5000     0.3218    14.1766
 1628.0000     0.3498    13.3174
 1628.5000     0.3578    12.4521
 1629.0000     0.3815    11.5990
 1629.5000     0.3862    11.0189
 1630.0000     0.4026    10.7399
 1630.5000     0.4061    10.7399
 1631.0000     0.4218    10.7399
 1631.5000     0.4413    10.3103
 1632.0000     0.4663    10.3103
 1632.5000     0.4659    10.3103
 1633.0000     0.4531     9.8807
 1633.5000     0.4003     9.4511
 1634.0000     0.3855     9.4511
 1634.5000     0.3780     9.8807
 1635.0000     0.3777     9.1076
 1635.5000     0.3782     8.5919
 1636.0000     0.3787     9.0574
 1636.5000     0.3793     9.1789
 1637.0000     0.3799     9.3003
 1637.5000     0.3805     9.4218
 1638.0000     0.3811     9.8807
 1638.5000     0.3817    10.2582
 1639.0000     0.3823    10.0912
 1639.5000     0.3828     9.9242
 1640.0000     0.3834     9.8807
 1640.5000     0.3840     9.4511
 1641.0000     0.3846     8.9619
 1641.5000     0.3735     8.5919
 1642.0000     0.3732     7.7327
 1642.5000     0.3728     7.0668
 1643.0000     0.3725     6.4439
 1643.5000     0.3722     6.1591
 1644.0000     0.3719     5.1551
 1644.5000     0.3715     4.9146
 1645.0000     0.3712     4.4287
 1645.5000     0.3709     4.2959
 1646.0000     0.3706     4.2959
 1646.5000     0.3702     4.2959
 1647.0000     0.3699     4.2959
 1647.5000     0.3696     4.2959
 1648.0000     0.3693     4.2959
 1648.5000     0.3689     4.2959
 1649.0000     0.3686     4.2959
 1649.5000     0.3683     4.2959
 1650.0000     0.3690     4.2959
 1650.5000     0.3785     4.2996
 1651.0000     0.3422     4.3039
 1651.5000     0.3237     4.3083
 1652.0000     0.3233     4.3126
 1652.5000     0.3241     4.3169
 1653.0000     0.3298     4.3213
 1653.5000     0.3332     4.3256
 1654.0000     0.3365     4.3299
 1654.5000     0.3433     4.3343
 1655.0000     0.3492     4.3386
 1655.5000     0.3852     4.3430
 1656.0000     0.4212     4.3473
 1656.5000     0.4504     4.3516
 1657.0000     0.4500     4.3560
 1657.5000     0.4497     4.3603
 1658.0000     0.4494     4.3646
 1658.5000     0.4490     4.3690
 1659.0000     0.4487     4.3733
 1659.5000     0.4484     4.3777
 1660.0000     0.4481     4.3820
 1660.5000     0.4477     4.3863
 1661.0000     0.4474     4.3907
 1661.5000     0.4471     4.3950
 1662.0000     0.4467     4.3994
 1662.5000     0.4137     4.4037
 1663.0000     0.3872     4.4080
 1663.5000     0.3606     4.4124
 1664.0000     0.3372     4.4167
 1664.5000     0.3389     4.4210
 1665.0000     0.3411     4.4254
 1665.5000     0.3433     4.4297
 1666.0000     0.3455     4.4341
 1666.5000     0.3476     4.4384
 1667.0000     0.3498     4.4427
 1667.5000     0.3520     4.4471
 1668.0000     0.3542     4.4514
 1668.5000     0.3604     4.4557
 1669.0000     0.3858     4.4601
 1669.5000     0.4112     4.4644
 1670.0000     0.4366     4.4688
 1670.5000     0.4521     4.4731
 1671.0000     0.4517     4.4774
 1671.5000     0.4514     4.4818
 1672.0000     0.4511     4.4861
 1672.5000     0.4508     4.4904
 1673.0000     0.4504     4.4948
 1673.5000     0.4501     4.4991
 1674.0000     0.4498     4.5035
 1674.5000     0.4495     4.5078
 1675.0000     0.4491     4.5121
 1675.5000     0.4488     4.5165
 1676.0000     0.4329     4.5208
 1676.5000     0.4021     4.5251
 1677.0000     0.3941     4.5295
 1677.5000     0.3942     4.5338
 1678.0000     0.3943     4.5382
 1678.5000     0.3945     4.5425
 1679.0000     0.3946     4.5468
 1679.5000     0.3948     4.5512
 1680.0000     0.3949     4.5555
 1680.5000     0.3950     4.5599
 1681.0000     0.3952     4.5642
 1681.5000     0.3953     4.5685
 1682.0000     0.3955     4.5729
 1682.5000     0.3956     4.5772
 1683.0000     0.3957     4.5815
 1683.5000     0.3959     4.5859
 1684.0000     0.3960     4.5902
 1684.5000     0.3962     4.5946
 1685.0000     0.3963     4.5989
 1685.5000     0.3964     4.6032
 1686.0000     0.3966     4.6076
 1686.5000     0.3967     4.6119
 1687.0000     0.3969     4.6162
 1687.5000     0.3970     4.6206
 1688.0000     0.3971     4.6249
 1688.5000     0.3862     4.6293
 1689.0000     0.3751     4.6336
 1689.5000     0.3457     4.6379
 1690.0000     0.3203     4.6423
 1690.5000     0.3451     4.6466
 1691.0000     0.3629     4.6509
 1691.5000     0.3654     4.6553
 1692.0000     0.3840     4.6596
 1692.5000     0.3945     4.6640
 1693.0000     0.4191     4.6683
 1693.5000     0.4371     4.6726
 1694.0000     0.4358     4.6770
 1694.5000     0.4343     4.6813
 1695.0000     0.4327     4.6856
 1695.5000     0.4312     4.6900
 1696.0000     0.4296     4.6943
 1696.5000     0.4281     4.6987
 1697.0000     0.4265     4.7030
 1697.5000     0.4250     4.7073
 1698.0000     0.4234     4.7117
 1698.5000     0.4231     4.7160
 1699.0000     0.4227     4.7204
 1699.5000     0.4224     4.7247
 1700.0000     0.4221     4.7262
 1700.5000     0.4218     4.7305
 1701.0000     0.3564     4.7348
 1701.5000     0.3345     4.7391
 1702.0000     0.3234     4.7434
 1702.5000     0.3447     4.7476
 1703.0000     0.3768     4.7519
 1703.5000     0.4050     4.7562
 1704.0000     0.4411     4.7605
 1704.5000     0.4519     4.7648
 1705.0000     0.4520     4.7691
 1705.5000     0.4520     4.7733
 1706.0000     0.4521     4.7776
 1706.5000     0.4521     4.7819
 1707.0000     0.4522     4.7862
 1707.5000     0.4523     4.7905
 1708.0000     0.4523     4.7947
 1708.5000     0.4524     4.7990
 1709.0000     0.4524     4.8033
 1709.5000     0.4416     4.8076
 1710.0000     0.3766     4.8119
 1710.5000     0.3549     4.8162
 1711.0000     0.3548     4.8204
 1711.5000     0.3547     4.8247
 1712.0000     0.3545     4.8290
 1712.5000     0.3544     4.8333
 1713.0000     0.3543     4.8376
 1713.5000     0.3542     4.8418
 1714.0000     0.3541     4.8461
 1714.5000     0.3540     4.8504
 1715.0000     0.4188     4.8547
 1715.5000     0.4402     4.8590
 1716.0000     0.4619     4.8633
 1716.5000     0.4611     4.8675
 1717.0000     0.4604     4.8718
 1717.5000     0.4597     4.8761
 1718.0000     0.4590     4.8804
 1718.5000     0.4582     4.8847
 1719.0000     0.4575     4.8890
 1719.5000     0.4568     4.8932
 1720.0000     0.4561     4.8975
 1720.5000     0.4554     4.9018
 1721.0000     0.4547     4.9061
 1721.5000     0.4539     4.9104
 1722.0000     0.4532     4.9146
 1722.5000     0.4525     4.9189
 1723.0000     0.4518     4.9232
 1723.5000     0.4511     4.9275
 1724.0000     0.4504     4.9318
 1724.5000     0.4497     4.9361
 1725.0000     0.4371     4.9403
 1725.5000     0.3949     4.9446
 1726.0000     0.3948     4.9489
 1726.5000     0.3778     4.9532
 1727.0000     0.3513     4.9575
 1727.5000     0.3187     4.9617
 1728.0000     0.2862     4.9660
 1728.5000     0.2907     4.9703
 1729.0000     0.2946     4.9746
 1729.5000     0.2984     4.9789
 1730.0000     0.3023     4.9832
 1730.5000     0.3061     4.9874
 1731.0000     0.3099     4.9917
 1731.5000     0.3138     4.9960
 1732.0000     0.3069     5.0003
 1732.5000     0.3374     5.0046
 1733.0000     0.3717     5.0089
 1733.5000     0.4040     5.0131
 1734.0000     0.4147     5.0174
 1734.5000     0.4146     5.0217
 1735.0000     0.4145     5.0260
 1735.5000     0.4144     5.0303
 1736.0000     0.4143     5.0345
 1736.5000     0.4142     5.0388
 1737.0000     0.4141     5.0431
 1737.5000     0.4140     5.0474
 1738.0000     0.4139     5.0517
 1738.5000     0.4073     5.0560
 1739.0000     0.3779     5.0602
 1739.5000     0.3702     5.0645
 1740.0000     0.3593     5.0688
 1740.5000     0.3605     5.0731
 1741.0000     0.3616     5.0774
 1741.5000     0.3627     5.0816
 1742.0000     0.3639     5.0859
 1742.5000     0.3650     5.0902
