~VERSION INFORMATION
 VERS.                2.0:   CWLS LOG ASCII STANDARD - VERSION 2.0
 WRAP.                 NO:   ONE LINE PER DEPTH STEP
~WELL INFORMATION
#MNEM.UNIT      DATA TYPE    INFORMATION
#----------   ------------   ------------------------------
 STRT.F          438.0000:   START DEPTH
 STOP.F         2175.0000:   STOP DEPTH
 STEP.F            0.5000:   STEP LENGTH
 NULL.          -999.2500:   NO VALUE
 COMP.   FLUOR DANIEL INC:   COMPANY
 WELL. NAVAL PETROLEUM RESERVE 3 X29 #74-29:   WELL
 FLD .            WLIDCAT:   FIELD
 LOC .      S29 T39N R78W:   LOCATION
 CNTY.            NATRONA:   COUNTY
 STAT.            WYOMING:   STATE
 CTRY. UNITED STATES OF AMERICA:   COUNTRY
 SRVC.            Unknown:   SERVICE COMPANY
 DATE.        05-JUN-1995:   LOGDATE
 API .       490252272900:   API NUMBER
~CURVE INFORMATION
#MNEM.UNIT       API CODE    CURVE DESCRIPTION
#----------   ------------   ------------------------------
 DEPT.F                  :   
 ROP .FT/HR  91 810 01 00:   RAT OF DRILLING PENETRATION
 TGAS.TC/CC  91 830 01 00:   TOTAL GAS UNIT
~PARAMETER INFORMATION
#MNEM.UNIT          VALUE    DESCRIPTION
#----------   ------------   ------------------------------
 EKB .F              5036:   KELLING BUSHING
 EGL .F              5026:   GROUND LEVEL
 DATE.        05-JUN-1995:   RUN DATE
 RUN .                  1:   RUN NUMBER
 BLI .F              2160:   BOTTOM LOG INTERVAL
 TLI .F               440:   TOP LOG INTERVAL
 ENGI.     R.HUSK/C.TOWER:   RECORDING ENGINEER
 CLNT.            A2DTECH:   CLIENT CODE
 ORIG.           5" PRINT:   ORIGIN OF DATA
 UWI .       490252272900:   UNIQUE WELL ID
 DICO. A2D Technologies, Inc.:   DIGITIZING COMPANY
~OTHER INFORMATION
~A   DEPT        ROP       TGAS 
# ...
 1896.0000     0.5496     3.8629
 1896.5000     0.5494     3.4745
 1897.0000     0.5492     3.4642
 1897.5000     0.5490     3.4528
 1898.0000     0.5488     3.4413
 1898.5000     0.5487     3.4302
 1899.0000     0.5485     3.6079
 1899.5000     0.5482     3.5962
 1900.0000     0.5480     3.5220
 1900.5000     0.5479     3.5720
 1901.0000     0.5381     3.5623
 1901.5000     0.5379     3.5499
 1902.0000     0.5185     3.5389
 1902.5000     0.6625     3.5278
 1903.0000     0.6623     3.5168
 1903.5000     0.6621     3.5058
 1904.0000     0.6715     3.6834
 1904.5000     0.6713     3.6717
 1905.0000     0.6615     3.6585
 1905.5000     0.6613     3.6475
 1906.0000     0.6708     3.5410
 1906.5000     0.6706     3.2710
 1907.0000     0.6704     3.0010
 1907.5000     0.6702     2.7309
 1908.0000     0.6700     2.4609
 1908.5000     0.6698     2.1909
 1909.0000     0.6670     2.0937
 1909.5000     0.6631     2.2736
 1910.0000     0.6595     2.3460
 1910.5000     0.6589     2.4434
 1911.0000     0.6582     2.4340
 1911.5000     0.6576     2.4245
 1912.0000     0.6712     2.6038
 1912.5000     0.6755     2.7836
 1913.0000     0.6748     2.9607
 1913.5000     0.6838     3.1415
 1914.0000     0.6830     3.3219
 1914.5000     0.6727     3.3103
 1915.0000     0.6721     3.1124
 1915.5000     0.6714     3.1031
 1916.0000     0.6708     2.9052
 1916.5000     0.6701     2.7075
 1917.0000     0.6693     2.6980
 1917.5000     0.6686     2.5000
 1918.0000     0.6584     2.4906
 1918.5000     0.6481     2.4811
 1919.0000     0.6378     2.6609
 1919.5000     0.6372     2.6494
 1920.0000     0.6365     3.2062
 1920.5000     0.6359     3.9516
 1921.0000     0.6448     4.6971
 1921.5000     0.6729     4.8788
 1922.0000     0.7011     4.4899
 1922.5000     0.7102     4.4806
 1923.0000     0.7191     4.0940
 1923.5000     0.7087     4.0848
 1924.0000     0.6984     4.0755
 1924.5000     0.6978     4.0660
 1925.0000     0.6971     4.0566
 1925.5000     0.6963     4.0454
 1926.0000     0.6958     4.2248
 1926.5000     0.6950     4.4043
 1927.0000     0.6944     4.3950
 1927.5000     0.6937     4.3858
 1928.0000     0.6931     4.3765
 1928.5000     0.6924     4.1786
 1929.0000     0.6917     4.3580
 1929.5000     0.6909     4.3491
 1930.0000     0.6903     4.3396
 1930.5000     0.6896     4.3302
 1931.0000     0.6697     4.3208
 1931.5000     0.6691     4.4054
 1932.0000     0.6684     4.4911
 1932.5000     0.6678     4.6705
 1933.0000     0.6671     4.6590
 1933.5000     0.6665     4.6497
 1934.0000     0.6754     4.6405
 1934.5000     0.6844     4.6321
 1935.0000     0.6836     4.6219
 1935.5000     0.6829     4.6132
 1936.0000     0.6823     4.6034
 1936.5000     0.6816     4.5942
 1937.0000     0.6810     4.5849
 1937.5000     0.6802     4.5755
 1938.0000     0.6795     4.5660
 1938.5000     0.6789     4.5566
 1939.0000     0.6686     4.5456
 1939.5000     0.6583     4.5363
 1940.0000     0.6481     4.5283
 1940.5000     0.6378     4.3302
 1941.0000     0.6179     4.3199
 1941.5000     0.6171     4.4180
 1942.0000     0.6164     4.4924
 1942.5000     0.6158     4.4808
 1943.0000     0.6151     4.4715
 1943.5000     0.6337     4.4623
 1944.0000     0.6523     4.4528
 1944.5000     0.6901     4.5525
 1945.0000     0.7183     4.6232
 1945.5000     0.7272     4.8026
 1946.0000     0.7264     4.7910
 1946.5000     0.7258     4.7830
 1947.0000     0.7251     4.7725
 1947.5000     0.7245     4.5746
 1948.0000     0.7238     4.5653
 1948.5000     0.7232     4.5561
 1949.0000     0.7321     4.5468
 1949.5000     0.7313     4.5376
 1950.0000     0.7307     4.7170
 1950.5000     0.7398     4.7075
 1951.0000     0.7390     4.6981
 1951.5000     0.7383     4.6869
 1952.0000     0.7377     4.6776
 1952.5000     0.7520     4.6684
 1953.0000     0.7523     4.6591
 1953.5000     0.7623     4.6499
 1954.0000     0.7627     4.6406
 1954.5000     0.7535     4.6314
 1955.0000     0.7436     4.4334
 1955.5000     0.7350     4.4242
 1956.0000     0.7355     4.4149
 1956.5000     0.7261     4.5943
 1957.0000     0.7266     4.5849
 1957.5000     0.7270     4.5755
 1958.0000     0.7274     4.5642
 1958.5000     0.7277     4.7460
 1959.0000     0.7281     4.9254
 1959.5000     0.7381     4.9138
 1960.0000     0.7385     4.9046
 1960.5000     0.7389     4.8953
 1961.0000     0.7392     4.8861
 1961.5000     0.7396     4.8768
 1962.0000     0.7505     4.4902
 1962.5000     0.7596     4.2923
 1963.0000     0.7601     4.2830
 1963.5000     0.7508     4.6511
 1964.0000     0.7320     4.8854
 1964.5000     0.7034     5.5737
 1965.0000     0.6846     5.9441
 1965.5000     0.6657     6.3122
 1966.0000     0.6662     6.8667
 1966.5000     0.6666     7.0484
 1967.0000     0.6573     7.0368
 1967.5000     0.6481     7.0276
 1968.0000     0.6485     7.2093
 1968.5000     0.6488     7.1977
 1969.0000     0.6492     6.9998
 1969.5000     0.6496     6.9905
 1970.0000     0.6501     6.9811
 1970.5000     0.6504     6.9303
 1971.0000     0.6508     6.7732
 1971.5000     0.6512     6.8717
 1972.0000     0.6516     6.8602
 1972.5000     0.6550     6.8491
 1973.0000     0.6716     6.8377
 1973.5000     0.6719     6.8264
 1974.0000     0.6764     6.8151
 1974.5000     0.6919     6.8017
 1975.0000     0.6923     6.7925
 1975.5000     0.6927     6.7795
 1976.0000     0.6931     6.7683
 1976.5000     0.6935     6.7585
 1977.0000     0.6939     6.7472
 1977.5000     0.6943     6.7358
 1978.0000     0.6947     6.7238
 1978.5000     0.6950     6.7132
 1979.0000     0.6857     6.6997
 1979.5000     0.6766     6.6906
 1980.0000     0.6769     6.6792
 1980.5000     0.6773     6.6679
 1981.0000     0.6777     6.6566
 1981.5000     0.6781     6.6453
 1982.0000     0.6787     6.6319
 1982.5000     0.6981     6.6208
 1983.0000     0.6985     6.6113
 1983.5000     0.6989     6.7891
 1984.0000     0.6993     6.7761
 1984.5000     0.7092     6.8085
 1985.0000     0.7096     6.9443
 1985.5000     0.7004     6.9313
 1986.0000     0.7008     6.9208
 1986.5000     0.7012     6.9091
 1987.0000     0.7016     6.8979
 1987.5000     0.6923     6.8868
 1988.0000     0.6927     6.8755
 1988.5000     0.6835     6.8642
 1989.0000     0.6838     6.8506
 1989.5000     0.6842     6.8395
 1990.0000     0.6847     6.8302
 1990.5000     0.6850     6.8189
 1991.0000     0.6854     6.8061
 1991.5000     0.6858     6.7949
 1992.0000     0.6862     6.7849
 1992.5000     0.6866     6.7727
 1993.0000     0.6869     6.7615
 1993.5000     0.6970     6.7504
 1994.0000     0.7069     6.5509
 1994.5000     0.7073     6.5396
 1995.0000     0.7077     6.7170
 1995.5000     0.7081     6.7057
 1996.0000     0.6712     6.8834
 1996.5000     0.5302     6.8695
 1997.0000     0.5204     6.8604
 1997.5000     0.5202     6.8491
 1998.0000     0.5200     6.8361
 1998.5000     0.5198     6.6377
 1999.0000     0.5216     6.6251
 1999.5000     0.5290     6.6151
 2000.0000     0.5288     6.6038
 2000.5000     0.5383     6.5917
 2001.0000     0.5381     6.5811
 2001.5000     0.5379     6.5676
 2002.0000     0.5377     6.5585
 2002.5000     0.5471     6.5453
 2003.0000     0.5565     6.5359
 2003.5000     0.5563     6.5245
 2004.0000     0.5561     6.5128
 2004.5000     0.5560     6.6113
 2005.0000     0.5558     6.6792
 2005.5000     0.5652     6.6679
 2006.0000     0.5650     6.4664
 2006.5000     0.5648     6.4553
 2007.0000     0.5550     6.4453
 2007.5000     0.5452     6.4340
 2008.0000     0.5354     6.4219
 2008.5000     0.5352     6.4113
 2009.0000     0.5350     6.4000
 2009.5000     0.5348     6.3876
 2010.0000     0.5346     6.3774
 2010.5000     0.5344     6.3653
 2011.0000     0.5342     6.3547
 2011.5000     0.5340     6.3412
 2012.0000     0.5338     6.3321
 2012.5000     0.5336     6.3198
 2013.0000     0.5335     6.3078
 2013.5000     0.5333     6.2981
 2014.0000     0.5360     6.2868
 2014.5000     0.5521     6.2755
 2015.0000     0.5519     6.2632
 2015.5000     0.5517     6.3818
 2016.0000     0.5515     6.4324
 2016.5000     0.5513     6.4185
 2017.0000     0.5608     6.4075
