~VERSION INFORMATION
 VERS.                2.0:   CWLS LOG ASCII STANDARD - VERSION 2.0
 WRAP.                 NO:   ONE LINE PER DEPTH STEP
~WELL INFORMATION
#MNEM.UNIT      DATA TYPE    INFORMATION
#----------   ------------   ------------------------------
 STRT.F           14.5000:   START DEPTH
 STOP.F          750.0000:   STOP DEPTH
 STEP.F            0.5000:   STEP LENGTH
 NULL.          -999.2500:   NO VALUE
 COMP. FENIX & SCISSON INC:   COMPANY
 WELL.       NPR 3 #24-14:   WELL
 FLD .             TEAPOT:   FIELD
 LOC .      S14 T38N R78W:   LOCATION
 CNTY.            NATRONA:   COUNTY
 STAT.            WYOMING:   STATE
 CTRY. UNITED STATES OF AMERICA:   COUNTRY
 SRVC.           BIRDWELL:   SERVICE COMPANY
 DATE.        27-DEC-1978:   LOGDATE
 API .       490251075900:   API NUMBER
~CURVE INFORMATION
#MNEM.UNIT       API CODE    CURVE DESCRIPTION
#----------   ------------   ------------------------------
 DEPT.F                  :   
 SPR .MV     05 010 01 00:   SPONTANEOUS POTENTIAL FROM RES.
 SN  .OHMM   05 040 16 00:   SHORT NORMAL 16"
 IL  .OHMM   05 120 00 00:   INDUCTION LOG
 GRD .GAPI   45 310 01 00:   GAMMA RAY FROM DENSITY LOG
 CALD.IN     45 280 60 00:   CALIPER
 RHOB.G/C3   45 350 01 00:   BULK DENSITY
 DPHI.DEC    45 890 12 00:   DENSITY POROSITY SANDSTONE
 CORR.G/C3   45 356 01 00:   DENSITY CORRECTION
~PARAMETER INFORMATION
#MNEM.UNIT          VALUE    DESCRIPTION
#----------   ------------   ------------------------------
 PD  .                 GL:   PERMANENT DATUM
 EPD .F              5209:   ELEVATION PERMANENT DATUM
 LMF .                 KB:   LOG MEASURED FROM
 DAPD.F                 4:   FEET ABOVE PERMANENT DATUM
 DMF .                 KB:   DRILLING MEASURED FROM
 EKB .F              5212:   KELLING BUSHING
 EGL .F              5209:   GROUND LEVEL
 DATE.           12-27-78:   RUN DATE
 RUN .                  1:   RUN NUMBER
 DD  .F               750:   DEPTH DRILLER
 DL  .F               742:   DEPTH LOGGER
 BLI .F               735:   BOTTOM LOG INTERVAL
 TLI .F                35:   TOP LOG INTERVAL
 CS  .IN            8.625:   CASING SIZE
 CBD .F                40:   CASING BOTTOM DRILLER
 CBL .F                32:   CASING BOTTOM LOGGER
 BS  .IN            7.875:   BIT SIZE
 BSD .F               750:   BIT SIZE AT DEPTH
 DFT .                KCL:   DRILLING FLUID TYPE
 DFD .                8.6:   DRILLING FLUID DENSITY
 DFV .                 35:   DRILLING FLUID VISCOSITY
 DFPH.                9.4:   DRILLING FLUID PH
 DFL .               12.4:   DRILLING FLUID LOSS
 MSS .           FLOWLINE:   MUD SAMPLE SOURCE
 RMS .OHMM            .38:   RESISTIVITY MUD SAMPLE
 MST .F                58:   MUD SAMPLE TEMPERATURE
 RMF .OHMM            .38:   RESISTIVITY MUD FILTRATE SAMPLE
 MFST.F                58:   MUD FILTRATE SAMPLE TEMPERATURE
 RMC .OHMM            .36:   RESISTIVITY MUD CAKE
 MCST.F                60:   MUD CAKE SAMPLE TEMPERATURE
 MFSS.           MEASURED:   MUD FILTRATE SAMPLE SOURCE
 MCSS.           MEASURED:   MUD CAKE SAMPLE SOURCE
 RMB .OHMM            .37:   RESISTIVITY MUD AT BHT
 BHT .F                59:   BOTTOM HOLE TEMPERATURE
 TCS .HRS               2:   TIME CURCULATED STOPPED
 MRT .F                59:   MAXIMUM RECORDED TEMPERATURE
 LUN .               2958:   LOGGING UNIT NUMBER
 LUL .             CASPER:   LOGGING UNIT LOCATION
 ENGI.         B. ROLLINS:   RECORDING ENGINEER
 WITN.           DINSMORE:   WITNESSED BY
 CLNT.            A2DTECH:   CLIENT CODE
 ORIG.           5" PRINT:   ORIGIN OF DATA
 UWI .       490251075900:   UNIQUE WELL ID
 DICO. A2D Technologies, Inc.:   DIGITIZING COMPANY
~OTHER INFORMATION
~A   DEPT      SPR         SN         IL         GRD      CALD       RHOB       DPHI       CORR   
# ...
  338.5000   -52.9800    10.0310     7.8290   108.2360     8.0090     2.4760     0.1220     0.0670
  339.0000   -53.0240    10.0030     7.7840   109.6960     8.0230     2.4730     0.1150     0.0980
  339.5000   -53.0690     9.9750     7.7190   108.0760     7.8930     2.4800     0.1080     0.1290
  340.0000   -53.1130     9.9470     7.6810   105.8370     7.6730     2.5150     0.0980     0.1650
  340.5000   -53.1580     9.9190     7.6810   104.7790     7.6400     2.5190     0.1000     0.1780
  341.0000   -53.2020     9.8910     7.6810   108.4130     7.6010     2.5160     0.1050     0.1790
  341.5000   -53.2470     9.8640     7.6810   111.9100     7.5590     2.5080     0.0920     0.1790
  342.0000   -53.2910     9.6990     7.5850   114.7790     7.6020     2.5200     0.0720     0.1780
  342.5000   -53.3350     9.3560     7.4330   112.6690     7.6680     2.5470     0.0810     0.1700
  343.0000   -53.3800     9.1220     7.2810   109.7980     7.6690     2.5620     0.1000     0.1190
  343.5000   -53.4240     8.9480     7.1360   109.8110     7.6690     2.5300     0.1190     0.0670
  344.0000   -53.4690     8.8180     7.1510   112.2050     7.6690     2.4940     0.1210     0.0610
  344.5000   -53.5130     8.8280     7.1650   114.3510     7.6690     2.4750     0.1150     0.0720
  345.0000   -53.5580     8.8480     7.1800   113.2010     7.7550     2.4920     0.1050     0.0800
  345.5000   -53.6020     8.8690     7.1940   110.5740     7.9640     2.5070     0.0970     0.0860
  346.0000   -53.6460     8.8890     7.2080   108.4010     8.0580     2.5200     0.0940     0.0840
  346.5000   -53.6910     8.9100     7.2220   108.1300     8.0780     2.5220     0.0930     0.0830
  347.0000   -53.7350     8.9300     7.2360   107.1010     8.1390     2.5240     0.0920     0.0820
  347.5000   -53.7800     8.9510     7.2500   104.7900     8.1850     2.5250     0.0950     0.0800
  348.0000   -53.8240     8.9720     7.2640   102.4660     8.1490     2.5270     0.1000     0.0610
  348.5000   -53.8670     9.0430     7.3250   100.8470     8.0860     2.5170     0.1220     0.0520
  349.0000   -53.8980     9.1680     7.4070   101.0340     8.0220     2.4970     0.1200     0.0520
  349.5000   -53.8980     9.2930     7.4890   102.4480     7.9950     2.4790     0.1110     0.0740
  350.0000   -53.7000     9.4180     7.5700   104.4910     7.9590     2.4780     0.1010     0.1080
  350.5000   -53.3000     9.5420     8.0430   106.1900     7.8570     2.5220     0.0900     0.1080
  351.0000   -53.0870     9.5960     8.0360   106.3980     7.7200     2.5450     0.0800     0.0890
  351.5000   -53.0590     9.6190     8.0300   105.8020     7.6100     2.5480     0.0990     0.0640
  352.0000   -53.0290     9.6430     8.0250   104.3670     7.5720     2.5240     0.1200     0.0490
  352.5000   -53.0000     9.6680     8.0190   104.3280     7.5520     2.4960     0.1240     0.0540
  353.0000   -52.9710     9.6450     8.0130   104.7610     7.5670     2.4770     0.1240     0.0680
  353.5000   -52.9410     9.6190     8.0080   104.5630     7.5810     2.4750     0.1200     0.0930
  354.0000   -52.9130     9.5930     8.0020   103.1690     7.5760     2.4800     0.1160     0.1170
  354.5000   -52.7500     9.5670     7.9970   101.0650     7.5430     2.4890     0.1140     0.1410
  355.0000   -52.4500     9.5410     7.9910   101.7480     7.5110     2.4920     0.1100     0.1570
  355.5000   -52.3100     9.5150     7.9860   102.4310     7.4900     2.4950     0.1030     0.1590
  356.0000   -52.3290     9.4920     7.9800   104.2390     7.4920     2.5010     0.1030     0.1560
  356.5000   -52.3460     9.4920     7.9740   106.1380     7.5540     2.5180     0.1030     0.1450
  357.0000   -52.3640     9.4920     7.9610   108.0290     7.6200     2.5190     0.1040     0.1170
  357.5000   -52.3820     9.4920     7.8960   106.9600     7.6870     2.5060     0.1000     0.1070
  358.0000   -52.4000     9.4920     7.8300   104.3040     7.7540     2.5050     0.0990     0.1030
  358.5000   -52.4180     9.4920     7.7640   103.0500     7.8230     2.5180     0.1000     0.0980
  359.0000   -52.4360     9.4920     7.6810   102.9820     7.8100     2.5210     0.1020     0.0950
  359.5000   -52.4540     9.4920     7.7410   102.9800     7.7900     2.5050     0.0940     0.0980
  360.0000   -52.4720     9.4920     7.8220   102.9130     7.7720     2.5180     0.0860     0.1040
  360.5000   -52.4900     9.4920     7.9030   101.2990     7.7290     2.5310     0.0880     0.1050
  361.0000   -52.4290     9.4900     7.9840    99.6540     7.6850     2.5360     0.0970     0.1070
  361.5000   -52.2930     9.5690     8.0650    99.7460     7.6610     2.5300     0.1000     0.1090
  362.0000   -52.0600     9.6730     8.1930   101.0810     7.6490     2.5140     0.0980     0.1210
  362.5000   -51.2290     9.7770     8.4220   102.5890     7.6730     2.5150     0.0870     0.1470
  363.0000   -50.4920     9.8810     8.5590   103.3410     7.5690     2.5270     0.0760     0.1720
  363.5000   -50.1090     9.9840     8.7040   103.2980     7.5140     2.5430     0.0660     0.1980
  364.0000   -49.7520    10.1420     8.8490   101.5760     7.5430     2.5600     0.0640     0.2200
  364.5000   -49.4530    10.3420     8.9940   101.5700     7.5850     2.5740     0.0640     0.2380
  365.0000   -49.2960    10.5420     9.1390   101.9980     7.6830     2.5750     0.0660     0.2640
  365.5000   -49.1390    10.7420     9.2840   102.3500     7.7830     2.5720     0.0610     0.2960
  366.0000   -48.9810    10.9420     9.4140   101.4380     7.7880     2.5740     0.0530     0.3260
  366.5000   -48.9890    11.1420     9.4720    99.0240     7.7880     2.5880     0.0470     0.3300
  367.0000   -49.1630    11.3420     9.5290    97.0240     7.7880     2.6030     0.0450     0.3160
  367.5000   -49.3360    11.5420     9.5860    95.7930     7.8200     2.6100     0.0590     0.2810
  368.0000   -49.5100    11.7420     9.6440    94.5510     7.8980     2.5990     0.0760     0.2440
  368.5000   -49.6900    11.9470     9.6870    93.7870     7.9770     2.5790     0.0940     0.2060
  369.0000   -49.7000    11.9070     9.7210    93.5910     8.0020     2.5520     0.1040     0.1840
  369.5000   -49.7000    11.8670     9.7540    93.6390     8.0260     2.5230     0.1050     0.1770
  370.0000   -49.7000    11.8270     9.7870    94.0260     8.0510     2.5040     0.1020     0.1770
  370.5000   -49.7000    11.7860     9.8210    94.0230     8.0760     2.5080     0.0900     0.1790
  371.0000   -49.7000    11.7460     9.8530    92.8500     8.0730     2.5250     0.0820     0.1720
  371.5000   -49.7000    11.6260     9.8840    90.7570     8.0530     2.5450     0.0820     0.1600
  372.0000   -49.7000    11.4510     9.9140    89.8050     8.0320     2.5510     0.0830     0.1370
  372.5000   -49.7000    11.2760     9.9390    93.3980     8.0120     2.5480     0.1020     0.1050
  373.0000   -49.7000    11.0990     9.3190    94.5700     7.9930     2.5200     0.1020     0.0810
  373.5000   -49.7000    11.0430     9.3190    94.0360     7.9770     2.5100     0.1040     0.0630
  374.0000   -49.7000    10.9870     9.2360    93.5480     7.8800     2.5130     0.1060     0.0450
  374.5000   -49.7000    10.9310     9.0530    96.4820     7.6220     2.5050     0.1140     0.0260
  375.0000   -49.7000    10.8320     9.0320    99.5240     7.5070     2.4980     0.1230     0.0190
  375.5000   -49.7000    10.6690     9.0110    99.4650     7.4250     2.4890     0.1320     0.0120
  376.0000   -49.7000    10.5060     8.9910    96.8520     7.3530     2.4720     0.1390     0.0150
  376.5000   -49.7000    10.3430     8.9700    94.3050     7.4480     2.4560     0.1390     0.0170
  377.0000   -49.7000    10.3010     8.9490    91.9120     7.3580     2.4480     0.1310     0.0160
  377.5000   -49.7000    10.2890     8.9290    91.0320     7.3270     2.4570     0.1220     0.0150
  378.0000   -49.7000    10.2760     8.9080    90.1960     7.2970     2.4740     0.1230     0.0140
  378.5000   -49.7000    10.2630     8.9000    90.3220     7.2670     2.4770     0.1230     0.0180
