~VERSION INFORMATION
 VERS.                2.0:   CWLS LOG ASCII STANDARD - VERSION 2.0
 WRAP.                 NO:   ONE LINE PER DEPTH STEP
~WELL INFORMATION
#MNEM.UNIT      DATA TYPE    INFORMATION
#----------   ------------   ------------------------------
 STRT.F         1378.5000:   START DEPTH
 STOP.F         2344.0000:   STOP DEPTH
 STEP.F            0.5000:   STEP LENGTH
 NULL.          -999.2500:   NO VALUE
 COMP. BROWN JOHN E&C INC:   COMPANY
 WELL. NAVAL PETROLEUM RESERVE 3 STX- #26-10:   WELL
 FLD .             TEAPOT:   FIELD
 LOC .      S10 T38N R78W:   LOCATION
 CNTY.            NATRONA:   COUNTY
 STAT.            WYOMING:   STATE
 CTRY. UNITED STATES OF AMERICA:   COUNTRY
 SRVC.            Unknown:   SERVICE COMPANY
 DATE.        22-MAY-1991:   LOGDATE
 API .       490251107400:   API NUMBER
~CURVE INFORMATION
#MNEM.UNIT       API CODE    CURVE DESCRIPTION
#----------   ------------   ------------------------------
 DEPT.F                  :   
 ROP .MIN/FT 91 810 01 00:   RATE OF DRILLING PENETRATION
 TGAS.UNITS  91 830 01 00:   TOTAL GAS FROM HOTWIRE
~PARAMETER INFORMATION
#MNEM.UNIT          VALUE    DESCRIPTION
#----------   ------------   ------------------------------
 EKB .F              5231:   KELLING BUSHING
 EGL .F              5221:   GROUND LEVEL
 DATE.            5-22-91:   RUN DATE
 DD  .F              2343:   DEPTH DRILLER
 BLI .F              2343:   BOTTOM LOG INTERVAL
 TLI .F              1378:   TOP LOG INTERVAL
 CS  .IN            8.625:   CASING SIZE
 CBD .F               709:   CASING BOTTOM DRILLER
 TCS .HRS            0030:   TIME CURCULATED STOPPED
 TLAB.HRS            0415:   TIME LOGGER AT BOTTOM
 ENGI.              TOWER:   RECORDING ENGINEER
 WITN.               HUSK:   WITNESSED BY
 CLNT.            A2DTECH:   CLIENT CODE
 ORIG.           5" PRINT:   ORIGIN OF DATA
 UWI .       490251107400:   UNIQUE WELL ID
 DICO. A2D Technologies, Inc.:   DIGITIZING COMPANY
~OTHER INFORMATION
~A  DEPT         ROP       TGAS 
 1378.5000     0.4192     4.3216
 1379.0000     0.4180     4.3309
 1379.5000     0.4168     4.3401
 1380.0000     0.4156     4.3494
 1380.5000     0.4142     4.3586
 1381.0000     0.4130     4.3679
 1381.5000     0.4443     4.3771
 1382.0000     0.4759     4.3864
 1382.5000     0.5183     4.3956
 1383.0000     0.5491     4.4049
 1383.5000     0.5479     4.4141
 1384.0000     0.5468     4.4234
 1384.5000     0.5328     4.4326
 1385.0000     0.5024     4.4418
 1385.5000     0.4720     4.4511
 1386.0000     0.4415     4.4603
 1386.5000     0.4111     4.4696
 1387.0000     0.3994     4.4788
 1387.5000     0.3989     4.4881
 1388.0000     0.3984     4.4973
 1388.5000     0.3979     4.5066
 1389.0000     0.3974     4.5158
 1389.5000     0.3969     4.5251
 1390.0000     0.3964     4.5343
 1390.5000     0.3959     4.5436
 1391.0000     0.3954     4.5528
 1391.5000     0.3949     4.5620
 1392.0000     0.3944     4.5713
 1392.5000     0.3940     4.5805
 1393.0000     0.3935     4.5898
 1393.5000     0.3930     4.5990
 1394.0000     0.3925     4.6083
 1394.5000     0.3919     4.6175
 1395.0000     0.4097     4.6268
 1395.5000     0.4278     4.6360
 1396.0000     0.4459     4.6453
 1396.5000     0.4629     4.6545
 1397.0000     0.4617     4.6638
 1397.5000     0.4605     4.6730
 1398.0000     0.4593     4.6822
 1398.5000     0.4581     4.6915
 1399.0000     0.4569     4.7007
 1399.5000     0.4557     4.7100
 1400.0000     0.4545     4.7207
 1400.5000     0.4534     4.6991
 1401.0000     0.4522     4.6733
 1401.5000     0.4510     4.6475
 1402.0000     0.4498     4.6218
 1402.5000     0.4486     4.5960
 1403.0000     0.4474     4.5702
 1403.5000     0.4462     4.5445
 1404.0000     0.4450     4.5187
 1404.5000     0.4438     4.4929
 1405.0000     0.4426     4.4672
 1405.5000     0.4415     4.4414
 1406.0000     0.4403     4.4156
 1406.5000     0.4391     4.3899
 1407.0000     0.4379     4.3641
 1407.5000     0.4367     4.3383
 1408.0000     0.4355     4.3125
 1408.5000     0.4343     4.2868
 1409.0000     0.4331     4.2610
 1409.5000     0.4319     4.2352
 1410.0000     0.4307     4.2095
 1410.5000     0.4295     4.1837
 1411.0000     0.4284     4.1579
 1411.5000     0.4272     4.1322
 1412.0000     0.4260     4.1064
 1412.5000     0.4248     4.0806
 1413.0000     0.4236     4.0549
 1413.5000     0.4501     4.0291
 1414.0000     0.4939     4.0033
 1414.5000     0.5183     3.9776
 1415.0000     0.4699     3.9518
 1415.5000     0.4296     3.9260
 1416.0000     0.3948     3.9002
 1416.5000     0.4431     3.8745
 1417.0000     0.4913     3.8487
 1417.5000     0.5395     3.8229
 1418.0000     0.6006     3.7972
 1418.5000     0.6595     3.7714
 1419.0000     0.6582     3.7456
 1419.5000     0.6570     3.7199
 1420.0000     0.6449     3.6941
 1420.5000     0.6230     3.6683
 1421.0000     0.5988     3.6426
 1421.5000     0.5745     3.6168
 1422.0000     0.5464     3.5910
 1422.5000     0.5308     3.5653
 1423.0000     0.5297     3.5395
 1423.5000     0.5285     3.5137
 1424.0000     0.5273     3.4879
 1424.5000     0.5261     3.4622
 1425.0000     0.5249     3.4364
 1425.5000     0.5237     3.4106
 1426.0000     0.5225     3.3849
 1426.5000     0.5213     3.3591
 1427.0000     0.5272     3.3333
 1427.5000     0.5520     3.3076
 1428.0000     0.5768     3.2818
 1428.5000     0.6017     3.2560
 1429.0000     0.6265     3.2303
 1429.5000     0.6513     3.2045
 1430.0000     0.6761     3.1787
 1430.5000     0.6850     3.1530
 1431.0000     0.6838     3.1272
 1431.5000     0.6807     3.1014
 1432.0000     0.6416     3.0756
 1432.5000     0.6024     3.0499
 1433.0000     0.5809     3.0241
 1433.5000     0.5783     2.9983
 1434.0000     0.5757     2.9726
 1434.5000     0.5731     2.9468
 1435.0000     0.5705     2.9210
 1435.5000     0.5679     2.8953
 1436.0000     0.5652     2.8695
 1436.5000     0.5626     2.8437
 1437.0000     0.5600     2.8180
 1437.5000     0.5574     2.7922
 1438.0000     0.5548     2.7664
 1438.5000     0.5522     2.7407
 1439.0000     0.5496     2.7149
 1439.5000     0.5470     2.6891
 1440.0000     0.5444     2.6633
 1440.5000     0.5417     2.6376
 1441.0000     0.5391     2.6118
 1441.5000     0.5365     2.5860
 1442.0000     0.5339     2.5603
 1442.5000     0.5313     2.5345
 1443.0000     0.5287     2.5087
 1443.5000     0.5261     2.4830
 1444.0000     0.5235     2.4572
 1444.5000     0.5048     2.4314
 1445.0000     0.4766     2.4057
 1445.5000     0.4484     2.3799
 1446.0000     0.4203     2.3541
 1446.5000     0.4088     2.3284
 1447.0000     0.4076     2.3026
 1447.5000     0.4064     2.2768
 1448.0000     0.4052     2.2510
 1448.5000     0.4624     2.2253
 1449.0000     0.5021     2.1995
 1449.5000     0.5068     2.1737
 1450.0000     0.5486     2.1480
 1450.5000     0.5934     2.1479
 1451.0000     0.5906     2.1479
 1451.5000     0.5878     2.1478
 1452.0000     0.5851     2.1478
 1452.5000     0.5823     2.1478
 1453.0000     0.5796     2.1477
 1453.5000     0.5768     2.1477
 1454.0000     0.5150     2.1476
 1454.5000     0.4778     2.1476
 1455.0000     0.4789     2.1476
 1455.5000     0.4800     2.1475
 1456.0000     0.4811     2.1475
 1456.5000     0.4823     2.1474
 1457.0000     0.5324     2.1474
 1457.5000     0.5776     2.1473
 1458.0000     0.5762     2.1473
 1458.5000     0.5748     2.1473
 1459.0000     0.5216     2.1472
 1459.5000     0.4581     2.1472
 1460.0000     0.3946     2.1471
 1460.5000     0.3793     2.1471
 1461.0000     0.3835     2.1471
 1461.5000     0.3877     2.1470
 1462.0000     0.4005     2.1470
 1462.5000     0.4269     2.1469
 1463.0000     0.4460     2.1469
 1463.5000     0.4528     2.1469
 1464.0000     0.4597     2.1468
 1464.5000     0.4492     2.1468
 1465.0000     0.4121     2.1467
 1465.5000     0.3947     2.1467
 1466.0000     0.3893     2.1466
 1466.5000     0.3861     2.1466
 1467.0000     0.3857     2.1466
 1467.5000     0.3853     2.1465
 1468.0000     0.3848     2.1465
 1468.5000     0.4077     2.1464
 1469.0000     0.4489     2.1464
 1469.5000     0.4485     2.1464
 1470.0000     0.4481     2.1463
 1470.5000     0.4476     2.1463
 1471.0000     0.4472     2.1462
 1471.5000     0.4468     2.1462
 1472.0000     0.4463     2.1461
 1472.5000     0.4459     2.1461
 1473.0000     0.4455     2.1461
 1473.5000     0.4450     2.1460
 1474.0000     0.4446     2.1460
 1474.5000     0.4442     2.1459
 1475.0000     0.4437     2.1459
 1475.5000     0.4433     2.1459
 1476.0000     0.4429     2.1458
 1476.5000     0.4424     2.1458
 1477.0000     0.4420     2.1457
 1477.5000     0.4416     2.1457
 1478.0000     0.4411     2.1457
 1478.5000     0.4407     2.1456
 1479.0000     0.4403     2.1456
 1479.5000     0.4398     2.1455
 1480.0000     0.4394     2.1455
 1480.5000     0.4390     2.1454
 1481.0000     0.4385     2.1454
 1481.5000     0.4381     2.1454
 1482.0000     0.4376     2.1453
 1482.5000     0.4076     2.1453
 1483.0000     0.3871     2.1452
 1483.5000     0.3606     2.1452
 1484.0000     0.3602     2.1452
 1484.5000     0.3597     2.1451
 1485.0000     0.3595     2.1451
 1485.5000     0.3598     2.1450
 1486.0000     0.3601     2.1450
 1486.5000     0.3604     2.1449
 1487.0000     0.3607     2.1449
 1487.5000     0.3610     2.1449
 1488.0000     0.3613     2.1448
 1488.5000     0.3615     2.1448
 1489.0000     0.3618     2.1447
 1489.5000     0.3621     2.1447
 1490.0000     0.3624     2.1447
 1490.5000     0.3627     2.1446
 1491.0000     0.3630     2.1446
 1491.5000     0.3633     2.1445
 1492.0000     0.3636     2.1445
 1492.5000     0.3700     2.1444
 1493.0000     0.3849     2.1444
 1493.5000     0.4277     2.1444
 1494.0000     0.4489     2.1443
 1494.5000     0.4485     2.1443
 1495.0000     0.4481     2.1442
 1495.5000     0.4476     2.1442
 1496.0000     0.3930     2.1442
 1496.5000     0.3926     2.1441
 1497.0000     0.3922     2.1441
 1497.5000     0.3971     2.1440
 1498.0000     0.4130     2.1440
 1498.5000     0.4666     2.1440
 1499.0000     0.4812     2.1439
 1499.5000     0.4874     2.1439
