~VERSION INFORMATION
 VERS.                2.0:   CWLS LOG ASCII STANDARD - VERSION 2.0
 WRAP.                 NO:   ONE LINE PER DEPTH STEP
~WELL INFORMATION
#MNEM.UNIT      DATA TYPE    INFORMATION
#----------   ------------   ------------------------------
 STRT.F           20.0000:   START DEPTH
 STOP.F          468.0000:   STOP DEPTH
 STEP.F            0.1000:   STEP LENGTH
 NULL.          -999.2500:   NO VALUE
 COMP. LAWRENCE/ALLISON INC:   COMPANY
 WELL.    63-51 SX #10-10:   WELL
 FLD .             TEAPOT:   FIELD
 LOC .      S10 T38N R78W:   LOCATION
 CNTY.            NATRONA:   COUNTY
 STAT.            WYOMING:   STATE
 CTRY. UNITED STATES OF AMERICA:   COUNTRY
 SRVC.           Gearhart:   SERVICE COMPANY
 DATE.        01-OCT-1988:   LOGDATE
 API .       490251125100:   API NUMBER
~CURVE INFORMATION
#MNEM.UNIT       API CODE    CURVE DESCRIPTION
#----------   ------------   ------------------------------
 DEPT.F                  :   
 GRR .GAPI   07 310 01 00:   GAMMA RAY
 RILD.OHMM   07 120 46 00:   INDUCTION LOG DEEP RESISTIVITY
 RILM.OHMM   07 120 44 00:   INDUCTION LOG MEDIUM RESISTIVITY
~PARAMETER INFORMATION
#MNEM.UNIT          VALUE    DESCRIPTION
#----------   ------------   ------------------------------
 PD  .                 GL:   PERMANENT DATUM
 EPD .F              5157:   ELEVATION PERMANENT DATUM
 LMF .                 KB:   LOG MEASURED FROM
 DAPD.F                 5:   FEET ABOVE PERMANENT DATUM
 DMF .                 KB:   DRILLING MEASURED FROM
 EKB .F              5162:   KELLING BUSHING
 EGL .F              5157:   GROUND LEVEL
 DATE.        01-OCT-1988:   RUN DATE
 RUN .                  1:   RUN NUMBER
 DD  .F               475:   DEPTH DRILLER
 DL  .F               476:   DEPTH LOGGER
 BLI .F               468:   BOTTOM LOG INTERVAL
 TLI .F                20:   TOP LOG INTERVAL
 CS  .IN            9.625:   CASING SIZE
 CBD .F                45:   CASING BOTTOM DRILLER
 CBL .F                46:   CASING BOTTOM LOGGER
 BS  .IN             7.87:   BIT SIZE
 BSD .F               475:   BIT SIZE AT DEPTH
 TLAB.HRS            1630:   TIME LOGGER AT BOTTOM
 MRT .F                75:   MAXIMUM RECORDED TEMPERATURE
 LUN .               7597:   LOGGING UNIT NUMBER
 LUL .           GILLETTE:   LOGGING UNIT LOCATION
 ENGI.              BENCK:   RECORDING ENGINEER
 WITN.             STRONG:   WITNESSED BY
 CLNT.            A2DTECH:   CLIENT CODE
 ORIG.           5" PRINT:   ORIGIN OF DATA
 UWI .       490251125100:   UNIQUE WELL ID
 DICO. A2D Technologies, Inc.:   DIGITIZING COMPANY
~OTHER INFORMATION
~A   DEPT       GRR      RILD       RILM   
# ...
  147.4000   117.7085     7.5889     7.2238
  147.5000   117.1910     7.5180     7.1811
  147.6000   116.9636     7.4753     7.1421
  147.7000   116.7212     7.4268     7.1016
  147.8000   116.3701     7.4265     7.0613
  147.9000   115.9310     7.3750     7.0212
  148.0000   115.6765     7.3067     6.9801
  148.1000   115.2135     7.2651     6.9418
  148.2000   114.8984     7.2185     6.8746
  148.3000   114.5441     7.1474     6.8151
  148.4000   114.1080     7.0667     6.7764
  148.5000   113.8566     7.0017     6.7370
  148.6000   113.6232     6.9568     6.6997
  148.7000   113.3807     6.8691     6.6346
  148.8000   113.1383     6.8345     6.5775
  148.9000   112.8959     6.7713     6.5401
  149.0000   112.6474     6.6948     6.5024
  149.1000   112.4110     6.6138     6.4304
  149.2000   112.3468     6.4906     6.3328
  149.3000   112.3493     6.4249     6.2266
  149.4000   112.5237     6.3292     6.1204
  149.5000   113.2703     6.2224     6.0142
  149.6000   114.2402     6.1225     5.9080
  149.7000   115.5852     6.0470     5.8018
  149.8000   117.0568     5.9241     5.6955
  149.9000   118.4679     5.8128     5.5893
  150.0000   119.6947     5.7119     5.5014
  150.1000   120.4018     5.6083     5.4341
  150.2000   121.1089     5.5048     5.3355
  150.3000   121.8159     5.4012     5.2254
  150.4000   122.5230     5.2976     5.1084
  150.5000   123.2301     5.1941     4.9940
  150.6000   123.9372     5.0905     4.8819
  150.7000   124.6442     4.9869     4.7659
  150.8000   125.3513     4.8834     4.6659
  150.9000   126.0584     4.7798     4.5614
  151.0000   126.7462     4.6762     4.4703
  151.1000   126.9932     4.5727     4.3899
  151.2000   127.0449     4.4636     4.2872
  151.3000   127.0467     4.3693     4.1956
  151.4000   126.9733     4.2716     4.1181
  151.5000   126.7449     4.1760     4.0429
  151.6000   126.7472     4.0823     3.9617
  151.7000   126.5481     3.9870     3.8806
  151.8000   126.3047     3.9228     3.7994
  151.9000   126.0612     3.8414     3.7183
  152.0000   125.8380     3.7554     3.6371
  152.1000   125.8403     3.6712     3.5560
  152.2000   125.4308     3.5865     3.4748
  152.3000   124.9419     3.5280     3.3937
  152.4000   124.4529     3.4827     3.3126
  152.5000   123.9642     3.4435     3.2314
  152.6000   123.4067     3.4047     3.1503
  152.7000   122.9869     3.3658     3.0691
  152.8000   122.4983     3.3471     2.9880
  152.9000   122.1000     3.3282     2.9068
  153.0000   121.8564     3.3003     2.8257
  153.1000   121.5837     3.2676     2.7445
  153.2000   121.5853     3.2491     2.6634
  153.3000   121.7429     3.2126     2.5923
  153.4000   121.9900     3.1900     2.5615
  153.5000   122.2016     3.1720     2.5207
  153.6000   122.2035     3.1495     2.4783
  153.7000   122.2052     3.1141     2.4427
  153.8000   122.0462     3.0966     2.4151
  153.9000   121.6011     3.0924     2.3869
  154.0000   120.7450     3.0834     2.3610
  154.1000   119.1592     3.0661     2.3438
  154.2000   118.2574     3.0491     2.3305
  154.3000   117.1117     3.0491     2.3173
  154.4000   115.8867     3.0358     2.3039
  154.5000   114.7081     3.0277     2.3038
  154.6000   113.6722     3.0325     2.3037
  154.7000   112.2878     3.0491     2.3037
  154.8000   111.1599     3.0491     2.3068
  154.9000   110.4022     3.0491     2.3199
  155.0000   109.9643     3.0679     2.3329
  155.1000   109.7118     3.0924     2.3461
  155.2000   109.4774     3.0941     2.3661
  155.3000   109.4101     3.1293     2.3929
  155.4000   109.4119     3.1650     2.4204
  155.5000   109.4137     3.2112     2.4759
  155.6000   109.4156     3.2662     2.5215
  155.7000   109.4174     3.3220     2.5801
  155.8000   109.9630     3.3896     2.6539
  155.9000   111.0640     3.4368     2.7292
  156.0000   112.7817     3.5070     2.7917
  156.1000   115.2352     3.5873     2.8684
  156.2000   117.4441     3.6708     2.9507
  156.3000   119.6547     3.7948     3.0299
  156.4000   121.3595     3.8667     3.0981
  156.5000   122.5875     3.9422     3.1617
  156.6000   123.8157     4.0173     3.2051
  156.7000   125.0438     4.1086     3.2703
  156.8000   125.8893     4.1970     3.3390
  156.9000   126.7582     4.2854     3.3971
  157.0000   127.5989     4.3739     3.4891
  157.1000   128.0916     4.4623     3.5544
  157.2000   128.6819     4.5507     3.6238
  157.3000   128.8798     4.6391     3.6997
  157.4000   128.9905     4.7275     3.8036
  157.5000   128.9924     4.8159     3.9050
  157.6000   128.9942     4.9043     3.9796
  157.7000   128.9964     4.9928     4.0569
  157.8000   128.9978     5.0812     4.1261
  157.9000   128.9997     5.1696     4.1965
  158.0000   129.0829     5.2580     4.2790
  158.1000   129.3087     5.3464     4.3625
  158.2000   129.3108     5.4348     4.4467
  158.3000   129.5189     5.5232     4.5320
  158.4000   129.6196     5.6117     4.6323
  158.5000   129.6214     5.7001     4.7220
  158.6000   129.6497     5.7673     4.7686
  158.7000   129.9306     5.8045     4.8398
  158.8000   130.1439     5.8780     4.9119
  158.9000   130.5425     5.9076     4.9713
  159.0000   131.0350     5.9628     5.0661
  159.1000   131.4961     6.0307     5.1427
  159.2000   131.7718     6.0992     5.2306
  159.3000   131.5567     6.1757     5.3080
  159.4000   131.1566     6.2390     5.3727
  159.5000   130.5712     6.2867     5.4736
  159.6000   129.8314     6.3370     5.5014
  159.7000   129.0586     6.4091     5.5531
  159.8000   128.2857     6.4885     5.6031
  159.9000   127.5129     6.5221     5.6399
  160.0000   126.7400     6.5591     5.7092
  160.1000   125.9672     6.5963     5.7388
  160.2000   125.1943     6.6273     5.7712
  160.3000   124.4215     6.6273     5.8037
  160.4000   123.7894     6.6273     5.8365
  160.5000   123.5511     6.6273     5.8716
  160.6000   123.5530     6.6273     5.9026
  160.7000   123.5548     6.6273     5.9359
  160.8000   123.5567     6.6273     5.9544
  160.9000   123.6287     6.5923     5.9543
  161.0000   123.8863     6.5551     5.9541
  161.1000   124.3786     6.5181     5.9539
  161.2000   124.8709     6.4813     5.9538
  161.3000   125.2279     6.4428     5.9691
  161.4000   125.5503     6.4428     5.9956
  161.5000   126.0426     6.3919     5.9954
  161.6000   126.6251     6.3362     5.9952
  161.7000   127.0276     6.3004     5.9951
  161.8000   127.3796     6.2635     5.9949
  161.9000   127.7072     6.2635     5.9869
  162.0000   128.1791     6.2382     5.9524
  162.1000   128.4662     6.1867     5.9522
  162.2000   128.4678     6.1323     5.9521
  162.3000   128.4696     6.1323     5.9519
  162.4000   128.4714     6.0986     5.9435
  162.5000   128.4733     6.0641     5.9098
  162.6000   128.4754     6.0299     5.8433
  162.7000   128.4770     5.9959     5.8020
  162.8000   128.4788     5.9616     5.7363
  162.9000   128.4806     5.9284     5.6478
  163.0000   128.5131     5.8949     5.5833
  163.1000   128.7898     5.8617     5.4785
  163.2000   129.0073     5.8286     5.3737
  163.3000   129.4101     5.7956     5.2688
  163.4000   129.8068     5.7629     5.1640
  163.5000   130.1250     5.7548     5.0591
  163.6000   130.9364     5.7384     4.9543
  163.7000   132.4843     5.6978     4.8495
  163.8000   134.3643     5.6339     4.7446
  163.9000   136.0022     5.6022     4.6398
  164.0000   137.1728     5.5947     4.5716
  164.1000   138.3433     5.5621     4.5458
  164.2000   139.5139     5.5078     4.5193
  164.3000   140.6845     5.4767     4.4944
  164.4000   141.8550     5.4458     4.4873
  164.5000   143.0256     5.4151     4.4872
  164.6000   144.0416     5.3845     4.4871
  164.7000   144.8067     5.3541     4.4869
  164.8000   145.9202     5.3239     4.4867
  164.9000   146.3471     5.2938     4.4866
  165.0000   146.3817     5.2639     4.4865
  165.1000   145.7673     5.2342     4.4800
  165.2000   144.4451     5.2134     4.4548
  165.3000   142.2652     5.2120     4.4546
  165.4000   141.1779     5.1767     4.4545
  165.5000   140.1111     5.1767     4.4544
