~VERSION INFORMATION
 VERS.                2.0:   CWLS LOG ASCII STANDARD - VERSION 2.0
 WRAP.                 NO:   ONE LINE PER DEPTH STEP
~WELL INFORMATION
#MNEM.UNIT      DATA TYPE    INFORMATION
#----------   ------------   ------------------------------
 STRT.F            6.0000:   START DEPTH
 STOP.F          495.0000:   STOP DEPTH
 STEP.F            0.5000:   STEP LENGTH
 NULL.          -999.2500:   NO VALUE
 COMP. FENIX & SCISSON INC:   COMPANY
 WELL. FI NPR-3 #65-25 SX3:   WELL
 FLD .  NAVAL RESERVES #3:   FIELD
 LOC .       S3 T38N R78W:   LOCATION
 CNTY.            NATRONA:   COUNTY
 STAT.            WYOMING:   STATE
 CTRY. UNITED STATES OF AMERICA:   COUNTRY
 SRVC.       Schlumberger:   SERVICE COMPANY
 DATE.        22-MAY-1980:   LOGDATE
 API .       490251080300:   API NUMBER
~CURVE INFORMATION
#MNEM.UNIT       API CODE    CURVE DESCRIPTION
#----------   ------------   ------------------------------
 DEPT.F                  :   
 SPR .MV     07 010 01 00:   SPONTANEOUS POTENTIAL
 SFL .OHMM   07 220 01 00:   SHALLOW FOCUSED LOG RESISTIVITY
 ILD .OHMM   07 120 46 00:   INDUCTION LOG DEEP RESISTIVITY
 ILM .OHMM   07 120 44 00:   INDUCTION LOG MEDIUM
 GRD .GAPI   45 310 01 00:   GAMMA RAY FROM DENSITY LOG
 CALD.IN     45 280 60 00:   CALIPER
 DPHI.DEC    45 890 12 00:   DENSITY POROSITY SANDSTONE
 RHOB.G/C3   45 350 01 00:   BULK DENSITY
 CORR.G/C3   45 356 01 00:   DENSITY CORRECTION
 NPHI.DEC    42 890 03 00:   NEUTRON POROSITY SANDSTONE
~PARAMETER INFORMATION
#MNEM.UNIT          VALUE    DESCRIPTION
#----------   ------------   ------------------------------
 PD  .                 GL:   PERMANENT DATUM
 EPD .F              5162:   ELEVATION PERMANENT DATUM
 LMF .                 KB:   LOG MEASURED FROM
 DAPD.F                 4:   FEET ABOVE PERMANENT DATUM
 DMF .                 KB:   DRILLING MEASURED FROM
 EKB .F              5166:   KELLING BUSHING
 EGL .F              5162:   GROUND LEVEL
 DATE.            5-22-80:   RUN DATE
 RUN .                  1:   RUN NUMBER
 DD  .F               500:   DEPTH DRILLER
 DL  .F               498:   DEPTH LOGGER
 BLI .F               492:   BOTTOM LOG INTERVAL
 TLI .F                10:   TOP LOG INTERVAL
 BS  .IN            9.875:   BIT SIZE
 BSD .F               500:   BIT SIZE AT DEPTH
 DFT .                KCL:   DRILLING FLUID TYPE
 DFD .                9.6:   DRILLING FLUID DENSITY
 DFV .                 45:   DRILLING FLUID VISCOSITY
 DFL .                8.9:   DRILLING FLUID LOSS
 MSS .               PITS:   MUD SAMPLE SOURCE
 RMS .OHMM            .21:   RESISTIVITY MUD SAMPLE
 MST .F                76:   MUD SAMPLE TEMPERATURE
 RMF .OHMM            .19:   RESISTIVITY MUD FILTRATE SAMPLE
 MFST.F                76:   MUD FILTRATE SAMPLE TEMPERATURE
 MFSS.               MEAS:   MUD FILTRATE SAMPLE SOURCE
 TLAB.HRS            0845:   TIME LOGGER AT BOTTOM
 LUN .               8035:   LOGGING UNIT NUMBER
 LUL .               CSPR:   LOGGING UNIT LOCATION
 ENGI.           C. DRAKE:   RECORDING ENGINEER
 WITN.              AMEND:   WITNESSED BY
 CLNT.            A2DTECH:   CLIENT CODE
 ORIG.           5" PRINT:   ORIGIN OF DATA
 UWI .       490251080300:   UNIQUE WELL ID
 DICO. A2D Technologies, Inc.:   DIGITIZING COMPANY
~OTHER INFORMATION
~A    DEPT     SPR        SFL        ILD        ILM         GRD       CALD      DPHI       RHOB       CORR        NPHI  
# ...
  207.0000   -83.2721     3.7981     4.5320     3.7954   126.8354    10.1844     0.1827     2.3780    -0.0025     0.4449
  207.5000   -83.4090     4.2262     4.4873     3.8795   124.7692    10.1887     0.1701     2.4068    -0.0025     0.4382
  208.0000   -83.4275     4.7239     4.4502     3.9655   119.5771    10.1930     0.1556     2.4233    -0.0053     0.4249
  208.5000   -83.2148     5.0848     4.6533     4.0582   116.2153    10.1973     0.1506     2.4244    -0.0095     0.4134
  209.0000   -83.0061     5.2361     4.8737     4.2892   117.1903    10.1956     0.1530     2.4217    -0.0125     0.4104
  209.5000   -82.7966     5.4646     5.1045     4.5416   121.0647    10.1876     0.1520     2.4264    -0.0110     0.4087
  210.0000   -82.5885     5.7032     5.3464     4.8088   124.8370    10.1791     0.1459     2.4378    -0.0073     0.4049
  210.5000   -82.2746     5.9521     5.5996     5.0917   126.9033    10.1572     0.1397     2.4513    -0.0074     0.3924
  211.0000   -81.8873     6.2119     5.8724     5.3913   126.4826    10.1394     0.1334     2.4574    -0.0095     0.3781
  211.5000   -81.5050     6.5172     6.1929     5.7085   123.7479    10.1269     0.1266     2.4740    -0.0054     0.3635
  212.0000   -81.3217     6.8940     6.5309     6.0327   120.8821    10.1137     0.1200     2.4842    -0.0008     0.3511
  212.5000   -81.4885     7.2925     6.8873     6.2018   118.7438    10.1015     0.1154     2.4855    -0.0004     0.3326
  213.0000   -81.6482     7.6150     7.2632     6.3765   118.9142    10.1128     0.1165     2.4829    -0.0005     0.3218
  213.5000   -81.8044     7.8818     7.6596     6.5546   120.2041    10.1206     0.1178     2.4808    -0.0005     0.3110
  214.0000   -81.8156     7.9743     7.7378     6.8008   121.7819    10.1205     0.1177     2.4811     0.0007     0.3058
  214.5000   -81.6015     8.0285     7.7378     6.8008   124.4669    10.1206     0.1175     2.4817     0.0026     0.3153
  215.0000   -81.3906     7.9722     7.7378     6.7126   126.4767    10.1206     0.1174     2.4824     0.0046     0.3315
  215.5000   -81.1793     7.9262     7.7097     6.6268   126.3635    10.1206     0.1181     2.4817     0.0067     0.3509
  216.0000   -80.9537     7.8818     7.5847     6.5422   124.4108    10.1206     0.1188     2.4802     0.0074     0.3581
  216.5000   -80.7203     7.7073     7.4619     6.4221   121.1542    10.1206     0.1194     2.4796     0.0059     0.3637
  217.0000   -80.5141     7.5413     7.3410     6.2571   120.1572    10.1206     0.1192     2.4796     0.0042     0.3636
  217.5000   -80.7588     7.3788     7.2220     6.0963   119.6602    10.1206     0.1190     2.4787    -0.0009     0.3582
  218.0000   -81.0699     7.3214     7.1050     5.9773   119.4281    10.1206     0.1198     2.4765    -0.0026     0.3539
  218.5000   -81.4578     7.3214     6.9899     5.8218   119.8824    10.1206     0.1206     2.4762    -0.0025     0.3533
  219.0000   -81.8388     7.3214     6.9274     5.6767   120.3345    10.1206     0.1214     2.4758    -0.0021     0.3501
  219.5000   -82.1581     7.1951     6.8026     5.4116   120.5726    10.1206     0.1218     2.4751    -0.0016     0.3394
  220.0000   -82.4589     7.0012     6.4254     5.1302   121.6630    10.1206     0.1198     2.4765     0.0007     0.3287
  220.5000   -82.5432     6.8081     5.8036     4.8800   127.5993    10.1206     0.1194     2.4778     0.0094     0.3234
  221.0000   -82.6049     6.4335     5.2378     4.4421   130.1365    10.1206     0.1238     2.4692     0.0115     0.3367
  221.5000   -82.6638     5.8096     5.0168     4.0612   129.9823    10.1206     0.1390     2.4469     0.0105     0.3587
  222.0000   -82.5221     4.8764     4.9708     3.8366   127.2826    10.1206     0.1565     2.4184     0.0072     0.4045
  222.5000   -82.1429     4.0160     4.9252     3.8398   122.8921    10.1206     0.1777     2.3743    -0.0002     0.4509
  223.0000   -81.7702     4.0139     5.0265     4.1279   121.5334    10.1206     0.1880     2.3670    -0.0067     0.4452
  223.5000   -81.5445     4.8733     5.1442     4.4017   120.8727    10.1206     0.1792     2.3787    -0.0124     0.4186
  224.0000   -81.7597     5.6596     5.2535     4.7318   120.1828    10.1205     0.1614     2.4117    -0.0111     0.3741
  224.5000   -81.8876     6.5738     5.6092     5.0867   119.5009    10.1206     0.1393     2.4462    -0.0029     0.3303
  225.0000   -81.5887     7.3756     6.1700     5.3630   118.8044    10.1284     0.1323     2.4543    -0.0019     0.3162
  225.5000   -81.3011     7.5620     6.7868     5.4826   118.6244    10.1371     0.1271     2.4627     0.0000     0.3158
  226.0000   -80.9779     7.6795     7.3892     5.6047   119.5563    10.1458     0.1230     2.4712     0.0054     0.3230
  226.5000   -80.5801     7.8095     7.4576     5.7296   121.6017    10.1545     0.1182     2.4782     0.0087     0.3466
  227.0000   -80.2517     7.7506     7.4194     5.8681   121.6426    10.1632     0.1185     2.4795     0.0045     0.3547
  227.5000   -80.1122     7.6672     7.3892     5.9450   120.8707    10.1719     0.1216     2.4759     0.0004     0.3430
  228.0000   -79.9679     7.7526     7.4911     5.9765   120.8759    10.1805     0.1247     2.4697    -0.0034     0.3285
  228.5000   -79.8244     7.8728     7.6033     6.0082   122.1301    10.1892     0.1234     2.4678    -0.0028     0.3166
  229.0000   -79.6810     7.9951     7.7173     6.0401   123.5241    10.1978     0.1198     2.4741    -0.0019     0.3170
  229.5000   -79.5318     8.1221     7.8330     6.0721   123.2910    10.2047     0.1179     2.4792    -0.0015     0.3293
  230.0000   -79.6341     8.2644     7.9503     6.1043   122.5870    10.2111     0.1157     2.4827    -0.0015     0.3406
  230.5000   -79.8981     8.2964     8.0285     6.1367   125.4143    10.2174     0.1106     2.4908    -0.0014     0.3499
  231.0000   -80.0955     8.3301     7.9586     6.1449   127.2908    10.2238     0.1055     2.4989     0.0034     0.3523
  231.5000   -80.0993     8.2573     7.8853     6.0744   127.2607    10.2302     0.1026     2.5054     0.0091     0.3485
  232.0000   -80.0657     8.1812     7.8126     6.0135   124.8558    10.2366     0.1070     2.5001     0.0054     0.3443
  232.5000   -79.9649     8.1028     7.7378     5.9531   121.7209    10.2429     0.1130     2.4889     0.0004     0.3443
  233.0000   -79.8999     8.0796     7.7241     5.8955   122.1109    10.2493     0.1147     2.4853     0.0005     0.3395
  233.5000   -79.9006     8.0555     7.7098     5.8650   125.0144    10.2560     0.1152     2.4847     0.0005     0.3339
  234.0000   -79.8428     8.0315     7.6955     5.9242   126.7110    10.2575     0.1172     2.4818     0.0002     0.3315
  234.5000   -79.4803     8.0076     7.6813     5.9455   126.9214    10.2164     0.1205     2.4756    -0.0007     0.3431
  235.0000   -79.1262     7.9837     7.6673     5.9572   126.9197    10.1999     0.1227     2.4708    -0.0034     0.3519
  235.5000   -79.0417     7.9552     7.6667     5.9689   127.4627    10.1981     0.1230     2.4707    -0.0059     0.3486
  236.0000   -79.4357     7.9719     7.6668     5.9807   127.2963    10.1972     0.1207     2.4755    -0.0070     0.3463
  236.5000   -79.8306     7.9935     7.6670     5.9925   126.6524    10.1964     0.1186     2.4808    -0.0033     0.3553
  237.0000   -79.8054     8.0153     7.6671     6.0043   127.0955    10.1954     0.1154     2.4845    -0.0017     0.3703
  237.5000   -79.6870     8.0378     7.6650     6.0161   128.4559    10.1945     0.1158     2.4836    -0.0047     0.3707
  238.0000   -79.5664     8.0610     7.6729     6.0280   129.8210    10.1936     0.1178     2.4773    -0.0084     0.3655
  238.5000   -79.4467     8.0844     7.2631     6.0327   130.1217    10.1926     0.1214     2.4720    -0.0093     0.3487
  239.0000   -79.3271     8.1028     6.9883     5.7305   131.6723    10.1917     0.1251     2.4665    -0.0061     0.3443
  239.5000   -79.2073     7.6257     6.7239     5.5249   133.7932    10.1907     0.1287     2.4611    -0.0029     0.3560
  240.0000   -79.0878     7.0121     6.6153     5.3267   135.9445    10.1898     0.1317     2.4553    -0.0052     0.3756
