~VERSION INFORMATION
 VERS.                2.0:   CWLS LOG ASCII STANDARD - VERSION 2.0
 WRAP.                 NO:   ONE LINE PER DEPTH STEP
~WELL INFORMATION
#MNEM.UNIT      DATA TYPE    INFORMATION
#----------   ------------   ------------------------------
 STRT.F           30.0000:   START DEPTH
 STOP.F          770.5000:   STOP DEPTH
 STEP.F            0.5000:   STEP LENGTH
 NULL.          -999.2500:   NO VALUE
 COMP. FENIX & SCISSON INC:   COMPANY
 WELL. TEAPOT DOME 63 SX 34 #63-34:   WELL
 FLD .             TEAPOT:   FIELD
 LOC .      S34 T39N R78W:   LOCATION
 CNTY.            NATRONA:   COUNTY
 STAT.            WYOMING:   STATE
 CTRY. UNITED STATES OF AMERICA:   COUNTRY
 SRVC.           BIRDWELL:   SERVICE COMPANY
 DATE.        18-AUG-1978:   LOGDATE
 API .       490251070300:   API NUMBER
~CURVE INFORMATION
#MNEM.UNIT       API CODE    CURVE DESCRIPTION
#----------   ------------   ------------------------------
 DEPT.F                  :   
 SPR .MV     05 010 01 00:   SPONTANEOUS POTENTIAL
 SN  .OHMM   05 040 16 00:   SHORT NORMAL 16'
 ILD .OHMM   05 120 46 00:   INDUCTION LOG DEEP RESISTIVITY
 CALD.IN     45 280 60 00:   CALIPER
 GRD .GAPI   45 310 01 00:   GAMMA RAY FROM DENSITY LOG
 RHOB.G/C3   45 350 01 00:   BULK DENSITY
 DPHI.DEC    45 890 12 00:   DENSITY POROSITY SANDSTONE
 CORR.G/C3   45 356 01 00:   DENSITY CORRECTION
~PARAMETER INFORMATION
#MNEM.UNIT          VALUE    DESCRIPTION
#----------   ------------   ------------------------------
 PD  .                 GL:   PERMANENT DATUM
 EPD .F              5063:   ELEVATION PERMANENT DATUM
 LMF .                 KB:   LOG MEASURED FROM
 DAPD.F                 4:   FEET ABOVE PERMANENT DATUM
 DMF .                 KB:   DRILLING MEASURED FROM
 EKB .F              5067:   KELLING BUSHING
 EGL .F              5063:   GROUND LEVEL
 DATE.          8-18-1978:   RUN DATE
 RUN .                  1:   RUN NUMBER
 DD  .F               760:   DEPTH DRILLER
 DL  .F               770:   DEPTH LOGGER
 BLI .F               763:   BOTTOM LOG INTERVAL
 TLI .F                40:   TOP LOG INTERVAL
 CS  .IN            8.625:   CASING SIZE
 CBD .F                40:   CASING BOTTOM DRILLER
 CBL .F                40:   CASING BOTTOM LOGGER
 BS  .IN            7.875:   BIT SIZE
 BSD .F               760:   BIT SIZE AT DEPTH
 DFT .            MUD KCL:   DRILLING FLUID TYPE
 DFL .               10.6:   DRILLING FLUID LOSS
 MSS .          FLOW LINE:   MUD SAMPLE SOURCE
 RMS .OHMM             .2:   RESISTIVITY MUD SAMPLE
 MST .F                56:   MUD SAMPLE TEMPERATURE
 RMF .OHMM             .2:   RESISTIVITY MUD FILTRATE SAMPLE
 MFST.F                64:   MUD FILTRATE SAMPLE TEMPERATURE
 RMC .OHMM            .36:   RESISTIVITY MUD CAKE
 MCST.F                64:   MUD CAKE SAMPLE TEMPERATURE
 MFSS.               MEAS:   MUD FILTRATE SAMPLE SOURCE
 MCSS.               MEAS:   MUD CAKE SAMPLE SOURCE
 TCS .HRS               3:   TIME CURCULATED STOPPED
 MRT .F                72:   MAXIMUM RECORDED TEMPERATURE
 LUN .               3006:   LOGGING UNIT NUMBER
 LUL .               CASP:   LOGGING UNIT LOCATION
 ENGI.           REYNOLDS:   RECORDING ENGINEER
 WITN.              AMEND:   WITNESSED BY
 CLNT.            A2DTECH:   CLIENT CODE
 ORIG.           5" PRINT:   ORIGIN OF DATA
 UWI .       490251070300:   UNIQUE WELL ID
 DICO. A2D Technologies, Inc.:   DIGITIZING COMPANY
~OTHER INFORMATION
~A   DEPT      SPR         SN        ILD       CALD         GRD      RHOB       DPHI       CORR   
# ...
  273.0000   -75.6555     7.9151     6.7911     7.1499    83.8636     2.4708     0.1175     0.0220
  273.5000   -75.6082     7.9540     6.7702     7.1489    85.4276     2.4670     0.1190     0.0181
  274.0000   -75.4958     7.9930     6.7543     7.1478    87.9363     2.4639     0.1198     0.0194
  274.5000   -75.3844     8.0323     6.7387     7.1468    89.5145     2.4605     0.1186     0.0216
  275.0000   -75.2728     8.0717     6.7232     7.1458    87.3562     2.4686     0.1173     0.0237
  275.5000   -75.1612     8.1007     6.7077     7.1448    88.5102     2.4714     0.1166     0.0237
  276.0000   -75.0497     8.1227     6.6923     7.1438    90.9219     2.4707     0.1157     0.0233
  276.5000   -74.9381     8.1447     6.6769     7.1427    93.0663     2.4697     0.1144     0.0230
  277.0000   -74.8265     8.1668     6.6678     7.1417    92.5573     2.4730     0.1134     0.0227
  277.5000   -74.7150     8.1889     6.7401     7.1407    90.3273     2.4777     0.1157     0.0223
  278.0000   -74.6034     8.2110     6.7921     7.1397    88.1654     2.4719     0.1185     0.0220
  278.5000   -74.4918     8.2329     6.8445     7.1386    86.0149     2.4662     0.1194     0.0250
  279.0000   -74.3797     8.3130     6.8972     7.1376    83.8672     2.4660     0.1172     0.0285
  279.5000   -74.2648     8.4061     6.9504     7.1366    82.5069     2.4768     0.1125     0.0320
  280.0000   -74.3293     8.5005     7.0039     7.1356    82.0690     2.4876     0.1078     0.0331
  280.5000   -74.4213     8.5960     7.0579     7.1346    81.6299     2.4983     0.1032     0.0312
  281.0000   -74.8628     8.6925     7.1123     7.1335    81.1958     2.5090     0.0978     0.0282
  281.5000   -75.3690     8.7900     7.1766     7.1325    80.7540     2.5034     0.1027     0.0205
  282.0000   -75.4692     8.9128     7.1640     7.1315    80.6808     2.4927     0.1098     0.0209
  282.5000   -75.4918     8.9480     7.1488     7.1305    81.4839     2.4836     0.1098     0.0273
  283.0000   -75.5127     8.9480     7.1336     7.1294    84.5012     2.4830     0.1085     0.0338
  283.5000   -75.5344     8.9480     7.1185     7.1284    87.2658     2.4852     0.1073     0.0397
  284.0000   -75.5562     8.9099     7.1034     7.1274    87.6990     2.4874     0.1066     0.0357
  284.5000   -75.5781     8.8500     7.0883     7.1264    87.3669     2.4898     0.1086     0.0314
  285.0000   -75.5999     8.7906     7.0732     7.1254    87.0487     2.4806     0.1126     0.0272
  285.5000   -75.6217     8.7315     7.0582     7.1243    86.5520     2.4745     0.1237     0.0230
  286.0000   -75.6435     8.6729     7.0433     7.1233    84.4487     2.4662     0.1253     0.0189
  286.5000   -75.6654     8.6146     7.0283     7.1223    81.3452     2.4531     0.1272     0.0147
  287.0000   -75.6872     8.5568     7.0134     7.1213    78.2734     2.4485     0.1283     0.0105
  287.5000   -75.7090     8.4991     6.9985     7.1203    79.3377     2.4506     0.1274     0.0080
  288.0000   -75.7309     8.4644     6.9836     7.1192    82.0175     2.4531     0.1259     0.0084
  288.5000   -75.7527     8.4565     6.9688     7.1182    84.6828     2.4519     0.1278     0.0110
  289.0000   -75.7745     8.4488     6.9540     7.1172    86.8633     2.4475     0.1317     0.0129
  289.5000   -75.7963     8.4410     6.9392     7.1162    86.7939     2.4493     0.1245     0.0147
  290.0000   -75.8182     8.4333     6.9245     7.1151    87.2919     2.4566     0.1241     0.0165
  290.5000   -75.8399     8.4255     6.9098     7.1141    87.7881     2.4595     0.1250     0.0184
  291.0000   -75.8480     8.4178     6.8951     7.1131    87.5327     2.4598     0.1216     0.0202
  291.5000   -75.8397     8.4100     6.8805     7.1121    86.0429     2.4674     0.1172     0.0220
  292.0000   -75.8316     8.4023     6.8659     7.1111    82.4697     2.4746     0.1126     0.0238
  292.5000   -75.8234     8.3946     6.8513     7.1100    80.0565     2.4762     0.1141     0.0257
  293.0000   -75.8152     8.3868     6.8368     7.1100    81.2228     2.4743     0.1150     0.0276
  293.5000   -75.8071     8.3791     6.8223     7.1100    82.1491     2.4804     0.1100     0.0265
  294.0000   -75.7989     8.3714     6.8078     7.1100    83.8568     2.4858     0.1066     0.0247
  294.5000   -75.7907     8.3637     6.7917     7.1100    86.9362     2.4873     0.1058     0.0229
  295.0000   -75.7825     8.3560     6.7976     7.1100    89.9270     2.4875     0.1062     0.0210
  295.5000   -75.7744     8.3483     6.8043     7.1100    91.8163     2.4867     0.1091     0.0193
  296.0000   -75.7662     8.3406     6.8111     7.1100    89.9666     2.4819     0.1140     0.0196
  296.5000   -75.7580     8.3329     6.8180     7.1100    87.3870     2.4768     0.1132     0.0246
  297.0000   -75.7499     8.3253     6.8248     7.1069    85.1856     2.4777     0.1120     0.0296
  297.5000   -75.7417     8.3176     6.8316     7.1037    85.7852     2.4786     0.1129     0.0319
  298.0000   -75.7335     8.3100     6.8384     7.1003    86.0470     2.4753     0.1138     0.0300
  298.5000   -75.7254     8.3023     6.8453     7.0970    85.9640     2.4739     0.1150     0.0279
  299.0000   -75.7172     8.2947     6.8542     7.0937    86.0000     2.4776     0.1150     0.0258
  299.5000   -75.7090     8.2870     6.8289     7.0904    86.3761     2.4750     0.1158     0.0240
  300.0000   -75.7009     8.2794     6.7916     7.0871    86.7220     2.4681     0.1212     0.0241
  300.5000   -75.6927     8.2718     6.7550     7.0838    85.6377     2.4610     0.1218     0.0247
  301.0000   -75.6845     8.2642     6.7292     7.0805    84.1322     2.4597     0.1206     0.0252
  301.5000   -75.6763     8.2566     6.6603     7.0772    82.9062     2.4614     0.1253     0.0259
  302.0000   -75.6681     8.2491     6.5975     7.0739    84.9316     2.4631     0.1198     0.0276
  302.5000   -75.6598     8.2413     6.5356     7.0706    87.5077     2.4543     0.1277     0.0311
  303.0000   -75.6520     8.2287     6.4742     7.0673    90.0879     2.4618     0.1237     0.0372
  303.5000   -75.6760     8.1977     6.4135     7.0640    92.6707     2.4776     0.1157     0.0433
  304.0000   -75.7026     8.1673     6.3533     7.0607    95.2563     2.4914     0.1070     0.0496
  304.5000   -75.7292     8.1369     6.2937     7.0574    93.7545     2.4895     0.1064     0.0491
  305.0000   -75.7557     8.1067     6.2523     7.0541    91.6077     2.4899     0.1070     0.0482
  305.5000   -75.7822     8.0765     6.2191     7.0507    91.2039     2.4985     0.1051     0.0449
  306.0000   -75.8086     8.0465     6.1891     7.0541    91.1129     2.5008     0.1038     0.0407
  306.5000   -75.8361     8.0135     6.1592     7.0594    89.6846     2.4950     0.1050     0.0364
  307.0000   -75.9204     8.0461     6.1384     7.0649    85.8240     2.4890     0.1064     0.0321
  307.5000   -76.1050     8.0824     6.2205     7.0703    83.8831     2.4847     0.1077     0.0319
  308.0000   -76.2881     8.1189     6.2843     7.0757    84.8857     2.4831     0.1090     0.0319
  308.5000   -76.4715     8.1556     6.3502     7.0812    86.2396     2.4824     0.1098     0.0325
  309.0000   -76.6548     8.1924     6.4357     7.0866    87.2748     2.4816     0.1102     0.0343
  309.5000   -76.8380     8.2294     6.5366     7.0920    86.5949     2.4831     0.1096     0.0360
  310.0000   -77.0212     8.2666     6.6372     7.0975    85.8524     2.4979     0.1086     0.0377
  310.5000   -77.2054     8.3039     6.7294     7.1029    85.8734     2.4921     0.1094     0.0395
  311.0000   -77.3869     8.3414     6.7294     7.1083    86.9855     2.4848     0.1098     0.0412
  311.5000   -77.7308     8.3791     6.7295     7.1137    88.1138     2.4856     0.1067     0.0430
  312.0000   -78.0224     8.3904     6.7294     7.1192    89.2532     2.4896     0.1017     0.0447
  312.5000   -77.8162     8.3824     6.7295     7.1247    89.6983     2.4935     0.0967     0.0464
  313.0000   -77.6215     8.3762     6.7253     7.1298    89.7100     2.4998     0.0926     0.0471
