~VERSION INFORMATION
 VERS.                2.0:   CWLS LOG ASCII STANDARD - VERSION 2.0
 WRAP.                 NO:   ONE LINE PER DEPTH STEP
~WELL INFORMATION
#MNEM.UNIT      DATA TYPE    INFORMATION
#----------   ------------   ------------------------------
 STRT.F           21.0000:   START DEPTH
 STOP.F          543.0000:   STOP DEPTH
 STEP.F            0.5000:   STEP LENGTH
 NULL.          -999.2500:   NO VALUE
 COMP. FENIX & SCISSON INC:   COMPANY
 WELL.      NPR #3 #46-10:   WELL
 FLD .             TEAPOT:   FIELD
 LOC .      S10 T38N R78W:   LOCATION
 CNTY.            NATRONA:   COUNTY
 STAT.            WYOMING:   STATE
 CTRY. UNITED STATES OF AMERICA:   COUNTRY
 SRVC.              Welex:   SERVICE COMPANY
 DATE.        08-MAY-1980:   LOGDATE
 API .       490251081100:   API NUMBER
~CURVE INFORMATION
#MNEM.UNIT       API CODE    CURVE DESCRIPTION
#----------   ------------   ------------------------------
 DEPT.F                  :   
 SGRD.OHMM   07 220 05 00:   SHALLOW GUARD RESISTIVITY
 ILD .OHMM   07 120 46 00:   INDUCTION LOG DEEP RESISTIVITY
 ILM .OHMM   07 120 44 00:   INDUCTION LOG MEDIUM
 SPR .MV     07 010 01 00:   SPONTANEOUS POTENTIAL
 CALD.IN     45 280 60 00:   CALIPER
 GRD .GAPI   45 310 01 00:   GAMMA RAY FROM DENSITY LOG
 CORR.G/C3   45 356 01 00:   DENSITY CORRECTION
 RHOB.G/C3   45 350 01 00:   BULK DENSITY
 DPHI.DEC    45 890 12 00:   DENSITY POROSITY SANDSTONE
~PARAMETER INFORMATION
#MNEM.UNIT          VALUE    DESCRIPTION
#----------   ------------   ------------------------------
 PD  .                 GL:   PERMANENT DATUM
 EPD .F              5206:   ELEVATION PERMANENT DATUM
 LMF .                 KB:   LOG MEASURED FROM
 DAPD.F                 5:   FEET ABOVE PERMANENT DATUM
 DMF .                 KB:   DRILLING MEASURED FROM
 EKB .F              5211:   KELLING BUSHING
 EGL .F              5206:   GROUND LEVEL
 DATE.             5-8-80:   RUN DATE
 RUN .                  1:   RUN NUMBER
 DD  .F               530:   DEPTH DRILLER
 DL  .F               543:   DEPTH LOGGER
 BLI .F               541:   BOTTOM LOG INTERVAL
 TLI .F                30:   TOP LOG INTERVAL
 BS  .IN            7.875:   BIT SIZE
 BSD .F               530:   BIT SIZE AT DEPTH
 DFT .            KCL MUD:   DRILLING FLUID TYPE
 DFD .                9.1:   DRILLING FLUID DENSITY
 DFV .                 43:   DRILLING FLUID VISCOSITY
 MSS .                PIT:   MUD SAMPLE SOURCE
 RMS .OHMM            .89:   RESISTIVITY MUD SAMPLE
 MST .F                75:   MUD SAMPLE TEMPERATURE
 RMF .OHMM            .71:   RESISTIVITY MUD FILTRATE SAMPLE
 MFST.F                75:   MUD FILTRATE SAMPLE TEMPERATURE
 RMC .OHMM           1.08:   RESISTIVITY MUD CAKE
 MCST.F                75:   MUD CAKE SAMPLE TEMPERATURE
 MFSS.           MEASURED:   MUD FILTRATE SAMPLE SOURCE
 MCSS.           MEASURED:   MUD CAKE SAMPLE SOURCE
 BHT .F               100:   BOTTOM HOLE TEMPERATURE
 TCS .HRS               2:   TIME CURCULATED STOPPED
 MRT .F               100:   MAXIMUM RECORDED TEMPERATURE
 LUN .               9685:   LOGGING UNIT NUMBER
 LUL .             CASPER:   LOGGING UNIT LOCATION
 ENGI.            TOTHILL:   RECORDING ENGINEER
 WITN.              AMEND:   WITNESSED BY
 CLNT.            A2DTECH:   CLIENT CODE
 ORIG.           5" PRINT:   ORIGIN OF DATA
 UWI .       490251081100:   UNIQUE WELL ID
 DICO. A2D Technologies, Inc.:   DIGITIZING COMPANY
~OTHER INFORMATION
~A   DEPT     SGRD        ILD        ILM        SPR        CALD        GRD        CORR       RHOB     DPHI   
# ...
  495.5000    10.7784     6.9915     9.4777   -28.7041     7.8194   101.6217     0.0333     2.4650     0.1273
  496.0000    10.6818     6.8121     9.4780   -28.7646     7.8191   101.9403     0.0320     2.4639     0.1277
  496.5000    10.5860     6.4926     9.4789   -28.8250     7.8191   101.5399     0.0288     2.4509     0.1338
  497.0000    10.4911     6.3173     9.4778   -28.8853     7.8191   100.7560     0.0256     2.4396     0.1393
  497.5000    10.3970     6.2593     9.2777   -28.9455     7.8191   100.7498     0.0250     2.4342     0.1444
  498.0000    10.2977     6.2018     9.1095   -29.0057     7.8191   101.0111     0.0254     2.4327     0.1445
  498.5000     9.9109     6.1053     8.9443   -29.0659     7.8191   101.5575     0.0244     2.4202     0.1521
  499.0000     9.5655     5.9061     8.7821   -29.1261     7.8191   101.9548     0.0219     2.4044     0.1592
  499.5000     9.2952     5.7124     8.4625   -29.1863     7.8191   102.0423     0.0220     2.4096     0.1631
  500.0000     9.3105     5.5250     8.1028   -29.2465     7.8191   102.2443     0.0247     2.4103     0.1596
  500.5000     9.2971     5.4008     8.0285   -29.3068     7.8191   101.9938     0.0273     2.4191     0.1549
  501.0000     9.7114     5.3513     8.4817   -29.3673     7.8191   101.7127     0.0262     2.4198     0.1544
  501.5000    10.4495     5.5993     8.8421   -29.4274     7.8191   101.4279     0.0244     2.4201     0.1530
  502.0000    11.2369     5.8701     9.2189   -29.4670     7.8191   101.3486     0.0230     2.4224     0.1527
  502.5000    11.9379     6.0896     9.6146   -29.4171     7.8191   101.3460     0.0273     2.4368     0.1436
  503.0000    12.2692     6.1926     9.9249   -29.3690     7.8191   101.2614     0.0232     2.4257     0.1473
  503.5000    12.2692     6.4718     9.7904   -29.3210     7.8191   100.9578     0.0189     2.4181     0.1543
  504.0000    12.1542     6.9188     9.5655   -29.2908     7.8191   100.6573     0.0165     2.4297     0.1496
  504.5000    12.2641     7.4074     9.5622   -29.3859     7.8191   100.3615     0.0217     2.4365     0.1445
  505.0000    12.4706     7.8818     9.7374   -29.4801     7.8191   100.3171     0.0170     2.4176     0.1504
  505.5000    12.6804     7.7742     9.9665   -29.5740     7.8191   100.9389     0.0163     2.4152     0.1588
  506.0000    12.8438     7.5964    10.1141   -29.6678     7.8191   101.7747     0.0238     2.4375     0.1527
  506.5000    12.9743     7.5267     9.9662   -29.7622     7.8191   101.5033     0.0277     2.4567     0.1324
  507.0000    12.9620     7.5964     9.9202   -29.8598     7.8191   101.0031     0.0282     2.4572     0.1310
  507.5000    12.9719     7.8184    10.0168   -29.9319     7.8191   100.4877     0.0302     2.4634     0.1283
  508.0000    12.4779     8.0788    10.1014   -30.0056     7.8191    99.3822     0.0356     2.4684     0.1249
  508.5000    12.2692     8.2536    10.2216   -30.0798     7.8191    99.8851     0.0383     2.4631     0.1259
  509.0000    12.2692     8.3301    10.3931   -30.1540     7.8191   100.5983     0.0415     2.4683     0.1254
  509.5000    12.3483     8.1670    10.2558   -30.2281     7.8191   101.3127     0.0410     2.4591     0.1289
  510.0000    12.4291     8.0501    10.1180   -30.3023     7.8191   101.8517     0.0430     2.4530     0.1320
  510.5000    12.5106     7.9350     9.9817   -30.3765     7.8191   100.9926     0.0467     2.4657     0.1274
  511.0000    12.5927     7.8215     9.8331   -30.4507     7.8191   100.1165     0.0487     2.4726     0.1221
  511.5000    12.6763     7.7378     9.9422   -30.5249     7.8191    98.9269     0.0443     2.4657     0.1259
  512.0000    12.7298     7.7378    10.1005   -30.5987     7.8191    97.7865     0.0402     2.4557     0.1305
  512.5000    12.5096     7.7378    10.2610   -30.6429     7.8191    98.0239     0.0398     2.4503     0.1358
  513.0000    12.3472     7.7378    10.4269   -30.6493     7.8191    98.4181     0.0401     2.4467     0.1331
  513.5000    12.1840     7.7379    10.5865   -30.4254     7.8191    98.8143     0.0405     2.4452     0.1305
  514.0000    11.7719     7.7383    10.6846   -30.1027     7.8191    98.8837     0.0373     2.4439     0.1321
  514.5000    11.1897     7.5944    10.0496   -30.0528     7.8191    98.3414     0.0324     2.4402     0.1442
  515.0000    10.6364     7.3176     9.5668   -30.0619     7.8191    98.3533     0.0264     2.4176     0.1554
  515.5000    10.1104     7.1250     9.1073   -30.2439     7.8191    98.3523     0.0210     2.3951     0.1666
  516.0000     9.6104     6.7188     8.6698   -30.4355     7.8191    98.0313     0.0186     2.3810     0.1775
  516.5000     9.1353     6.3145     8.3301   -30.6262     7.8191    97.4577     0.0222     2.3662     0.1841
  517.0000     8.6834     5.9324     8.1779   -30.8219     7.8191    97.3314     0.0233     2.3566     0.1906
  517.5000     8.2540     5.5020     7.8818   -31.2316     7.8191    97.2104     0.0289     2.3561     0.1918
  518.0000     7.6088     4.8879     7.1416   -31.2246     7.8191    96.3133     0.0355     2.3570     0.1902
  518.5000     6.7597     4.3424     6.2330   -31.2354     7.8191    95.1050     0.0366     2.3462     0.1977
  519.0000     6.0053     3.8551     5.4572   -30.8597     7.8191    94.7647     0.0366     2.3265     0.2091
  519.5000     5.3351     3.4047     4.7469   -30.3951     7.8191    94.7607     0.0365     2.3070     0.2213
  520.0000     4.7390     3.0069     4.1075   -29.9284     7.8191    94.7628     0.0418     2.2911     0.2296
  520.5000     4.2074     2.6555     3.5290   -29.4612     7.8191    94.6432     0.0487     2.2848     0.2341
  521.0000     3.7659     2.5003     3.1371   -29.0066     7.8191    93.5298     0.0503     2.2792     0.2361
  521.5000     3.8398     2.3541     3.1278   -28.9981     7.8190    92.9955     0.0520     2.2799     0.2371
  522.0000     4.9916     2.3340     3.9149   -29.9129     7.8134    93.0578     0.0538     2.2828     0.2395
  522.5000     6.4048     2.4217     4.8352   -30.8122     7.7932    93.1192     0.0555     2.3200     0.2096
  523.0000     8.0097     2.5594     5.2053   -31.7070     7.7733    93.1813     0.0526     2.3652     0.1926
  523.5000     8.4422     2.6801     5.5013   -32.2465     7.7537    93.2358     0.0437     2.4139     0.1659
  524.0000     8.8854     2.8853     6.0250   -32.3644     7.7607    93.5343     0.0312     2.4281     0.1488
  524.5000     8.8440     3.1778     6.7021   -32.2826     7.8005    94.9109     0.0339     2.4503     0.1357
  525.0000     8.8039     3.6008     7.3214   -32.1930     7.8054    96.2484     0.0294     2.4476     0.1356
  525.5000     8.8854     4.0800     7.6668   -32.1062     7.8103    96.2640     0.0286     2.4484     0.1379
  526.0000     9.1915     4.6231     7.9936   -32.0154     7.8151    96.2589     0.0286     2.4430     0.1392
  526.5000     9.5323     5.2385     8.2736   -32.2041     7.8199    96.2620     0.0277     2.4427     0.1388
  527.0000     9.9249     5.7022     8.4851   -32.5159     7.8247    96.0236     0.0251     2.4365     0.1424
  527.5000     9.9249     6.0022     8.4851   -32.8165     7.8295    95.6917     0.0229     2.4322     0.1455
  528.0000     9.9249     6.3173     8.4851   -33.1793     7.8343    95.3580     0.0293     2.4326     0.1452
  528.5000     9.9249     6.3387     8.4851   -33.1694     7.8391    95.0738     0.0362     2.4511     0.1355
  529.0000     9.8338     6.3602     8.4637   -33.1731     7.8439    95.1856     0.0431     2.4694     0.1258
  529.5000     9.9512     6.3817     8.4304   -33.1654     7.8488    95.2987     0.0485     2.4836     0.1145
  530.0000    10.0896     6.4033     8.4072   -33.0262     7.8536    95.1706     0.0371     2.4685     0.1150
  530.5000    10.2298     6.4250     8.5282   -33.1093     7.8583    94.5327     0.0324     2.4537     0.1349
  531.0000    10.3721     6.4347     8.6430   -33.5156     7.8608    94.9044     0.0346     2.4680     0.1257
  531.5000    10.4894     6.3971     8.5909   -33.8979     7.8630    95.3969     0.0336     2.4635     0.1268
