~VERSION INFORMATION
 VERS.                2.0:   CWLS LOG ASCII STANDARD - VERSION 2.0
 WRAP.                 NO:   ONE LINE PER DEPTH STEP
~WELL INFORMATION
#MNEM.UNIT      DATA TYPE    INFORMATION
#----------   ------------   ------------------------------
 STRT.F           32.0000:   START DEPTH
 STOP.F          688.5000:   STOP DEPTH
 STEP.F            0.5000:   STEP LENGTH
 NULL.          -999.2500:   NO VALUE
 COMP. FENIX & SCISSON INC:   COMPANY
 WELL.       NPR 3 #78-34:   WELL
 FLD .  TEAPOT DOME NPR-3:   FIELD
 LOC .      S34 T39N R78W:   LOCATION
 CNTY.            NATRONA:   COUNTY
 STAT.            WYOMING:   STATE
 CTRY. UNITED STATES OF AMERICA:   COUNTRY
 SRVC.           BIRDWELL:   SERVICE COMPANY
 DATE.        16-AUG-1978:   LOGDATE
 API .       490251070700:   API NUMBER
~CURVE INFORMATION
#MNEM.UNIT       API CODE    CURVE DESCRIPTION
#----------   ------------   ------------------------------
 DEPT.F                  :   
 SPR .MV     05 010 01 00:   SPONTANEOUS POTENTIAL
 SN  .OHMM   05 040 16 00:   SHORT NORMAL 16'
 ILD .OHMM   05 120 46 00:   INDUCTION LOG DEEP RESISTIVITY
 CALD.IN     45 280 60 00:   CALIPER
 GRD .GAPI   45 310 01 00:   GAMMA RAY FROM DENSITY LOG
 RHOB.G/C3   45 350 01 00:   BULK DENSITY
 DPHI.DEC    45 890 12 00:   DENSITY POROSITY SANDSTONE
 CORR.G/C3   45 356 01 00:   DENSITY CORRECTION
~PARAMETER INFORMATION
#MNEM.UNIT          VALUE    DESCRIPTION
#----------   ------------   ------------------------------
 PD  .                 GL:   PERMANENT DATUM
 EPD .F              5085:   ELEVATION PERMANENT DATUM
 LMF .                 KB:   LOG MEASURED FROM
 DAPD.F                 4:   FEET ABOVE PERMANENT DATUM
 DMF .                 KB:   DRILLING MEASURED FROM
 EKB .F              5089:   KELLING BUSHING
 EGL .F              5085:   GROUND LEVEL
 DATE.          8-16-1978:   RUN DATE
 RUN .                  1:   RUN NUMBER
 DD  .F               680:   DEPTH DRILLER
 DL  .F               688:   DEPTH LOGGER
 BLI .F               682:   BOTTOM LOG INTERVAL
 TLI .F                50:   TOP LOG INTERVAL
 CS  .IN            8.625:   CASING SIZE
 CBD .F                40:   CASING BOTTOM DRILLER
 BS  .IN            7.875:   BIT SIZE
 BSD .F               680:   BIT SIZE AT DEPTH
 DFT .                KCL:   DRILLING FLUID TYPE
 RMS .OHMM            .32:   RESISTIVITY MUD SAMPLE
 MST .F                64:   MUD SAMPLE TEMPERATURE
 RMF .OHMM             .3:   RESISTIVITY MUD FILTRATE SAMPLE
 MFST.F                76:   MUD FILTRATE SAMPLE TEMPERATURE
 RMC .OHMM            .16:   RESISTIVITY MUD CAKE
 MCST.F                64:   MUD CAKE SAMPLE TEMPERATURE
 MFSS.               MEAS:   MUD FILTRATE SAMPLE SOURCE
 MCSS.               MEAS:   MUD CAKE SAMPLE SOURCE
 TCS .HRS               1:   TIME CURCULATED STOPPED
 LUN .               3006:   LOGGING UNIT NUMBER
 LUL .               CASP:   LOGGING UNIT LOCATION
 ENGI.             MILLER:   RECORDING ENGINEER
 WITN.           MCGINLEY:   WITNESSED BY
 CLNT.            A2DTECH:   CLIENT CODE
 ORIG.           5" PRINT:   ORIGIN OF DATA
 UWI .       490251070700:   UNIQUE WELL ID
 DICO. A2D Technologies, Inc.:   DIGITIZING COMPANY
~OTHER INFORMATION
~A   DEPT      SPR         SN        ILD       CALD         GRD      RHOB       DPHI       CORR   
# ...
  315.5000   -32.8792     8.4764     7.6003     7.7665    85.3485     2.4918     0.1158     0.0192
  316.0000   -32.8685     8.3867     7.5235     7.7665    81.5639     2.4946     0.1121     0.0197
  316.5000   -32.8578     8.2979     7.4474     7.7665    80.8038     2.4907     0.1222     0.0202
  317.0000   -32.8471     8.2310     7.3722     7.7665    80.8145     2.4793     0.1208     0.0207
  317.5000   -32.8364     8.2100     7.3098     7.7665    81.6798     2.4795     0.1202     0.0213
  318.0000   -32.8257     8.1892     7.3098     7.7665    82.9711     2.4781     0.1234     0.0218
  318.5000   -32.8151     8.1683     7.3068     7.7665    84.2544     2.4734     0.1264     0.0223
  319.0000   -32.8044     8.1475     7.2944     7.7665    85.5489     2.4708     0.1281     0.0228
  319.5000   -32.7937     8.1268     7.2821     7.7665    86.3149     2.4781     0.1218     0.0233
  320.0000   -32.7830     8.1061     7.2698     7.7664    85.2682     2.4761     0.1283     0.0238
  320.5000   -32.7724     8.0855     7.2575     7.7663    83.2962     2.4666     0.1342     0.0243
  321.0000   -32.7683     8.0649     7.2453     7.7671    81.3178     2.4656     0.1332     0.0248
  321.5000   -32.7765     8.0444     7.2330     7.7827    79.2627     2.4686     0.1296     0.0254
  322.0000   -32.7845     8.0240     7.2208     7.7982    78.4016     2.4716     0.1261     0.0257
  322.5000   -32.7926     8.0036     7.2086     7.8137    78.3779     2.4711     0.1290     0.0328
  323.0000   -32.8007     7.9832     7.1965     7.8292    78.6188     2.4731     0.1253     0.0408
  323.5000   -32.8087     7.9629     7.1843     7.8454    79.2106     2.4843     0.1207     0.0469
  324.0000   -32.8167     7.9426     7.1722     7.8161    79.2267     2.4899     0.1188     0.0494
  324.5000   -32.8248     7.9224     7.1601     7.7813    79.0127     2.4937     0.1170     0.0519
  325.0000   -32.8329     7.9023     7.1480     7.7465    78.7832     2.4955     0.1162     0.0545
  325.5000   -32.8409     7.8822     7.1360     7.7118    78.5959     2.4955     0.1150     0.0570
  326.0000   -32.8489     7.8676     7.1240     7.6772    79.5169     2.4962     0.1138     0.0595
  326.5000   -32.8570     7.8140     7.1111     7.6425    82.8671     2.4974     0.1130     0.0621
  327.0000   -32.8650     7.7647     7.0224     7.6079    84.8288     2.4985     0.1151     0.0646
  327.5000   -32.8731     7.7157     6.9282     7.5732    84.9662     2.5031     0.1107     0.0672
  328.0000   -32.8811     7.6671     6.8351     7.5385    83.0873     2.5106     0.1028     0.0698
  328.5000   -32.8892     7.6188     6.7434     7.5036    80.9942     2.5157     0.1006     0.0667
  329.0000   -32.8972     7.5707     6.6529     7.4686    80.6346     2.5081     0.1078     0.0624
  329.5000   -32.9053     7.5230     6.5636     7.4688    81.8381     2.4987     0.1151     0.0581
  330.0000   -32.9133     7.4756     6.4752     7.4712    82.8042     2.4890     0.1198     0.0559
  330.5000   -32.9214     7.4284     6.4267     7.4734    82.2687     2.4895     0.1175     0.0563
  331.0000   -32.9294     7.3773     6.4271     7.4756    82.6785     2.4900     0.1158     0.0569
  331.5000   -32.9375     7.3098     6.4271     7.4778    83.7227     2.4869     0.1214     0.0574
  332.0000   -32.9455     7.3098     6.4271     7.4799    84.3540     2.4860     0.1152     0.0579
  332.5000   -32.9535     7.3098     6.4404     7.4821    84.3578     2.4929     0.1106     0.0584
  333.0000   -32.9616     7.3193     6.4719     7.4842    83.8255     2.4986     0.1094     0.0589
  333.5000   -32.9697     7.3561     6.5037     7.4860    84.5262     2.4985     0.1108     0.0594
  334.0000   -32.9777     7.3929     6.5358     7.5135    87.5074     2.4976     0.1138     0.0598
  334.5000   -32.9857     7.4300     6.5679     7.5498    90.7445     2.4964     0.1166     0.0579
  335.0000   -32.9938     7.4673     6.6003     7.5861    91.4804     2.5002     0.1018     0.0559
  335.5000   -33.0018     7.5047     6.6328     7.6211    88.9825     2.5046     0.1079     0.0539
  336.0000   -33.0099     7.5424     6.6678     7.6427    85.9162     2.5065     0.1089     0.0520
  336.5000   -33.0179     7.5802     6.6831     7.6365    82.8335     2.5037     0.1075     0.0531
  337.0000   -33.0260     7.6182     6.7041     7.6298    81.8949     2.4966     0.1123     0.0543
  337.5000   -33.0340     7.6565     6.7250     7.6230    83.5628     2.4913     0.1162     0.0557
  338.0000   -33.0421     7.6949     6.7461     7.6162    84.9488     2.5064     0.1102     0.0512
  338.5000   -33.0501     7.7335     6.7672     7.6094    85.6299     2.5056     0.1054     0.0446
  339.0000   -33.0582     7.7723     6.7883     7.6027    85.6091     2.5013     0.1076     0.0408
  339.5000   -33.0662     7.7956     6.8096     7.5957    85.3938     2.4962     0.1164     0.0389
  340.0000   -33.0743     7.6931     6.8311     7.5895    85.6565     2.4866     0.1226     0.0386
  340.5000   -33.0823     7.6094     6.8542     7.5491    87.9131     2.4973     0.1090     0.0400
  341.0000   -33.0904     7.5265     6.8087     7.4946    90.4646     2.5105     0.1070     0.0413
  341.5000   -33.0984     7.4445     6.7587     7.4405    93.0591     2.5197     0.1011     0.0401
  342.0000   -33.1064     7.3634     6.7091     7.4375    93.4533     2.5248     0.0951     0.0306
  342.5000   -33.1145     7.2832     6.6598     7.5076    88.0450     2.5350     0.0891     0.0163
  343.0000   -33.1225     7.2378     6.6109     7.4620    84.1776     2.5427     0.0862     0.0019
  343.5000   -33.1306     7.2280     6.5624     7.4094    81.3888     2.5161     0.1038    -0.0106
  344.0000   -33.1386     7.2182     6.5142     7.3875    82.7567     2.4920     0.1193     0.0022
  344.5000   -33.1462     7.2084     6.4865     7.3958    85.9763     2.4807     0.1253     0.0178
  345.0000   -33.1548     7.1985     6.4865     7.4407    89.1478     2.4871     0.1185     0.0262
  345.5000   -33.1612     7.1887     6.4865     7.4850    92.3676     2.4909     0.1170     0.0266
  346.0000   -33.4857     7.1789     6.4865     7.4872    93.2319     2.4930     0.1173     0.0271
  346.5000   -34.0496     7.1690     6.4865     7.4852    93.3559     2.4945     0.1138     0.0275
  347.0000   -34.3940     7.1592     6.4865     7.5572    93.3769     2.4916     0.1141     0.0279
  347.5000   -34.4464     7.1494     6.4872     7.6439    92.5339     2.4887     0.1194     0.0284
  348.0000   -34.5006     7.1397     6.4529     7.6967    91.5871     2.4894     0.1169     0.0288
  348.5000   -34.5541     7.1299     6.4267     7.7171    91.2064     2.4904     0.1146     0.0292
  349.0000   -34.6079     7.1202     6.4007     7.7476    91.9489     2.4913     0.1160     0.0297
  349.5000   -34.6618     7.1101     6.3747     7.7468    92.4401     2.4923     0.1167     0.0322
  350.0000   -34.7156     7.0795     6.3489     7.7479    92.2069     2.4932     0.1143     0.0375
  350.5000   -34.7694     7.0495     6.3231     7.7487    91.4730     2.4948     0.1162     0.0417
  351.0000   -34.8233     7.0198     6.2975     7.7496    91.3043     2.4965     0.1105     0.0392
  351.5000   -34.8771     6.9903     6.2720     7.7504    91.5850     2.4982     0.1079     0.0368
  352.0000   -34.9309     6.9608     6.2466     7.7513    92.6190     2.4983     0.1102     0.0344
  352.5000   -34.9848     6.9315     6.2212     7.7521    93.6558     2.4981     0.1114     0.0319
  353.0000   -35.0388     6.9024     6.1960     7.7530    94.3633     2.4979     0.1074     0.0295
  353.5000   -35.0924     6.8734     6.1709     7.7538    94.2091     2.4976     0.1088     0.0271
  354.0000   -35.1468     6.8195     6.1459     7.7547    93.0209     2.4968     0.1102     0.0247
  354.5000   -35.1062     6.7190     6.1210     7.7555    89.4369     2.4951     0.1124     0.0223
  355.0000   -34.9924     6.6201     6.0968     7.7563    85.7750     2.4933     0.1152     0.0216
  355.5000   -34.8777     6.5227     6.0361     7.7572    84.9454     2.4916     0.1171     0.0213
