~VERSION INFORMATION
 VERS.                2.0:   CWLS LOG ASCII STANDARD - VERSION 2.0
 WRAP.                 NO:   ONE LINE PER DEPTH STEP
~WELL INFORMATION
#MNEM.UNIT      DATA TYPE    INFORMATION
#----------   ------------   ------------------------------
 STRT.F          714.0000:   START DEPTH
 STOP.F         2268.0000:   STOP DEPTH
 STEP.F            0.5000:   STEP LENGTH
 NULL.          -999.2500:   NO VALUE
 COMP. LAWRENCE/ALLISON INC:   COMPANY
 WELL. 25-1-STX 10 #25-10:   WELL
 FLD .             TEAPOT:   FIELD
 LOC .      S10 T38N R78W:   LOCATION
 CNTY.            NATRONA:   COUNTY
 STAT.            WYOMING:   STATE
 CTRY. UNITED STATES OF AMERICA:   COUNTRY
 SRVC.            Unknown:   SERVICE COMPANY
 DATE.        07-JUN-1991:   LOGDATE
 API .       490251091300:   API NUMBER
~CURVE INFORMATION
#MNEM.UNIT       API CODE    CURVE DESCRIPTION
#----------   ------------   ------------------------------
 DEPT.F                  :   
 TGAS.UNITS  91 830 01 00:   TOTAL GAS FROM HOTWIRE
 ROP .MIN/FT 91 810 01 00:   RATE OF DRILLING PENETRATION
~PARAMETER INFORMATION
#MNEM.UNIT          VALUE    DESCRIPTION
#----------   ------------   ------------------------------
 EKB .F              5243:   KELLING BUSHING
 EGL .F              5233:   GROUND LEVEL
 DATE.             6-8-91:   RUN DATE
 BLI .F              2280:   BOTTOM LOG INTERVAL
 TLI .F              1680:   TOP LOG INTERVAL
 CS  .IN            9.625:   CASING SIZE
 CBD .F               740:   CASING BOTTOM DRILLER
 ENGI.              TOWER:   RECORDING ENGINEER
 WITN.               HUSK:   WITNESSED BY
 CLNT.            A2DTECH:   CLIENT CODE
 ORIG.           5" PRINT:   ORIGIN OF DATA
 UWI .       490251091300:   UNIQUE WELL ID
 DICO. A2D Technologies, Inc.:   DIGITIZING COMPANY
~OTHER INFORMATION
~A   DEPT     TGAS          ROP 
# ...
 2172.0000   392.8557     0.6325
 2172.5000   387.4760     0.6326
 2173.0000   382.0952     0.6327
 2173.5000   375.3448     0.6761
 2174.0000   368.4170     0.7087
 2174.5000   361.8836     0.6979
 2175.0000   355.8900     0.7089
 2175.5000   350.9769     0.7090
 2176.0000   343.7580     0.7101
 2176.5000   336.5042     0.7214
 2177.0000   332.2063     0.7326
 2177.5000   326.1051     0.7458
 2178.0000   315.3917     0.7681
 2178.5000   302.1522     0.7879
 2179.0000   288.9089     0.7991
 2179.5000   275.6689     0.8073
 2180.0000   263.6908     0.8074
 2180.5000   252.6864     0.8075
 2181.0000   241.6819     0.8036
 2181.5000   230.6738     0.7925
 2182.0000   219.6676     0.7723
 2182.5000   208.6632     0.7292
 2183.0000   199.3539     0.6789
 2183.5000   189.0307     0.6401
 2184.0000   184.8713     0.6184
 2184.5000   182.8753     0.6135
 2185.0000   180.8793     0.6200
 2185.5000   178.8834     0.6313
 2186.0000   176.8874     0.6355
 2186.5000   177.0577     0.6356
 2187.0000   177.2308     0.6357
 2187.5000   177.4039     0.6358
 2188.0000   177.8301     0.6441
 2188.5000   180.2376     0.6469
 2189.0000   182.6462     0.6470
 2189.5000   185.0548     0.6579
 2190.0000   187.4634     0.6580
 2190.5000   189.8723     0.6581
 2191.0000   191.5961     0.6582
 2191.5000   191.7692     0.6583
 2192.0000   193.6015     0.6693
 2192.5000   197.3440     0.6803
 2193.0000   199.7525     0.7033
 2193.5000   202.1611     0.7473
 2194.0000   204.5696     0.7779
 2194.5000   205.7884     0.7672
 2195.0000   205.9615     0.7673
 2195.5000   206.1346     0.7693
 2196.0000   206.3077     0.7784
 2196.5000   206.4808     0.7785
 2197.0000   206.6539     0.7786
 2197.5000   206.8269     0.7757
 2198.0000   207.0000     0.7680
 2198.5000   207.2038     0.7645
 2199.0000   207.3713     0.7417
 2199.5000   207.5388     0.6973
 2200.0000   207.7062     0.6620
 2200.5000   207.8654     0.6447
 2201.0000   208.0384     0.6336
 2201.5000   211.2448     0.6280
 2202.0000   214.3130     0.6281
 2202.5000   213.3621     0.6282
 2203.0000   210.9245     0.6221
 2203.5000   208.9276     0.6176
 2204.0000   209.0941     0.6246
 2204.5000   209.2607     0.6287
 2205.0000   207.2638     0.6288
 2205.5000   205.2669     0.6367
 2206.0000   205.4335     0.6398
 2206.5000   201.0886     0.6399
 2207.0000   199.0127     0.6834
 2207.5000   196.5679     0.7267
 2208.0000   193.1539     0.7701
 2208.5000   192.2490     0.8135
 2209.0000   188.5496     0.8028
 2209.5000   186.4743     0.8029
 2210.0000   183.6051     0.8052
 2210.5000   179.2822     0.8076
 2211.0000   174.9593     0.8101
 2211.5000   170.6364     0.8125
 2212.0000   166.3136     0.8149
 2212.5000   161.9907     0.8174
 2213.0000   156.3651     0.8198
 2213.5000   149.7929     0.8222
 2214.0000   144.6929     0.8246
 2214.5000   140.3700     0.8256
 2215.0000   134.4072     0.8186
 2215.5000   126.5530     0.8002
 2216.0000   122.3925     0.7626
 2216.5000   118.2322     0.7503
 2217.0000   116.2353     0.7504
 2217.5000   112.0749     0.7737
 2218.0000   105.7511     0.8103
 2218.5000   101.5259     0.8817
 2219.0000    99.5938     0.8916
 2219.5000    99.7604     0.8900
 2220.0000    97.7635     0.8710
 2220.5000    97.9616     0.8178
 2221.0000    98.1346     0.7709
 2221.5000    98.3077     0.7183
 2222.0000    98.4808     0.6771
 2222.5000    98.6539     0.6542
 2223.0000    98.8269     0.6543
 2223.5000    99.9176     0.6585
 2224.0000   101.3365     0.6654
 2224.5000   102.5963     0.6515
 2225.0000   103.8461     0.6182
 2225.5000   105.2760     0.5797
 2226.0000   107.6971     0.5354
 2226.5000   108.6923     0.4968
 2227.0000   111.8861     0.4574
 2227.5000   116.5551     0.4324
 2228.0000   121.2242     0.4423
 2228.5000   124.5595     0.4976
 2229.0000   126.8895     0.5729
 2229.5000   129.2195     0.6429
 2230.0000   129.3861     0.6861
 2230.5000   127.3892     0.7293
 2231.0000   129.7465     0.7509
 2231.5000   132.1686     0.7832
 2232.0000   134.5896     0.8048
 2232.5000   137.2906     0.8155
 2233.0000   141.2308     0.8262
 2233.5000   141.8528     0.8254
 2234.0000   144.2741     0.8131
 2234.5000   146.0770     0.7906
 2235.0000   146.9536     0.7716
 2235.5000   148.5866     0.7715
 2236.0000   148.7596     0.7714
 2236.5000   147.9756     0.7767
 2237.0000   146.9423     0.8020
 2237.5000   147.1154     0.8354
 2238.0000   147.2885     0.8650
 2238.5000   147.4615     0.8791
 2239.0000   143.4921     0.8790
 2239.5000   135.4559     0.8742
 2240.0000   131.2866     0.8730
 2240.5000   129.2109     0.8679
 2241.0000   128.8558     0.8169
 2241.5000   129.0565     0.7871
 2242.0000   129.2230     0.7918
 2242.5000   129.3896     0.7917
 2243.0000   131.7196     0.7916
 2243.5000   127.5592     0.7915
 2244.0000   127.7307     0.7913
 2244.5000   127.9038     0.7832
 2245.0000   128.0770     0.7468
 2245.5000   128.2500     0.6719
 2246.0000   128.8270     0.6502
 2246.5000   131.2483     0.6501
 2247.0000   132.5221     0.6608
 2247.5000   130.4472     0.6607
 2248.0000   126.8861     0.6606
 2248.5000   121.9705     0.6605
 2249.0000   118.0713     0.6604
 2249.5000   113.4932     0.6603
 2250.0000   112.5000     0.6602
 2250.5000   111.5063     0.6601
 2251.0000   110.6827     0.6600
 2251.5000   109.5199     0.6598
 2252.0000   108.8654     0.6597
 2252.5000   109.0385     0.6720
 2253.0000   109.2115     0.7072
 2253.5000   109.3846     0.7380
 2254.0000   109.5888     0.7602
 2254.5000   109.7553     0.7674
 2255.0000   112.0854     0.7673
 2255.5000   112.2519     0.7672
 2256.0000   112.4184     0.7671
 2256.5000   112.5865     0.7778
 2257.0000   112.7596     0.7777
 2257.5000   112.9327     0.7668
 2258.0000   113.1057     0.7667
 2258.5000   113.2788     0.7341
 2259.0000   113.4519     0.7015
 2259.5000   113.6250     0.6797
 2260.0000   113.7981     0.6580
 2260.5000   113.9712     0.6796
 2261.0000   113.3616     0.6794
 2261.5000   112.1539     0.6793
 2262.0000   112.3270     0.6792
 2262.5000   112.5000     0.6771
 2263.0000   112.6408     0.6682
 2263.5000   112.7490     0.6681
 2264.0000   112.8573     0.6710
 2264.5000   112.9656     0.6720
 2265.0000   113.0739     0.6495
 2265.5000   113.1261     0.6190
 2266.0000   113.1261     0.5656
 2266.5000   113.1261     0.5173
 2267.0000   113.1261     0.5050
 2267.5000   113.1261     0.4995
 2268.0000   113.1261     0.5008
