~VERSION INFORMATION
 VERS.                2.0:   CWLS LOG ASCII STANDARD - VERSION 2.0
 WRAP.                 NO:   ONE LINE PER DEPTH STEP
~WELL INFORMATION
#MNEM.UNIT      DATA TYPE    INFORMATION
#----------   ------------   ------------------------------
 STRT.F           26.0000:   START DEPTH
 STOP.F         1071.0000:   STOP DEPTH
 STEP.F            0.5000:   STEP LENGTH
 NULL.          -999.2500:   NO VALUE
 COMP. FENIX & SCISSON INC:   COMPANY
 WELL.       NRP 3 #61-14:   WELL
 FLD .        TEAPOT DOME:   FIELD
 LOC .      S14 T38N R78W:   LOCATION
 CNTY.            NATRONA:   COUNTY
 STAT.            WYOMING:   STATE
 CTRY. UNITED STATES OF AMERICA:   COUNTRY
 SRVC.            Unknown:   SERVICE COMPANY
 DATE.        09-JAN-1979:   LOGDATE
 API .       490251076300:   API NUMBER
~CURVE INFORMATION
#MNEM.UNIT       API CODE    CURVE DESCRIPTION
#----------   ------------   ------------------------------
 DEPT.F                  :   
 SPR .MV     05 010 01 00:   SPONTANEOUS POTENTIAL FROM RES.
 SN  .OHMM   05 040 16 00:   SHORT NORMAL 16"
 IL  .OHMM   05 120 00 00:   INDUCTION LOG
 CALD.IN     45 280 60 00:   CALIPER
 GRD .GAPI   45 310 01 00:   GAMMA RAY FROM DENSITY LOG
 RHOB.G/C3   45 350 01 00:   BULK DENSITY
 DPHI.DEC    45 890 12 00:   DENSITY POROSITY SANDSTONE
 CORR.G/C3   45 356 01 00:   DENSITY CORRECTION
~PARAMETER INFORMATION
#MNEM.UNIT          VALUE    DESCRIPTION
#----------   ------------   ------------------------------
 PD  .                 GL:   PERMANENT DATUM
 EPD .F              5240:   ELEVATION PERMANENT DATUM
 LMF .                 KB:   LOG MEASURED FROM
 DAPD.F                 4:   FEET ABOVE PERMANENT DATUM
 DMF .                 KB:   DRILLING MEASURED FROM
 EKB .F              5244:   KELLING BUSHING
 EGL .F              5240:   GROUND LEVEL
 DATE.             1-9-79:   RUN DATE
 RUN .                  1:   RUN NUMBER
 DD  .F              1061:   DEPTH DRILLER
 DL  .F              1071:   DEPTH LOGGER
 BLI .F              1064:   BOTTOM LOG INTERVAL
 TLI .F                50:   TOP LOG INTERVAL
 CS  .IN            8.625:   CASING SIZE
 CBD .F                40:   CASING BOTTOM DRILLER
 CBL .F                38:   CASING BOTTOM LOGGER
 BS  .IN            7.875:   BIT SIZE
 BSD .F              1061:   BIT SIZE AT DEPTH
 DFT .                KCL:   DRILLING FLUID TYPE
 DFD .                8.8:   DRILLING FLUID DENSITY
 DFV .                 36:   DRILLING FLUID VISCOSITY
 DFPH.                9.2:   DRILLING FLUID PH
 MSS .           FLOWLINE:   MUD SAMPLE SOURCE
 RMS .OHMM             .3:   RESISTIVITY MUD SAMPLE
 MST .F                58:   MUD SAMPLE TEMPERATURE
 RMF .OHMM             .3:   RESISTIVITY MUD FILTRATE SAMPLE
 MFST.F                58:   MUD FILTRATE SAMPLE TEMPERATURE
 RMC .OHMM            .34:   RESISTIVITY MUD CAKE
 MCST.F                62:   MUD CAKE SAMPLE TEMPERATURE
 MFSS.           MEASURED:   MUD FILTRATE SAMPLE SOURCE
 MCSS.           MEASURED:   MUD CAKE SAMPLE SOURCE
 RMB .OHMM            .29:   RESISTIVITY MUD AT BHT
 BHT .F                61:   BOTTOM HOLE TEMPERATURE
 TCS .HRS               4:   TIME CURCULATED STOPPED
 MRT .F                61:   MAXIMUM RECORDED TEMPERATURE
 LUN .               3006:   LOGGING UNIT NUMBER
 LUL .             CASPER:   LOGGING UNIT LOCATION
 ENGI.            ROLLINS:   RECORDING ENGINEER
 WITN.           DINSMORE:   WITNESSED BY
 CLNT.            A2DTECH:   CLIENT CODE
 ORIG.           5" PRINT:   ORIGIN OF DATA
 UWI .       490251076300:   UNIQUE WELL ID
 DICO. A2D Technologies, Inc.:   DIGITIZING COMPANY
~OTHER INFORMATION
~A   DEPT      SPR         SN         IL       CALD         GRD      RHOB       DPHI       CORR   
# ...
  431.0000   -71.9370     2.6190     2.6290     7.7680   106.8150     2.2750     0.2500     0.1070
  431.5000   -72.0950     2.5900     2.7650     7.7680   105.1080     2.2770     0.2380     0.1070
  432.0000   -72.2540     2.6140     2.9010     7.7700   103.3880     2.2890     0.2220     0.1080
  432.5000   -72.4110     2.8700     3.0370     7.7780   101.6610     2.3110     0.2060     0.1080
  433.0000   -72.5690     3.1080     3.1730     7.7860    99.8940     2.3340     0.2000     0.1090
  433.5000   -72.7260     3.3460     3.3100     7.7940    99.1870     2.3470     0.2000     0.1090
  434.0000   -72.7640     3.5840     3.4460     7.8010    99.0430     2.3480     0.2000     0.1100
  434.5000   -72.6730     3.7120     3.5820     7.8090    99.7510     2.3480     0.1990     0.1100
  435.0000   -72.5860     3.7120     3.6440     7.8170   100.5710     2.3480     0.1980     0.1090
  435.5000   -72.4990     3.6780     3.6210     7.8240   101.1870     2.3480     0.1980     0.1080
  436.0000   -72.3700     3.6440     3.5930     7.8460   101.9080     2.3480     0.1980     0.1060
  436.5000   -71.3120     3.5660     3.5640     7.8740   104.4330     2.3470     0.2050     0.1050
  437.0000   -70.2360     3.4330     3.5000     7.9030   107.9210     2.3400     0.2130     0.1050
  437.5000   -69.6690     3.3000     3.3630     7.9310   111.4030     2.3300     0.2150     0.1060
  438.0000   -69.4080     3.1670     3.2250     7.9590   113.5540     2.3210     0.2150     0.1110
  438.5000   -69.1470     3.0350     3.0880     7.9880   114.7690     2.3190     0.2200     0.1200
  439.0000   -68.8820     2.9020     2.9500     8.0060   115.2580     2.3150     0.2320     0.1280
  439.5000   -68.8360     2.7690     2.8120     8.0030   114.7070     2.3070     0.2440     0.1350
  440.0000   -68.8460     2.6360     2.6750     7.9990   113.5170     2.2830     0.2560     0.1320
  440.5000   -68.8580     2.5040     2.5660     7.9960   113.5840     2.2570     0.2680     0.1210
  441.0000   -68.8690     2.4500     2.6320     7.9920   115.9000     2.2320     0.2800     0.1110
  441.5000   -68.8810     2.4730     2.7380     7.9890   117.5120     2.2190     0.2840     0.1040
  442.0000   -68.8930     2.5550     2.7880     7.9850   117.4570     2.2190     0.2530     0.1050
  442.5000   -68.9050     2.6990     2.8660     7.9810   113.4180     2.2480     0.2240     0.1050
  443.0000   -68.9170     3.0500     3.2840     7.9780   107.9870     2.3030     0.1960     0.1060
  443.5000   -68.9290     3.4750     3.7290     7.9740   102.5880     2.3560     0.1800     0.1070
  444.0000   -68.9400     3.8990     4.1740     7.9700    98.2800     2.3830     0.1780     0.1070
  444.5000   -68.9520     4.3240     4.6190     7.9670    98.1220     2.3900     0.1720     0.1080
  445.0000   -68.9640     4.6750     5.0640     7.9630    98.6730     2.3920     0.1740     0.1090
  445.5000   -68.9760     4.8510     5.2000     7.9600    99.6200     2.3910     0.1770     0.1100
  446.0000   -68.9880     5.0330     5.2400     7.9560   100.2010     2.3900     0.1800     0.1100
  446.5000   -69.0000     5.1270     5.2800     7.9520   100.7740     2.3880     0.1780     0.1120
  447.0000   -69.0120     5.2480     5.3200     7.9490   101.2010     2.3890     0.1730     0.1140
  447.5000   -69.0240     5.3990     5.4900     7.9450   101.5270     2.3950     0.1680     0.1150
  448.0000   -69.0510     5.5490     5.6610     7.9410   101.8560     2.4040     0.1630     0.1170
  448.5000   -69.0790     5.7000     5.8320     7.9380   102.1880     2.4140     0.1610     0.1190
  449.0000   -69.1080     5.8500     6.0040     7.9340   102.1920     2.4160     0.1580     0.1200
  449.5000   -69.1360     6.0000     6.1750     7.9310   101.6220     2.4160     0.1560     0.1220
  450.0000   -69.1640     6.1660     6.3460     7.9270   100.6610     2.4170     0.1560     0.1230
  450.5000   -69.1920     6.1730     6.3980     7.9230    98.6540     2.4170     0.1560     0.1220
  451.0000   -69.2210     6.1800     6.3980     7.9200    98.7820     2.4170     0.1580     0.1190
  451.5000   -69.2490     6.1870     6.3980     7.9160   101.4340     2.4170     0.1600     0.1160
  452.0000   -69.2770     6.1940     6.3980     7.9120   104.0260     2.4170     0.1620     0.1120
  452.5000   -69.3050     6.2010     6.4040     7.9090   104.7160     2.4170     0.1630     0.1090
  453.0000   -69.3340     6.2090     6.4090     7.9070   104.7380     2.4170     0.1610     0.1070
  453.5000   -69.3620     6.2160     6.4140     7.9060   104.6940     2.4170     0.1580     0.1110
  454.0000   -69.3900     6.2230     6.4200     7.9060   104.6520     2.4170     0.1560     0.1150
  454.5000   -69.4190     6.2300     6.4250     7.9050   104.5970     2.4170     0.1580     0.1190
  455.0000   -69.4470     6.2370     6.4300     7.9050   104.5860     2.4170     0.1610     0.1220
  455.5000   -69.4750     6.2450     6.4360     7.9040   105.5880     2.4160     0.1630     0.1220
  456.0000   -69.5030     6.2520     6.4410     7.9040   110.1680     2.4160     0.1640     0.1200
  456.5000   -69.5320     6.2590     6.4470     7.9030   110.9060     2.4170     0.1600     0.1180
  457.0000   -69.5600     6.2660     6.4520     7.9030   109.4220     2.4180     0.1540     0.1160
  457.5000   -69.5880     6.2730     6.4570     7.9020   108.5180     2.4230     0.1480     0.1140
  458.0000   -69.6160     6.2810     6.4630     7.9020   109.6910     2.4270     0.1500     0.1120
  458.5000   -69.6450     6.2880     6.4680     7.9010   111.1180     2.4290     0.1520     0.1110
  459.0000   -69.6730     6.2950     6.4730     7.9010   112.5640     2.4270     0.1550     0.1110
  459.5000   -69.7010     6.3020     6.4790     7.9000   112.9120     2.4220     0.1580     0.1100
  460.0000   -69.7300     6.3090     6.4840     7.9000   111.6280     2.4180     0.1610     0.1130
  460.5000   -69.7580     6.3170     6.4890     7.8990   111.3190     2.4130     0.1640     0.1160
  461.0000   -69.7860     6.3240     6.4950     7.8990   110.8560     2.4090     0.1660     0.1380
  461.5000   -69.8110     6.3310     6.5000     7.8980   109.1570     2.4040     0.1690     0.1580
  462.0000   -69.9680     6.3380     6.5060     7.8980   108.2320     2.4000     0.1720     0.1690
  462.5000   -70.1540     6.3180     6.5110     7.8970   107.9640     2.4000     0.1720     0.1690
  463.0000   -70.3420     6.2940     6.5170     7.8970   106.8840     2.4000     0.1710     0.1640
  463.5000   -70.5290     6.2690     6.4960     7.8960   105.8210     2.4010     0.1620     0.1470
  464.0000   -70.8730     6.2450     6.4690     7.8960   107.0280     2.4100     0.1530     0.1280
  464.5000   -71.3630     6.2200     6.4430     7.8950   109.2290     2.4230     0.1450     0.1090
  465.0000   -71.8530     6.1960     6.4170     7.8950   111.4220     2.4360     0.1410     0.1080
  465.5000   -72.3430     6.1710     6.3910     7.8940   113.5610     2.4400     0.1430     0.1080
  466.0000   -72.8340     6.1260     6.3650     7.8940   111.4480     2.4390     0.1500     0.1080
  466.5000   -73.3260     6.0750     6.3390     7.8930   107.7970     2.4340     0.1570     0.1070
  467.0000   -73.4080     6.0250     6.3130     7.8930   103.8840     2.4220     0.1650     0.1070
  467.5000   -73.2330     5.9760     6.2880     7.8920   102.6320     2.4100     0.1690     0.1070
  468.0000   -73.0280     5.9270     6.2620     7.8920   102.0110     2.4020     0.1670     0.1040
  468.5000   -72.8190     5.8770     6.2360     7.8910   101.0180     2.4020     0.1660     0.1010
  469.0000   -72.6000     5.8340     6.1660     7.8910   100.0210     2.4020     0.1650     0.0980
  469.5000   -72.0100     5.5710     5.8980     7.8900    99.6310     2.4020     0.1650     0.0940
  470.0000   -69.9600     5.2850     5.2250     7.8900    99.6340     2.4010     0.1750     0.0960
  470.5000   -67.7730     4.9990     4.5510     7.8890    99.6320     2.3960     0.1840     0.1050
  471.0000   -67.2360     4.7130     3.8770     7.8890    99.8790     2.3860     0.1940     0.1130
