~VERSION INFORMATION
 VERS.                2.0:   CWLS LOG ASCII STANDARD - VERSION 2.0
 WRAP.                 NO:   ONE LINE PER DEPTH STEP
~WELL INFORMATION
#MNEM.UNIT      DATA TYPE    INFORMATION
#----------   ------------   ------------------------------
 STRT.F           39.0000:   START DEPTH
 STOP.F          590.0000:   STOP DEPTH
 STEP.F            0.5000:   STEP LENGTH
 NULL.          -999.2500:   NO VALUE
 COMP. FENIX & SCISSON INC:   COMPANY
 WELL.    NPR-3 SX #41-34:   WELL
 FLD .             TEAPOT:   FIELD
 LOC .      S34 T39N R78W:   LOCATION
 CNTY.            NATRONA:   COUNTY
 STAT.            WYOMING:   STATE
 CTRY. UNITED STATES OF AMERICA:   COUNTRY
 SRVC.           BIRDWELL:   SERVICE COMPANY
 DATE.        28-AUG-1978:   LOGDATE
 API .       490251069800:   API NUMBER
~CURVE INFORMATION
#MNEM.UNIT       API CODE    CURVE DESCRIPTION
#----------   ------------   ------------------------------
 DEPT.F                  :   
 SPR .MV     05 010 01 00:   SPONTANEOUS POTENTIAL FROM RES.
 SN  .OHMM   05 040 16 00:   SHORT NORMAL 16"
 ILD .OHMM   05 120 46 00:   INDUCTION LOG DEEP
 CALD.IN     45 280 60 00:   CALIPER
 GRD .GAPI   45 310 01 00:   GAMMA RAY FROM DENSITY LOG
 RHOB.G/C3   45 350 01 00:   BULK DENSITY
 DPHI.DEC    45 890 12 00:   DENSITY POROSITY SANDSTONE
 CORR.G/C3   45 356 01 00:   DENSITY CORRECTION
~PARAMETER INFORMATION
#MNEM.UNIT          VALUE    DESCRIPTION
#----------   ------------   ------------------------------
 PD  .                 GL:   PERMANENT DATUM
 EPD .F              5064:   ELEVATION PERMANENT DATUM
 LMF .                 KB:   LOG MEASURED FROM
 DAPD.F                 4:   FEET ABOVE PERMANENT DATUM
 DMF .                 KB:   DRILLING MEASURED FROM
 EKB .F              5068:   KELLING BUSHING
 EGL .F              5064:   GROUND LEVEL
 DATE.          8-28-1978:   RUN DATE
 RUN .                  1:   RUN NUMBER
 DD  .F               600:   DEPTH DRILLER
 DL  .F               596:   DEPTH LOGGER
 BLI .F               590:   BOTTOM LOG INTERVAL
 TLI .F                50:   TOP LOG INTERVAL
 CS  .IN            8.625:   CASING SIZE
 CBD .F                40:   CASING BOTTOM DRILLER
 BS  .IN            7.875:   BIT SIZE
 BSD .F               600:   BIT SIZE AT DEPTH
 DFT .                KCL:   DRILLING FLUID TYPE
 DFD .                8.7:   DRILLING FLUID DENSITY
 DFV .                 35:   DRILLING FLUID VISCOSITY
 DFPH.                  9:   DRILLING FLUID PH
 DFL .                 10:   DRILLING FLUID LOSS
 MSS .          FLOW LINE:   MUD SAMPLE SOURCE
 RMS .OHMM             .4:   RESISTIVITY MUD SAMPLE
 MST .F                76:   MUD SAMPLE TEMPERATURE
 RMF .OHMM             .3:   RESISTIVITY MUD FILTRATE SAMPLE
 MFST.F                80:   MUD FILTRATE SAMPLE TEMPERATURE
 RMC .OHMM             .4:   RESISTIVITY MUD CAKE
 MCST.F                80:   MUD CAKE SAMPLE TEMPERATURE
 MFSS.               MEAS:   MUD FILTRATE SAMPLE SOURCE
 MCSS.               MEAS:   MUD CAKE SAMPLE SOURCE
 TCS .HRS               3:   TIME CURCULATED STOPPED
 LUN .               2958:   LOGGING UNIT NUMBER
 LUL .               CASP:   LOGGING UNIT LOCATION
 ENGI.             MILLER:   RECORDING ENGINEER
 WITN.              AMEND:   WITNESSED BY
 CLNT.            A2DTECH:   CLIENT CODE
 ORIG.           5" PRINT:   ORIGIN OF DATA
 UWI .       490251069800:   UNIQUE WELL ID
 DICO. A2D Technologies, Inc.:   DIGITIZING COMPANY
~OTHER INFORMATION
~A   DEPT      SPR         SN        ILD       CALD        GRD         RHOB       DPHI      CORR  
# ...
  282.0000   -31.6394     3.9657     2.5335     7.1391    98.8702     2.3120     0.1900     0.0284
  282.5000   -31.6362     3.6202     2.5103     7.1404   103.3540     2.3695     0.1697     0.0257
  283.0000   -31.6367     3.3047     2.5299     7.1418   103.3854     2.4137     0.1495     0.0230
  283.5000   -31.6368     3.0167     2.5599     7.1432   102.7868     2.4372     0.1320     0.0203
  284.0000   -31.6372     2.7538     2.5912     7.1437   102.1542     2.4604     0.1235     0.0176
  284.5000   -31.6426     2.5103     2.6749     7.1437   103.5172     2.4778     0.1234     0.0150
  285.0000   -31.4071     2.5569     2.8237     7.1437   104.4678     2.4768     0.1273     0.0123
  285.5000   -31.1165     2.6525     3.3364     7.1437   104.6849     2.4716     0.1316     0.0096
  286.0000   -30.8251     2.7772     3.9408     7.1437   103.9819     2.4664     0.1350     0.0069
  286.5000   -30.5339     3.0288     4.6547     7.1437   102.5781     2.4611     0.1349     0.0064
  287.0000   -30.2435     3.4011     5.5297     7.1437   101.1539     2.4609     0.1340     0.0070
  287.5000   -29.9504     3.8204     5.7366     7.1437   100.3169     2.4627     0.1326     0.0077
  288.0000   -29.8559     4.2909     5.7895     7.1437   103.5687     2.4645     0.1313     0.0083
  288.5000   -29.8764     4.8193     5.7895     7.1437   106.7719     2.4663     0.1299     0.0089
  289.0000   -29.8995     5.4127     5.7616     7.1437   107.7588     2.4682     0.1286     0.0095
  289.5000   -29.9224     6.1175     5.7355     7.1437   107.7817     2.4700     0.1273     0.0111
  290.0000   -29.9452     6.3575     5.7096     7.1432   107.7275     2.4714     0.1274     0.0158
  290.5000   -29.9679     6.6098     5.6838     7.1650   106.9395     2.4695     0.1295     0.0203
  291.0000   -29.9906     6.7677     5.6581     7.2162   106.1691     2.4674     0.1331     0.0248
  291.5000   -30.0133     6.7666     5.6325     7.3076   105.2260     2.4609     0.1401     0.0292
  292.0000   -30.0361     6.7685     5.6071     7.3985   103.6712     2.4515     0.1479     0.0337
  292.5000   -30.0588     6.7677     5.5808     7.4893   100.7944     2.4385     0.1557     0.0351
  293.0000   -30.0815     6.7693     5.4498     7.5835    98.3345     2.4255     0.1635     0.0335
  293.5000   -30.1042     6.7719     5.2696     7.5298    98.3868     2.4125     0.1646     0.0319
  294.0000   -30.1269     6.7019     5.1015     7.4011   100.4876     2.4079     0.1637     0.0303
  294.5000   -30.1497     6.6473     4.9528     7.3007   102.9267     2.4168     0.1563     0.0287
  295.0000   -30.1724     6.4153     4.8626     7.3228   104.0407     2.4280     0.1525     0.0271
  295.5000   -30.1952     6.2123     4.8626     7.3456   101.3760     2.4349     0.1509     0.0255
  296.0000   -30.2183     6.0159     4.8766     7.3685    98.3410     2.4418     0.1485     0.0240
  296.5000   -30.2424     5.8256     4.9119     7.3912    99.7615     2.4537     0.1369     0.0243
  297.0000   -30.1297     5.6413     4.9474     7.4139   100.5309     2.4657     0.1253     0.0246
  297.5000   -29.9999     5.4629     4.9832     7.4380   100.2895     2.4780     0.1196     0.0250
  298.0000   -29.8700     5.2901     5.0193     7.4184   101.2613     2.4797     0.1218     0.0253
  298.5000   -29.7405     5.1381     5.0563     7.3840   103.3414     2.4795     0.1204     0.0257
  299.0000   -29.6110     5.1381     5.0911     7.3492   104.1150     2.4813     0.1187     0.0265
  299.5000   -29.4814     5.3876     5.1855     7.3145   104.0391     2.4840     0.1174     0.0293
  300.0000   -29.3519     5.5724     5.3450     7.2832   104.4802     2.4849     0.1188     0.0320
  300.5000   -29.2224     5.7631     5.5348     7.3024   105.5297     2.4836     0.1202     0.0348
  301.0000   -29.0926     5.9602     5.7312     7.3292   105.6976     2.4832     0.1183     0.0375
  301.5000   -28.9652     6.1641     5.9347     7.3561   105.8209     2.4878     0.1131     0.0403
  302.0000   -28.8326     6.3749     6.1454     7.3829   105.9469     2.4924     0.1122     0.0431
  302.5000   -29.0687     6.5930     6.3635     7.4097   106.0843     2.4943     0.1164     0.0406
  303.0000   -29.0878     6.8185     6.5894     7.4375   106.7662     2.4832     0.1255     0.0359
  303.5000   -29.1229     7.0518     6.8233     7.4340   108.6806     2.4727     0.1261     0.0316
  304.0000   -29.1553     7.2933     7.0655     7.4219   110.5762     2.4689     0.1264     0.0301
  304.5000   -29.1879     7.5428     7.3163     7.4093   112.3795     2.4695     0.1267     0.0286
  305.0000   -29.2200     7.6269     7.4186     7.3876   112.5910     2.4702     0.1274     0.0271
  305.5000   -29.2418     7.6258     7.4870     7.3551   111.9072     2.4664     0.1377     0.0255
  306.0000   -29.2415     7.5455     7.1347     7.3228   107.6738     2.4585     0.1397     0.0240
  306.5000   -29.2415     7.4398     6.7788     7.2903   102.7333     2.4506     0.1477     0.0239
  307.0000   -29.2415     7.3356     6.4881     7.2578   100.8422     2.4369     0.1591     0.0239
  307.5000   -29.2415     7.2329     6.3509     7.2257   100.4943     2.4204     0.1705     0.0239
  308.0000   -29.2415     7.1315     6.2239     7.2042    98.9912     2.4035     0.1806     0.0250
  308.5000   -29.2415     7.0317     6.1175     7.2120    98.6721     2.3871     0.1796     0.0330
  309.0000   -29.2415     6.9334     6.1739     7.2194   103.7735     2.3878     0.1599     0.0411
  309.5000   -29.2415     6.8356     6.1175     7.2268   108.6976     2.4209     0.1455     0.0407
  310.0000   -29.2415     6.7059     6.0616     7.2343   108.2889     2.4509     0.1311     0.0359
  310.5000   -29.2415     6.4527     6.0062     7.2417   107.8343     2.4783     0.1214     0.0311
  311.0000   -29.2417     6.2300     5.5164     7.2491   108.4516     2.4781     0.1220     0.0278
  311.5000   -29.2416     6.0151     4.9970     7.2567   109.0878     2.4766     0.1235     0.0274
  312.0000   -29.2418     5.8074     4.9951     7.2625   108.3098     2.4751     0.1250     0.0269
  312.5000   -29.1466     5.6066     5.0452     7.2397   107.2695     2.4736     0.1258     0.0265
  313.0000   -28.9678     5.4137     5.1855     7.2169   106.9033     2.4747     0.1247     0.0261
  313.5000   -28.7884     5.3303     5.4320     7.1942   107.1461     2.4771     0.1229     0.0257
  314.0000   -28.6089     5.3303     5.7065     7.1716   107.2517     2.4794     0.1211     0.0253
  314.5000   -28.4288     5.4291     5.9948     7.1489   104.6276     2.4815     0.1206     0.0248
  315.0000   -28.2486     5.8430     6.2977     7.1263   104.9139     2.4809     0.1220     0.0244
  315.5000   -28.1640     6.4285     6.6159     7.1037   105.3762     2.4802     0.1230     0.0240
  316.0000   -28.0830     7.0857     7.0857     7.0810   105.5574     2.4792     0.1218     0.0259
  316.5000   -28.0013     7.2450     7.0838     7.0583   105.7033     2.4849     0.1174     0.0280
  317.0000   -27.9195     7.4053     7.0806     7.0357   109.8563     2.4938     0.1084     0.0301
  317.5000   -27.8377     7.5691     7.0773     7.0234   114.4553     2.5030     0.1050     0.0319
  318.0000   -27.7559     7.7372     7.0741     7.0210   113.7787     2.4995     0.1113     0.0307
  318.5000   -27.6741     7.9132     7.0709     7.0188   110.9571     2.4949     0.1162     0.0295
  319.0000   -27.5923     7.8362     7.0677     7.0165   110.0903     2.4903     0.1166     0.0284
  319.5000   -27.5105     7.8345     7.0645     7.0143   109.9591     2.4890     0.1166     0.0272
  320.0000   -27.4287     7.8303     7.0613     7.0120   110.1612     2.4885     0.1162     0.0261
  320.5000   -27.3470     7.8261     7.0580     7.0098   112.1257     2.4879     0.1164     0.0249
  321.0000   -27.2652     7.8219     7.0548     7.0075   113.5869     2.4863     0.1183     0.0239
  321.5000   -27.1834     7.8177     7.0516     7.0052   113.7151     2.4828     0.1198     0.0239
  322.0000   -27.1016     7.8135     7.0484     7.0030   115.0281     2.4836     0.1183     0.0241
