~VERSION INFORMATION
 VERS.                2.0:   CWLS LOG ASCII STANDARD - VERSION 2.0
 WRAP.                 NO:   ONE LINE PER DEPTH STEP
~WELL INFORMATION
#MNEM.UNIT      DATA TYPE    INFORMATION
#----------   ------------   ------------------------------
 STRT.F            1.0000:   START DEPTH
 STOP.F          524.0000:   STOP DEPTH
 STEP.F            0.1000:   STEP LENGTH
 NULL.          -999.2500:   NO VALUE
 COMP.       F D SERV INC:   COMPANY
 WELL.    87-2 SX-3 #87-3:   WELL
 FLD .             TEAPOT:   FIELD
 LOC .       S3 T38N R78W:   LOCATION
 CNTY.            NATRONA:   COUNTY
 STAT.            WYOMING:   STATE
 CTRY. UNITED STATES OF AMERICA:   COUNTRY
 SRVC.     Atlas Wireline:   SERVICE COMPANY
 DATE.        20-OCT-1992:   LOGDATE
 API .       490252254700:   API NUMBER
~CURVE INFORMATION
#MNEM.UNIT       API CODE    CURVE DESCRIPTION
#----------   ------------   ------------------------------
 DEPT.F                  :   
 GRR .GAPI   07 310 01 00:   GAMMA RAY
 RILD.OHMM   07 120 46 00:   INDUCTION LOG DEEP RESISTIVITY
 RILM.OHMM   07 120 44 00:   INDUCTION LOG MEDIUM RESISTIVITY
~PARAMETER INFORMATION
#MNEM.UNIT          VALUE    DESCRIPTION
#----------   ------------   ------------------------------
 PD  .                 GL:   PERMANENT DATUM
 EPD .F              5124:   ELEVATION PERMANENT DATUM
 LMF .                 KB:   LOG MEASURED FROM
 DAPD.F                10:   FEET ABOVE PERMANENT DATUM
 DMF .                 KB:   DRILLING MEASURED FROM
 EKB .F              5134:   KELLING BUSHING
 EDF .F              5133:   DRILLING FLOOR
 EGL .F              5124:   GROUND LEVEL
 DATE.        20-OCT-1992:   RUN DATE
 RUN .                  1:   RUN NUMBER
 DD  .F               533:   DEPTH DRILLER
 DL  .F               532:   DEPTH LOGGER
 BLI .F               524:   BOTTOM LOG INTERVAL
 TLI .F                74:   TOP LOG INTERVAL
 CS  .IN            8.625:   CASING SIZE
 CBD .F                85:   CASING BOTTOM DRILLER
 CBL .F                74:   CASING BOTTOM LOGGER
 BS  .IN            7.875:   BIT SIZE
 BSD .F               533:   BIT SIZE AT DEPTH
 DFT .           AIR FOAM:   DRILLING FLUID TYPE
 TCS .HRS               3:   TIME CURCULATED STOPPED
 MRT .F                70:   MAXIMUM RECORDED TEMPERATURE
 LUN .            HL-6274:   LOGGING UNIT NUMBER
 LUL .             CASPER:   LOGGING UNIT LOCATION
 ENGI.             RAUTIO:   RECORDING ENGINEER
 WITN.        GARY STRONG:   WITNESSED BY
 CLNT.            A2DTECH:   CLIENT CODE
 ORIG.           5" PRINT:   ORIGIN OF DATA
 UWI .       490252254700:   UNIQUE WELL ID
 DICO. A2D Technologies, Inc.:   DIGITIZING COMPANY
~OTHER INFORMATION
~A    DEPT     GRR       RILD       RILM   
# ...
  128.4000   133.9030     8.0300     8.0120
  128.5000   133.0303     8.0039     7.9963
  128.6000   132.4303     7.9740     7.9557
  128.7000   131.8364     7.9740     7.9553
  128.8000   131.3455     7.9739     7.9550
  128.9000   130.8818     7.9340     7.9256
  129.0000   130.6061     7.9184     7.8991
  129.1000   130.3909     7.9183     7.8904
  129.2000   130.1454     7.9183     7.8436
  129.3000   130.0000     7.9182     7.8432
  129.4000   130.0000     7.8748     7.8107
  129.5000   130.0000     7.8630     7.7881
  129.6000   129.7697     7.8630     7.7878
  129.7000   129.6970     7.8629     7.7874
  129.8000   129.5818     7.8607     7.7871
  129.9000   129.3364     7.8081     7.7868
  130.0000   129.0909     7.8081     7.7612
  130.1000   128.6000     7.8080     7.7320
  130.2000   128.1091     7.8080     7.7317
  130.3000   127.7485     7.8079     7.7314
  130.4000   127.5031     7.8079     7.7311
  130.5000   127.2576     7.8078     7.7307
  130.6000   126.9697     7.8078     7.7304
  130.7000   126.5636     7.8077     7.7301
  130.8000   126.2182     7.8171     7.7298
  130.9000   126.0606     7.8623     7.7717
  131.0000   126.0909     7.8622     7.7832
  131.1000   126.3636     7.8959     7.7829
  131.2000   126.8000     7.9172     7.7826
  131.3000   127.1303     7.9171     7.7822
  131.4000   127.4788     7.9170     7.7818
  131.5000   127.9697     7.9170     7.7816
  131.6000   128.4848     7.9546     7.8068
  131.7000   128.9515     7.9723     7.8354
  131.8000   129.4424     7.9723     7.8350
  131.9000   129.9333     7.9722     7.8347
  132.0000   130.4243     7.9721     7.8344
  132.1000   130.9242     7.9721     7.8633
  132.2000   132.1514     7.9720     7.8885
  132.3000   133.3788     7.9720     7.8882
  132.4000   134.4728     7.9719     7.8879
  132.5000   135.4545     7.9719     7.8876
  132.6000   136.3818     7.9718     7.8872
  132.7000   136.6667     7.9718     7.9094
  132.8000   136.8727     7.9717     7.9417
  132.9000   136.8212     7.9716     7.9414
  133.0000   136.5757     7.9753     7.9410
  133.1000   136.3303     8.0273     7.9774
  133.2000   136.0606     8.0663     7.9960
  133.3000   135.6182     8.0834     8.0116
  133.4000   134.9636     8.1015     8.0567
  133.5000   134.3333     8.1399     8.1072
  133.6000   133.8424     8.1399     8.1479
  133.7000   133.3333     8.1831     8.1938
  133.8000   132.3879     8.2297     8.2401
  133.9000   131.9424     8.2764     8.2865
  134.0000   131.8182     8.3118     8.3348
  134.1000   131.7545     8.3125     8.3803
  134.2000   131.5152     8.3598     8.4275
  134.3000   131.5152     8.4074     8.4751
  134.4000   131.1273     8.4552     8.5229
  134.5000   130.9091     8.5032     8.5709
  134.6000   130.8303     8.5515     8.6282
  134.7000   130.5849     8.6065     8.6679
  134.8000   130.3030     8.6064     8.7168
  134.9000   129.8849     8.6377     8.7484
  135.0000   129.5455     8.6868     8.7541
  135.1000   129.2060     8.7362     8.8088
  135.2000   128.7151     8.7883     8.8982
  135.3000   128.1818     8.8358     8.9654
  135.4000   127.7333     8.8497     9.0160
  135.5000   126.9091     8.8744     9.0668
  135.6000   125.7091     8.9248     9.1194
  135.7000   124.5970     8.9755     9.1694
  135.8000   124.8485     9.0366     9.2211
  135.9000   125.0879     9.0779     9.2731
  136.0000   125.3333     9.0998     9.3106
  136.1000   125.5788     9.1175     9.3102
  136.2000   125.8242     9.1693     9.3098
  136.3000   126.0606     9.2274     9.3527
  136.4000   126.0606     9.2739     9.3742
  136.5000   126.2576     9.3266     9.3928
  136.6000   126.3636     9.3569     9.4390
  136.7000   126.3636     9.3673     9.4386
  136.8000   126.3879     9.4223     9.4863
  136.9000   126.6667     9.4741     9.5038
  137.0000   126.6667     9.5280     9.5269
  137.1000   126.6667     9.5822     9.5918
  137.2000   126.7636     9.6366     9.7035
  137.3000   127.0091     9.6914     9.7031
  137.4000   127.2727     9.7564     9.7437
  137.5000   127.7273     9.8019     9.7986
  137.6000   128.2182     9.8246     9.8539
  137.7000   128.5970     9.8447     9.9094
  137.8000   128.8424     9.9006     9.9754
  137.9000   129.0909     9.9624    10.0216
  138.0000   129.0909    10.0650    10.0444
  138.1000   129.0909    10.1410    10.0645
  138.2000   128.9636    10.1730    10.1213
  138.3000   128.7182    10.1853    10.1841
  138.4000   128.4848    10.2441    10.2358
  138.5000   128.4848    10.3014    10.2935
  138.6000   128.2849    10.3600    10.3516
  138.7000   128.0394    10.4188    10.4099
  138.8000   127.7091    10.4781    10.4700
  138.9000   127.2454    10.5415    10.5277
  139.0000   126.9697    10.6816    10.5424
  139.1000   126.1091    10.6815    10.5728
  139.2000   125.1272    10.7183    10.6325
  139.3000   124.4454    10.7793    10.6891
  139.4000   124.1152    10.8405    10.6885
  139.5000   123.3333    10.9072    10.7383
  139.6000   122.6424    10.9641    10.7988
  139.7000   122.0788    10.9834    10.8373
  139.8000   120.8969    11.0120    10.8451
  139.9000   119.1636    11.0601    10.9122
  140.0000   118.1818    11.0601    10.9118
  140.1000   117.6909    11.1230    10.9530
  140.2000   117.3879    11.1373    10.9872
  140.3000   117.2727    11.1716    10.9999
  140.4000   117.2727    11.2351    11.0632
  140.5000   117.2879    11.2936    11.0627
  140.6000   117.5758    11.2935    11.1094
  140.7000   117.7788    11.2935    11.1392
  140.8000   118.0242    11.3334    11.1570
  140.9000   118.3576    11.3724    11.2162
  141.0000   118.8485    11.3723    11.2156
  141.1000   119.3939    11.3722    11.2680
  141.2000   119.6121    11.3721    11.2932
  141.3000   119.8576    11.3721    11.3163
  141.4000   120.0000    11.3720    11.3801
  141.5000   120.0000    11.3719    11.4503
  141.6000   120.0000    11.3718    11.4499
  141.7000   120.0000    11.3717    11.4494
  141.8000   120.0000    11.3717    11.4489
  141.9000   120.0000    11.3716    11.4485
  142.0000   119.9394    11.3715    11.4480
  142.1000   119.6939    11.3714    11.4475
  142.2000   119.4485    11.3713    11.4470
  142.3000   119.2030    11.3713    11.4465
  142.4000   118.9576    11.3301    11.4461
  142.5000   118.6363    11.2920    11.4456
  142.6000   118.1273    11.2920    11.4450
  142.7000   117.2727    11.2919    11.4446
  142.8000   116.8606    11.2918    11.4441
  142.9000   116.3697    11.2917    11.4437
  143.0000   115.8788    11.2916    11.4432
  143.1000   115.3545    11.2916    11.4427
  143.2000   114.5455    11.2894    11.4422
  143.3000   113.6607    11.2129    11.4418
  143.4000   112.5152    11.2128    11.4413
  143.5000   111.6060    11.1764    11.4268
  143.6000   111.0667    11.1347    11.3608
  143.7000   110.3030    11.1346    11.2970
  143.8000   109.3575    11.1345    11.2809
  143.9000   108.5545    11.0787    11.2137
  144.0000   108.1818    11.0160    11.0868
  144.1000   108.3091    10.9535    10.9653
  144.2000   108.8000    10.8915    10.8926
  144.3000   109.2909    10.8277    10.8409
  144.4000   109.9757    10.7684    10.8160
  144.5000   111.2574    10.7523    10.8156
  144.6000   112.9757    10.7522    10.8151
  144.7000   114.6303    10.7521    10.8147
  144.8000   115.7576    10.7520    10.8142
  144.9000   116.1758    10.7519    10.8138
  145.0000   116.9697    10.8021    10.8133
  145.1000   118.1393    10.8271    10.8129
  145.2000   119.5758    10.8716    10.8124
  145.3000   120.9091    10.9791    10.8120
  145.4000   121.8061    10.9790    10.8115
  145.5000   122.6212    11.0353    10.8111
  145.6000   123.0303    11.0557    10.8106
  145.7000   123.0303    11.0557    10.8060
  145.8000   123.0303    11.0423    10.7345
  145.9000   123.0303    10.9786    10.7342
  146.0000   122.6666    10.9786    10.6969
  146.1000   122.0515    10.9785    10.6587
  146.2000   121.3819    10.9458    10.6495
  146.3000   120.8818    10.8838    10.5837
  146.4000   120.0000    10.8261    10.5833
  146.5000   118.6212    10.8260    10.5419
