~VERSION INFORMATION
 VERS.                2.0:   CWLS LOG ASCII STANDARD - VERSION 2.0
 WRAP.                 NO:   ONE LINE PER DEPTH STEP
~WELL INFORMATION
#MNEM.UNIT      DATA TYPE    INFORMATION
#----------   ------------   ------------------------------
 STRT.F            0.0000:   START DEPTH
 STOP.F          546.0000:   STOP DEPTH
 STEP.F            0.5000:   STEP LENGTH
 NULL.          -999.2500:   NO VALUE
 COMP. LAWRENCE/ALLISON INC:   COMPANY
 WELL.   NPR 3 #76-21SX10:   WELL
 FLD .             TEAPOT:   FIELD
 LOC .      S10 T38N R78W:   LOCATION
 CNTY.            NATRONA:   COUNTY
 STAT.            WYOMING:   STATE
 CTRY. UNITED STATES OF AMERICA:   COUNTRY
 SRVC.      Dresser Atlas:   SERVICE COMPANY
 DATE.        22-JUL-1984:   LOGDATE
 API .       490251097000:   API NUMBER
~CURVE INFORMATION
#MNEM.UNIT       API CODE    CURVE DESCRIPTION
#----------   ------------   ------------------------------
 DEPT.F                  :   
 CALD.IN     45 280 60 00:   CALIPER FROM DENSITY LOG
 DEN .G/C3   45 350 01 00:   COMPENSATED BULK DENSTIY
 CORR.G/C3   45 356 01 00:   DENSITY CORRECTION
 DPHI.DEC    45 890 12 00:   POROSITY DENSITY SANDSTONE
 CNC .DEC    42 890 03 00:   NEUTRON POROSITY SANDSTONE
 GRR .GAPI   07 310 01 00:   GAMMA RAY
 SPR .MV     07 010 01 00:   SPONTANEOUS POTENTIAL
 RILD.OHMM   07 120 46 00:   INDUCTION LOG DEEP RESISTIVITY
 RILM.OHMM   07 120 44 00:   INDUCTION LOG MEDIUM RESISTIVITY
 RFOC.OHMM   07 220 04 00:   RESISTIVITY FOCUSED LOG
 AC  .US/F   60 520 00 00:   ACCOUSTIC
~PARAMETER INFORMATION
#MNEM.UNIT          VALUE    DESCRIPTION
#----------   ------------   ------------------------------
 PD  .                 GL:   PERMANENT DATUM
 EPD .F              5167:   ELEVATION PERMANENT DATUM
 LMF .                 GL:   LOG MEASURED FROM
 DMF .                 GL:   DRILLING MEASURED FROM
 EGL .F              5167:   GROUND LEVEL
 DATE.        22-JUL-1984:   RUN DATE
 RUN .                  1:   RUN NUMBER
 DD  .F               551:   DEPTH DRILLER
 DL  .F               547:   DEPTH LOGGER
 BLI .F               544:   BOTTOM LOG INTERVAL
 CS  .IN            9.625:   CASING SIZE
 CBD .F                40:   CASING BOTTOM DRILLER
 CBL .F                42:   CASING BOTTOM LOGGER
 BS  .IN            7.875:   BIT SIZE
 BSD .F               551:   BIT SIZE AT DEPTH
 DFT .        KCL POLYMER:   DRILLING FLUID TYPE
 MSS .           FLOWLINE:   MUD SAMPLE SOURCE
 RMS .OHMM           .193:   RESISTIVITY MUD SAMPLE
 MST .F                75:   MUD SAMPLE TEMPERATURE
 RMF .OHMM           .144:   RESISTIVITY MUD FILTRATE SAMPLE
 MFST.F                75:   MUD FILTRATE SAMPLE TEMPERATURE
 RMC .OHMM            .24:   RESISTIVITY MUD CAKE
 MCST.F                74:   MUD CAKE SAMPLE TEMPERATURE
 MFSS.               CALC:   MUD FILTRATE SAMPLE SOURCE
 MCSS.               CALC:   MUD CAKE SAMPLE SOURCE
 TCS .HRS               5:   TIME CURCULATED STOPPED
 MRT .F                90:   MAXIMUM RECORDED TEMPERATURE
 LUN .               6274:   LOGGING UNIT NUMBER
 LUL .               GLTE:   LOGGING UNIT LOCATION
 ENGI.             RAUTIO:   RECORDING ENGINEER
 WITN.              FIVAS:   WITNESSED BY
 CLNT.            A2DTECH:   CLIENT CODE
 ORIG.       2", 5" PRINT:   ORIGIN OF DATA
 UWI .       490251097000:   UNIQUE WELL ID
 DICO. A2D Technologies, Inc.:   DIGITIZING COMPANY
~OTHER INFORMATION
~A    DEPT    CALD        DEN       CORR       DPHI        CNC         GRR       SPR       RILD       RILM       RFOC         AC   
# ...
   91.5000     8.4360     2.4860     0.0060     0.0980     0.2460   109.2000    -5.9810    12.0120    11.7540  -999.2500  -999.2500
   92.0000     8.4260     2.4790     0.0380     0.1010     0.2400   107.8180    -7.4710    12.0740    11.7540  -999.2500  -999.2500
   92.5000     8.4260     2.4720     0.0650     0.1080     0.2440   113.3910    -8.6670    12.0820    11.7540  -999.2500  -999.2500
   93.0000     8.4260     2.4650     0.0830     0.1110     0.2480   115.2880    -9.9750    12.0820    11.7140  -999.2500  -999.2500
   93.5000     8.4260     2.4580     0.0690     0.1140     0.2540   111.6520   -20.9770    12.0330    11.6680  -999.2500  -999.2500
   94.0000     8.4260     2.4510     0.0230     0.1190     0.2590   109.4020   -49.7110    11.8780    11.5610  -999.2500  -999.2500
   94.5000     8.4260     2.4460     0.0050     0.1230     0.2540   110.0140   -75.5580    11.7240    11.4000  -999.2500  -999.2500
   95.0000     8.4260     2.4430     0.0140     0.1250     0.2490   111.5210   -89.8420    11.5690    11.2390  -999.2500  -999.2500
   95.5000     8.4260     2.4440     0.0230     0.1250     0.2480   113.7090   -58.8760    11.4150    11.0770  -999.2500  -999.2500
   96.0000     8.4260     2.4440     0.0240     0.1240     0.2500   117.2230   -32.0610    11.2600    10.9160  -999.2500  -999.2500
   96.5000     8.4260     2.4460     0.0230     0.1230     0.2500   120.2890    -3.1830    11.1260    10.7540  -999.2500  -999.2500
   97.0000     8.4260     2.4440     0.0230     0.1250     0.2500   120.2520     0.8600    10.9980    10.5920  -999.2500  -999.2500
   97.5000     8.4260     2.4390     0.0220     0.1270     0.2530   118.7110     0.3400    10.8700    10.4310  -999.2500  -999.2500
   98.0000     8.4260     2.4360     0.0160     0.1270     0.2550   116.7030     0.1900    10.8230    10.2440  -999.2500  -999.2500
   98.5000     8.4260     2.4410     0.0100     0.1250     0.2580   113.6730    -2.6550    10.8230    10.3020  -999.2500  -999.2500
   99.0000     8.4260     2.4470     0.0190     0.1230     0.2540   113.0430    -4.9160    10.8230    10.3710  -999.2500  -999.2500
   99.5000     8.4260     2.4520     0.0300     0.1190     0.2500   113.6730    -5.3960    10.8230    10.4340  -999.2500  -999.2500
  100.0000     8.4260     2.4560     0.0330     0.1160     0.2460   114.1790    -5.2840    10.8230    10.5150  -999.2500  -999.2500
  100.5000     8.4260     2.4550     0.0350     0.1180     0.2500   112.8040    -5.3710    10.7250    10.5900  -999.2500  -999.2500
  101.0000     8.4260     2.4520     0.0360     0.1200     0.2590   111.4200    -5.7310    10.6270    10.6720  -999.2500  -999.2500
  101.5000     8.4260     2.4530     0.0330     0.1180     0.2650   111.4900    -6.6500    10.7890    10.7620  -999.2500  -999.2500
  102.0000     8.4260     2.4560     0.0160     0.1170     0.2590   111.4790    -7.6210    10.9230    10.8230  -999.2500  -999.2500
  102.5000     8.4260     2.4550     0.0030     0.1170     0.2620   109.9210    -7.2060    10.8330    10.5950  -999.2500  -999.2500
  103.0000     8.4260     2.4520     0.0130     0.1200     0.2660   107.6500    -8.4790    10.7060    10.4210  -999.2500  -999.2500
  103.5000     8.4260     2.4450     0.0230     0.1240     0.2700   107.9140   -18.1770    10.5800    10.2920  -999.2500  -999.2500
  104.0000     8.4260     2.4390     0.0390     0.1280     0.2650   109.3010   -37.2010    10.4540    10.2040  -999.2500  -999.2500
  104.5000     8.4260     2.4380     0.0560     0.1290     0.2580   109.8960   -58.6350    10.3280    10.1160  -999.2500  -999.2500
  105.0000     8.4260     2.4440     0.0650     0.1260     0.2620   109.9580   -67.5340    10.2180    10.0310  -999.2500  -999.2500
  105.5000     8.4260     2.4500     0.0670     0.1210     0.2670   112.0480   -74.0100    10.1400     9.9500  -999.2500  -999.2500
  106.0000     8.4260     2.4570     0.0510     0.1170     0.2660   115.0290   -75.9390    10.0580     9.8700  -999.2500  -999.2500
  106.5000     8.4260     2.4590     0.0340     0.1160     0.2640   117.6080   -58.7070    10.0440     9.7850  -999.2500  -999.2500
  107.0000     8.4260     2.4540     0.0170     0.1180     0.2700   116.6490   -33.7340    10.0290     9.7850  -999.2500  -999.2500
  107.5000     8.4260     2.4500     0.0110     0.1210     0.2770   114.6490    -8.5180    10.0140     9.7850  -999.2500  -999.2500
  108.0000     8.4260     2.4460     0.0100     0.1240     0.2770   113.3870     0.4950    10.0000     9.7850  -999.2500  -999.2500
  108.5000     8.4260     2.4460     0.0210     0.1230     0.2630   111.9870     7.2930     9.9850     9.7850  -999.2500  -999.2500
  109.0000     8.4260     2.4470     0.0280     0.1230     0.2510   110.1930     6.5150     9.9700     9.7060  -999.2500  -999.2500
  109.5000     8.4260     2.4450     0.0320     0.1240     0.2490   109.8150     3.2800     9.8840     9.6010  -999.2500  -999.2500
  110.0000     8.4290     2.4440     0.0430     0.1260     0.2600   111.3500     0.7160     9.7770     9.4970  -999.2500  -999.2500
  110.5000     8.4410     2.4460     0.0580     0.1250     0.2710   111.4310     1.6460     9.6710     9.4040  -999.2500  -999.2500
  111.0000     8.4540     2.4480     0.0520     0.1230     0.2790   109.2320     2.9430     9.5640     9.3290  -999.2500  -999.2500
  111.5000     8.4650     2.4450     0.0380     0.1240     0.2740   108.7990     2.0540     9.5200     9.2530  -999.2500  -999.2500
  112.0000     8.4560     2.4410     0.0250     0.1270     0.2680   112.7190     1.2120     9.5200     9.1770  -999.2500  -999.2500
  112.5000     8.4480     2.4380     0.0220     0.1290     0.2640   116.6180     1.2760     9.5200     9.4330  -999.2500  -999.2500
  113.0000     8.4500     2.4450     0.0320     0.1260     0.2590   117.7860     0.7410     9.5200     9.3940  -999.2500  -999.2500
  113.5000     8.4550     2.4540     0.0410     0.1200     0.2480   117.0840     0.2590     9.5200     9.2950  -999.2500  -999.2500
  114.0000     8.4600     2.4620     0.0450     0.1140     0.2480   114.5130     0.2050     9.5200     9.1770  -999.2500  -999.2500
  114.5000     8.4650     2.4660     0.0390     0.1100     0.2550   111.1580     0.0640     9.5960     9.4420  -999.2500  -999.2500
  115.0000     8.4610     2.4610     0.0330     0.1120     0.2570   111.5730    -6.1530     9.6900     9.6960  -999.2500  -999.2500
  115.5000     8.4570     2.4500     0.0280     0.1190     0.2590   114.3230   -11.6210     9.7840     9.7470  -999.2500  -999.2500
  116.0000     8.4540     2.4440     0.0340     0.1240     0.2570   112.8300    -7.0770     9.8760     9.7850  -999.2500  -999.2500
  116.5000     8.4500     2.4540     0.0390     0.1170     0.2540   110.2160    -0.2310     9.7150     9.5800  -999.2500  -999.2500
  117.0000     8.4460     2.4660     0.0350     0.1100     0.2530   108.6520     0.6510     9.5590     9.3800  -999.2500  -999.2500
  117.5000     8.4430     2.4700     0.0270     0.1070     0.2530   107.3860     2.5000     9.4030     9.1560  -999.2500  -999.2500
  118.0000     8.4390     2.4610     0.0160     0.1130     0.2520   107.2810     3.2980     9.1710     8.9280  -999.2500  -999.2500
  118.5000     8.4350     2.4530     0.0180     0.1200     0.2550   110.9080     5.1030     8.8980     8.6200  -999.2500  -999.2500
  119.0000     8.4320     2.4530     0.0280     0.1190     0.2640   115.0380     3.9250     8.6240     8.2690  -999.2500  -999.2500
  119.5000     8.4280     2.4550     0.0390     0.1180     0.2770   118.1670     1.4090     8.4270     8.1010  -999.2500  -999.2500
  120.0000     8.4290     2.4530     0.0490     0.1180     0.2790   118.7250    -1.1760     8.2800     8.0320  -999.2500  -999.2500
  120.5000     8.4370     2.4490     0.0590     0.1200     0.2690   118.9520    -1.4300     8.1470     7.9260  -999.2500  -999.2500
  121.0000     8.4440     2.4460     0.0620     0.1230     0.2660   118.8750    -2.2540     8.1730     7.9540  -999.2500  -999.2500
  121.5000     8.4490     2.4420     0.0620     0.1250     0.2740   118.7110    -3.5750     8.1980     8.0160  -999.2500  -999.2500
