~VERSION INFORMATION
 VERS.                2.0:   CWLS LOG ASCII STANDARD - VERSION 2.0
 WRAP.                 NO:   ONE LINE PER DEPTH STEP
~WELL INFORMATION
#MNEM.UNIT      DATA TYPE    INFORMATION
#----------   ------------   ------------------------------
 STRT.F           33.0000:   START DEPTH
 STOP.F          694.0000:   STOP DEPTH
 STEP.F            0.5000:   STEP LENGTH
 NULL.          -999.2500:   NO VALUE
 COMP. FENIX & SCISSON INC:   COMPANY
 WELL.  NPR 3 #64 S 34-34:   WELL
 FLD .             TEAPOT:   FIELD
 LOC .      S34 T39N R78W:   LOCATION
 CNTY.            NATRONA:   COUNTY
 STAT.            WYOMING:   STATE
 CTRY. UNITED STATES OF AMERICA:   COUNTRY
 SRVC.              Welex:   SERVICE COMPANY
 DATE.        28-APR-1977:   LOGDATE
 API .       490251034600:   API NUMBER
~CURVE INFORMATION
#MNEM.UNIT       API CODE    CURVE DESCRIPTION
#----------   ------------   ------------------------------
 DEPT.F                  :   
 CALD.IN     45 280 60 00:   CALIPER FROM DENSITY LOG
 GRD .GAPI   45 310 01 00:   GAMMA RAY FROM DENSITY LOG
 CORR.G/C3   45 356 01 00:   DENSITY CORRECTION
 DPHI.DEC    45 890 12 00:   DENSITY POROSITY SANDSTONE
 RHOB.G/C3   45 350 01 00:   BULK DENSITY
 SPR .MV     07 010 01 00:   SPONTANEOUS POTENTIAL
 ILD .OHMM   07 120 46 00:   INDUCTION LOG DEEP
 ILM .OHMM   07 120 44 00:   INDUCTION LOG MEDIUM
 SGRD.OHMM   07 221 05 00:   SHALLOW SHORT GUARD RESISTIVITY
~PARAMETER INFORMATION
#MNEM.UNIT          VALUE    DESCRIPTION
#----------   ------------   ------------------------------
 PD  .                 GL:   PERMANENT DATUM
 EPD .F              5079:   ELEVATION PERMANENT DATUM
 LMF .                 GL:   LOG MEASURED FROM
 DMF .                 GL:   DRILLING MEASURED FROM
 EGL .F              5079:   GROUND LEVEL
 DATE.        28-APR-1977:   RUN DATE
 RUN .                  1:   RUN NUMBER
 DD  .F               735:   DEPTH DRILLER
 DL  .F               697:   DEPTH LOGGER
 BLI .F               695:   BOTTOM LOG INTERVAL
 TLI .F                32:   TOP LOG INTERVAL
 CS  .IN            8.625:   CASING SIZE
 BS  .IN               12:   BIT SIZE
 BSD .F               735:   BIT SIZE AT DEPTH
 DFT .            KCL MUD:   DRILLING FLUID TYPE
 DFD .                9.0:   DRILLING FLUID DENSITY
 BHT .F                74:   BOTTOM HOLE TEMPERATURE
 TCS .HRS            0100:   TIME CURCULATED STOPPED
 MRT .F                74:   MAXIMUM RECORDED TEMPERATURE
 ENGI.            C. DOAK:   RECORDING ENGINEER
 WITN.           ROB LYON:   WITNESSED BY
 CLNT.            A2DTECH:   CLIENT CODE
 ORIG.           5" PRINT:   ORIGIN OF DATA
 UWI .       490251034600:   UNIQUE WELL ID
 DICO. A2D Technologies, Inc.:   DIGITIZING COMPANY
~OTHER INFORMATION
~A   DEPT     CALD        GRD       CORR       DPHI       RHOB        SPR        ILD        ILM       SGRD   
# ...
  106.0000     7.7843   100.7554     0.0020     0.2614     2.2455   -41.5761     2.6128     2.4664     2.6722
  106.5000     7.7708    98.0981     0.0036     0.2323     2.2955   -41.5582     3.0872     2.8720     3.0514
  107.0000     7.7570    95.1442     0.0082     0.1979     2.3429   -41.5403     3.4839     3.3103     3.4601
  107.5000     7.7586    94.1156     0.0129     0.1728     2.3856   -41.5224     4.6189     3.9435     3.8162
  108.0000     7.8491    92.9455     0.0160     0.1620     2.4021   -41.5045     7.4530     4.5766     4.8698
  108.5000     7.9693    92.0653     0.0206     0.1587     2.4062   -41.4866     8.0479     5.6229     5.5607
  109.0000     8.0004    92.5238     0.0222     0.1601     2.4036   -41.4687     8.3367     6.6010     6.6198
  109.5000     8.0017    91.0569     0.0208     0.1577     2.4120   -41.4507     8.2843     7.4336     7.6647
  110.0000     8.0031    89.8833     0.0194     0.1544     2.4181   -41.4328     8.3577     8.0067     9.8490
  110.5000     8.0044    89.7450     0.0165     0.1553     2.4144   -41.4149     8.6455     8.4587    10.4190
  111.0000     8.0057    89.9101     0.0181     0.1549     2.4130   -41.3970     8.7715     8.7532    10.7947
  111.5000     7.9919    90.5170     0.0227     0.1531     2.4183   -41.3791     8.7770     8.9337    11.0297
  112.0000     7.9935    91.8657     0.0258     0.1519     2.4214   -41.3612     8.5916     8.8092    10.5136
  112.5000     7.9797    93.3628     0.0229     0.1528     2.4185   -41.3433     8.3048     8.6367     9.4143
  113.0000     7.9814    95.3049     0.0200     0.1560     2.4096   -41.3254     8.0920     8.3418     8.8499
  113.5000     7.9827    97.0988     0.0186     0.1614     2.4037   -41.2806     7.9140     7.9469     8.3774
  114.0000     7.9840    98.4475     0.0203     0.1649     2.3985   -41.1403     7.4854     7.0996     7.6594
  114.5000     7.9854    99.2027     0.0219     0.1667     2.3941   -40.9731     6.5613     6.2001     7.1842
  115.0000     7.9867    99.8096     0.0235     0.1682     2.3942   -40.9516     6.6029     5.9760     7.0069
  115.5000     7.9880    99.9713     0.0251     0.1669     2.3950   -40.7845     7.1788     6.2849     7.0607
  116.0000     7.9894    94.0500     0.0237     0.1663     2.3958   -40.7666     7.6976     6.5688     7.8415
  116.5000     7.9907    91.6895     0.0238     0.1696     2.3951   -40.5995     8.1340     6.9918    10.0763
  117.0000     7.9921    90.6644     0.0224     0.1704     2.3915   -40.5816     8.4903     7.4483    10.2956
  117.5000     7.9934    90.2003     0.0195     0.1715     2.3871   -40.5637     8.9787     7.9291    10.0903
  118.0000     7.9947    89.5945     0.0166     0.1759     2.3827   -40.5459     9.3646     8.3944     9.9495
  118.5000     7.9961    91.8432     0.0152     0.1772     2.3768   -40.5280     9.7671     8.8861    10.3890
  119.0000     7.9974    93.6053     0.0168     0.1748     2.3776   -40.5101    10.1812     9.3303    10.6891
  119.5000     7.9987    94.7339     0.0199     0.1769     2.3814   -40.4922    10.4785     9.7251    10.9979
  120.0000     8.0002    93.3531     0.0233     0.1747     2.3860   -40.4743    10.9238     9.9390    11.3157
  120.5000     8.0014    91.5920     0.0246     0.1768     2.3778   -40.6102    11.2371    10.0917    11.5620
  121.0000     8.0027    92.8932     0.0232     0.1762     2.3756   -40.7416    11.5551    10.2420    11.7318
  121.5000     8.0041    94.0457     0.0218     0.1776     2.3802   -40.7192    11.6427    10.3228    11.9869
  122.0000     8.0054    92.6884     0.0189     0.1758     2.3791   -40.8550    11.6499    10.5465    12.0788
  122.5000     8.0067    91.2438     0.0145     0.1815     2.3688   -40.8327    11.7382    10.7065    12.1027
  123.0000     8.0081    90.5173     0.0130     0.1838     2.3654   -40.8148    11.7455    10.9395    12.1799
  123.5000     8.0094    90.0875     0.0117     0.1832     2.3663   -40.9507    11.7528    10.9501    12.2734
  124.0000     8.0108    89.5133     0.0118     0.1799     2.3717   -40.9283    12.0082    10.8850    12.3675
  124.5000     8.0121    90.7156     0.0180     0.1754     2.3777   -40.9104    12.1821    10.8199    12.4771
  125.0000     8.0134    90.8754     0.0256     0.1714     2.3844   -40.8925    12.0220    10.6818    12.6602
  125.5000     8.0148    90.5920     0.0287     0.1678     2.3927   -40.8747    12.1131    10.5450    12.8313
  126.0000     8.0161    90.0120     0.0288     0.1645     2.3996   -40.7075    12.2897    10.4823    12.9441
  126.5000     8.0174    90.6188     0.0304     0.1663     2.3936   -40.6896    12.5556    10.6390    13.1197
  127.0000     8.0188    91.8192     0.0305     0.1698     2.3892   -40.5225    12.7386    10.7234    13.3124
  127.5000     8.0201    91.8422     0.0291     0.1728     2.3833   -40.5046    12.9243    10.8085    13.4145
  128.0000     8.0065    91.6973     0.0277     0.1746     2.3841   -40.4868    13.0223    10.8190    13.4239
  128.5000     7.9932    93.9365     0.0263     0.1712     2.3902   -40.4689    13.0304    10.9048    13.5268
  129.0000     7.9944    96.7689     0.0264     0.1673     2.3940   -40.3017    12.7705    10.9154    13.5362
  129.5000     7.9957    97.6725     0.0250     0.1724     2.3866   -40.2839    12.8672    11.0020    13.6400
  130.0000     7.9971    95.0153     0.0236     0.1756     2.3844   -40.2660    13.0548    11.0893    13.7447
  130.5000     7.9835    91.4678     0.0237     0.1765     2.3815   -40.3974    13.1538    11.1001    13.6587
  131.0000     7.9849    89.2557     0.0238     0.1756     2.3779   -40.3795    13.1620    11.1882    13.6685
  131.5000     7.9862    89.8626     0.0224     0.1761     2.3720   -40.3616    13.0791    11.2769    13.6780
  132.0000     7.9876    90.9146     0.0210     0.1791     2.3646   -40.3437    12.9970    11.2879    13.7944
  132.5000     7.9740    91.9665     0.0181     0.1821     2.3684   -40.3258    13.0956    11.3774    14.0829
  133.0000     7.9754    93.0185     0.0152     0.1829     2.3692   -40.3079    13.2866    11.4677    14.0927
  133.5000     7.9767    93.3287     0.0123     0.1826     2.3730   -40.2901    13.4803    11.4788    14.2008
  134.0000     7.9780    90.0779     0.0094     0.1814     2.3783   -40.2722    13.6768    11.5699    14.4202
  134.5000     7.9794    86.9756     0.0065     0.1769     2.3851   -40.2543    13.6971    11.7428    14.5200
  135.0000     7.9807    86.5406     0.0051     0.1714     2.3897   -40.2364    13.3195    11.9183    14.1221
  135.5000     7.9821    87.7443     0.0037     0.1642     2.3965   -40.2185    13.8936    12.1805    13.7540
  136.0000     7.9834    87.1642     0.0053     0.1585     2.4130   -40.2007    14.5928    12.4485    14.4684
  136.5000     7.9847    85.2488     0.0084     0.1525     2.4243   -40.3365    14.7187    12.8108    15.5191
  137.0000     7.9712    84.6687     0.0116     0.1468     2.4311   -40.3142    14.7122    13.3677    15.9471
  137.5000     7.9725    84.3854     0.0162     0.1417     2.4394   -40.2963    15.5603    13.9489    15.8478
  138.0000     7.9590    83.9537     0.0193     0.1381     2.4470   -40.2784    16.8024    14.3549    17.0187
  138.5000     7.9306    82.0383     0.0224     0.1365     2.4478   -40.2605    17.5262    14.4688    19.0626
  139.0000     7.9022    80.7164     0.0255     0.1359     2.4464   -40.2426    17.6591    14.4829    22.6789
  139.5000     7.8887    81.1749     0.0271     0.1369     2.4420   -40.3785    17.5476    14.5977    24.6528
  140.0000     7.8752    87.1230     0.0272     0.1409     2.4308   -40.3561    17.4374    14.5509    26.4177
  140.5000     7.8765    89.6587     0.0273     0.1581     2.4152   -40.3382    17.3284    14.3120    22.2623
  141.0000     7.8779    91.1557     0.0274     0.1716     2.3912   -40.3204    16.4047    14.0317    17.6237
  141.5000     7.8792    92.9495     0.0276     0.1786     2.3746   -40.3025    15.2110    13.6620    15.5954
  142.0000     7.8806    94.4466     0.0261     0.1824     2.3638   -40.2846    13.7188    13.3945    15.0798
