~VERSION INFORMATION
 VERS.                2.0:   CWLS LOG ASCII STANDARD - VERSION 2.0
 WRAP.                 NO:   ONE LINE PER DEPTH STEP
~WELL INFORMATION
#MNEM.UNIT      DATA TYPE    INFORMATION
#----------   ------------   ------------------------------
 STRT.F           10.0000:   START DEPTH
 STOP.F          833.5000:   STOP DEPTH
 STEP.F            0.5000:   STEP LENGTH
 NULL.          -999.2500:   NO VALUE
 COMP. FENIX & SCISSON INC:   COMPANY
 WELL.       NPR 3 #46-11:   WELL
 FLD .             TEAPOT:   FIELD
 LOC .      S11 T38N R78W:   LOCATION
 CNTY.            NATRONA:   COUNTY
 STAT.            WYOMING:   STATE
 CTRY. UNITED STATES OF AMERICA:   COUNTRY
 SRVC.           BIRDWELL:   SERVICE COMPANY
 DATE.        17-DEC-1978:   LOGDATE
 API .       490251075600:   API NUMBER
~CURVE INFORMATION
#MNEM.UNIT       API CODE    CURVE DESCRIPTION
#----------   ------------   ------------------------------
 DEPT.F                  :   
 GRD .GAPI   45 310 01 00:   GAMMA RAY FROM DENSITY LOG
 CALD.IN     45 280 60 00:   CALIPER
 CORR.G/C3   45 356 01 00:   DENSITY CORRECTION
 DPHI.DEC    45 890 12 00:   DENSITY POROSITY SANDSTONE
 RHOB.G/C3   45 350 01 00:   BULK DENSITY
 SPR .MV     05 010 01 00:   SPONTANEOUS POTENTIAL FROM RES.
 SN  .OHMM   05 040 16 00:   SHORT NORMAL 16"
 IL  .OHMM   05 120 00 00:   INDUCTION LOG
~PARAMETER INFORMATION
#MNEM.UNIT          VALUE    DESCRIPTION
#----------   ------------   ------------------------------
 PD  .                 GL:   PERMANENT DATUM
 EPD .F              5193:   ELEVATION PERMANENT DATUM
 LMF .                 KB:   LOG MEASURED FROM
 DAPD.F                 4:   FEET ABOVE PERMANENT DATUM
 DMF .                 KB:   DRILLING MEASURED FROM
 EKB .F              5197:   KELLING BUSHING
 EGL .F              5193:   GROUND LEVEL
 DATE.           12-17-78:   RUN DATE
 RUN .                  1:   RUN NUMBER
 DD  .F               845:   DEPTH DRILLER
 DL  .F               834:   DEPTH LOGGER
 BLI .F               827:   BOTTOM LOG INTERVAL
 TLI .F                60:   TOP LOG INTERVAL
 CS  .IN            8.625:   CASING SIZE
 CBD .F                40:   CASING BOTTOM DRILLER
 CBL .F                42:   CASING BOTTOM LOGGER
 BS  .IN            7.875:   BIT SIZE
 BSD .F               845:   BIT SIZE AT DEPTH
 DFT .                KCL:   DRILLING FLUID TYPE
 DFD .                8.8:   DRILLING FLUID DENSITY
 DFV .                 36:   DRILLING FLUID VISCOSITY
 DFPH.               10.5:   DRILLING FLUID PH
 MSS .          FLOW LINE:   MUD SAMPLE SOURCE
 RMS .OHMM            .34:   RESISTIVITY MUD SAMPLE
 MST .F                62:   MUD SAMPLE TEMPERATURE
 RMF .OHMM            .26:   RESISTIVITY MUD FILTRATE SAMPLE
 MFST.F                66:   MUD FILTRATE SAMPLE TEMPERATURE
 RMC .OHMM            .42:   RESISTIVITY MUD CAKE
 MCST.F                68:   MUD CAKE SAMPLE TEMPERATURE
 MFSS.           MEASURED:   MUD FILTRATE SAMPLE SOURCE
 MCSS.           MEASURED:   MUD CAKE SAMPLE SOURCE
 RMB .OHMM           .288:   RESISTIVITY MUD AT BHT
 BHT .F                73:   BOTTOM HOLE TEMPERATURE
 TCS .HRS               4:   TIME CURCULATED STOPPED
 MRT .F                73:   MAXIMUM RECORDED TEMPERATURE
 LUN .               3006:   LOGGING UNIT NUMBER
 LUL .             CASPER:   LOGGING UNIT LOCATION
 ENGI.         B. ROLLINS:   RECORDING ENGINEER
 WITN.         RICHARDSON:   WITNESSED BY
 CLNT.            A2DTECH:   CLIENT CODE
 ORIG.           5" PRINT:   ORIGIN OF DATA
 UWI .       490251075600:   UNIQUE WELL ID
 DICO. A2D Technologies, Inc.:   DIGITIZING COMPANY
~OTHER INFORMATION
~A   DEPT      GRD       CALD       CORR       DPHI       RHOB        SPR         SN         IL   
# ...
  212.5000   121.8280     7.9350    -0.0060     0.2900     2.1050   -19.3520     2.5910     2.6460
  213.0000   116.7920     7.9370    -0.0060     0.2380     2.1370   -19.8420     2.2990     2.5940
  213.5000   111.7890     7.9670    -0.0060     0.1850     2.2220   -19.8720     2.1930     2.7130
  214.0000   106.7770     7.9960    -0.0060     0.1610     2.3000   -19.8900     2.3810     3.0120
  214.5000   101.7630     8.0250    -0.0060     0.1480     2.3790   -19.8760     2.5680     3.3110
  215.0000    96.7410     8.0550    -0.0060     0.1460     2.4100   -19.8740     2.9430     3.9620
  215.5000    91.6970     8.0840    -0.0060     0.1440     2.4220   -19.7560     3.7650     4.8480
  216.0000    88.4900     8.1130    -0.0060     0.1420     2.4290   -19.6680     5.0690     5.7340
  216.5000    86.2940     8.1270    -0.0060     0.1410     2.4330   -19.5560     6.3720     6.6200
  217.0000    85.4320     8.1190    -0.0060     0.1400     2.4360   -19.4450     7.9360     7.5060
  217.5000    85.3180     8.1110    -0.0060     0.1370     2.4370   -18.9380     8.3780     8.3920
  218.0000    85.4940     8.1040    -0.0060     0.1350     2.4370   -18.5690     9.0420     8.5930
  218.5000    86.4270     8.0960    -0.0010     0.1350     2.4380   -17.6570     9.1570     8.8750
  219.0000    87.3930     8.0960     0.0040     0.1410     2.4390   -15.9250     9.3020     8.6490
  219.5000    85.8950     8.1240     0.0030     0.1560     2.4340   -14.9040     9.4460     8.2720
  220.0000    83.9880     8.1520     0.0010     0.1800     2.4170   -14.8090     9.5620     7.8960
  220.5000    82.1240     8.1800    -0.0020     0.2050     2.3740   -14.3880     9.2280     7.5190
  221.0000    82.5260     8.1700    -0.0040     0.2270     2.3320   -13.6870     8.8100     7.1430
  221.5000    91.7900     8.1390    -0.0020     0.2440     2.2900   -13.0130     8.3920     6.7660
  222.0000   100.5590     8.1070    -0.0020     0.2340     2.2610   -12.3200     7.7670     6.4650
  222.5000   109.2390     8.0750    -0.0020     0.2130     2.2870   -11.6390     7.1410     6.6080
  223.0000   116.2260     8.0940    -0.0020     0.1930     2.3170   -10.9350     6.5150     6.7870
  223.5000   111.9080     8.1230     0.0000     0.1730     2.3460   -10.2820     5.8900     6.9650
  224.0000   104.8040     8.1520     0.0020     0.1640     2.3750    -9.4980     6.0800     6.8300
  224.5000    97.6220     8.1690     0.0040     0.1640     2.3890    -9.4440     6.2700     6.6950
  225.0000    90.5130     8.1670     0.0060     0.1660     2.3870    -9.4250     6.8640     6.5870
  225.5000    84.1330     8.1650     0.0080     0.1670     2.3850    -9.4420     7.7290     7.9860
  226.0000    82.0790     8.1620     0.0090     0.1680     2.3820    -9.4350     8.5940     9.1520
  226.5000    80.9750     8.1600     0.0110     0.1710     2.3800    -9.4360     9.4580    10.3180
  227.0000    81.6240     8.1580     0.0130     0.1740     2.3780    -9.4380    10.4960    11.4840
  227.5000    82.2520     8.1560     0.0150     0.1760     2.3770    -9.4370    10.7470    12.3370
  228.0000    82.9310     8.1540     0.0160     0.1700     2.3800    -9.4380    11.0610    12.6460
  228.5000    84.5580     8.1520     0.0160     0.1660     2.3830    -9.4380    11.3760    12.8000
  229.0000    86.2380     8.1490     0.0130     0.1710     2.3840    -9.4380    11.6900    12.9290
  229.5000    87.8900     8.1470     0.0100     0.1750     2.3810    -9.4380    12.0040    13.0580
  230.0000    89.0040     8.1450     0.0060     0.1800     2.3770    -9.4380    12.3180    13.1860
  230.5000    87.0590     8.1430     0.0030     0.1790     2.3740    -9.4380    12.6320    13.3150
  231.0000    85.1480     8.1400     0.0000     0.1780     2.3720    -9.4380    12.8840    13.4440
  231.5000    83.2460     8.1380     0.0000     0.1760     2.3730    -9.4380    12.8840    13.5720
  232.0000    81.3550     8.1360     0.0020     0.1710     2.3780    -9.4380    12.8840    13.7010
  232.5000    80.5690     8.1340     0.0020     0.1670     2.3840    -9.4380    12.8840    13.8300
  233.0000    79.8260     8.1320     0.0030     0.1620     2.3910    -9.4380    12.8840    13.9410
  233.5000    79.0830     8.1290     0.0040     0.1580     2.3980    -9.4380    12.8840    14.0400
  234.0000    78.3360     8.1270     0.0040     0.1620     2.4020    -9.4380    12.8840    14.1400
  234.5000    77.6220     8.1250     0.0050     0.1660     2.3960    -9.4380    12.9810    14.2390
  235.0000    79.9360     8.1230     0.0060     0.1670     2.3900    -9.4380    13.2230    14.3390
  235.5000    82.8060     8.1210     0.0060     0.1680     2.3840    -9.4370    13.4650    14.4380
  236.0000    84.6580     8.1180     0.0070     0.1710     2.3830    -9.4380    13.7070    14.5380
  236.5000    84.4030     8.1160     0.0070     0.1730     2.3820    -9.4400    13.9490    14.6370
  237.0000    84.1850     8.1140     0.0070     0.1730     2.3810    -9.4880    14.1420    14.7370
  237.5000    84.1370     8.1120     0.0080     0.1730     2.3810    -9.5360    14.1420    14.8360
  238.0000    85.7390     8.1100     0.0080     0.1730     2.3810    -9.5860    14.1420    14.9550
  238.5000    87.4970     8.1140     0.0080     0.1730     2.3810    -9.6350    14.1420    14.9550
  239.0000    87.8880     8.1170     0.0090     0.1730     2.3810    -9.6850    14.1420    14.9540
  239.5000    87.8970     8.1200     0.0090     0.1730     2.3810    -9.7340    14.1420    14.9550
  240.0000    87.8480     8.1230     0.0090     0.1730     2.3810    -9.7830    14.1420    14.9550
  240.5000    89.7820     8.1270     0.0090     0.1740     2.3810    -9.8330    14.1420    14.9550
  241.0000    92.3080     8.1300     0.0100     0.1730     2.3810    -9.8820    14.1600    14.9550
  241.5000    93.0970     8.1090     0.0100     0.1720     2.3810    -9.9320    14.1770    14.9550
  242.0000    90.8500     8.0810     0.0100     0.1720     2.3810    -9.9810    14.1950    14.9550
  242.5000    89.1570     8.0540     0.0110     0.1730     2.3810   -10.0300    14.2120    14.9550
  243.0000    87.4520     8.0260     0.0110     0.1700     2.3820   -10.0800    14.2300    14.9550
  243.5000    85.7340     7.9980     0.0110     0.1630     2.3860   -10.1290    14.2470    14.9560
  244.0000    83.9460     8.0030     0.0120     0.1560     2.3980   -10.1780    14.2650    14.9550
  244.5000    83.7610     8.0500     0.0120     0.1490     2.4110   -10.2280    14.2820    14.9550
  245.0000    84.1790     8.0870     0.0150     0.1450     2.4230   -10.2770    14.3000    14.9570
  245.5000    84.6090     8.0650     0.0180     0.1420     2.4280   -10.3260    14.3180    14.9390
  246.0000    85.0390     8.0430     0.0220     0.1410     2.4300   -10.3750    14.3350    14.8950
  246.5000    85.4680     8.0210     0.0220     0.1490     2.4280   -10.4260    14.3520    14.8520
  247.0000    84.9140     8.0180     0.0220     0.1570     2.4150   -10.4710    14.3700    14.8090
  247.5000    84.2750     8.0470     0.0220     0.1660     2.4000   -10.5230    14.3870    14.7660
  248.0000    83.7730     8.0760     0.0200     0.1720     2.3840   -10.5800    14.4080    14.7220
  248.5000    84.3420     8.0730     0.0190     0.1710     2.3790   -10.5880    14.2340    14.6790
  249.0000    84.9600     8.0400     0.0180     0.1740     2.3760   -11.0020    14.0170    14.4990
  249.5000    84.2650     8.0060     0.0170     0.1800     2.3750   -11.7110    13.7990    14.3180
  250.0000    83.1110     7.9720     0.0160     0.1860     2.3690   -12.3750    13.5820    14.1380
  250.5000    81.9490     8.0070     0.0150     0.1930     2.3570   -13.0320    13.3640    13.9570
  251.0000    81.0250     8.0490     0.0140     0.1960     2.3470   -13.7020    13.1460    13.7770
  251.5000    83.0710     8.0740     0.0130     0.1910     2.3440   -14.3770    12.9290    13.5960
  252.0000    85.0760     8.0890     0.0110     0.1870     2.3480   -15.0170    12.7110    13.4160
  252.5000    87.0730     8.1050     0.0080     0.1830     2.3600   -15.7180    12.4930    13.2350
