~VERSION INFORMATION
 VERS.                2.0:   CWLS LOG ASCII STANDARD - VERSION 2.0
 WRAP.                 NO:   ONE LINE PER DEPTH STEP
~WELL INFORMATION
#MNEM.UNIT      DATA TYPE    INFORMATION
#----------   ------------   ------------------------------
 STRT.F         1050.0000:   START DEPTH
 STOP.F         2592.5000:   STOP DEPTH
 STEP.F            0.5000:   STEP LENGTH
 NULL.          -999.2500:   NO VALUE
 COMP. LAWRENCE/ALLISON INC:   COMPANY
 WELL. NAVAL PETROLEUM RESERVE 3 X15 #34-15:   WELL
 FLD .            WILDCAT:   FIELD
 LOC .      S15 T38N R78W:   LOCATION
 CNTY.            NATRONA:   COUNTY
 STAT.            WYOMING:   STATE
 CTRY. UNITED STATES OF AMERICA:   COUNTRY
 SRVC.            Unknown:   SERVICE COMPANY
 DATE.        07-AUG-1988:   LOGDATE
 API .       490251125500:   API NUMBER
~CURVE INFORMATION
#MNEM.UNIT       API CODE    CURVE DESCRIPTION
#----------   ------------   ------------------------------
 DEPT.F                  :   
 ROP .MIN/FT 91 810 01 00:   RATE OF DRILLING PENETRATION
 TGAS.UNITS  91 830 01 00:   TOTAL GAS FROM HOTWIRE
~PARAMETER INFORMATION
#MNEM.UNIT          VALUE    DESCRIPTION
#----------   ------------   ------------------------------
 EKB .F              5286:   KELLING BUSHING
 EGL .F              5276:   GROUND LEVEL
 DATE.           9-7-1988:   RUN DATE
 RUN .                  1:   RUN NUMBER
 DD  .F              2592:   DEPTH DRILLER
 CBD .F              1044:   CASING BOTTOM DRILLER
 ENGI.               HUSK:   RECORDING ENGINEER
 CLNT.            A2DTECH:   CLIENT CODE
 ORIG.           5" PRINT:   ORIGIN OF DATA
 UWI .       490251125500:   UNIQUE WELL ID
 DICO. A2D Technologies, Inc.:   DIGITIZING COMPANY
~OTHER INFORMATION
~A  DEPT         ROP     TGAS   
# ...
 2508.0000     0.3937     6.7876
 2508.5000     0.3901     6.7879
 2509.0000     0.4117     6.7973
 2509.5000     0.4439     6.8369
 2510.0000     0.4671     6.8753
 2510.5000     0.4665     6.9138
 2511.0000     0.4629     6.9523
 2511.5000     0.4590     6.9907
 2512.0000     0.4550     7.0292
 2512.5000     0.4510     7.0677
 2513.0000     0.4470     7.1062
 2513.5000     0.4430     7.1446
 2514.0000     0.4336     7.1832
 2514.5000     0.4204     7.2221
 2515.0000     0.4070     7.2596
 2515.5000     0.3934     7.2634
 2516.0000     0.3919     7.1155
 2516.5000     0.4156     6.9701
 2517.0000     0.4400     6.8251
 2517.5000     0.4642     6.6797
 2518.0000     0.4886     6.5342
 2518.5000     0.4725     6.3908
 2519.0000     0.4438     6.3105
 2519.5000     0.4292     6.4296
 2520.0000     0.4598     6.5430
 2520.5000     0.4945     6.6561
 2521.0000     0.5291     6.7695
 2521.5000     0.5550     6.8828
 2522.0000     0.5275     6.9962
 2522.5000     0.4964     7.1091
 2523.0000     0.4650     7.2212
 2523.5000     0.4539     7.3096
 2524.0000     0.4670     7.3595
 2524.5000     0.4879     7.4095
 2525.0000     0.4755     7.4590
 2525.5000     0.4532     7.5085
 2526.0000     0.4539     7.5580
 2526.5000     0.4384     7.6075
 2527.0000     0.4119     7.6572
 2527.5000     0.3849     7.7069
 2528.0000     0.3789     7.7557
 2528.5000     0.3905     7.7773
 2529.0000     0.4124     7.6997
 2529.5000     0.4344     7.6245
 2530.0000     0.4537     7.5495
 2530.5000     0.4394     7.4744
 2531.0000     0.4229     7.3996
 2531.5000     0.4067     7.3245
 2532.0000     0.3926     7.3142
 2532.5000     0.3774     7.3556
 2533.0000     0.3967     7.3973
 2533.5000     0.4207     7.4394
 2534.0000     0.4451     7.4814
 2534.5000     0.4533     7.5234
 2535.0000     0.4332     7.5653
 2535.5000     0.4123     7.6073
 2536.0000     0.3997     7.6494
 2536.5000     0.3924     7.6915
 2537.0000     0.4031     7.7324
 2537.5000     0.4168     7.7742
 2538.0000     0.4163     7.6419
 2538.5000     0.4163     7.3840
 2539.0000     0.4163     7.1243
 2539.5000     0.4117     6.8556
 2540.0000     0.4038     6.7891
 2540.5000     0.4521     7.0184
 2541.0000     0.4470     6.7525
 2541.5000     0.4419     6.4865
 2542.0000     0.4399     6.2866
 2542.5000     0.4686     6.0200
 2543.0000     0.5083     5.7660
 2543.5000     0.5483     6.0825
 2544.0000     0.5741     6.5771
 2544.5000     0.5178     7.0789
 2545.0000     0.4641     7.1518
 2545.5000     0.4140     6.9637
 2546.0000     0.4040     6.7729
 2546.5000     0.4133     6.5815
 2547.0000     0.4242     6.3924
 2547.5000     0.4351     6.3392
 2548.0000     0.4405     6.5598
 2548.5000     0.4405     6.7751
 2549.0000     0.4286     6.9909
 2549.5000     0.4047     7.2157
 2550.0000     0.3803     7.1762
 2550.5000     0.3999     7.0482
 2551.0000     0.4235     6.9174
 2551.5000     0.4470     6.7859
 2552.0000     0.4706     6.5533
 2552.5000     0.5029     6.3052
 2553.0000     0.5393     6.0563
 2553.5000     0.5757     5.8081
 2554.0000     0.6123     5.7317
 2554.5000     0.6351     5.6900
 2555.0000     0.5747     5.6489
 2555.5000     0.5254     5.6077
 2556.0000     0.4772     5.5663
 2556.5000     0.4580     5.5249
 2557.0000     0.4677     5.4836
 2557.5000     0.4774     5.4422
 2558.0000     0.4873     5.4008
 2558.5000     0.4971     5.3595
 2559.0000     0.5020     5.3181
 2559.5000     0.5020     5.2739
 2560.0000     0.5021     5.3287
 2560.5000     0.5021     5.4176
 2561.0000     0.5019     5.5076
 2561.5000     0.5008     5.5978
 2562.0000     0.5144     5.6875
 2562.5000     0.5121     5.7651
 2563.0000     0.5094     5.7947
 2563.5000     0.5065     5.8329
 2564.0000     0.5036     5.8717
 2564.5000     0.5024     5.9105
 2565.0000     0.5016     5.9492
 2565.5000     0.4406     5.9880
 2566.0000     0.3699     6.0267
 2566.5000     0.3653     6.0655
 2567.0000     0.4046     6.1043
 2567.5000     0.4581     6.1431
 2568.0000     0.5118     6.1817
 2568.5000     0.5388     6.2207
 2569.0000     0.5384     6.2626
 2569.5000     0.5285     6.1839
 2570.0000     0.5187     6.0799
 2570.5000     0.5086     5.9743
 2571.0000     0.4919     5.8683
 2571.5000     0.4542     5.7702
 2572.0000     0.4276     5.8288
 2572.5000     0.4283     5.8927
 2573.0000     0.4283     5.9559
 2573.5000     0.4283     6.0189
 2574.0000     0.4283     6.0819
 2574.5000     0.4284     6.1450
 2575.0000     0.4286     6.2082
 2575.5000     0.4268     6.2665
 2576.0000     0.3914     6.2678
 2576.5000     0.3560     6.2675
 2577.0000     0.3542     6.2674
 2577.5000     0.3545     6.2674
 2578.0000     0.3662     6.2674
 2578.5000     0.3907     6.2672
 2579.0000     0.4302     6.2677
 2579.5000     0.4732     6.3183
 2580.0000     0.5165     6.3755
 2580.5000     0.5640     6.4329
 2581.0000     0.5758     6.4902
 2581.5000     0.5757     6.5475
 2582.0000     0.5520     6.6047
 2582.5000     0.5258     6.6621
 2583.0000     0.4996     6.7193
 2583.5000     0.4735     6.7688
 2584.0000     0.4467     6.7690
 2584.5000     0.4407     6.7688
 2585.0000     0.4405     6.7688
 2585.5000     0.4429     6.7688
 2586.0000     0.4454     6.7688
 2586.5000     0.4479     6.7688
 2587.0000     0.4503     6.7688
 2587.5000     0.4527     6.7688
 2588.0000     0.4434     6.7688
 2588.5000     0.4274     6.7688
 2589.0000     0.4113     6.7688
 2589.5000     0.3951     6.7688
 2590.0000     0.3794     6.7688
 2590.5000     0.3796     6.7688
 2591.0000     0.4027     6.7681
 2591.5000     0.4269     6.7658
 2592.0000     0.4504     6.7864
 2592.5000  -999.2500     7.2559
