~VERSION INFORMATION
 VERS.                2.0:   CWLS LOG ASCII STANDARD - VERSION 2.0
 WRAP.                 NO:   ONE LINE PER DEPTH STEP
~WELL INFORMATION
#MNEM.UNIT      DATA TYPE    INFORMATION
#----------   ------------   ------------------------------
 STRT.F           20.0000:   START DEPTH
 STOP.F          468.0000:   STOP DEPTH
 STEP.F            0.1000:   STEP LENGTH
 NULL.          -999.2500:   NO VALUE
 COMP. LAWRENCE/ALLISON INC:   COMPANY
 WELL.    63-51 SX #10-10:   WELL
 FLD .             TEAPOT:   FIELD
 LOC .      S10 T38N R78W:   LOCATION
 CNTY.            NATRONA:   COUNTY
 STAT.            WYOMING:   STATE
 CTRY. UNITED STATES OF AMERICA:   COUNTRY
 SRVC.           Gearhart:   SERVICE COMPANY
 DATE.        01-OCT-1988:   LOGDATE
 API .       490251125100:   API NUMBER
~CURVE INFORMATION
#MNEM.UNIT       API CODE    CURVE DESCRIPTION
#----------   ------------   ------------------------------
 DEPT.F                  :   
 GRR .GAPI   07 310 01 00:   GAMMA RAY
 RILD.OHMM   07 120 46 00:   INDUCTION LOG DEEP RESISTIVITY
 RILM.OHMM   07 120 44 00:   INDUCTION LOG MEDIUM RESISTIVITY
~PARAMETER INFORMATION
#MNEM.UNIT          VALUE    DESCRIPTION
#----------   ------------   ------------------------------
 PD  .                 GL:   PERMANENT DATUM
 EPD .F              5157:   ELEVATION PERMANENT DATUM
 LMF .                 KB:   LOG MEASURED FROM
 DAPD.F                 5:   FEET ABOVE PERMANENT DATUM
 DMF .                 KB:   DRILLING MEASURED FROM
 EKB .F              5162:   KELLING BUSHING
 EGL .F              5157:   GROUND LEVEL
 DATE.        01-OCT-1988:   RUN DATE
 RUN .                  1:   RUN NUMBER
 DD  .F               475:   DEPTH DRILLER
 DL  .F               476:   DEPTH LOGGER
 BLI .F               468:   BOTTOM LOG INTERVAL
 TLI .F                20:   TOP LOG INTERVAL
 CS  .IN            9.625:   CASING SIZE
 CBD .F                45:   CASING BOTTOM DRILLER
 CBL .F                46:   CASING BOTTOM LOGGER
 BS  .IN             7.87:   BIT SIZE
 BSD .F               475:   BIT SIZE AT DEPTH
 TLAB.HRS            1630:   TIME LOGGER AT BOTTOM
 MRT .F                75:   MAXIMUM RECORDED TEMPERATURE
 LUN .               7597:   LOGGING UNIT NUMBER
 LUL .           GILLETTE:   LOGGING UNIT LOCATION
 ENGI.              BENCK:   RECORDING ENGINEER
 WITN.             STRONG:   WITNESSED BY
 CLNT.            A2DTECH:   CLIENT CODE
 ORIG.           5" PRINT:   ORIGIN OF DATA
 UWI .       490251125100:   UNIQUE WELL ID
 DICO. A2D Technologies, Inc.:   DIGITIZING COMPANY
~OTHER INFORMATION
~A   DEPT       GRR      RILD       RILM   
# ...
  293.0000    93.7568    17.5693    15.4793
  293.1000    94.0023    17.5691    15.4791
  293.2000    94.2682    17.5688    15.4789
  293.3000    94.4933    17.5686    15.4787
  293.4000    94.5759    17.5683    15.4784
  293.5000    94.6789    17.6095    15.4782
  293.6000    94.8837    17.6923    15.4780
  293.7000    94.8850    17.6920    15.4778
  293.8000    94.2142    17.6917    15.4776
  293.9000    93.6455    17.6914    15.4774
  294.0000    92.9545    17.6912    15.4772
  294.1000    92.0194    17.7077    15.5645
  294.2000    91.2270    17.8160    15.5862
  294.3000    90.3322    17.8158    15.5860
  294.4000    89.5192    17.8155    15.6078
  294.5000    88.8895    17.8153    15.6957
  294.6000    88.3614    17.8150    15.6955
  294.7000    87.5690    17.8147    15.6953
  294.8000    87.3461    17.8145    15.7395
  294.9000    87.1030    17.8142    15.8282
  295.0000    86.9618    17.8140    15.9174
  295.1000    87.0039    17.8138    15.9172
  295.2000    87.2697    17.8135    15.9169
  295.3000    87.2708    17.8133    15.9167
  295.4000    87.4349    17.8130    15.9390
  295.5000    87.9537    17.8549    16.0288
  295.6000    88.8548    17.9387    16.0286
  295.7000    89.7558    17.9384    16.0964
  295.8000    90.6569    17.8456    16.1415
  295.9000    91.5579    17.8117    16.1641
  296.0000    92.4590    17.8115    16.2552
  296.1000    93.3600    17.8113    16.2550
  296.2000    94.2611    17.8110    16.3237
  296.3000    95.1621    17.8108    16.3695
  296.4000    96.1613    17.8105    16.3692
  296.5000    96.1618    17.7684    16.3690
  296.6000    96.0012    17.6848    16.3688
  296.7000    95.5499    17.6845    16.3685
  296.8000    94.8544    17.6843    16.3683
  296.9000    94.3322    17.6177    16.3680
  297.0000    93.6366    17.5594    16.3678
  297.1000    93.0706    17.5592    16.3676
  297.2000    92.5777    17.5589    16.3673
  297.3000    92.0285    17.4681    16.3671
  297.4000    91.2818    17.3695    16.3669
  297.5000    90.5493    17.3120    16.3667
  297.6000    89.9955    17.3118    16.2745
  297.7000    89.6299    17.3115    16.1829
  297.8000    89.3839    17.2220    16.0466
  297.9000    89.1475    17.1893    15.9109
  298.0000    89.1482    17.1488    15.9107
  298.1000    88.9509    17.0519    15.8210
  298.2000    88.8440    16.9476    15.6658
  298.3000    88.8446    16.9474    15.5334
  298.4000    88.8452    16.8836    15.4458
  298.5000    88.8459    16.8278    15.3587
  298.6000    88.8464    16.8276    15.2722
  298.7000    88.8470    16.8273    15.1862
  298.8000    88.8476    16.6540    15.1006
  298.9000    88.8483    16.5287    15.0366
  299.0000    88.8489    16.4740    15.0364
  299.1000    88.8495    16.4583    14.9517
  299.2000    88.8501    16.3577    14.8674
  299.3000    88.8507    16.3575    14.8253
  299.4000    88.8977    16.2350    14.8251
  299.5000    89.1573    16.0899    14.8249
  299.6000    89.3924    16.0141    14.8247
  299.7000    89.4638    16.0139    14.8245
  299.8000    89.6987    15.9311    14.8243
  299.9000    90.0757    15.9008    14.8241
  300.0000    90.0763    15.8885    14.8239
  300.1000    90.3238    15.8592    14.8713
  300.2000    90.5711    15.8299    14.9187
  300.3000    90.8183    15.8006    14.9662
  300.4000    90.9948    15.7713    15.0136
  300.5000    90.9954    15.7420    15.0610
  300.6000    90.9961    15.7126    15.1084
  300.7000    90.9966    15.6833    15.1361
  300.8000    90.8556    15.6540    15.1205
  300.9000    90.6925    15.6247    15.0285
  301.0000    90.6932    15.5954    15.0279
  301.1000    90.6938    15.5626    15.0272
  301.2000    90.4818    15.5622    14.9866
  301.3000    90.3896    15.5617    14.9008
  301.4000    90.3902    15.5613    14.8151
  301.5000    90.4275    15.5608    14.8145
  301.6000    90.6968    15.5604    14.7497
  301.7000    90.9221    15.4769    14.6652
  301.8000    91.1694    15.4501    14.5812
  301.9000    91.3093    15.4497    14.4976
  302.0000    91.4077    15.4493    14.3995
  302.1000    91.9212    15.4488    14.2655
  302.2000    92.3959    15.4484    14.1969
  302.3000    93.2464    15.4479    14.1682
  302.4000    94.1139    15.4475    14.0871
  302.5000    94.9155    15.4471    13.9964
  302.6000    95.9061    15.4461    13.9959
  302.7000    97.1398    15.4345    13.9444
  302.8000    97.9934    15.4228    13.8645
  302.9000    98.4703    15.4112    13.7983
  303.0000    98.7908    15.3996    13.7976
  303.1000    99.2701    15.3880    13.7971
  303.2000    99.5616    15.3764    13.7965
  303.3000    99.7648    15.3648    13.7959
  303.4000    99.8681    15.3531    13.7776
  303.5000    99.8687    15.3415    13.6979
  303.6000    99.8424    15.3299    13.6973
  303.7000    99.5647    15.3183    13.6968
  303.8000    99.1352    15.3067    13.6962
  303.9000    98.4860    15.2950    13.6955
  304.0000    97.8443    15.2834    13.6950
  304.1000    97.3516    15.2718    13.6943
  304.2000    96.8196    15.2602    13.6938
  304.3000    96.3658    15.2486    13.6482
  304.4000    95.8729    15.2370    13.5965
  304.5000    95.3800    15.2253    13.6043
  304.6000    94.8873    15.2215    13.6914
  304.7000    94.3799    15.2211    13.6909
  304.8000    93.9015    15.2402    13.6903
  304.9000    93.5895    15.3280    13.6898
  305.0000    93.2215    15.3276    13.7021
  305.1000    92.7921    15.3272    13.7854
  305.2000    92.5459    15.3267    13.7849
  305.3000    92.2999    15.3263    13.7843
  305.4000    92.2467    15.3299    13.7836
  305.5000    92.2473    15.4339    13.7831
  305.6000    92.3236    15.4336    13.7825
  305.7000    92.5538    15.4331    13.8597
  305.8000    92.5546    15.4327    13.9385
  305.9000    92.7603    15.4415    13.9764
  306.0000    93.1540    15.5411    13.9981
  306.1000    93.5602    15.5407    14.0775
  306.2000    93.7783    15.5966    14.1728
  306.3000    93.7790    15.6498    14.1723
  306.4000    93.7796    15.6639    14.2183
  306.5000    93.6215    15.7598    14.2714
  306.6000    93.3753    15.7594    14.2791
  306.7000    93.1292    15.8213    14.3710
  306.8000    92.8660    15.8701    14.4418
  306.9000    92.6369    15.8696    14.5238
  307.0000    92.2197    15.8692    14.5732
  307.1000    91.7268    15.8687    14.5726
  307.2000    91.2879    15.8683    14.5719
  307.3000    91.0370    15.9145    14.6484
  307.4000    90.5537    15.9798    14.7316
  307.5000    90.2442    15.9794    14.7769
  307.6000    89.8734    15.9788    14.7947
  307.7000    89.3805    16.0522    14.8802
  307.8000    88.8954    16.1437    14.9632
  307.9000    88.6492    16.2357    14.9841
  308.0000    88.4031    16.3190    14.9835
  308.1000    88.1570    16.3184    15.0064
  308.2000    88.0672    16.3181    15.0882
  308.3000    88.3144    16.3176    15.0874
  308.4000    88.6010    16.3171    15.1563
  308.5000    88.8092    16.3166    15.1929
  308.6000    89.2054    16.3162    15.1923
  308.7000    89.6995    16.3158    15.1916
  308.8000    90.1937    16.3153    15.1909
  308.9000    90.7414    16.2730    15.2653
  309.0000    91.1818    16.1996    15.2972
  309.1000    91.8372    16.1992    15.2965
  309.2000    92.4752    16.1085    15.3094
  309.3000    92.9691    16.0843    15.4033
  309.4000    93.4926    16.0374    15.4027
  309.5000    93.9573    15.9703    15.4021
  309.6000    94.2778    15.9666    15.4014
  309.7000    94.6399    15.8570    15.4008
  309.8000    95.0779    15.8567    15.4001
  309.9000    95.3276    15.8562    15.3995
  310.0000    95.5726    15.8260    15.3340
  310.1000    95.8199    15.7353    15.2901
  310.2000    96.0671    15.6326    15.2660
  310.3000    96.2461    15.6322    15.1784
  310.4000    96.2566    15.5764    15.0915
  310.5000    96.5528    15.4872    15.0735
  310.6000    96.5533    15.4118    15.0246
  310.7000    96.6931    15.4113    14.9664
  310.8000    96.8598    15.4109    14.9579
  310.9000    96.8605    15.3508    14.8600
  311.0000    96.8612    15.3017    14.7871
  311.1000    96.8617    15.2830    14.7544
