~VERSION INFORMATION
 VERS.                2.0:   CWLS LOG ASCII STANDARD - VERSION 2.0
 WRAP.                 NO:   ONE LINE PER DEPTH STEP
~WELL INFORMATION
#MNEM.UNIT      DATA TYPE    INFORMATION
#----------   ------------   ------------------------------
 STRT.F           14.5000:   START DEPTH
 STOP.F          750.0000:   STOP DEPTH
 STEP.F            0.5000:   STEP LENGTH
 NULL.          -999.2500:   NO VALUE
 COMP. FENIX & SCISSON INC:   COMPANY
 WELL.       NPR 3 #24-14:   WELL
 FLD .             TEAPOT:   FIELD
 LOC .      S14 T38N R78W:   LOCATION
 CNTY.            NATRONA:   COUNTY
 STAT.            WYOMING:   STATE
 CTRY. UNITED STATES OF AMERICA:   COUNTRY
 SRVC.           BIRDWELL:   SERVICE COMPANY
 DATE.        27-DEC-1978:   LOGDATE
 API .       490251075900:   API NUMBER
~CURVE INFORMATION
#MNEM.UNIT       API CODE    CURVE DESCRIPTION
#----------   ------------   ------------------------------
 DEPT.F                  :   
 SPR .MV     05 010 01 00:   SPONTANEOUS POTENTIAL FROM RES.
 SN  .OHMM   05 040 16 00:   SHORT NORMAL 16"
 IL  .OHMM   05 120 00 00:   INDUCTION LOG
 GRD .GAPI   45 310 01 00:   GAMMA RAY FROM DENSITY LOG
 CALD.IN     45 280 60 00:   CALIPER
 RHOB.G/C3   45 350 01 00:   BULK DENSITY
 DPHI.DEC    45 890 12 00:   DENSITY POROSITY SANDSTONE
 CORR.G/C3   45 356 01 00:   DENSITY CORRECTION
~PARAMETER INFORMATION
#MNEM.UNIT          VALUE    DESCRIPTION
#----------   ------------   ------------------------------
 PD  .                 GL:   PERMANENT DATUM
 EPD .F              5209:   ELEVATION PERMANENT DATUM
 LMF .                 KB:   LOG MEASURED FROM
 DAPD.F                 4:   FEET ABOVE PERMANENT DATUM
 DMF .                 KB:   DRILLING MEASURED FROM
 EKB .F              5212:   KELLING BUSHING
 EGL .F              5209:   GROUND LEVEL
 DATE.           12-27-78:   RUN DATE
 RUN .                  1:   RUN NUMBER
 DD  .F               750:   DEPTH DRILLER
 DL  .F               742:   DEPTH LOGGER
 BLI .F               735:   BOTTOM LOG INTERVAL
 TLI .F                35:   TOP LOG INTERVAL
 CS  .IN            8.625:   CASING SIZE
 CBD .F                40:   CASING BOTTOM DRILLER
 CBL .F                32:   CASING BOTTOM LOGGER
 BS  .IN            7.875:   BIT SIZE
 BSD .F               750:   BIT SIZE AT DEPTH
 DFT .                KCL:   DRILLING FLUID TYPE
 DFD .                8.6:   DRILLING FLUID DENSITY
 DFV .                 35:   DRILLING FLUID VISCOSITY
 DFPH.                9.4:   DRILLING FLUID PH
 DFL .               12.4:   DRILLING FLUID LOSS
 MSS .           FLOWLINE:   MUD SAMPLE SOURCE
 RMS .OHMM            .38:   RESISTIVITY MUD SAMPLE
 MST .F                58:   MUD SAMPLE TEMPERATURE
 RMF .OHMM            .38:   RESISTIVITY MUD FILTRATE SAMPLE
 MFST.F                58:   MUD FILTRATE SAMPLE TEMPERATURE
 RMC .OHMM            .36:   RESISTIVITY MUD CAKE
 MCST.F                60:   MUD CAKE SAMPLE TEMPERATURE
 MFSS.           MEASURED:   MUD FILTRATE SAMPLE SOURCE
 MCSS.           MEASURED:   MUD CAKE SAMPLE SOURCE
 RMB .OHMM            .37:   RESISTIVITY MUD AT BHT
 BHT .F                59:   BOTTOM HOLE TEMPERATURE
 TCS .HRS               2:   TIME CURCULATED STOPPED
 MRT .F                59:   MAXIMUM RECORDED TEMPERATURE
 LUN .               2958:   LOGGING UNIT NUMBER
 LUL .             CASPER:   LOGGING UNIT LOCATION
 ENGI.         B. ROLLINS:   RECORDING ENGINEER
 WITN.           DINSMORE:   WITNESSED BY
 CLNT.            A2DTECH:   CLIENT CODE
 ORIG.           5" PRINT:   ORIGIN OF DATA
 UWI .       490251075900:   UNIQUE WELL ID
 DICO. A2D Technologies, Inc.:   DIGITIZING COMPANY
~OTHER INFORMATION
~A   DEPT      SPR         SN         IL         GRD      CALD       RHOB       DPHI       CORR   
# ...
  379.0000   -49.7000    10.2510     8.9000    92.4490     7.2360     2.4770     0.1220     0.0210
  379.5000   -49.7000    10.2380     8.9000    92.9110     7.2940     2.4770     0.1230     0.0250
  380.0000   -49.7000    10.2250     8.9010    93.4710     7.4380     2.4780     0.1240     0.0290
  380.5000   -49.7000    10.2130     8.8920    95.6000     7.5930     2.4780     0.1230     0.0340
  381.0000   -49.7000    10.2000     8.8530    98.0430     7.7430     2.4780     0.1240     0.0360
  381.5000   -49.7030    10.1880     8.8140   100.3400     7.7860     2.4750     0.1260     0.0380
  382.0000   -49.7640    10.1750     8.7750    98.8410     7.7730     2.4730     0.1270     0.0390
  382.5000   -49.8230    10.1620     8.7380    95.9940     7.7630     2.4720     0.1280     0.0400
  383.0000   -49.8820    10.1500     8.5620    94.7330     7.7530     2.4690     0.1290     0.0410
  383.5000   -49.9410    10.1370     8.4710    92.8240     7.7290     2.4660     0.1370     0.0430
  384.0000   -50.0000    10.1240     8.4270    90.7520     7.6920     2.4560     0.1500     0.0460
  384.5000   -50.0580    10.1120     8.3820    91.0580     7.6550     2.4370     0.1600     0.0580
  385.0000   -50.1010    10.0990     8.3380    91.6840     7.6020     2.4170     0.1640     0.0710
  385.5000   -50.1000    10.0870     8.2930    93.3160     7.4950     2.4100     0.1730     0.0830
  386.0000   -50.1000    10.0740     8.2540    94.8220     7.2740     2.4010     0.1680     0.1030
  386.5000   -50.1000    10.0610     8.2200    94.9240     7.2210     2.3870     0.1490     0.1240
  387.0000   -50.1000    10.0490     8.1870    94.9810     7.1910     2.4240     0.1290     0.1470
  387.5000   -50.0980    10.0360     8.1540    95.0400     7.1640     2.4450     0.1050     0.1770
  388.0000   -49.9770    10.0230     8.1200    96.1010     7.1950     2.4680     0.1110     0.1900
  388.5000   -49.8410    10.0110     8.0870    98.8570     7.2550     2.5030     0.1180     0.1310
  389.0000   -49.7050     9.9980     8.0540   100.0160     7.2580     2.4910     0.1170     0.1130
  389.5000   -49.5690     9.9860     8.0210    99.9280     7.2640     2.4810     0.1100     0.1210
  390.0000   -49.4950     9.9730     7.9690    96.9280     7.2690     2.4980     0.1000     0.1410
  390.5000   -49.4820     9.9600     7.9770    93.3950     7.2920     2.5190     0.0900     0.1610
  391.0000   -49.4690     9.9480     7.9930    91.4430     7.3920     2.5400     0.0800     0.1540
  391.5000   -49.4570     9.9350     8.0090    89.9170     7.6880     2.5490     0.1150     0.1060
  392.0000   -49.4440     9.9230     8.0250    89.0150     7.7710     2.5010     0.1320     0.0940
  392.5000   -49.4320     9.9100     8.0410    88.9190     7.8450     2.4680     0.1260     0.0960
  393.0000   -49.4200     9.8970     8.0300    89.1720     7.9200     2.4660     0.1170     0.1100
  393.5000   -49.4070     9.8850     8.0160    89.7220     7.9950     2.4910     0.1090     0.1240
  394.0000   -49.3950     9.8720     8.0010    90.9210     7.9930     2.5120     0.1010     0.1250
  394.5000   -49.3830     9.8590     7.9860    92.4740     7.9800     2.5210     0.0940     0.1260
  395.0000   -49.3700     9.8470     7.9710    94.0170     7.9660     2.5220     0.0940     0.1270
  395.5000   -49.3580     9.7970     7.9160    95.4100     7.9520     2.5250     0.1030     0.1290
  396.0000   -49.3460     9.7500     7.8550    95.9690     7.9570     2.5150     0.0970     0.1480
  396.5000   -49.3330     9.7020     7.7390    96.5450     7.9740     2.5120     0.0900     0.1720
  397.0000   -49.3210     9.5960     7.5640    97.0600     7.9640     2.5300     0.0820     0.1960
  397.5000   -49.3090     9.3460     7.4040    97.0800     7.9050     2.5450     0.0750     0.2100
  398.0000   -49.3000     9.1880     7.3420    95.5270     7.7190     2.5480     0.0670     0.2190
  398.5000   -49.3000     9.0400     7.2860    93.5660     7.4990     2.5610     0.0630     0.2150
  399.0000   -49.3000     8.8930     7.2530    93.6070     7.4530     2.5730     0.0730     0.1960
  399.5000   -49.3000     8.8180     7.2300    93.7540     7.4890     2.5730     0.0970     0.1380
  400.0000   -49.3000     8.8180     7.2070    93.7250     7.5310     2.5400     0.1130     0.1010
  400.5000   -49.3000     8.8180     7.1830    93.1730     7.5690     2.5100     0.1250     0.0980
  401.0000   -49.3000     8.8180     7.1600    92.7150     7.5700     2.4830     0.1310     0.0980
  401.5000   -49.3000     8.8180     7.1370    93.1630     7.5690     2.4690     0.1330     0.1030
  402.0000   -49.3000     8.8180     7.1140    93.6760     7.5650     2.4600     0.1300     0.1260
  402.5000   -49.3000     8.8180     7.0910    95.8160     7.6940     2.4600     0.1110     0.1570
  403.0000   -49.3020     8.8180     7.0740    97.2810     7.8350     2.4820     0.1020     0.1560
  403.5000   -49.3470     8.8180     7.1430    98.2510     7.9580     2.5070     0.1200     0.1280
  404.0000   -49.5080     8.8180     7.2070    99.7420     7.9980     2.4920     0.1180     0.1200
  404.5000   -49.6630     8.8180     7.2700   100.4060     8.0300     2.4810     0.1170     0.1300
  405.0000   -49.7780     8.8710     7.3360    99.3040     8.0600     2.4860     0.1200     0.1400
  405.5000   -49.8830     8.9260     7.3360    97.6540     8.0450     2.4860     0.1230     0.1540
  406.0000   -49.9870     8.9830     7.3360    97.4870     8.0210     2.4750     0.1280     0.1790
  406.5000   -50.0910     8.9810     7.3360    98.7740     7.9970     2.4680     0.1160     0.2310
  407.0000   -50.1950     8.9820     7.3390   103.0180     7.9410     2.4740     0.1020     0.2830
  407.5000   -50.2960     8.9820     7.3450   103.9890     7.9060     2.5030     0.0870     0.3020
  408.0000   -50.3000     8.9820     7.3510   103.4570     7.8950     2.5280     0.0750     0.2980
  408.5000   -50.3000     8.9820     7.3560   103.0160     7.8170     2.5540     0.0660     0.2760
  409.0000   -50.3000     8.9820     7.3620   103.1580     7.7270     2.5720     0.0830     0.2260
  409.5000   -50.3000     8.9820     7.3680   103.3180     7.5560     2.5610     0.0950     0.1770
  410.0000   -50.3000     8.9850     7.3740   103.8580     7.4360     2.5280     0.0920     0.1350
  410.5000   -50.3010     8.9920     7.3790   105.5730     7.3720     2.4880     0.0910     0.1440
  411.0000   -50.3060     8.9990     7.3850   106.4750     7.3580     2.4960     0.0910     0.1420
  411.5000   -50.4260     9.0060     7.3910   108.2710     7.3560     2.5220     0.1020     0.1200
  412.0000   -51.0070     9.0130     7.3960   109.8210     7.3670     2.5290     0.1120     0.0970
  412.5000   -51.5810     9.0200     7.4020   109.3970     7.3770     2.5000     0.1230     0.0740
  413.0000   -51.9250     9.0280     7.4040   107.3740     7.3870     2.4840     0.1290     0.0510
  413.5000   -51.9830     9.0350     7.4040   104.4470     7.4540     2.4710     0.1320     0.0290
  414.0000   -52.0440     9.0420     7.4040   103.9510     7.5860     2.4660     0.1310     0.0180
  414.5000   -52.1040     9.0490     7.4040   103.5400     7.7670     2.4630     0.1300     0.0170
  415.0000   -52.1630     9.0560     7.4040   103.1190     7.9410     2.4630     0.1290     0.0190
  415.5000   -52.2230     9.0630     7.4040   102.3190     7.9800     2.4660     0.1270     0.0210
  416.0000   -52.2840     9.0650     7.4040    99.7950     8.0220     2.4700     0.1230     0.0210
  416.5000   -52.2990     9.0300     7.4040    97.5780     8.1060     2.4750     0.1200     0.0210
  417.0000   -52.3000     8.9980     7.4040    98.5090     8.1280     2.4790     0.1240     0.0210
  417.5000   -52.3000     8.9660     7.2910    98.7430     8.1340     2.4760     0.1270     0.0200
  418.0000   -52.3000     8.9340     6.9420    98.8030     8.1400     2.4720     0.1250     0.0200
  418.5000   -52.3000     8.9000     6.9810    99.9630     8.1420     2.4710     0.1260     0.0200
  419.0000   -52.3000     8.8250     7.0560   100.1630     8.1210     2.4740     0.1320     0.0200
