~VERSION INFORMATION
 VERS.                2.0:   CWLS LOG ASCII STANDARD - VERSION 2.0
 WRAP.                 NO:   ONE LINE PER DEPTH STEP
~WELL INFORMATION
#MNEM.UNIT      DATA TYPE    INFORMATION
#----------   ------------   ------------------------------
 STRT.F            0.0000:   START DEPTH
 STOP.F          600.0000:   STOP DEPTH
 STEP.F            0.5000:   STEP LENGTH
 NULL.          -999.2500:   NO VALUE
 COMP.   FLUOR DANIEL INC:   COMPANY
 WELL.   16-1 X 11 #16-11:   WELL
 FLD .             TEAPOT:   FIELD
 LOC .      S11 T38N R78W:   LOCATION
 CNTY.            NATRONA:   COUNTY
 STAT.            WYOMING:   STATE
 CTRY. UNITED STATES OF AMERICA:   COUNTRY
 SRVC.      Western Atlas:   SERVICE COMPANY
 DATE.        08-MAY-1995:   LOGDATE
 API .       490252271100:   API NUMBER
~CURVE INFORMATION
#MNEM.UNIT       API CODE    CURVE DESCRIPTION
#----------   ------------   ------------------------------
 DEPT.F                  :   
 GRR .GAPI   07 310 01 00:   GAMMA RAY
 RILD.OHMM   07 120 46 00:   INDUCTION LOG DEEP RESISTIVITY
 RILM.OHMM   07 120 44 00:   INDUCTION LOG MEDIUM RESISTIVITY
~PARAMETER INFORMATION
#MNEM.UNIT          VALUE    DESCRIPTION
#----------   ------------   ------------------------------
 PD  .                 GL:   PERMANENT DATUM
 EPD .F              5203:   ELEVATION PERMANENT DATUM
 LMF .                 KB:   LOG MEASURED FROM
 DAPD.F                10:   FEET ABOVE PERMANENT DATUM
 DMF .                 KB:   DRILLING MEASURED FROM
 EKB .F              5213:   KELLING BUSHING
 EDF .F              5212:   DRILLING FLOOR
 EGL .F              5203:   GROUND LEVEL
 DATE.        08-MAY-1995:   RUN DATE
 RUN .                  1:   RUN NUMBER
 DD  .F               605:   DEPTH DRILLER
 DL  .F               608:   DEPTH LOGGER
 BLI .F               600:   BOTTOM LOG INTERVAL
 TLI .F                46:   TOP LOG INTERVAL
 CS  .IN            9.625:   CASING SIZE
 CBD .F                46:   CASING BOTTOM DRILLER
 CBL .F                46:   CASING BOTTOM LOGGER
 BS  .IN             8.75:   BIT SIZE
 BSD .F               605:   BIT SIZE AT DEPTH
 DFT .                AIR:   DRILLING FLUID TYPE
 MRT .F                89:   MAXIMUM RECORDED TEMPERATURE
 LUN .            HL 6530:   LOGGING UNIT NUMBER
 LUL .             CASPER:   LOGGING UNIT LOCATION
 ENGI.      PAT RASMUSSEN:   RECORDING ENGINEER
 WITN.        GARY STRONG:   WITNESSED BY
 CLNT.            A2DTECH:   CLIENT CODE
 ORIG.           5" PRINT:   ORIGIN OF DATA
 UWI .       490252271100:   UNIQUE WELL ID
 DICO. A2D Technologies, Inc.:   DIGITIZING COMPANY
~OTHER INFORMATION
~A    DEPT      GRR      RILD       RILM   
    0.0000    12.3504  -999.2500  -999.2500
    0.5000    13.8681  -999.2500  -999.2500
    1.0000    18.0967  -999.2500  -999.2500
    1.5000    25.0362  -999.2500  -999.2500
    2.0000    29.5663  -999.2500  -999.2500
    2.5000    27.4722  -999.2500  -999.2500
    3.0000    24.1707  -999.2500  -999.2500
    3.5000    20.5680  -999.2500  -999.2500
    4.0000    14.5556  -999.2500  -999.2500
    4.5000    10.3505  -999.2500  -999.2500
    5.0000    10.9646  -999.2500  -999.2500
    5.5000    11.8800  -999.2500  -999.2500
    6.0000    10.6869  -999.2500  -999.2500
    6.5000     8.5902  -999.2500  -999.2500
    7.0000     8.6024  -999.2500  -999.2500
    7.5000     9.5202  -999.2500  -999.2500
    8.0000    12.2428  -999.2500  -999.2500
    8.5000    13.7606  -999.2500  -999.2500
    9.0000    15.8807  -999.2500  -999.2500
    9.5000    18.6033  -999.2500  -999.2500
   10.0000    24.0367  -999.2500  -999.2500
   10.5000    30.0726  -999.2500  -999.2500
   11.0000    42.7831  -999.2500  -999.2500
   11.5000    52.6024  -999.2500  -999.2500
   12.0000    57.8215  -999.2500  -999.2500
   12.5000    60.8453  -999.2500  -999.2500
   13.0000    61.4595  -999.2500  -999.2500
   13.5000    61.1700  -999.2500  -999.2500
   14.0000    60.2781  -999.2500  -999.2500
   14.5000    56.3742  -999.2500  -999.2500
   15.0000    54.2771  -999.2500  -999.2500
   15.5000    54.5904  -999.2500  -999.2500
   16.0000    55.2048  -999.2500  -999.2500
   16.5000    54.6139  -999.2500  -999.2500
   17.0000    50.7129  -999.2500  -999.2500
   17.5000    50.1193  -999.2500  -999.2500
   18.0000    51.9412  -999.2500  -999.2500
   18.5000    54.6638  -999.2500  -999.2500
   19.0000    56.7840  -999.2500  -999.2500
   19.5000    55.8916  -999.2500  -999.2500
   20.0000    59.8195  -999.2500  -999.2500
   20.5000    60.4337  -999.2500  -999.2500
   21.0000    59.4980  -999.2500  -999.2500
   21.5000    58.6499  -999.2500  -999.2500
   22.0000    59.2669  -999.2500  -999.2500
   22.5000    61.0859  -999.2500  -999.2500
   23.0000    64.4109  -999.2500  -999.2500
   23.5000    66.2299  -999.2500  -999.2500
   24.0000    66.8411  -999.2500  -999.2500
   24.5000    64.7473  -999.2500  -999.2500
   25.0000    60.5422  -999.2500  -999.2500
   25.5000    60.8875  -999.2500  -999.2500
   26.0000    67.7975  -999.2500  -999.2500
   26.5000    68.4116  -999.2500  -999.2500
   27.0000    66.3149  -999.2500  -999.2500
   27.5000    65.4201  -999.2500  -999.2500
   28.0000    66.3384  -999.2500  -999.2500
   28.5000    68.1574  -999.2500  -999.2500
   29.0000    69.3739  -999.2500  -999.2500
   29.5000    69.3857  -999.2500  -999.2500
   30.0000    68.7550  -999.2500  -999.2500
   30.5000    67.3007  -999.2500  -999.2500
   31.0000    66.1105  -999.2500  -999.2500
   31.5000    66.4235  -999.2500  -999.2500
   32.0000    66.7364  -999.2500  -999.2500
   32.5000    66.7482  -999.2500  -999.2500
   33.0000    66.7599  -999.2500  -999.2500
   33.5000    67.9765  -999.2500  -999.2500
   34.0000    72.2051  -999.2500  -999.2500
   34.5000    73.1204  -999.2500  -999.2500
   35.0000    72.2285  -999.2500  -999.2500
   35.5000    71.9391  -999.2500  -999.2500
   36.0000    71.9537  -999.2500  -999.2500
   36.5000    70.4594  -999.2500  -999.2500
   37.0000    67.7603  -999.2500  -999.2500
   37.5000    67.4679  -999.2500  -999.2500
   38.0000    67.1814  -999.2500  -999.2500
   38.5000    65.0847  -999.2500  -999.2500
   39.0000    65.0964  -999.2500  -999.2500
   39.5000    66.6988  -999.2500  -999.2500
   40.0000    70.2433  -999.2500  -999.2500
   40.5000    74.1707  -999.2500  -999.2500
   41.0000    76.5921  -999.2500  -999.2500
   41.5000    76.0014  -999.2500  -999.2500
   42.0000    75.1095  -999.2500  -999.2500
   42.5000    75.4225  -999.2500  -999.2500
   43.0000    76.6390  -999.2500  -999.2500
   43.5000    78.1568  -999.2500  -999.2500
   44.0000    78.4697  -999.2500  -999.2500
   44.5000    74.0241  -999.2500  -999.2500
   45.0000    72.7703  -999.2500  -999.2500
   45.5000    74.5922  -999.2500  -999.2500
   46.0000    80.6280     5.6160  9864.1982
   46.5000    93.8928    10.0635  9665.7969
   47.0000   109.8684    13.4733    15.6386
   47.5000   117.4102     8.4652     6.5709
   48.0000   124.3497     3.1603     2.7802
   48.5000   124.0522     2.5849     2.7419
   49.0000   122.8671     3.5582     3.0392
   49.5000   123.1830    16.5011     4.5900
   50.0000   124.3995  3334.6067     5.1674
   50.5000   124.4113 10000.0000     6.5917
   51.0000   124.4230    25.9311     8.4084
   51.5000   124.6370     7.6458     8.4702
   52.0000   124.4701     6.4297     7.1750
   52.5000   123.8855     6.2990     7.0797
   53.0000   123.9036     6.3893     6.9373
   53.5000   123.2721     6.4356     7.3380
   54.0000   123.3408     6.6186     7.8149
   54.5000   126.6718     7.1457     7.5522
   55.0000   128.7980     7.1975     7.0493
   55.5000   128.8158     7.1003     6.9075
   56.0000   124.6122     6.8126     6.7685
   56.5000   124.9356     6.1408     6.6756
   57.0000   127.3630     6.1000     6.5899
   57.5000   131.5976     6.1901     6.5476
   58.0000   128.3022     6.3264     6.5056
   58.5000   128.6211     6.4542     6.4639
   59.0000   130.4461     6.5010     6.5130
   59.5000   130.7661     6.4574     6.4712
   60.0000   129.2369     6.3702     6.5196
   60.5000   128.3910     6.3724     6.4852
   61.0000   130.8228     6.4186     6.4509
   61.5000   131.1418     6.4652     6.3036
   62.0000   130.8539     6.2032     6.2622
   62.5000   129.9725     6.1620     6.2648
   63.0000   128.7854     6.1638     6.3106
   63.5000   125.7911     6.2089     6.4010
   64.0000   125.2020     6.2975     6.4927
   64.5000   125.8267     6.4318     6.7243
   65.0000   127.6516     6.7072     6.8681
   65.5000   131.8863     6.8980     6.9665
   66.0000   131.3016     6.8517     6.9689
   66.5000   129.5122     6.7129     6.9647
   67.0000   127.6807     7.0003     7.0711
   67.5000   124.6235     7.1496     7.2224
   68.0000   122.9389     7.1572     7.2282
   68.5000   124.1659     7.2040     7.2777
   69.0000   129.6054     7.2060     7.2295
   69.5000   132.0328     7.2081     7.1820
   70.0000   132.3518     7.2101     7.1851
   70.5000   131.7671     7.1617     7.1875
   71.0000   128.7728     7.1142     7.1900
   71.5000   121.5617     7.0186     7.0933
   72.0000   122.1818     6.9238     7.0466
   72.5000   121.5972     6.8303     6.9038
   73.0000   119.2053     6.7850     6.8109
   73.5000   120.1267     6.7399     6.7661
   74.0000   125.5663     6.7893     6.8161
   74.5000   125.2540     6.8861     6.8660
   75.0000   122.8908     6.9843     6.9643
   75.5000   125.6239     7.0350     7.1133
   76.0000   128.0513     7.1850     7.3160
   76.5000   128.0690     7.3383     7.4725
   77.0000   127.7812     7.4430     7.6323
   77.5000   127.5022     7.7616     7.8499
   78.0000   126.9131     7.9824     8.0736
   78.5000   126.3329     8.0404     8.1319
   79.0000   125.7438     7.9869     8.0233
   79.5000   122.4527     7.9897     7.9704
   80.0000   117.9524     7.9920     7.9181
   80.5000   117.9702     7.9384     7.8660
   81.0000   117.9880     7.8857     7.7602
   81.5000   118.0060     7.6725     7.5503
   82.0000   120.0080     7.3616     7.2959
   82.5000   126.1782     7.2622     7.0985
   83.0000   126.1959     7.0626     6.9546
   83.5000   126.5149     6.7264     6.8605
   84.0000   128.0387     6.5953     6.7682
   84.5000   130.1649     6.6436     6.7237
   85.0000   130.1826     6.6917     6.7734
   85.5000   130.8028     6.7403     6.9183
   86.0000   131.1218     6.8364     7.1651
   86.5000   130.5327     7.2791     7.5767
   87.0000   129.3501     7.5908     8.2950
   87.5000   126.0546     7.6458     8.6507
   88.0000   120.0482     7.7549     8.5938
   88.5000   100.6868     7.8112     8.4705
   89.0000    99.3006     7.9231     8.1359
   89.5000   101.1301     7.9805     8.0258
   90.0000   115.6057     7.9828     8.0292
   90.5000   124.0572     7.9292     7.8120
