~VERSION INFORMATION
 VERS.                2.0:   CWLS LOG ASCII STANDARD - VERSION 2.0
 WRAP.                 NO:   ONE LINE PER DEPTH STEP
~WELL INFORMATION
#MNEM.UNIT      DATA TYPE    INFORMATION
#----------   ------------   ------------------------------
 STRT.F            0.0000:   START DEPTH
 STOP.F         4535.0000:   STOP DEPTH
 STEP.F            0.5000:   STEP LENGTH
 NULL.          -999.2500:   NO VALUE
 COMP. LAWRENCE - ALLISON & ASSOCIATES:   COMPANY
 WELL.    NPR ##3 56-X-15:   WELL
 FLD .   TEAPOT NAVAL RES:   FIELD
 LOC .      S15 T38N R78W:   LOCATION
 CNTY.            NATRONA:   COUNTY
 STAT.            WYOMING:   STATE
 CTRY. UNITED STATES OF AMERICA:   COUNTRY
 SRVC.      Dresser Atlas:   SERVICE COMPANY
 DATE.        03-MAY-1984:   LOGDATE
 API .       490251095900:   API NUMBER
~CURVE INFORMATION
#MNEM.UNIT       API CODE    CURVE DESCRIPTION
#----------   ------------   ------------------------------
 DEPT.F                  :   
 CORR.G/C3   45 356 01 00:   DENSITY CORRECTION
 DEN .G/C3   45 350 01 00:   COMPENSATED BULK DENSTIY
 PORD.DEC    45 890 12 00:   POROSITY DENSITY SANDSTONE
 CNC .DEC    42 890 03 00:   NEUTRON POROSITY SANDSTONE
 GRR .GAPI   07 310 01 00:   GAMMA RAY
 CALR.IN     07 280 01 00:   CALIPER FROM RESISTIVITY
 SPR .MV     07 010 01 00:   SPONTANEOUS POTENTIAL
 RILD.OHMM   07 120 46 00:   INDUCTION LOG DEEP RESISTIVITY
 RILM.OHMM   07 120 44 00:   INDUCTION LOG MEDIUM RESISTIVITY
 RFOC.OHMM   07 220 04 00:   RESISTIVITY FOCUSED LOG
 AC  .US/F   60 520 00 00:   ACCOUSTIC
~PARAMETER INFORMATION
#MNEM.UNIT          VALUE    DESCRIPTION
#----------   ------------   ------------------------------
 PD  .                 GL:   PERMANENT DATUM
 EPD .F              5326:   ELEVATION PERMANENT DATUM
 LMF .                 KB:   LOG MEASURED FROM
 DAPD.F                12:   FEET ABOVE PERMANENT DATUM
 DMF .                 KB:   DRILLING MEASURED FROM
 EKB .F              5338:   KELLING BUSHING
 EDF .F              5337:   DRILLING FLOOR
 EGL .F              5326:   GROUND LEVEL
 DATE.        03-MAY-1984:   RUN DATE
 RUN .                  1:   RUN NUMBER
 DD  .F              4547:   DEPTH DRILLER
 DL  .F              4539:   DEPTH LOGGER
 BLI .F              4536:   BOTTOM LOG INTERVAL
 CS  .IN            8.625:   CASING SIZE
 CBD .F              1027:   CASING BOTTOM DRILLER
 CBL .F              1021:   CASING BOTTOM LOGGER
 BS  .IN            7.875:   BIT SIZE
 BSD .F              4547:   BIT SIZE AT DEPTH
 DFT .            KCL GEL:   DRILLING FLUID TYPE
 DFD .                9.1:   DRILLING FLUID DENSITY
 DFV .                 44:   DRILLING FLUID VISCOSITY
 DFPH.                  8:   DRILLING FLUID PH
 DFL .               14.5:   DRILLING FLUID LOSS
 MSS .           MUD TANK:   MUD SAMPLE SOURCE
 RMS .OHMM           0.56:   RESISTIVITY MUD SAMPLE
 MST .F                73:   MUD SAMPLE TEMPERATURE
 RMF .OHMM           0.42:   RESISTIVITY MUD FILTRATE SAMPLE
 MFST.F                73:   MUD FILTRATE SAMPLE TEMPERATURE
 RMC .OHMM           0.71:   RESISTIVITY MUD CAKE
 MCST.F                73:   MUD CAKE SAMPLE TEMPERATURE
 MFSS.               MEAS:   MUD FILTRATE SAMPLE SOURCE
 MCSS.               CALC:   MUD CAKE SAMPLE SOURCE
 RMB .OHMM           0.29:   RESISTIVITY MUD AT BHT
 BHT .F               141:   BOTTOM HOLE TEMPERATURE
 TCS .HRS             3.5:   TIME CURCULATED STOPPED
 MRT .F               125:   MAXIMUM RECORDED TEMPERATURE
 LUN .               6302:   LOGGING UNIT NUMBER
 LUL .               CODY:   LOGGING UNIT LOCATION
 ENGI.              GETTY:   RECORDING ENGINEER
 WITN.           JENNINGS:   WITNESSED BY
 CLNT.            A2DTECH:   CLIENT CODE
 ORIG.           5" PRINT:   ORIGIN OF DATA
 UWI .       490251095900:   UNIQUE WELL ID
 DICO. A2D Technologies, Inc.:   DIGITIZING COMPANY
~OTHER INFORMATION
~A    DEPT    CORR        DEN       PORD        CNC        GRR       CALR        SPR       RILD       RILM       RFOC         AC   
# ...
 1281.0000  -999.2500  -999.2500  -999.2500  -999.2500    84.2961    10.0244    -4.7116    10.2393     9.0451     7.9476  -999.2500
 1281.5000  -999.2500  -999.2500  -999.2500  -999.2500    82.4978    10.0396    -4.7101    10.0265     8.9191     7.9459  -999.2500
 1282.0000  -999.2500  -999.2500  -999.2500  -999.2500    81.2997    10.0397    -5.1590     9.9556     8.8559     7.9443  -999.2500
 1282.5000  -999.2500  -999.2500  -999.2500  -999.2500    80.1061    10.0399    -5.4582     9.7486     8.7934     7.8331  -999.2500
 1283.0000  -999.2500  -999.2500  -999.2500  -999.2500    81.9222    10.0400    -5.4563     9.6797     8.6109     7.6700  -999.2500
 1283.5000  -999.2500  -999.2500  -999.2500  -999.2500    85.5457    10.0402    -5.0044     9.4128     8.4909     7.7222  -999.2500
 1284.0000  -999.2500  -999.2500  -999.2500  -999.2500    86.1570    10.0252    -4.8527     9.2171     8.3726     7.5610  -999.2500
 1284.5000  -999.2500  -999.2500  -999.2500  -999.2500    85.2621    10.0254    -4.7011     9.2158     8.3135     7.5071  -999.2500
 1285.0000  -999.2500  -999.2500  -999.2500  -999.2500    86.1749    10.0256    -4.5494     9.1507     8.3124     7.5583  -999.2500
 1285.5000  -999.2500  -999.2500  -999.2500  -999.2500    86.7863    10.0106    -4.2477     9.2133     8.3112     7.5563  -999.2500
 1286.0000  -999.2500  -999.2500  -999.2500  -999.2500    84.0844    10.0108    -4.2462     9.2120     8.3680     7.6075  -999.2500
 1286.5000  -999.2500  -999.2500  -999.2500  -999.2500    78.6717     9.9959    -4.2447     9.2107     8.3669     7.5532  -999.2500
 1287.0000  -999.2500  -999.2500  -999.2500  -999.2500    79.0389     9.9961    -4.3934     9.2738     8.3657     7.6043  -999.2500
 1287.5000  -999.2500  -999.2500  -999.2500  -999.2500    88.1532     9.9812    -4.0915     9.3372     8.3646     7.7091  -999.2500
 1288.0000  -999.2500  -999.2500  -999.2500  -999.2500    91.7230     9.9814    -3.9399     9.4008     8.3634     7.7075  -999.2500
 1288.5000  -999.2500  -999.2500  -999.2500  -999.2500    93.7681     9.9815    -3.7882     9.3995     8.3623     7.6525  -999.2500
 1289.0000  -999.2500  -999.2500  -999.2500  -999.2500    92.5741     9.9817    -4.0871     9.4641     8.3611     7.5980  -999.2500
 1289.5000  -999.2500  -999.2500  -999.2500  -999.2500    92.5830     9.9818    -4.6862     9.4625     8.3600     7.6049  -999.2500
 1290.0000  -999.2500  -999.2500  -999.2500  -999.2500    93.4956     9.9980    -5.1351     9.5272     8.4171     7.7011  -999.2500
 1290.5000  -999.2500  -999.2500  -999.2500  -999.2500    93.5046    10.0272    -5.2838     9.5927     8.4159     7.7532  -999.2500
 1291.0000  -999.2500  -999.2500  -999.2500  -999.2500    90.2003    10.0894    -5.2823     9.6584     8.4734     7.7512  -999.2500
 1291.5000  -999.2500  -999.2500  -999.2500  -999.2500    89.0022    10.1526    -5.2808     9.6567     8.4722     7.7496  -999.2500
 1292.0000  -999.2500  -999.2500  -999.2500  -999.2500    89.3146    10.2288    -4.9790     9.7231     8.5301     7.8024  -999.2500
 1292.5000  -999.2500  -999.2500  -999.2500  -999.2500    89.0201    10.2985    -4.6772     9.7214     8.5289     7.8004  -999.2500
 1293.0000  -999.2500  -999.2500  -999.2500  -999.2500    84.2120    10.3287    -4.5255     9.7201     8.5277     7.8536  -999.2500
 1293.5000  -999.2500  -999.2500  -999.2500  -999.2500    82.7127    10.3740    -4.6852     9.7187     8.5266     7.8515  -999.2500
 1294.0000  -999.2500  -999.2500  -999.2500  -999.2500    83.9287    10.3892    -5.2874     9.7174     8.5848     7.7416  -999.2500
 1294.5000  -999.2500  -999.2500  -999.2500  -999.2500    87.5521    10.4345    -5.5721     9.6487     8.5834     7.6865  -999.2500
 1295.0000  -999.2500  -999.2500  -999.2500  -999.2500    88.7659    10.4496    -5.7208     9.5141     8.5822     7.7388  -999.2500
 1295.5000  -999.2500  -999.2500  -999.2500  -999.2500    89.0760    10.4648    -5.6962     9.4468     8.5810     7.7368  -999.2500
 1296.0000  -999.2500  -999.2500  -999.2500  -999.2500    86.6754    10.4800    -5.4174     9.3800     8.5670     7.6817  -999.2500
 1296.5000  -999.2500  -999.2500  -999.2500  -999.2500    83.6700    10.4952    -5.4159     9.3137     8.5433     7.6270  -999.2500
 1297.0000  -999.2500  -999.2500  -999.2500  -999.2500    84.8860    10.4954    -5.4141     9.2479     8.5182     7.6789  -999.2500
 1297.5000  -999.2500  -999.2500  -999.2500  -999.2500    85.7986    10.4955    -5.4126     9.1825     8.3995     7.7309  -999.2500
 1298.0000  -999.2500  -999.2500  -999.2500  -999.2500    86.4100    10.4957    -5.4111     9.1812     8.3402     7.7827  -999.2500
 1298.5000  -999.2500  -999.2500  -999.2500  -999.2500    85.8165    10.4807    -5.4096     9.1163     8.3391     7.7811  -999.2500
 1299.0000  -999.2500  -999.2500  -999.2500  -999.2500    81.9098    10.4508    -5.4081     9.1151     8.2802     7.6191  -999.2500
 1299.5000  -999.2500  -999.2500  -999.2500  -999.2500    75.5935    10.4510    -5.4067     9.1138     8.2218     7.5124  -999.2500
 1300.0000  -999.2500  -999.2500  -999.2500  -999.2500    71.6868    10.4139    -5.4052     9.1126     8.2207     7.4589  -999.2500
 1300.5000  -999.2500  -999.2500  -999.2500  -999.2500    81.3420    10.3708    -5.4002     9.1107     8.1537     7.4908  -999.2500
 1301.0000  -999.2500  -999.2500  -999.2500  -999.2500    85.2909    10.3311    -5.3957     9.1088     8.1039     7.5090  -999.2500
 1301.5000  -999.2500  -999.2500  -999.2500  -999.2500    88.8946    10.3162    -5.8417     9.1066     8.2156     7.5077  -999.2500
 1302.0000  -999.2500  -999.2500  -999.2500  -999.2500    89.4939    10.3013    -6.1375     9.1047     8.2138     7.5066  -999.2500
 1302.5000  -999.2500  -999.2500  -999.2500  -999.2500    85.5070    10.2714    -6.2843     9.1028     8.2121     7.5056  -999.2500
 1303.0000  -999.2500  -999.2500  -999.2500  -999.2500    81.3311    10.2415    -5.8283     9.1009     8.2104     7.5046  -999.2500
 1303.5000  -999.2500  -999.2500  -999.2500  -999.2500    79.8823    10.2116    -5.8238     9.0991     8.2083     7.5035  -999.2500
 1304.0000  -999.2500  -999.2500  -999.2500  -999.2500    79.5901    10.1967    -5.8193     9.0341     8.2066     7.5025  -999.2500
 1304.5000  -999.2500  -999.2500  -999.2500  -999.2500    83.5151    10.1668    -6.2653     9.0322     8.2049     7.5014  -999.2500
 1305.0000  -999.2500  -999.2500  -999.2500  -999.2500    82.9214    10.1368    -6.4121     9.0304     8.1465     7.5004  -999.2500
 1305.5000  -999.2500  -999.2500  -999.2500  -999.2500    83.5331    10.1069    -6.4065     9.0285     8.1448     7.4994  -999.2500
 1306.0000  -999.2500  -999.2500  -999.2500  -999.2500    83.5903    10.0920    -6.5533     9.0266     8.0867     7.4983  -999.2500
 1306.5000  -999.2500  -999.2500  -999.2500  -999.2500    88.5271    10.0619    -6.3976     9.0248     8.0851     7.4973  -999.2500
 1307.0000  -999.2500  -999.2500  -999.2500  -999.2500    89.8851    10.0472    -5.9427     9.0229     8.0834     7.4963  -999.2500
 1307.5000  -999.2500  -999.2500  -999.2500  -999.2500    82.3663    10.0624    -5.6379     9.0210     8.0817     7.4952  -999.2500
 1308.0000  -999.2500  -999.2500  -999.2500  -999.2500    79.0620    10.0776    -5.3331     9.0192     8.0800     7.4423  -999.2500
 1308.5000  -999.2500  -999.2500  -999.2500  -999.2500    79.9746    10.0928    -5.3287     9.0173     8.0784     7.3898  -999.2500
 1309.0000  -999.2500  -999.2500  -999.2500  -999.2500    83.5981    10.0929    -5.3242     8.9529     8.0208     7.3888  -999.2500
 1309.5000  -999.2500  -999.2500  -999.2500  -999.2500    85.4143    10.0931    -5.3197     8.8890     8.0191     7.3877  -999.2500
 1310.0000  -999.2500  -999.2500  -999.2500  -999.2500    85.7245    10.1083    -5.3152     8.8872     7.9620     7.3867  -999.2500
 1310.5000  -999.2500  -999.2500  -999.2500  -999.2500    83.9263    10.1385    -5.3108     8.8237     7.8505     7.3857  -999.2500
 1311.0000  -999.2500  -999.2500  -999.2500  -999.2500    83.3329    10.1387    -5.3063     8.7567     7.8489     7.4361  -999.2500
