~VERSION INFORMATION
 VERS.                2.0:   CWLS LOG ASCII STANDARD - VERSION 2.0
 WRAP.                 NO:   ONE LINE PER DEPTH STEP
~WELL INFORMATION
#MNEM.UNIT      DATA TYPE    INFORMATION
#----------   ------------   ------------------------------
 STRT.F          436.0000:   START DEPTH
 STOP.F         2160.0000:   STOP DEPTH
 STEP.F            0.5000:   STEP LENGTH
 NULL.          -999.2500:   NO VALUE
 COMP.   FLUOR DANIEL INC:   COMPANY
 WELL. NAVAL PETROLEUM RESERVE 3 X-29 #31-29:   WELL
 FLD .            WILDCAT:   FIELD
 LOC .      S29 T39N R78W:   LOCATION
 CNTY.            NATRONA:   COUNTY
 STAT.            WYOMING:   STATE
 CTRY. UNITED STATES OF AMERICA:   COUNTRY
 SRVC.            Unknown:   SERVICE COMPANY
 DATE.        25-JUN-1995:   LOGDATE
 API .       490252272300:   API NUMBER
~CURVE INFORMATION
#MNEM.UNIT       API CODE    CURVE DESCRIPTION
#----------   ------------   ------------------------------
 DEPT.F                  :   
 ROP .FT/HR  91 810 01 00:   RAT OF DRILLING PENETRATION
 TGAS.TC/CC  91 830 01 00:   TOTAL GAS UNIT
~PARAMETER INFORMATION
#MNEM.UNIT          VALUE    DESCRIPTION
#----------   ------------   ------------------------------
 EPD .F              5058:   ELEVATION PERMANENT DATUM
 EKB .F              5068:   KELLING BUSHING
 EGL .F              5058:   GROUND LEVEL
 DATE.        25-JUN-1995:   RUN DATE
 RUN .                  1:   RUN NUMBER
 ENGI.     C.TOWER/R.HUSK:   RECORDING ENGINEER
 CLNT.            A2DTECH:   CLIENT CODE
 ORIG.           5" PRINT:   ORIGIN OF DATA
 UWI .       490252272300:   UNIQUE WELL ID
 DICO. A2D Technologies, Inc.:   DIGITIZING COMPANY
~OTHER INFORMATION
~A   DEPT        ROP     TGAS   
# ...
 1043.5000     0.4160     0.9190
 1044.0000     0.4158     0.8490
 1044.5000     0.4156     0.7340
 1045.0000     0.4154     0.7359
 1045.5000     0.4152     0.7377
 1046.0000     0.4150     0.9283
 1046.5000     0.4039     1.1192
 1047.0000     0.3958     1.1210
 1047.5000     0.3863     1.1229
 1048.0000     0.3861     1.1247
 1048.5000     0.3859     1.1266
 1049.0000     0.3857     1.1284
 1049.5000     0.3855     1.1302
 1050.0000     0.3853     1.3208
 1050.5000     0.4136     1.3226
 1051.0000     0.4043     1.3249
 1051.5000     0.3950     1.3264
 1052.0000     0.3951     1.3286
 1052.5000     0.3952     1.3304
 1053.0000     0.3953     1.3323
 1053.5000     0.3954     1.3340
 1054.0000     0.4049     1.3358
 1054.5000     0.4050     1.3378
 1055.0000     0.4145     1.3396
 1055.5000     0.4146     1.3415
 1056.0000     0.4241     1.3434
 1056.5000     0.4148     1.3453
 1057.0000     0.4148     1.1583
 1057.5000     0.4149     1.1606
 1058.0000     0.4150     1.0583
 1058.5000     0.4151     0.9751
 1059.0000     0.4152     1.1661
 1059.5000     0.4153     1.1679
 1060.0000     0.4154     1.3585
 1060.5000     0.6505     1.3604
 1061.0000     0.6506     1.3626
 1061.5000     0.6507     1.3644
 1062.0000     0.6508     1.5550
 1062.5000     0.6508     1.5568
 1063.0000     0.6509     1.3695
 1063.5000     0.6511     1.5605
 1064.0000     0.6511     1.5623
 1064.5000     0.6512     1.5642
 1065.0000     0.6513     1.3773
 1065.5000     0.6420     1.3796
 1066.0000     0.6421     1.1923
 1066.5000     0.6422     1.0055
 1067.0000     0.6423     1.0075
 1067.5000     0.6424     1.0096
 1068.0000     0.6425     1.0114
 1068.5000     0.6426     1.0133
 1069.0000     0.6427     1.0151
 1069.5000     0.6428     1.0170
 1070.0000     0.6429     1.0189
 1070.5000     0.6430     1.0211
 1071.0000     0.6431     0.8338
 1071.5000     0.6431     0.8361
 1072.0000     0.6432     0.8379
 1072.5000     0.6433     1.0285
 1073.0000     0.6434     1.0303
 1073.5000     0.6435     1.0321
 1074.0000     0.6436     1.0340
 1074.5000     0.6437     1.0358
 1075.0000     0.6438     1.0377
 1075.5000     0.6439     1.0400
 1076.0000     0.6440     1.0415
 1076.5000     0.6441     1.0434
 1077.0000     0.6442     1.0455
 1077.5000     0.6443     1.0473
 1078.0000     0.6444     1.0491
 1078.5000     0.6445     1.0510
 1079.0000     0.6445     1.0528
 1079.5000     0.6446     1.0547
 1080.0000     0.6447     1.0570
 1080.5000     0.6448     1.0588
 1081.0000     0.6449     1.0607
 1081.5000     0.6450     1.0625
 1082.0000     0.6451     1.0643
 1082.5000     0.6452     1.0660
 1083.0000     0.6453     1.0680
 1083.5000     0.6454     1.0698
 1084.0000     0.6455     1.0717
 1084.5000     0.6456     1.0736
 1085.0000     0.6269     0.8867
 1085.5000     0.6270     0.6998
 1086.0000     0.6365     0.7021
 1086.5000     0.6366     0.5148
 1087.0000     0.6367     0.3280
 1087.5000     0.6462     0.3303
 1088.0000     0.6368     0.3321
 1088.5000     0.6369     0.3340
 1089.0000     0.6464     0.5245
 1089.5000     0.6469     0.5264
 1090.0000     0.6560     0.5283
 1090.5000     0.6467     0.5305
 1091.0000     0.6562     0.5321
 1091.5000     0.5341     0.5340
 1092.0000     0.5154     0.5360
 1092.5000     0.4967     0.5378
 1093.0000     0.5062     0.5397
 1093.5000     0.5063     0.5415
 1094.0000     0.5064     0.7321
 1094.5000     0.5065     0.7343
 1095.0000     0.5066     0.7362
 1095.5000     0.5067     0.7377
 1096.0000     0.5162     0.9761
 1096.5000     0.5163     1.1190
 1097.0000     0.5164     1.1209
 1097.5000     0.5259     1.3114
 1098.0000     0.5353     1.3132
 1098.5000     0.5354     1.5038
 1099.0000     0.5355     1.5057
 1099.5000     0.5356     1.5079
 1100.0000     0.5357     1.5097
 1100.5000     0.5269     1.4672
 1101.0000     0.5163     1.4165
 1101.5000     0.5066     1.3658
 1102.0000     0.4970     1.3150
 1102.5000     0.4967     1.2643
 1103.0000     0.4964     1.2135
 1103.5000     0.4961     1.1628
 1104.0000     0.5053     1.1167
 1104.5000     0.5050     0.9262
 1105.0000     0.5141     0.7357
 1105.5000     0.5138     0.7338
 1106.0000     0.5135     0.7320
 1106.5000     0.5132     0.5415
 1107.0000     0.5129     0.5396
 1107.5000     0.5221     0.6352
 1108.0000     0.5312     0.7246
 1108.5000     0.5309     0.7223
 1109.0000     0.5306     0.9096
 1109.5000     0.5304     1.0964
 1110.0000     0.5301     1.0941
 1110.5000     0.5298     1.0923
 1111.0000     0.5295     1.0904
 1111.5000     0.5292     1.0886
 1112.0000     0.5289     1.0868
 1112.5000     0.5286     1.0849
 1113.0000     0.5284     1.0830
 1113.5000     0.5281     1.0811
 1114.0000     0.5278     1.0789
 1114.5000     0.5275     0.8884
 1115.0000     0.5263     0.8865
 1115.5000     0.5081     0.6960
 1116.0000     0.5078     0.6942
 1116.5000     0.5076     0.6923
 1117.0000     0.4979     0.5018
 1117.5000     0.4977     0.5000
 1118.0000     0.4973     0.4981
 1118.5000     0.4877     0.6850
 1119.0000     0.4874     0.6827
 1119.5000     0.4871     0.6808
 1120.0000     0.4962     0.9056
 1120.5000     0.5241     1.0549
 1121.0000     0.5427     1.0528
 1121.5000     0.5518     1.0508
 1122.0000     0.5609     1.0490
 1122.5000     0.5606     0.6698
 1123.0000     0.5698     0.4792
 1123.5000     0.5600     0.2887
 1124.0000     0.5598     0.2868
 1124.5000     0.5595     0.2846
 1125.0000     0.5592     0.2830
 1125.5000     0.5589     0.2811
 1126.0000     0.5586     0.4677
 1126.5000     0.5583     0.4660
 1127.0000     0.5581     0.4642
 1127.5000     0.5578     0.4622
 1128.0000     0.5575     0.4603
 1128.5000     0.5572     0.6472
 1129.0000     0.5570     0.6453
 1129.5000     0.5567     0.6434
 1130.0000     0.5658     0.4525
 1130.5000     0.5655     0.4509
 1131.0000     0.5652     0.4491
 1131.5000     0.5649     0.4472
 1132.0000     0.5646     0.6338
 1132.5000     0.5644     0.6321
 1133.0000     0.5641     0.4414
 1133.5000     0.5638     0.2509
 1134.0000     0.5635     0.2491
 1134.5000     0.5633     0.2472
 1135.0000     0.5630     0.2453
 1135.5000     0.5626     0.2434
 1136.0000     0.5658     0.3069
 1136.5000     0.5712     0.4283
 1137.0000     0.5700     0.4262
 1137.5000     0.5689     0.6135
 1138.0000     0.5677     0.4226
 1138.5000     0.5665     0.4207
 1139.0000     0.5654     0.4189
 1139.5000     0.5642     0.4170
 1140.0000     0.5630     0.4151
 1140.5000     0.5619     0.4132
 1141.0000     0.5607     0.4110
 1141.5000     0.5595     0.4094
 1142.0000     0.5590     0.4075
 1142.5000     0.5587     0.4057
 1143.0000     0.5584     0.4036
 1143.5000     0.5676     0.4018
 1144.0000     0.5673     0.4000
 1144.5000     0.5670     0.3981
 1145.0000     0.5667     0.3962
 1145.5000     0.5664     0.3943
 1146.0000     0.5662     0.3921
 1146.5000     0.5659     0.3906
 1147.0000     0.5468     0.3884
 1147.5000     0.5465     0.3866
 1148.0000     0.5462     0.5739
 1148.5000     0.5460     0.5716
 1149.0000     0.5551     0.5697
 1149.5000     0.5548     0.5679
 1150.0000     0.5683     0.5660
 1150.5000     0.5924     0.5642
 1151.0000     0.5927     0.5619
 1151.5000     0.5835     0.9379
 1152.0000     0.5744     1.1247
 1152.5000     0.5935     1.1224
 1153.0000     0.6127     0.9319
 1153.5000     0.6329     0.9300
 1154.0000     0.6508     0.7396
 1154.5000     0.6511     0.5490
 1155.0000     0.6514     0.5472
 1155.5000     0.6422     0.5453
 1156.0000     0.6330     0.7321
 1156.5000     0.6334     0.9190
 1157.0000     0.6337     0.9167
 1157.5000     0.6339     0.9151
 1158.0000     0.6342     1.1021
 1158.5000     0.6345     1.0998
 1159.0000     0.6348     1.0980
 1159.5000     0.6351     0.9074
 1160.0000     0.6354     0.9056
 1160.5000     0.6356     0.9038
 1161.0000     0.6265     0.9019
 1161.5000     0.6174     0.9000
 1162.0000     0.5989     1.0868
 1162.5000     0.5992     1.0849
 1163.0000     0.5995     1.0828
 1163.5000     0.6092     1.0809
 1164.0000     0.6188     1.2682
 1164.5000     0.6379     1.2659
