~VERSION INFORMATION
 VERS.                2.0:   CWLS LOG ASCII STANDARD - VERSION 2.0
 WRAP.                 NO:   ONE LINE PER DEPTH STEP
~WELL INFORMATION
#MNEM.UNIT      DATA TYPE    INFORMATION
#----------   ------------   ------------------------------
 STRT.F           48.0000:   START DEPTH
 STOP.F          650.0000:   STOP DEPTH
 STEP.F            0.5000:   STEP LENGTH
 NULL.          -999.2500:   NO VALUE
 COMP. FENIX & SCISSON INC:   COMPANY
 WELL.    36 SX 34 #36-34:   WELL
 FLD .             TEAPOT:   FIELD
 LOC .      S34 T39N R78W:   LOCATION
 CNTY.            NATRONA:   COUNTY
 STAT.            WYOMING:   STATE
 CTRY. UNITED STATES OF AMERICA:   COUNTRY
 SRVC.            Unknown:   SERVICE COMPANY
 DATE.        19-JAN-1979:   LOGDATE
 API .       490251076800:   API NUMBER
~CURVE INFORMATION
#MNEM.UNIT       API CODE    CURVE DESCRIPTION
#----------   ------------   ------------------------------
 DEPT.F                  :   
 SPR .MV     05 010 01 00:   SPONTANEOUS POTENTIAL FROM RES.
 SN  .OHMM   05 040 16 00:   SHORT NORMAL 16"
 IL  .OHMM   05 120 00 00:   INDUCTION LOG
 CALD.IN     45 280 60 00:   CALIPER
 GRD .GAPI   45 310 01 00:   GAMMA RAY FROM DENSITY LOG
 RHOB.G/C3   45 350 01 00:   BULK DENSITY
 DPHI.DEC    45 890 12 00:   DENSITY POROSITY SANDSTONE
 CORR.G/C3   45 356 01 00:   DENSITY CORRECTION
~PARAMETER INFORMATION
#MNEM.UNIT          VALUE    DESCRIPTION
#----------   ------------   ------------------------------
 PD  .                 GL:   PERMANENT DATUM
 EPD .F              5125:   ELEVATION PERMANENT DATUM
 LMF .                 KB:   LOG MEASURED FROM
 DAPD.F                 4:   FEET ABOVE PERMANENT DATUM
 DMF .                 KB:   DRILLING MEASURED FROM
 EKB .F              5129:   KELLING BUSHING
 EGL .F              5125:   GROUND LEVEL
 DATE.            1-19-79:   RUN DATE
 RUN .                  1:   RUN NUMBER
 DD  .F               650:   DEPTH DRILLER
 DL  .F               650:   DEPTH LOGGER
 BLI .F               643:   BOTTOM LOG INTERVAL
 TLI .F                50:   TOP LOG INTERVAL
 CS  .IN            8.625:   CASING SIZE
 CBD .F                40:   CASING BOTTOM DRILLER
 CBL .F                36:   CASING BOTTOM LOGGER
 BS  .IN            7.875:   BIT SIZE
 BSD .F               650:   BIT SIZE AT DEPTH
 DFT .                KCL:   DRILLING FLUID TYPE
 DFD .                8.8:   DRILLING FLUID DENSITY
 DFV .                 34:   DRILLING FLUID VISCOSITY
 DFL .                8.8:   DRILLING FLUID LOSS
 MSS .           FLOWLINE:   MUD SAMPLE SOURCE
 RMS .OHMM            .17:   RESISTIVITY MUD SAMPLE
 MST .F                62:   MUD SAMPLE TEMPERATURE
 RMF .OHMM            .15:   RESISTIVITY MUD FILTRATE SAMPLE
 MFST.F                62:   MUD FILTRATE SAMPLE TEMPERATURE
 RMC .OHMM            .22:   RESISTIVITY MUD CAKE
 MCST.F                63:   MUD CAKE SAMPLE TEMPERATURE
 MFSS.           MEASURED:   MUD FILTRATE SAMPLE SOURCE
 MCSS.           MEASURED:   MUD CAKE SAMPLE SOURCE
 RMB .OHMM            .18:   RESISTIVITY MUD AT BHT
 BHT .F                60:   BOTTOM HOLE TEMPERATURE
 TCS .HRS               3:   TIME CURCULATED STOPPED
 MRT .F                60:   MAXIMUM RECORDED TEMPERATURE
 LUN .                 30:   LOGGING UNIT NUMBER
 LUL .             CASPER:   LOGGING UNIT LOCATION
 ENGI.         B. ROLLINS:   RECORDING ENGINEER
 WITN.           DINSMORE:   WITNESSED BY
 CLNT.            A2DTECH:   CLIENT CODE
 ORIG.           5" PRINT:   ORIGIN OF DATA
 UWI .       490251076800:   UNIQUE WELL ID
 DICO. A2D Technologies, Inc.:   DIGITIZING COMPANY
~OTHER INFORMATION
~A   DEPT      SPR           SN        IL      CALD        GRD       RHOB       DPHI       CORR   
# ...
  372.0000   -66.0940     3.0830     3.3510     8.2930   108.3670     2.3260     0.1980     0.0270
  372.5000   -65.8570     3.0830     3.4130     8.2220   112.1550     2.3400     0.1870     0.0170
  373.0000   -64.9430     3.2590     3.5420     8.1750   111.6700     2.3590     0.1750     0.0270
  373.5000   -63.9680     3.5770     3.9300     8.1320   110.9000     2.3990     0.1570     0.0340
  374.0000   -62.9860     3.8950     4.2970     8.1640   109.3800     2.4370     0.1390     0.0330
  374.5000   -62.1730     4.2130     4.6640     8.2010   108.4700     2.4760     0.1210     0.0320
  375.0000   -63.0260     4.5310     5.0310     8.2320   109.8790     2.4890     0.1050     0.0320
  375.5000   -64.0290     4.8490     5.3980     8.2310   112.1310     2.4920     0.1040     0.0320
  376.0000   -64.2480     5.1660     5.7320     8.2310   114.4070     2.4940     0.1030     0.0320
  376.5000   -63.5710     5.4840     5.8940     8.2310   115.7850     2.4950     0.1030     0.0320
  377.0000   -62.1280     5.6790     6.0600     8.2310   117.1300     2.4970     0.1020     0.0320
  377.5000   -60.7320     5.7850     6.1730     8.2310   120.2550     2.4970     0.1030     0.0320
  378.0000   -60.7470     5.8390     6.2880     8.2310   122.6040     2.4960     0.1040     0.0310
  378.5000   -61.0710     5.8940     6.4060     8.2310   121.4170     2.4960     0.1030     0.0300
  379.0000   -61.1120     5.9480     6.3820     8.2310   118.1950     2.4970     0.1030     0.0330
  379.5000   -60.4980     5.9480     6.3330     8.2310   114.3040     2.5010     0.1020     0.0350
  380.0000   -59.8460     5.9480     6.2850     8.2310   110.4250     2.5050     0.1020     0.0320
  380.5000   -59.1880     5.9480     6.2370     8.2310   107.3430     2.4880     0.1090     0.0250
  381.0000   -59.3310     5.9480     6.1880     8.2310   108.6700     2.4720     0.1180     0.0170
  381.5000   -60.0190     5.8940     6.1400     8.2310   115.7860     2.4550     0.1270     0.0150
  382.0000   -60.6890     5.7300     6.0920     8.2310   122.8710     2.4390     0.1360     0.0220
  382.5000   -61.3580     5.5950     6.0430     8.2370   128.9840     2.4230     0.1460     0.0280
  383.0000   -62.0140     5.4590     5.9830     8.2470   128.7250     2.4150     0.1500     0.0350
  383.5000   -62.3360     5.3240     5.8700     8.2570   125.8890     2.4280     0.1420     0.0360
  384.0000   -62.2630     5.1890     5.7560     8.2660   121.7140     2.4410     0.1350     0.0310
  384.5000   -61.9490     5.0540     5.6420     8.2760   117.3040     2.4550     0.1280     0.0290
  385.0000   -62.1230     4.9180     5.5280     8.2860   113.9430     2.4660     0.1210     0.0320
  385.5000   -62.3100     4.8980     5.4730     8.2740   115.1340     2.4750     0.1140     0.0340
  386.0000   -62.0830     4.9780     5.4730     8.2440   116.6990     2.4830     0.1080     0.0350
  386.5000   -61.8310     5.1580     5.6810     8.2130   118.2920     2.4890     0.1060     0.0320
  387.0000   -61.5780     5.3370     5.8720     8.1810   118.9020     2.4880     0.1070     0.0280
  387.5000   -61.3260     5.5170     6.0630     8.1800   117.9200     2.4870     0.1070     0.0250
  388.0000   -61.0730     5.6960     6.2540     8.1930   116.9280     2.4910     0.1060     0.0210
  388.5000   -60.8120     5.8760     6.4450     8.2050   116.0730     2.5020     0.1020     0.0240
  389.0000   -60.6760     6.0550     6.6350     8.2170   117.7150     2.5140     0.0990     0.0310
  389.5000   -60.5790     6.2350     6.8260     8.2300   118.1610     2.5200     0.0970     0.0320
  390.0000   -60.4840     6.4140     7.0170     8.2420   118.5740     2.5100     0.1020     0.0310
  390.5000   -60.3890     6.5940     7.2080     8.2550   119.6840     2.5000     0.1050     0.0300
  391.0000   -60.2940     6.7710     7.3600     8.2670   120.8490     2.5020     0.1030     0.0380
  391.5000   -60.1990     6.8340     7.4280     8.2800   122.0640     2.5020     0.1030     0.0370
  392.0000   -60.0910     6.8340     7.4970     8.2880   121.1090     2.4950     0.1050     0.0330
  392.5000   -59.9570     6.8150     7.4970     8.2720   120.7390     2.4880     0.1080     0.0280
  393.0000   -59.8240     6.7550     7.4970     8.2560   120.1400     2.4840     0.1100     0.0290
  393.5000   -59.6910     6.6940     7.4970     8.2400   119.0100     2.4830     0.1100     0.0290
  394.0000   -59.5400     6.6330     7.4280     8.2240   118.4900     2.4850     0.1090     0.0300
  394.5000   -58.8510     6.5730     7.2870     8.2110   119.9370     2.4880     0.1080     0.0300
  395.0000   -59.0110     6.5120     7.1230     8.2210   119.5000     2.4910     0.1070     0.0280
  395.5000   -59.3040     6.4240     6.9600     8.2360   118.7280     2.4810     0.1120     0.0270
  396.0000   -59.6000     6.2460     6.7970     8.2510   117.2660     2.4710     0.1170     0.0270
  396.5000   -59.8960     6.0680     6.6330     8.2650   115.7870     2.4650     0.1190     0.0290
  397.0000   -60.1920     5.8900     6.4700     8.2800   115.1770     2.4600     0.1230     0.0350
  397.5000   -60.4880     5.7120     6.3070     8.2950   116.1580     2.4510     0.1280     0.0400
  398.0000   -60.8350     5.5350     6.1430     8.3100   117.3490     2.4410     0.1340     0.0460
  398.5000   -61.3840     5.3570     6.0040     8.3070   118.0910     2.4350     0.1380     0.0490
  399.0000   -61.9370     5.1300     6.0040     8.2810   116.9460     2.4540     0.1250     0.0520
  399.5000   -62.3280     5.2690     6.0980     8.2560   115.0850     2.4700     0.1160     0.0480
  400.0000   -61.8700     5.4620     6.2290     8.2310   113.4410     2.4860     0.1070     0.0490
  400.5000   -60.9790     5.6550     6.3590     8.2060   114.1830     2.5010     0.1010     0.0530
  401.0000   -60.2360     5.8490     6.4900     8.1800   115.0520     2.5000     0.1030     0.0560
  401.5000   -59.9010     6.0420     6.6200     8.1520   115.9200     2.4900     0.1070     0.0520
  402.0000   -59.5610     6.2350     6.7500     8.1220   117.7680     2.4810     0.1120     0.0440
  402.5000   -59.2180     6.4280     6.8810     8.0930   120.7740     2.4720     0.1170     0.0350
  403.0000   -58.8750     6.5250     7.0110     8.0630   119.0910     2.4650     0.1220     0.0300
  403.5000   -58.5330     6.6470     7.1580     8.0340   116.4550     2.4730     0.1180     0.0290
  404.0000   -58.1920     6.7710     7.2250     8.0330   113.8400     2.4840     0.1100     0.0360
  404.5000   -57.8550     6.8340     7.2920     8.0400   115.0200     2.4910     0.1070     0.0420
  405.0000   -57.5510     6.8340     7.2620     8.0560   118.3340     2.4840     0.1090     0.0370
  405.5000   -57.6750     6.8340     7.2360     8.0720   121.1580     2.4780     0.1110     0.0320
  406.0000   -58.1090     6.8260     7.2090     8.0880   120.1890     2.4800     0.1110     0.0290
  406.5000   -58.5310     6.8170     7.1830     8.1040   118.8950     2.4880     0.1070     0.0320
  407.0000   -58.7430     6.8070     7.1580     8.1200   118.6980     2.4970     0.1020     0.0350
  407.5000   -58.2190     6.7980     7.1580     8.1360   120.0300     2.5050     0.0970     0.0390
  408.0000   -57.6290     6.7890     7.1580     8.1520   121.8310     2.5130     0.0930     0.0420
  408.5000   -57.2220     6.7790     7.1580     8.1680   123.4010     2.5210     0.0900     0.0430
  409.0000   -57.5980     6.7700     7.1580     8.1840   121.5380     2.5170     0.0940     0.0370
  409.5000   -57.9600     6.7610     7.1580     8.2000   119.4840     2.5090     0.0970     0.0310
  410.0000   -58.3190     6.7510     7.1580     8.2160   121.6360     2.5040     0.1010     0.0280
  410.5000   -58.4830     6.7420     7.1580     8.2320   124.3400     2.5050     0.1010     0.0260
  411.0000   -58.2850     6.7330     7.1580     8.2480   125.5210     2.5050     0.1000     0.0180
  411.5000   -58.1990     6.7240     7.1580     8.2640   126.3280     2.5060     0.1000     0.0120
  412.0000   -58.4330     6.7140     7.1600     8.2680   127.1250     2.5060     0.1000     0.0200
