~VERSION INFORMATION
 VERS.                2.0:   CWLS LOG ASCII STANDARD - VERSION 2.0
 WRAP.                 NO:   ONE LINE PER DEPTH STEP
~WELL INFORMATION
#MNEM.UNIT      DATA TYPE    INFORMATION
#----------   ------------   ------------------------------
 STRT.F            1.0000:   START DEPTH
 STOP.F          508.0000:   STOP DEPTH
 STEP.F            0.1000:   STEP LENGTH
 NULL.          -999.2500:   NO VALUE
 COMP.       F D SERV INC:   COMPANY
 WELL. NAVAL PETROLEUM RESERVE 3 SX-1 #83-4-10:   WELL
 FLD .             TEAPOT:   FIELD
 LOC .      S10 T38N R78W:   LOCATION
 CNTY.            NATRONA:   COUNTY
 STAT.            WYOMING:   STATE
 CTRY. UNITED STATES OF AMERICA:   COUNTRY
 SRVC.     Atlas Wireline:   SERVICE COMPANY
 DATE.        26-JAN-1993:   LOGDATE
 API .       490252258300:   API NUMBER
~CURVE INFORMATION
#MNEM.UNIT       API CODE    CURVE DESCRIPTION
#----------   ------------   ------------------------------
 DEPT.F                  :   
 GRR .GAPI   07 310 01 00:   GAMMA RAY
 RILD.OHMM   07 120 46 00:   INDUCTION LOG DEEP RESISTIVITY
 RILM.OHMM   07 120 44 00:   INDUCTION LOG MEDIUM RESISTIVITY
~PARAMETER INFORMATION
#MNEM.UNIT          VALUE    DESCRIPTION
#----------   ------------   ------------------------------
 PD  .                 GL:   PERMANENT DATUM
 EPD .F              5152:   ELEVATION PERMANENT DATUM
 LMF .                 KB:   LOG MEASURED FROM
 DAPD.F                10:   FEET ABOVE PERMANENT DATUM
 DMF .                 KB:   DRILLING MEASURED FROM
 EKB .F              5162:   KELLING BUSHING
 EDF .F              5161:   DRILLING FLOOR
 EGL .F              5152:   GROUND LEVEL
 DATE.        26-JAN-1993:   RUN DATE
 RUN .                  1:   RUN NUMBER
 DD  .F               515:   DEPTH DRILLER
 DL  .F               516:   DEPTH LOGGER
 BLI .F               508:   BOTTOM LOG INTERVAL
 CS  .IN            8.625:   CASING SIZE
 CBD .F                55:   CASING BOTTOM DRILLER
 CBL .F                55:   CASING BOTTOM LOGGER
 BS  .IN            7.875:   BIT SIZE
 BSD .F               515:   BIT SIZE AT DEPTH
 DFT .                AIR:   DRILLING FLUID TYPE
 MRT .F                63:   MAXIMUM RECORDED TEMPERATURE
 LUN .           HL- 6274:   LOGGING UNIT NUMBER
 LUL .             CASPER:   LOGGING UNIT LOCATION
 ENGI.       P. RASMUSSEN:   RECORDING ENGINEER
 WITN.          G. STRONG:   WITNESSED BY
 CLNT.            A2DTECH:   CLIENT CODE
 ORIG.           5" PRINT:   ORIGIN OF DATA
 UWI .       490252258300:   UNIQUE WELL ID
 DICO. A2D Technologies, Inc.:   DIGITIZING COMPANY
~OTHER INFORMATION
~A    DEPT     GRR       RILD       RILM   
# ...
  110.2000   147.3507     7.0290     7.1069
  110.3000   147.5729     7.0290     7.1067
  110.4000   147.8281     7.0290     7.1065
  110.5000   148.0833     7.0290     7.1063
  110.6000   148.4205     7.0290     7.1062
  110.7000   148.9303     7.0290     7.1059
  110.8000   149.4627     7.0152     7.0684
  110.9000   150.1934     6.9805     7.0565
  111.0000   150.7610     6.9802     7.0563
  111.1000   151.2709     6.9323     7.0561
  111.2000   151.7807     6.9323     7.0457
  111.3000   152.2335     6.9323     7.0071
  111.4000   152.4887     6.9323     7.0068
  111.5000   152.7802     6.9323     7.0067
  111.6000   152.7807     6.9323     7.0065
  111.7000   152.4375     6.9323     7.0063
  111.8000   151.8036     6.9323     7.0061
  111.9000   151.0404     6.9323     7.0059
  112.0000   150.3092     6.9323     7.0038
  112.1000   149.7717     6.9323     6.9881
  112.2000   149.0518     6.9323     6.9724
  112.3000   148.2886     6.9323     6.9567
  112.4000   147.6723     6.9323     6.9409
  112.5000   147.2641     6.9323     6.9252
  112.6000   147.0100     6.9323     6.9082
  112.7000   146.7632     6.9631     6.9080
  112.8000   147.0651     6.9805     6.9372
  112.9000   147.4962     6.9805     6.9556
  113.0000   147.8374     6.9805     6.9554
  113.1000   148.2147     6.9805     6.9552
  113.2000   148.7245     6.9805     6.9550
  113.3000   149.2054     7.0194     6.9950
  113.4000   149.4783     7.0290     7.0030
  113.5000   149.7159     7.0290     7.0028
  113.6000   149.7807     7.0290     7.0026
  113.7000   149.7813     7.0290     7.0123
  113.8000   149.7819     7.0290     7.0509
  113.9000   149.7825     7.0290     7.0506
  114.0000   149.7831     7.0694     7.0864
  114.1000   149.7838     7.1117     7.0993
  114.2000   149.5723     7.1270     7.0991
  114.3000   149.4837     7.1270     7.1119
  114.4000   149.3655     7.1404     7.1480
  114.5000   149.1837     7.1766     7.1478
  114.6000   149.1586     7.1766     7.1870
  114.7000   148.8838     7.2264     7.1971
  114.8000   148.6506     7.2264     7.1969
  114.9000   148.3966     7.2264     7.1967
  115.0000   148.1426     7.2264     7.1965
  115.1000   147.9825     7.2412     7.1968
  115.2000   147.9831     7.2845     7.2461
  115.3000   147.9837     7.3272     7.2459
  115.4000   147.9845     7.3272     7.2729
  115.5000   147.9850     7.3272     7.2958
  115.6000   147.9855     7.3576     7.2956
  115.7000   147.9861     7.3781     7.2990
  115.8000   148.0558     7.3945     7.3459
  115.9000   148.3110     7.4294     7.3843
  116.0000   148.5904     7.4294     7.3966
  116.1000   148.8215     7.4294     7.3964
  116.2000   149.0767     7.4294     7.3962
  116.3000   149.3319     7.4615     7.4026
  116.4000   149.7686     7.5061     7.4471
  116.5000   150.4890     7.5330     7.4892
  116.6000   151.0036     7.5437     7.4985
  116.7000   152.5104     7.5888     7.5245
  116.8000   153.1278     7.6381     7.5684
  116.9000   153.8922     7.6381     7.6024
  117.0000   154.6566     7.6381     7.6022
  117.1000   155.2894     7.6381     7.6020
  117.2000   155.5446     7.6576     7.6398
  117.3000   155.8272     7.7034     7.6844
  117.4000   155.8277     7.7494     7.7074
  117.5000   156.0090     7.7984     7.7206
  117.6000   155.9960     7.7984     7.7655
  117.7000   155.1290     7.8348     7.8142
  117.8000   153.1336     7.8526     7.8140
  117.9000   151.3127     7.8526     7.8138
  118.0000   149.5703     7.8665     7.8389
  118.1000   147.7886     7.9135     7.8846
  118.2000   145.5393     7.9621     7.9221
  118.3000   143.3215     7.9621     7.9219
  118.4000   141.7277     8.0007     7.9216
  118.5000   140.7580     8.0175     7.9591
  118.6000   140.4736     8.0407     7.9763
  118.7000   140.9223     8.0732     7.9966
  118.8000   141.6096     8.0732     8.0313
  118.9000   142.3741     8.0732     8.0310
  119.0000   143.0542     8.1293     8.0308
  119.1000   143.5263     8.1293     8.0306
  119.2000   143.7904     8.1621     8.0304
  119.3000   143.7910     8.1858     8.0301
  119.4000   143.9908     8.1858     8.0299
  119.5000   144.0934     8.1858     8.0297
  119.6000   144.2000     8.1871     8.0295
  119.7000   144.3958     8.2427     8.0293
  119.8000   144.3964     8.2427     8.0290
  119.9000   144.3971     8.2427     8.0288
  120.0000   144.3976     8.2427     8.0286
  120.1000   144.7468     8.2240     8.0284
  120.2000   145.0012     8.1840     8.0281
  120.3000   145.0829     8.1757     8.0279
  120.4000   145.3036     8.1675     8.0277
  120.5000   145.3042     8.1593     8.0275
  120.6000   145.5474     8.1510     8.0273
  120.7000   145.6066     8.1428     8.0270
  120.8000   145.7566     8.1345     8.0313
  120.9000   146.0118     8.1263     8.0823
  121.0000   146.2671     8.1181     8.0821
  121.1000   146.5223     8.1098     8.0819
  121.2000   146.8145     8.1016     8.0817
  121.3000   147.2504     8.0933     8.0815
  121.4000   147.7603     8.0851     8.0812
  121.5000   148.1456     8.0768     8.0810
  121.6000   148.4787     8.0686     8.0808
  121.7000   148.9572     8.0604     8.0806
  121.8000   149.2278     8.0521     8.0517
  121.9000   149.2283     8.0439     8.0244
  122.0000   149.2289     8.0356     8.0241
  122.1000   149.2295     8.0274     8.0239
  122.2000   149.2301     8.0237     8.0237
  122.3000   149.2307     8.0055     8.0235
  122.4000   149.2313     7.9679     8.0232
  122.5000   149.2320     7.9667     8.0230
  122.6000   148.5892     7.9124     8.0228
  122.7000   148.1617     7.9122     8.0226
  122.8000   147.6651     7.9120     8.0223
  122.9000   147.0512     7.8899     8.0221
  123.0000   146.8252     7.8436     7.9869
  123.1000   146.8260     7.8025     7.9663
  123.2000   147.0627     7.8023     7.9485
  123.3000   147.3179     7.8021     7.9109
  123.4000   147.5731     7.7679     7.9107
  123.5000   147.8283     7.7478     7.9104
  123.6000   148.1333     7.7476     7.9103
  123.7000   148.6400     7.7474     7.8807
  123.8000   148.9387     7.7464     7.8552
  123.9000   149.1504     7.6935     7.8429
  124.0000   149.4056     7.6933     7.8006
  124.1000   149.6608     7.6931     7.8004
  124.2000   149.9876     7.6929     7.8002
  124.3000   150.4476     7.6927     7.7999
  124.4000   150.4482     7.6924     7.7997
  124.5000   150.6817     7.6922     7.7995
  124.6000   150.7506     7.6920     7.7993
  124.7000   150.8910     7.6918     7.7991
  124.8000   151.0530     7.6916     7.7989
  124.9000   151.0536     7.6914     7.7987
  125.0000   151.0542     7.6912     7.7984
  125.1000   151.0549     7.6910     7.7982
  125.2000   151.0554     7.6907     7.7980
  125.3000   150.8946     7.6905     7.7978
  125.4000   150.6406     7.6903     7.7975
  125.5000   150.2500     7.6901     7.7974
  125.6000   149.4867     7.7029     7.7971
  125.7000   148.6488     7.7431     7.7969
  125.8000   144.9738     7.7429     7.7967
  125.9000   142.7319     7.7427     7.7965
  126.0000   141.4779     7.7425     7.7963
  126.1000   140.6400     7.7677     7.7961
  126.2000   140.1313     7.7958     7.7958
  126.3000   139.6163     7.7956     7.7956
  126.4000   139.6170     7.7954     7.7954
  126.5000   140.4367     7.7952     7.7952
  126.6000   141.2976     7.7950     7.7950
  126.7000   142.0621     7.7948     7.7947
  126.8000   142.7615     7.7945     7.8314
  126.9000   143.2713     7.7943     7.8485
  127.0000   143.8374     7.7988     7.8683
  127.1000   144.2910     7.8480     7.9026
  127.2000   144.8008     7.8478     7.9024
  127.3000   145.3106     7.8817     7.9021
  127.4000   145.6470     7.9019     7.9019
  127.5000   145.6878     7.9017     7.9338
  127.6000   145.9494     7.9015     7.9564
  127.7000   145.9500     7.9018     7.9711
  127.8000   146.1522     7.9559     8.0113
  127.9000   146.2524     7.9557     8.0110
  128.0000   146.2530     7.9858     8.0108
  128.1000   146.2536     8.0106     8.0106
  128.2000   146.2542     8.0104     8.0104
  128.3000   146.2549     8.0101     8.0285
