~VERSION INFORMATION
 VERS.                2.0:   CWLS LOG ASCII STANDARD - VERSION 2.0
 WRAP.                 NO:   ONE LINE PER DEPTH STEP
~WELL INFORMATION
#MNEM.UNIT      DATA TYPE    INFORMATION
#----------   ------------   ------------------------------
 STRT.F           30.5000:   START DEPTH
 STOP.F          674.0000:   STOP DEPTH
 STEP.F            0.5000:   STEP LENGTH
 NULL.          -999.2500:   NO VALUE
 COMP. FENIX & SCISSON INC:   COMPANY
 WELL. NPR 3 #37 SX 34-34:   WELL
 FLD .        TEAPOT DOME:   FIELD
 LOC .      S34 T39N R78W:   LOCATION
 CNTY.            NATRONA:   COUNTY
 STAT.            WYOMING:   STATE
 CTRY. UNITED STATES OF AMERICA:   COUNTRY
 SRVC.           BIRDWELL:   SERVICE COMPANY
 DATE.        21-JAN-1979:   LOGDATE
 API .       490251074400:   API NUMBER
~CURVE INFORMATION
#MNEM.UNIT       API CODE    CURVE DESCRIPTION
#----------   ------------   ------------------------------
 DEPT.F                  :   
 SPR .MV     05 010 01 00:   SPONTANEOUS POTENTIAL FROM RES.
 SN  .OHMM   05 040 16 00:   SHORT NORMAL 16"
 IL  .OHMM   05 120 00 00:   INDUCTION LOG
 CALD.IN     45 280 60 00:   CALIPER
 GRD .GAPI   45 310 01 00:   GAMMA RAY FROM DENSITY LOG
 RHOB.G/C3   45 350 01 00:   BULK DENSITY
 DPHI.DEC    45 890 12 00:   DENSITY POROSITY SANDSTONE
 CORR.G/C3   45 356 01 00:   DENSITY CORRECTION
~PARAMETER INFORMATION
#MNEM.UNIT          VALUE    DESCRIPTION
#----------   ------------   ------------------------------
 PD  .                 GL:   PERMANENT DATUM
 EPD .F              5175:   ELEVATION PERMANENT DATUM
 LMF .                 KB:   LOG MEASURED FROM
 DAPD.F                 4:   FEET ABOVE PERMANENT DATUM
 DMF .                 KB:   DRILLING MEASURED FROM
 EKB .F              5179:   KELLING BUSHING
 EGL .F              5175:   GROUND LEVEL
 DATE.            1-21-79:   RUN DATE
 RUN .                  1:   RUN NUMBER
 DD  .F               674:   DEPTH DRILLER
 DL  .F               673:   DEPTH LOGGER
 BLI .F               666:   BOTTOM LOG INTERVAL
 TLI .F                40:   TOP LOG INTERVAL
 CS  .IN            8.625:   CASING SIZE
 CBD .F                40:   CASING BOTTOM DRILLER
 CBL .F                30:   CASING BOTTOM LOGGER
 BS  .IN            7.875:   BIT SIZE
 BSD .F               674:   BIT SIZE AT DEPTH
 DFT .                KCL:   DRILLING FLUID TYPE
 DFD .                8.8:   DRILLING FLUID DENSITY
 DFV .                 60:   DRILLING FLUID VISCOSITY
 DFPH.                9.5:   DRILLING FLUID PH
 DFL .                  8:   DRILLING FLUID LOSS
 MSS .           FLOWLINE:   MUD SAMPLE SOURCE
 RMS .OHMM            .23:   RESISTIVITY MUD SAMPLE
 MST .F                56:   MUD SAMPLE TEMPERATURE
 MFSS.           MEASURED:   MUD FILTRATE SAMPLE SOURCE
 MCSS.           MEASURED:   MUD CAKE SAMPLE SOURCE
 RMB .OHMM            .22:   RESISTIVITY MUD AT BHT
 BHT .F                60:   BOTTOM HOLE TEMPERATURE
 TCS .HRS               4:   TIME CURCULATED STOPPED
 MRT .F                60:   MAXIMUM RECORDED TEMPERATURE
 LUN .               3006:   LOGGING UNIT NUMBER
 LUL .             CASPER:   LOGGING UNIT LOCATION
 ENGI.            ROLLINS:   RECORDING ENGINEER
 WITN.           DINSMORE:   WITNESSED BY
 CLNT.            A2DTECH:   CLIENT CODE
 ORIG.       2", 5" PRINT:   ORIGIN OF DATA
 UWI .       490251074400:   UNIQUE WELL ID
 DICO. A2D Technologies, Inc.:   DIGITIZING COMPANY
~OTHER INFORMATION
~A   DEPT      SPR         SN         IL       CALD        GRD       RHOB       DPHI       CORR   
# ...
   71.0000   -27.4490    11.1750    14.0140     8.0860    90.9270     2.4790     0.0570     0.0150
   71.5000   -27.4650    11.5900    14.8820     8.0960    91.8770     2.5260     0.0520     0.0060
   72.0000   -27.4800    12.0040    15.7510     8.1060    86.4310     2.5730     0.0690     0.0070
   72.5000   -27.4960    12.4190    16.6200     8.1160    80.6140     2.5970     0.0880     0.0150
   73.0000   -27.5120    12.8330    17.2100     8.1250    75.1150     2.5740     0.1080     0.0250
   73.5000   -27.5280    13.2080    17.4580     8.1350    73.0050     2.5450     0.1270     0.0340
   74.0000   -27.5580    13.3310    17.5780     8.1450    73.9800     2.4800     0.1630     0.0330
   74.5000   -27.9410    13.0850    17.5780     8.1550    77.4060     2.4170     0.1900     0.0330
   75.0000   -29.6140    12.7540    17.1080     8.1560    81.4520     2.3740     0.1900     0.0320
   75.5000   -31.2570    12.3540    15.8920     8.1530    88.8780     2.3620     0.1900     0.0320
   76.0000   -32.8940    11.7210    14.6760     8.1500    95.8930     2.3610     0.1900     0.0340
   76.5000   -34.5340    11.0870    13.4610     8.1470    95.7660     2.3600     0.1900     0.0360
   77.0000   -36.1740    10.4540    12.2450     8.1440    93.4990     2.3600     0.1900     0.0380
   77.5000   -37.8140     9.8710    11.7460     8.1410    92.7410     2.3600     0.1910     0.0400
   78.0000   -39.4520     9.5410    11.4940     8.1390    92.9390     2.3610     0.1900     0.0420
   78.5000   -41.0900     9.2110    11.3290     8.1310    94.4550     2.3610     0.1880     0.0420
   79.0000   -42.7420     8.9310    11.2180     8.1230    96.2320     2.3610     0.1850     0.0370
   79.5000   -43.4150     8.7900    11.1070     8.1150    98.0580     2.3620     0.1780     0.0320
   80.0000   -43.4870     8.5650    10.9970     8.1060    98.9350     2.3740     0.1710     0.0270
   80.5000   -43.5550     8.2540    10.8830     8.0980    97.1070     2.3850     0.1650     0.0220
   81.0000   -43.6850     8.1650    10.3610     8.0890    97.6680     2.3970     0.1580     0.0210
   81.5000   -43.8730     8.0740     9.8250     8.0810   100.3260     2.4090     0.1520     0.0190
   82.0000   -44.0780     7.9830     9.1660     8.0450   106.4230     2.4200     0.1490     0.0210
   82.5000   -44.3160     7.8160     8.4840     7.9990   112.3450     2.4300     0.1470     0.0300
   83.0000   -44.4660     7.6150     7.8170     8.0180   117.9140     2.4330     0.1480     0.0380
   83.5000   -44.5910     7.4130     7.1830     8.0360   121.8510     2.4320     0.1490     0.0420
   84.0000   -44.7140     7.2120     6.7390     8.0530   122.1620     2.4320     0.1480     0.0430
   84.5000   -44.8960     7.0100     6.5840     8.0710   115.4580     2.4310     0.1440     0.0440
   85.0000   -45.1880     6.8090     6.4290     8.0880   112.5960     2.4360     0.1390     0.0440
   85.5000   -45.4790     6.6070     6.2020     8.0940   111.5500     2.4460     0.1390     0.0450
   86.0000   -45.7680     6.4480     6.2390     8.0870   110.7100     2.4480     0.1390     0.0460
   86.5000   -46.0590     6.5370     6.3100     8.0810   110.8560     2.4480     0.1390     0.0510
   87.0000   -46.1910     6.6770     6.3810     8.0740   111.3970     2.4470     0.1390     0.0560
   87.5000   -46.1910     6.6520     6.4350     8.0670   111.9440     2.4470     0.1400     0.0490
   88.0000   -46.1920     6.5940     6.3870     8.0610   112.4980     2.4460     0.1370     0.0370
   88.5000   -46.1920     6.5360     6.3480     8.0540   112.6810     2.4470     0.1290     0.0260
   89.0000   -46.1920     6.4790     6.3090     8.0480   112.5880     2.4590     0.1310     0.0210
   89.5000   -46.1920     6.4210     6.2700     8.0410   112.3370     2.4630     0.1370     0.0150
   90.0000   -46.1920     6.3760     6.2310     8.0650   111.5520     2.4580     0.1410     0.0140
   90.5000   -46.1920     6.3760     6.2020     8.1170   110.5740     2.4500     0.1410     0.0170
   91.0000   -46.1920     6.4620     6.2640     8.1690   108.7080     2.4470     0.1410     0.0200
   91.5000   -46.1920     6.5440     6.3150     8.1970   107.4650     2.4460     0.1410     0.0200
   92.0000   -46.1920     6.6260     6.3650     8.1960   108.3340     2.4460     0.1410     0.0200
   92.5000   -46.1920     6.6720     6.4350     8.1950   108.7080     2.4460     0.1410     0.0200
   93.0000   -46.1920     6.6230     6.4150     8.1940   105.5060     2.4460     0.1410     0.0200
   93.5000   -46.1920     6.5840     6.3680     8.1930   103.7520     2.4460     0.1410     0.0200
   94.0000   -46.1930     6.5450     6.3210     8.1910   103.1910     2.4450     0.1400     0.0200
   94.5000   -46.2080     6.5060     6.2740     8.1900   103.7200     2.4440     0.1380     0.0200
   95.0000   -46.2240     6.4680     6.2260     8.1890   104.8460     2.4470     0.1310     0.0200
   95.5000   -46.2390     6.4290     6.1790     8.1880   105.8050     2.4550     0.1310     0.0200
   96.0000   -46.2540     6.3800     6.1320     8.1870   106.1730     2.4590     0.1320     0.0200
   96.5000   -46.2690     6.4050     6.0850     8.1850   106.5010     2.4590     0.1330     0.0200
   97.0000   -46.2850     6.4510     6.0330     8.1840   106.2030     2.4590     0.1350     0.0200
   97.5000   -46.3000     6.4970     6.1390     8.1830   102.8750     2.4550     0.1350     0.0200
   98.0000   -46.3150     6.5420     6.2570     8.1820   101.8660     2.4550     0.1340     0.0200
   98.5000   -46.3300     6.5880     6.3760     8.1800   104.1510     2.4550     0.1330     0.0200
   99.0000   -46.3460     6.6340     6.4270     8.1790   106.9780     2.4550     0.1320     0.0200
   99.5000   -46.3610     6.6790     6.4790     8.1780   109.8200     2.4560     0.1320     0.0200
  100.0000   -46.3760     6.7250     6.5310     8.1820   111.9520     2.4570     0.1320     0.0200
  100.5000   -46.3910     6.7650     6.5820     8.1860   113.0990     2.4590     0.1330     0.0200
  101.0000   -46.4060     6.8160     6.6340     8.1900   111.7400     2.4590     0.1330     0.0210
  101.5000   -46.4220     6.8680     6.6860     8.1940   108.8710     2.4590     0.1330     0.0230
  102.0000   -46.4370     6.9190     6.7380     8.1980   110.7800     2.4590     0.1330     0.0250
  102.5000   -46.4520     6.9710     6.7890     8.2000   112.4960     2.4600     0.1330     0.0270
  103.0000   -46.4670     7.0220     6.8410     8.2030   110.5770     2.4600     0.1320     0.0270
  103.5000   -46.4820     7.0730     6.8900     8.2050   108.3040     2.4600     0.1300     0.0270
  104.0000   -46.4980     7.1250     6.9360     8.2070   106.9820     2.4600     0.1280     0.0260
  104.5000   -46.5130     7.1760     6.9820     8.2090   105.9380     2.4620     0.1260     0.0250
  105.0000   -46.5280     7.2280     7.0280     8.2120   105.0140     2.4660     0.1240     0.0250
  105.5000   -46.5430     7.2790     7.0750     8.2140   107.0770     2.4690     0.1240     0.0240
  106.0000   -46.5580     7.3210     7.1220     8.2160   108.7930     2.4730     0.1240     0.0250
  106.5000   -46.5740     7.2760     7.0880     8.2180   108.8070     2.4720     0.1250     0.0260
  107.0000   -46.5890     7.2370     7.0540     8.2210   108.4640     2.4700     0.1260     0.0270
  107.5000   -46.6040     7.1990     7.0200     8.2230   107.3650     2.4690     0.1270     0.0280
  108.0000   -46.6190     7.1600     6.9860     8.2250   105.3490     2.4670     0.1280     0.0290
  108.5000   -46.6350     7.1210     6.9520     8.2270   105.9450     2.4650     0.1270     0.0280
  109.0000   -46.6500     7.0830     6.9180     8.2290   106.6930     2.4650     0.1230     0.0250
  109.5000   -46.6650     7.0440     6.8840     8.2320   107.4460     2.4750     0.1140     0.0220
  110.0000   -46.6800     7.0050     6.8500     8.2340   108.1900     2.4850     0.1060     0.0150
  110.5000   -46.6950     6.9670     6.8010     8.2360   108.7100     2.4810     0.1000     0.0080
  111.0000   -46.7110     6.9270     6.8160     8.2380   108.7280     2.4830     0.0950     0.0030
