~VERSION INFORMATION
 VERS.                2.0:   CWLS LOG ASCII STANDARD - VERSION 2.0
 WRAP.                 NO:   ONE LINE PER DEPTH STEP
~WELL INFORMATION
#MNEM.UNIT      DATA TYPE    INFORMATION
#----------   ------------   ------------------------------
 STRT.F           29.0000:   START DEPTH
 STOP.F          507.0000:   STOP DEPTH
 STEP.F            0.5000:   STEP LENGTH
 NULL.          -999.2500:   NO VALUE
 COMP.    FENIX & SCISSON:   COMPANY
 WELL.       NPR #64-SX-3:   WELL
 FLD .            WILDCAT:   FIELD
 LOC .       S3 T38N R78W:   LOCATION
 CNTY.            NATRONA:   COUNTY
 STAT.            WYOMING:   STATE
 CTRY. UNITED STATES OF AMERICA:   COUNTRY
 SRVC.           BIRDWELL:   SERVICE COMPANY
 DATE.        28-MAR-1977:   LOGDATE
 API .       490251032200:   API NUMBER
~CURVE INFORMATION
#MNEM.UNIT       API CODE    CURVE DESCRIPTION
#----------   ------------   ------------------------------
 DEPT.F                  :   
 SPR .MV     05 010 01 00:   SPONTANEOUS POTENTIAL FROM RES.
 ILD .OHMM   05 120 46 00:   INDUCTION LOG DEEP
 SN  .OHMM   05 040 16 00:   SHORT NORMAL 16"
 GRD .GAPI   45 310 01 00:   GAMMA RAY FROM DENSITY LOG
 CALD.IN     45 280 60 00:   CALIPER FROM DENSITY LOG
 CORR.G/C3   45 356 01 00:   DENSITY CORRECTION
 RHOB.G/C3   45 350 01 00:   BULK DENSITY
 DPHI.DEC    45 890 12 00:   DENSITY POROSITY SANDSTONE
~PARAMETER INFORMATION
#MNEM.UNIT          VALUE    DESCRIPTION
#----------   ------------   ------------------------------
 PD  .                 GL:   PERMANENT DATUM
 EPD .F              5145:   ELEVATION PERMANENT DATUM
 LMF .                 GL:   LOG MEASURED FROM
 DMF .                 GL:   DRILLING MEASURED FROM
 EKB .F              5150:   KELLING BUSHING
 EDF .F              5149:   DRILLING FLOOR
 EGL .F              5145:   GROUND LEVEL
 DATE.        28-MAR-1977:   RUN DATE
 RUN .                  1:   RUN NUMBER
 DD  .F               507:   DEPTH DRILLER
 DL  .F               507:   DEPTH LOGGER
 BLI .F               501:   BOTTOM LOG INTERVAL
 TLI .F                40:   TOP LOG INTERVAL
 CS  .IN            8.625:   CASING SIZE
 CBD .F                40:   CASING BOTTOM DRILLER
 CBL .F                43:   CASING BOTTOM LOGGER
 BS  .IN            7.875:   BIT SIZE
 BSD .F               507:   BIT SIZE AT DEPTH
 DFT .                KCL:   DRILLING FLUID TYPE
 DFD .                8.5:   DRILLING FLUID DENSITY
 DFV .                 31:   DRILLING FLUID VISCOSITY
 DFPH.                 10:   DRILLING FLUID PH
 DFL .                 78:   DRILLING FLUID LOSS
 MSS .                PIT:   MUD SAMPLE SOURCE
 RMS .OHMM            .54:   RESISTIVITY MUD SAMPLE
 MST .F                60:   MUD SAMPLE TEMPERATURE
 RMF .OHMM            .46:   RESISTIVITY MUD FILTRATE SAMPLE
 MFST.F                64:   MUD FILTRATE SAMPLE TEMPERATURE
 RMC .OHMM            .52:   RESISTIVITY MUD CAKE
 MCST.F                64:   MUD CAKE SAMPLE TEMPERATURE
 MFSS.               MEAS:   MUD FILTRATE SAMPLE SOURCE
 MCSS.               MEAS:   MUD CAKE SAMPLE SOURCE
 RMB .OHMM            .51:   RESISTIVITY MUD AT BHT
 BHT .F                63:   BOTTOM HOLE TEMPERATURE
 TCS .HRS            0300:   TIME CURCULATED STOPPED
 MRT .F                63:   MAXIMUM RECORDED TEMPERATURE
 LUN .               3026:   LOGGING UNIT NUMBER
 LUL .             CASPER:   LOGGING UNIT LOCATION
 ENGI.             RAWSON:   RECORDING ENGINEER
 WITN.         STUERINCER:   WITNESSED BY
 CLNT.            A2DTECH:   CLIENT CODE
 ORIG.           5" PRINT:   ORIGIN OF DATA
 UWI .       490251032200:   UNIQUE WELL ID
 DICO. A2D Technologies, Inc.:   DIGITIZING COMPANY
~OTHER INFORMATION
~A   DEPT      SPR        ILD         SN        GRD       CALD       CORR       RHOB       DPHI   
# ...
  110.0000   -34.6993     9.1342    10.4518    70.2849     7.5331    -0.0193     2.4259     0.1228
  110.5000   -34.7022     9.3262    10.4518    69.4652     7.5348    -0.0194     2.4320     0.1270
  111.0000   -34.7050     9.4565    10.5291    69.3183     7.5366    -0.0211     2.4351     0.1273
  111.5000   -34.7079     9.6553    10.6717    70.2960     7.5384    -0.0212     2.4390     0.1266
  112.0000   -34.6928     9.7983    10.9721    70.0752     7.5402    -0.0229     2.4473     0.1245
  112.5000   -34.5630    10.0655    11.2030    68.2816     7.5420    -0.0245     2.4504     0.1187
  113.0000   -34.4153    10.2061    11.3596    68.4359     7.5287    -0.0246     2.4520     0.1126
  113.5000   -34.2675    10.4207    11.5184    67.7660     7.5456    -0.0217     2.4566     0.1123
  114.0000   -33.9699    10.5663    11.6857    67.2457     7.5474    -0.0038     2.4597     0.1168
  114.5000   -33.8222    10.7884    11.9251    67.4740     7.5641    -0.0070     2.4582     0.1246
  115.0000   -33.6744    11.0152    12.0082    67.7023     7.5809    -0.0131     2.4508     0.1264
  115.5000   -33.6780    11.3251    12.1760    67.5563     7.5677    -0.0178     2.4500     0.1197
  116.0000   -33.8314    11.7247    12.3462    66.9612     7.5545    -0.0119     2.4547     0.1142
  116.5000   -33.6837    11.9746    12.5188    66.0667     7.5563    -0.0105     2.4547     0.1118
  117.0000   -33.5367    12.3080    12.7822    66.8190     7.5581    -0.0197     2.4540     0.1099
  117.5000   -33.3882    12.4799    12.9609    67.4963     7.5599    -0.0228     2.4564     0.1108
  118.0000   -33.2405    12.6542    13.2336    67.6497     7.5467    -0.0154     2.4549     0.1156
  118.5000   -33.2441    12.7423    13.3258    67.5786     7.5335    -0.0050     2.4504     0.1264
  119.0000   -33.2470    12.7423    13.4186    66.1542     7.5353    -0.0277     2.4483     0.1158
  119.5000   -33.4011    12.7423    13.6062    64.9663     7.5371    -0.0460     2.4525     0.1043
  120.0000   -33.5546    12.7423    13.6062    67.1806     7.5389    -0.0463     2.4726     0.1094
  120.5000   -33.4061    12.7423    13.6062    67.4438     7.5407    -0.0221     2.4749     0.1269
  121.0000   -33.2590    12.6542    13.6062    66.8487     7.5250    -0.0072     2.4636     0.1320
  121.5000   -32.9607    12.5667    13.6062    67.4623     7.5143    -0.0088     2.4388     0.1295
  122.0000   -32.9643    12.3936    13.5120    67.7315     7.4716    -0.0120     2.4328     0.1283
  122.5000   -32.9672    12.3080    13.3258    68.2173     7.3387    -0.0136     2.4329     0.1286
  123.0000   -32.9700    12.1384    13.2219    67.3130     7.0860    -0.0122     2.4338     0.1326
  123.5000   -32.9729    11.9712    13.0512    66.5682     6.8033    -0.0047     2.4331     0.1403
  124.0000   -33.1270    11.8885    12.9609    66.3433     6.7897     0.0042     2.4218     0.1435
  124.5000   -33.2805    11.8063    12.9609    67.9978     7.0165     0.0054     2.4158     0.1441
  125.0000   -33.4340    11.8063    12.9609    68.3757     7.2877    -0.0013     2.4144     0.1430
  125.5000   -33.2862    11.7247    12.9609    68.0032     7.3644    -0.0145     2.4137     0.1405
  126.0000   -33.1385    11.7323    12.8584    67.4850     7.3811    -0.0191     2.4161     0.1358
  126.5000   -32.9907    11.8063    12.6060    68.1115     7.3530    -0.0238     2.4259     0.1331
  127.0000   -33.1449    11.8063    12.5188    68.3906     7.3398    -0.0375     2.4290     0.1297
  127.5000   -32.9972    11.8063    12.4322    67.7857     7.3266    -0.0376     2.4313     0.1273
  128.0000   -33.0000    11.8063    12.2608    67.2784     7.3134    -0.0332     2.4374     0.1275
  128.5000   -32.7017    11.8063    12.2608    66.4557     7.2848    -0.0318     2.4383     0.1329
  129.0000   -32.4041    11.7247    12.1760    67.7328     7.0026    -0.0304     2.4353     0.1353
  129.5000   -32.8587    11.6437    12.0082    66.3143     6.7200    -0.0381     2.4316     0.1319
  130.0000   -33.3134    11.5632    12.0082    66.0177     6.7667    -0.0473     2.4317     0.1286
  130.5000   -33.7701    11.4039    12.0082    65.8717     7.0080    -0.0520     2.4340     0.1267
  131.0000   -34.0728    11.1691    12.0082    66.5500     7.2493    -0.0536     2.4371     0.1279
  131.5000   -34.0757    11.0152    11.9251    65.8053     7.3259    -0.0432     2.4379     0.1333
  132.0000   -33.9280    10.8635    11.8427    64.9856     7.2973    -0.0328     2.4350     0.1429
  132.5000   -33.9308    10.6398    11.6794    64.0153     7.2996    -0.0208     2.4222     0.1486
  133.0000   -33.7831    10.4874    11.6794    65.7415     7.3159    -0.0361     2.4079     0.1507
  133.5000   -33.7867    10.2772    11.5986    66.6435     7.2732    -0.0588     2.4020     0.1498
  134.0000   -33.9401    10.2061    11.5986    68.2939     7.2450    -0.0785     2.4021     0.1473
  134.5000   -33.9430    10.1356    11.5986    67.4743     7.2468    -0.0982     2.4029     0.1412
  135.0000   -34.0964    10.1356    11.5986    66.5788     7.2486    -0.1059     2.4122     0.1391
  135.5000   -34.0994    10.0553    11.5986    67.1065     7.2504    -0.1196     2.4151     0.1412
  136.0000   -34.2535     9.9269    11.5986    65.7642     7.2522    -0.1302     2.4136     0.1469
  136.5000   -34.2563     9.9269    11.4387    66.2164     7.2540    -0.1319     2.4169     0.1456
  137.0000   -34.2592     9.8583    11.2810    66.5195     7.2558    -0.1290     2.4115     0.1377
  137.5000   -34.4127     9.7225    11.2810    66.5232     7.2725    -0.1111     2.4093     0.1329
  138.0000   -34.4162     9.6553    11.3596    66.9820     7.3342    -0.1112     2.4237     0.1350
  138.5000   -34.4191     9.5885    11.2810    66.8141     7.3809    -0.1204     2.4291     0.1117
  139.0000   -34.4219     9.5903    11.0486    65.4798     7.3827    -0.1084     2.4533     0.1292
  139.5000   -34.2741     9.5885    10.8963    64.8884     7.3994    -0.0436     2.4556     0.1364
  140.0000   -34.1165     9.6553    10.8963    64.4467     7.3863    -0.0241     2.4240     0.1378
  140.5000   -33.9787     9.6553    10.8963    63.4062     7.3880    -0.0090     2.4173     0.1399
  141.0000   -33.8310     9.6553    10.8963    62.8878     7.3898    -0.0036     2.4136     0.1436
  141.5000   -33.9851     9.6553    10.8963    64.9929     7.4066    -0.0037     2.4121     0.1410
  142.0000   -33.9880     9.6553    10.8963    63.4284     7.4084     0.0009     2.4114     0.1434
  142.5000   -34.1416     9.6553    10.8963    62.9117     7.4102     0.0156     2.4092     0.1464
  143.0000   -34.2956     9.5885    10.8963    62.8443     7.3970     0.0170     2.4071     0.1461
  143.5000   -34.1479     9.5885    10.9721    62.8543     7.3988     0.0168     2.4048     0.1457
  144.0000   -34.1508     9.5885    10.8963    63.4681     7.4006     0.0182     2.4042     0.1488
  144.5000   -34.0030     9.5223    10.8209    64.2228     7.3857     0.0196     2.4035     0.1547
  145.0000   -33.8553     9.4565    10.5979    64.6208     7.3273     0.0104     2.3983     0.1454
  145.5000   -33.7075     9.3262    10.3795    65.6526     7.1700    -0.0048     2.3938     0.1407
  146.0000   -34.0123     9.1342    10.1656    65.8079     7.0010    -0.0095     2.4097     0.1401
  146.5000   -34.4670     8.9461    10.0953    65.6656     7.0083    -0.0126     2.4120     0.1404
  147.0000   -34.9297     8.8228    10.0953    67.1718     7.1423    -0.0113     2.4121     0.1430
  147.5000   -35.2264     8.6412    10.0255    68.6762     7.3985     0.0022     2.4123     0.1509
  148.0000   -35.2293     8.5221    10.0255    69.7315     7.4153     0.0111     2.4055     0.1415
  148.5000   -35.2321     8.4047    10.0255    69.1401     7.4321     0.0004     2.4046     0.1378
  149.0000   -35.2350     8.3466     9.8189    68.6236     7.4338     0.0033     2.4101     0.1429
  149.5000   -35.0693     8.2890     9.5500    68.2567     7.4202     0.0047     2.4109     0.1489
  150.0000   -34.4877     8.2832     9.6166    66.9500     7.4222     0.0045     2.4103     0.1462
