~VERSION INFORMATION
 VERS.                2.0:   CWLS LOG ASCII STANDARD - VERSION 2.0
 WRAP.                 NO:   ONE LINE PER DEPTH STEP
~WELL INFORMATION
#MNEM.UNIT      DATA TYPE    INFORMATION
#----------   ------------   ------------------------------
 STRT.F           27.0000:   START DEPTH
 STOP.F          538.0000:   STOP DEPTH
 STEP.F            0.5000:   STEP LENGTH
 NULL.          -999.2500:   NO VALUE
 COMP. FENIX & SCISSON INC:   COMPANY
 WELL.        NPR 3 #24-3:   WELL
 FLD .             TEAPOT:   FIELD
 LOC .       S3 T38N R78W:   LOCATION
 CNTY.            NATRONA:   COUNTY
 STAT.            WYOMING:   STATE
 CTRY. UNITED STATES OF AMERICA:   COUNTRY
 SRVC.            Unknown:   SERVICE COMPANY
 DATE.        26-SEP-1978:   LOGDATE
 API .       490251068800:   API NUMBER
~CURVE INFORMATION
#MNEM.UNIT       API CODE    CURVE DESCRIPTION
#----------   ------------   ------------------------------
 DEPT.F                  :   
 SPR .MV     05 010 01 00:   SPONTANEOUS POTENTIAL FROM RES.
 ILD .OHMM   05 120 46 00:   INDUCTION LOG DEEP
 SN  .OHMM   05 040 16 00:   SHORT NORMAL 16"
 CALD.IN     45 280 60 00:   CALIPER
 GRD .GAPI   45 310 01 00:   GAMMA RAY FROM DENSITY LOG
 DEN .G/C3   45 350 01 00:   COMPENSATED BULK DENSTIY
 DPHI.DEC    45 890 12 00:   DENSITY POROSITY SANDSTONE
 CORR.G/C3   45 356 01 00:   DENSITY CORRECTION
~PARAMETER INFORMATION
#MNEM.UNIT          VALUE    DESCRIPTION
#----------   ------------   ------------------------------
 PD  .                 GL:   PERMANENT DATUM
 EPD .F              5200:   ELEVATION PERMANENT DATUM
 LMF .                 KB:   LOG MEASURED FROM
 DAPD.F                 4:   FEET ABOVE PERMANENT DATUM
 DMF .                 KB:   DRILLING MEASURED FROM
 EKB .F              5204:   KELLING BUSHING
 EGL .F              5200:   GROUND LEVEL
 DATE.            9-26-78:   RUN DATE
 RUN .                  1:   RUN NUMBER
 DD  .F               537:   DEPTH DRILLER
 DL  .F               538:   DEPTH LOGGER
 BLI .F               532:   BOTTOM LOG INTERVAL
 TLI .F                40:   TOP LOG INTERVAL
 CS  .IN            8.625:   CASING SIZE
 CBD .F                40:   CASING BOTTOM DRILLER
 CBL .F                46:   CASING BOTTOM LOGGER
 BS  .IN            7.875:   BIT SIZE
 BSD .F               537:   BIT SIZE AT DEPTH
 DFT .                KCL:   DRILLING FLUID TYPE
 DFD .                8.7:   DRILLING FLUID DENSITY
 DFV .                 37:   DRILLING FLUID VISCOSITY
 DFPH.                  9:   DRILLING FLUID PH
 DFL .                 10:   DRILLING FLUID LOSS
 MSS .          FLOW LINE:   MUD SAMPLE SOURCE
 RMS .OHMM            .18:   RESISTIVITY MUD SAMPLE
 MST .F                72:   MUD SAMPLE TEMPERATURE
 RMF .OHMM            .16:   RESISTIVITY MUD FILTRATE SAMPLE
 MFST.F                76:   MUD FILTRATE SAMPLE TEMPERATURE
 RMC .OHMM            .26:   RESISTIVITY MUD CAKE
 MCST.F                76:   MUD CAKE SAMPLE TEMPERATURE
 MFSS.               MEAS:   MUD FILTRATE SAMPLE SOURCE
 RMB .OHMM            .18:   RESISTIVITY MUD AT BHT
 BHT .F                71:   BOTTOM HOLE TEMPERATURE
 TCS .HRS               3:   TIME CURCULATED STOPPED
 MRT .F                71:   MAXIMUM RECORDED TEMPERATURE
 LUN .               2958:   LOGGING UNIT NUMBER
 LUL .               CASP:   LOGGING UNIT LOCATION
 ENGI.           REYNOLDS:   RECORDING ENGINEER
 WITN.              AMEND:   WITNESSED BY
 CLNT.            A2DTECH:   CLIENT CODE
 ORIG.           5" PRINT:   ORIGIN OF DATA
 UWI .       490251068800:   UNIQUE WELL ID
 DICO. A2D Technologies, Inc.:   DIGITIZING COMPANY
~OTHER INFORMATION
~A   DEPT      SPR        ILD         SN       CALD         GRD       DEN       DPHI       CORR   
# ...
  148.5000   -62.1703     9.4752     9.0821     7.8508   128.7663     2.5126     0.0932     0.0435
  149.0000   -62.1753     9.6321     9.2066     7.8299   126.7959     2.5124     0.0927     0.0459
  149.5000   -62.2312     9.7917     9.3328     7.8071   124.8418     2.5157     0.0922     0.0498
  150.0000   -62.2867     9.9538     9.4608     7.7842   122.8757     2.5203     0.0908     0.0556
  150.5000   -62.3271    10.0843     9.5905     7.7614   120.7505     2.5249     0.0875     0.0613
  151.0000   -62.3279    10.2017     9.7220     7.7493   118.7233     2.5295     0.0842     0.0669
  151.5000   -62.3231    10.3204     9.8553     7.7467   118.4874     2.5342     0.0806     0.0711
  152.0000   -61.9524    10.4405    10.0029     7.7442   118.4999     2.5329     0.0825     0.0712
  152.5000   -61.5418    10.7375    10.0404     7.7417   118.5005     2.5274     0.0852     0.0731
  153.0000   -61.1285    11.0681    10.0818     7.7393   117.9233     2.5235     0.0878     0.0769
  153.5000   -60.9381    11.4088    10.1233     7.7368   116.7677     2.5225     0.0902     0.0812
  154.0000   -60.9350    11.7601    10.1651     7.7343   115.6028     2.5254     0.0835     0.0837
  154.5000   -60.9321    12.1221    10.2070     7.7317   115.1727     2.5327     0.0770     0.0711
  155.0000   -60.7709    12.4953    10.2491     7.7249   114.9241     2.5401     0.0786     0.0572
  155.5000   -60.2651    12.7554    10.2913     7.7066   115.1740     2.5451     0.0838     0.0431
  156.0000   -59.7667    13.0760    10.3337     7.6826   115.9033     2.5316     0.0931     0.0290
  156.5000   -59.3239    13.0541    10.3795     7.6117   116.6424     2.5182     0.1026     0.0143
  157.0000   -59.2768    13.0126    10.3391     7.5400   117.2984     2.5047     0.1095     0.0110
  157.5000   -59.2212    12.9712    10.2957     7.4684   117.3015     2.4910     0.1140     0.0110
  158.0000   -59.1642    12.9299    10.2525     7.3973   116.9728     2.4838     0.1178     0.0136
  158.5000   -59.1071    12.8888    10.2094     7.3539   116.5967     2.4768     0.1185     0.0165
  159.0000   -59.0497    12.8478    10.1772     7.3139   116.5104     2.4777     0.1175     0.0194
  159.5000   -58.9929    12.6785    10.1542     7.2739   118.1219     2.4790     0.1164     0.0223
  160.0000   -58.9676    12.4669    10.1313     7.2341   119.9100     2.4804     0.1174     0.0251
  160.5000   -59.1081    12.3710    10.1085     7.2217   120.0797     2.4806     0.1221     0.0271
  161.0000   -59.2463    12.4388    10.0857     7.2121   119.7841     2.4741     0.1270     0.0272
  161.5000   -59.3844    12.3977    10.0629     7.2311   119.1791     2.4676     0.1297     0.0274
  162.0000   -59.5222    12.3710    10.0402     7.2609   116.1121     2.4609     0.1310     0.0276
  162.5000   -59.6559    12.0730    10.0175     7.2909   113.0104     2.4595     0.1310     0.0278
  163.0000   -59.5709    11.7905     9.9915     7.3202   109.9979     2.4595     0.1310     0.0280
  163.5000   -59.1325    11.6458     9.9584     7.3920   106.9516     2.4595     0.1295     0.0282
  164.0000   -58.6993    11.5030     9.9255     7.4800   106.3279     2.4641     0.1229     0.0284
  164.5000   -58.2640    11.3343     9.8927     7.5680   106.9224     2.4723     0.1137     0.0286
  165.0000   -57.8251    11.0239     9.8601     7.6376   109.1432     2.4806     0.1104     0.0288
  165.5000   -57.7360    10.7219     9.8278     7.6589   111.3382     2.4889     0.1072     0.0290
  166.0000   -57.7146    10.4283     9.7467     7.6811   113.2929     2.4946     0.1038     0.0283
  166.5000   -57.6947    10.1427     9.6514     7.7033   114.2436     2.4984     0.1038     0.0275
  167.0000   -57.6740     9.9109     9.5571     7.7256   115.8936     2.4991     0.1038     0.0266
  167.5000   -57.6533    10.0558     9.4637     7.7478   115.9063     2.4996     0.1037     0.0258
  168.0000   -57.6325    10.1107     9.3711     7.7700   115.8965     2.5001     0.1034     0.0249
  168.5000   -57.6116    10.1658     9.2799     7.7923   115.9061     2.5007     0.1031     0.0240
  169.0000   -57.5903    10.2235     9.2029     7.8144   116.8789     2.5013     0.1049     0.0232
  169.5000   -57.5703    10.2827     9.1963     7.8293   117.9862     2.4991     0.1081     0.0223
  170.0000   -57.5937    10.3425     9.1889     7.8253   117.5863     2.4949     0.1114     0.0214
  170.5000   -57.7762    10.4024     9.1816     7.8217   116.1724     2.4907     0.1147     0.0205
  171.0000   -57.9538    10.4753     9.1743     7.8180   114.9093     2.4866     0.1150     0.0198
  171.5000   -58.1330    10.3495     9.1670     7.8144   115.0205     2.4865     0.1145     0.0205
  172.0000   -58.0059    10.1916     9.1596     7.8107   114.4065     2.4865     0.1140     0.0210
  172.5000   -57.9463    10.0356     9.1523     7.8071   112.7227     2.4861     0.1135     0.0210
  173.0000   -58.3919     9.9109     9.1450     7.8035   111.0788     2.4855     0.1140     0.0210
  173.5000   -59.0192     9.7428     9.1377     7.7998   111.6286     2.4845     0.1147     0.0210
  174.0000   -59.3654     9.5346     9.1305     7.7962   112.4606     2.4832     0.1155     0.0210
  174.5000   -59.4086     9.2893     9.1231     7.7926   112.7233     2.4820     0.1162     0.0210
  175.0000   -59.4522     9.2906     9.1071     7.7937   112.7643     2.4829     0.1104     0.0210
  175.5000   -59.4947     9.2045     9.0854     7.8069   112.8005     2.4911     0.1045     0.0199
  176.0000   -59.5419     9.1440     9.0637     7.8200   112.8373     2.4992     0.0987     0.0188
  176.5000   -59.7441     9.1202     9.0420     7.8331   112.8740     2.5073     0.0929     0.0177
  177.0000   -59.9666     9.1672     9.0204     7.8465   112.8873     2.5153     0.0890     0.0182
  177.5000   -60.1839     9.2008     8.9988     7.8377   112.7622     2.5235     0.0921     0.0233
  178.0000   -60.2164     9.2344     8.9773     7.8205   112.9355     2.5224     0.0960     0.0270
  178.5000   -59.8090     9.2682     8.9558     7.8030   113.8855     2.5159     0.0998     0.0308
  179.0000   -59.4153     9.3023     8.9344     7.7855   115.1260     2.5092     0.1037     0.0346
  179.5000   -59.1568     9.3362     8.9131     7.7701   119.0078     2.5026     0.1075     0.0384
  180.0000   -59.2121     9.3765     8.8918     7.7835   122.9022     2.4960     0.1076     0.0389
  180.5000   -59.2609     9.2493     8.8710     7.7987   122.9128     2.4894     0.1047     0.0387
  181.0000   -59.3129     9.0964     8.6450     7.8139   119.0989     2.4885     0.1018     0.0385
  181.5000   -59.4881     8.9461     8.4295     7.8291   115.1924     2.4884     0.1002     0.0383
  182.0000   -59.9142     8.7983     8.3375     7.8443   112.9256     2.4911     0.1001     0.0381
  182.5000   -60.3364     8.6529     8.2712     7.8594   112.8801     2.4943     0.0999     0.0379
  183.0000   -60.7602     8.5508     8.2055     7.8702   112.8970     2.4974     0.0998     0.0377
  183.5000   -61.1817     8.4582     8.1403     7.8700   112.8959     2.5007     0.0970     0.0375
  184.0000   -61.5173     8.3666     8.0756     7.8700   112.9032     2.5076     0.0943     0.0373
  184.5000   -61.3604     8.3155     8.0138     7.8700   113.5410     2.5145     0.0916     0.0371
  185.0000   -61.3924     8.3406     8.0383     7.8700   115.0480     2.5216     0.0922     0.0371
  185.5000   -61.4680     8.3609     8.0619     7.8700   117.3529     2.5210     0.0987     0.0373
  186.0000   -61.5101     8.3813     8.0857     7.8700   118.5001     2.5103     0.1052     0.0376
  186.5000   -61.3755     8.4505     8.1095     7.8700   118.2097     2.4994     0.1117     0.0379
  187.0000   -61.2436     8.5819     8.1333     7.8699   117.3965     2.4886     0.1166     0.0382
  187.5000   -61.1123     8.7086     8.1573     7.8646   115.7509     2.4803     0.1158     0.0384
  188.0000   -60.9810     8.7200     8.1813     7.8454   113.7087     2.4811     0.1146     0.0387
  188.5000   -60.8496     8.7309     8.2053     7.8264   113.6727     2.4842     0.1144     0.0390
