~VERSION INFORMATION
 VERS.                2.0:   CWLS LOG ASCII STANDARD - VERSION 2.0
 WRAP.                 NO:   ONE LINE PER DEPTH STEP
~WELL INFORMATION
#MNEM.UNIT      DATA TYPE    INFORMATION
#----------   ------------   ------------------------------
 STRT.F            0.0000:   START DEPTH
 STOP.F          534.0000:   STOP DEPTH
 STEP.F            0.1000:   STEP LENGTH
 NULL.          -999.2500:   NO VALUE
 COMP.       F D SERV INC:   COMPANY
 WELL. NAVAL PETROLEUM RESERVE 3 SX-1 #71-2-10:   WELL
 FLD .            N.P.R 3:   FIELD
 LOC .      S10 T38N R78W:   LOCATION
 CNTY.            NATRONA:   COUNTY
 STAT.            WYOMING:   STATE
 CTRY. UNITED STATES OF AMERICA:   COUNTRY
 SRVC.     Atlas Wireline:   SERVICE COMPANY
 DATE.        07-DEC-1992:   LOGDATE
 API .       490252257200:   API NUMBER
~CURVE INFORMATION
#MNEM.UNIT       API CODE    CURVE DESCRIPTION
#----------   ------------   ------------------------------
 DEPT.F                  :   
 GRR .GAPI   07 310 01 00:   GAMMA RAY
 RILD.OHMM   07 120 46 00:   INDUCTION LOG DEEP RESISTIVITY
 RILM.OHMM   07 120 44 00:   RESITIVITY LONG MEDIUM
~PARAMETER INFORMATION
#MNEM.UNIT          VALUE    DESCRIPTION
#----------   ------------   ------------------------------
 PD  .                 GL:   PERMANENT DATUM
 EPD .F              5165:   ELEVATION PERMANENT DATUM
 LMF .                 KB:   LOG MEASURED FROM
 DAPD.F                10:   FEET ABOVE PERMANENT DATUM
 DMF .                 KB:   DRILLING MEASURED FROM
 EKB .F              5175:   KELLING BUSHING
 EDF .F              5174:   DRILLING FLOOR
 EGL .F              5165:   GROUND LEVEL
 DATE.        07-DEC-1992:   RUN DATE
 RUN .                  1:   RUN NUMBER
 DD  .F               540:   DEPTH DRILLER
 DL  .F               542:   DEPTH LOGGER
 BLI .F               534:   BOTTOM LOG INTERVAL
 CS  .IN            8.625:   CASING SIZE
 CBD .F                78:   CASING BOTTOM DRILLER
 CBL .F                82:   CASING BOTTOM LOGGER
 BS  .IN            7.875:   BIT SIZE
 BSD .F               540:   BIT SIZE AT DEPTH
 DFT .           AIR FOAM:   DRILLING FLUID TYPE
 BHT .F                70:   BOTTOM HOLE TEMPERATURE
 MRT .F                70:   MAXIMUM RECORDED TEMPERATURE
 LUN .           HL- 6345:   LOGGING UNIT NUMBER
 LUL .         FT. MORGAN:   LOGGING UNIT LOCATION
 ENGI.             BURLEY:   RECORDING ENGINEER
 WITN.        GARY STRONG:   WITNESSED BY
 CLNT.            A2DTECH:   CLIENT CODE
 ORIG.           5" PRINT:   ORIGIN OF DATA
 UWI .       490252257200:   UNIQUE WELL ID
 DICO. A2D Technologies, Inc.:   DIGITIZING COMPANY
~OTHER INFORMATION
~A    DEPT      GRR      RILD       RILM   
# ...
  473.2000   110.7917    10.1817    10.1159
  473.3000   110.3186    10.2094    10.1354
  473.4000   110.0442    10.2280    10.1938
  473.5000   109.3534    10.2871    10.2572
  473.6000   108.7757    10.3526    10.3115
  473.7000   108.2718    10.3524    10.3710
  473.8000   107.7677    10.3937    10.4005
  473.9000   107.3038    10.4539    10.4352
  474.0000   107.3017    10.4976    10.5463
  474.1000   106.8628    10.5013    10.5457
  474.2000   106.5251    10.5708    10.6524
  474.3000   106.3860    10.6233    10.6935
  474.4000   106.4458    10.6446    10.7211
  474.5000   106.6860    10.6443    10.7829
  474.6000   106.6838    10.6583    10.8429
  474.7000   106.6822    10.7200    10.8424
  474.8000   106.9912    10.7936    10.8420
  474.9000   107.3886    10.7934    10.8415
  475.0000   107.6378    10.8693    10.8411
  475.1000   107.8889    10.9452    10.8406
  475.2000   108.3856    10.9568    10.8402
  475.3000   108.4923    11.0215    10.8397
  475.4000   108.4904    11.0840    10.8393
  475.5000   108.4886    11.0984    10.8388
  475.6000   108.4868    11.0981    10.8383
  475.7000   108.4849    11.1434    10.8470
  475.8000   108.4832    11.2542    10.9135
  475.9000   108.4813    11.2538    10.9131
  476.0000   108.3460    11.3148    10.9126
  476.1000   108.0931    11.3324    10.9122
  476.2000   107.7541    11.3662    10.9117
  476.3000   106.6529    11.4114    10.9113
  476.4000   106.1965    11.4111    10.9108
  476.5000   105.5174    11.4108    10.9665
  476.6000   104.7622    11.4105    10.9865
  476.7000   104.1477    11.4102    10.9860
  476.8000   103.8948    11.4098    11.0020
  476.9000   103.6070    11.4095    11.0654
  477.0000   103.6055    11.4092    11.1394
  477.1000   103.6036    11.4088    11.2479
  477.2000   103.6018    11.4086    11.2956
  477.3000   103.6000    11.4082    11.3226
  477.4000   103.5982    11.4079    11.3740
  477.5000   103.5960    11.4223    11.3735
  477.6000   104.0057    11.4884    11.3730
  477.7000   104.5060    11.5679    11.3725
  477.8000   104.9056    11.5677    11.3720
  477.9000   105.1069    11.5674    11.3716
  478.0000   105.1047    11.5670    11.3711
  478.1000   104.8558    11.5667    11.3706
  478.2000   104.7976    11.5664    11.3701
  478.3000   104.7958    11.5661    11.3697
  478.4000   104.7939    11.5657    11.3692
  478.5000   104.7921    11.6026    11.3900
  478.6000   104.7902    11.6464    11.4481
  478.7000   104.7885    11.6461    11.4475
  478.8000   104.7867    11.6458    11.4471
  478.9000   104.7848    11.6455    11.4466
  479.0000   104.8619    11.6937    11.5107
  479.1000   105.0849    11.7267    11.6070
  479.2000   105.0827    11.7264    11.6065
  479.3000   105.3062    11.7261    11.6060
  479.4000   105.3827    11.7257    11.6055
  479.5000   105.3809    11.7254    11.6050
  479.6000   105.5150    11.7251    11.6046
  479.7000   105.9843    11.7247    11.6041
  479.8000   105.9821    11.7244    11.6047
  479.9000   105.9806    11.7241    11.6845
  480.0000   105.9788    11.7237    11.6841
  480.1000   105.9769    11.7234    11.6836
  480.2000   105.9751    11.7231    11.6831
  480.3000   105.9733    11.7228    11.6826
  480.4000   105.9711    11.7224    11.6821
  480.5000   105.9697    11.7221    11.6816
  480.6000   105.8169    11.7218    11.6812
  480.7000   105.5640    11.6676    11.6807
  480.8000   105.3572    11.6392    11.6802
  480.9000   105.3553    11.6389    11.6797
  481.0000   105.3536    11.6272    11.6792
  481.1000   105.1593    11.5570    11.6168
  481.2000   104.9064    11.5567    11.5968
  481.3000   104.6535    11.5563    11.5963
  481.4000   104.4006    11.5560    11.5958
  481.5000   104.1304    11.5557    11.5846
  481.6000   104.1287    11.5554    11.4336
  481.7000   103.7639    11.5550    11.4332
  481.8000   103.1308    11.5547    11.3891
  481.9000   102.4524    11.5544    11.3229
  482.0000   101.9727    11.5541    11.2728
  482.1000   101.6915    11.5537    11.2724
  482.2000   101.6898    11.5534    11.2718
  482.3000   101.6880    11.5531    11.2714
  482.4000   101.6862    11.4945    11.2311
  482.5000   101.6844    11.4718    11.1659
  482.6000   101.6825    11.4412    11.1133
  482.7000   101.6804    11.3910    11.1129
  482.8000   101.6789    11.3907    11.0494
  482.9000   101.6771    11.3903    11.0344
  483.0000   101.6753    11.3900    11.0340
  483.1000   101.7830    11.3897    11.0335
  483.2000   102.2883    11.3894    11.0331
  483.3000   103.4904    11.3756    11.0326
  483.4000   104.2935    11.3092    11.0321
  483.5000   104.9985    11.3089    11.0317
  483.6000   105.4988    11.3086    11.0312
  483.7000   105.9991    11.3082    11.0307
  483.8000   106.5165    11.2838    11.0303
  483.9000   106.9999    11.2286    11.0298
  484.0000   107.5002    11.2283    11.0293
  484.1000   107.7250    11.2280    11.0289
  484.2000   107.7232    11.2277    11.0284
  484.3000   107.6884    11.2274    11.0280
  484.4000   107.4159    11.2271    11.0275
  484.5000   107.1826    11.2267    11.0270
  484.6000   107.1090    11.2264    10.9732
  484.7000   106.9803    11.2261    10.9492
  484.8000   106.7274    11.2258    10.9487
  484.9000   106.4744    11.1621    10.9483
  485.0000   106.1910    11.0689    10.9478
  485.1000   105.9687    11.0686    10.9474
  485.2000   105.5475    11.0682    10.9469
  485.3000   105.2753    11.0680    10.9464
  485.4000   105.2735    11.0677    10.9460
  485.5000   105.2716    11.0388    10.9455
  485.6000   105.2695    10.9897    10.9450
  485.7000   105.2680    10.9875    10.9446
  485.8000   105.4236    10.9123    10.9441
  485.9000   105.6728    10.9121    10.9437
  486.0000   105.8695    10.8731    10.9432
  486.1000   105.8677    10.8100    10.9428
  486.2000   105.8659    10.7592    10.9423
  486.3000   106.0629    10.7589    10.8849
  486.4000   106.3122    10.7586    10.8216
  486.5000   106.5615    10.7100    10.7889
  486.6000   106.8107    10.6478    10.7713
  486.7000   107.0706    10.6080    10.7087
  486.8000   107.3093    10.6077    10.6375
  486.9000   107.5585    10.6074    10.6371
  487.0000   107.8078    10.5493    10.5578
  487.1000   108.1403    10.4880    10.4884
  487.2000   108.6098    10.4588    10.4743
  487.3000   108.8806    10.4585    10.4134
  487.4000   109.3377    10.4517    10.3412
  487.5000   109.8381    10.3849    10.2450
  487.6000   110.3385    10.3307    10.1616
  487.7000   110.8388    10.3118    10.1025
  487.8000   111.3392    10.2543    10.0541
  487.9000   111.9045    10.1677    10.0537
  488.0000   112.3399    10.1674    10.0533
  488.1000   112.8403    10.1671    10.0089
  488.2000   113.2269    10.1165     9.9823
  488.3000   113.4761    10.0203     9.9624
  488.4000   113.7254     9.9295     9.9118
  488.5000   114.0179     9.8718     9.9114
  488.6000   114.2240     9.8156     9.9110
  488.7000   114.4733     9.8153     9.8700
  488.8000   114.7225     9.7690     9.8127
  488.9000   114.9214     9.7462     9.7720
  489.0000   114.9196     9.7459     9.7716
  489.1000   115.4159     9.7457     9.7711
  489.2000   115.7196     9.7454     9.7708
  489.3000   115.9689     9.7451     9.7331
  489.4000   116.3099     9.7448     9.6766
  489.5000   116.9090     9.7130     9.6338
  489.6000   118.0368     9.6566     9.6334
  489.7000   118.8226     9.6084     9.6329
  489.8000   119.4921     9.6081     9.5869
  489.9000   120.4304     9.6078     9.5650
  490.0000   120.9710     9.5673     9.5646
  490.1000   121.2002     9.5402     9.5642
  490.2000   120.7357     9.5229     9.5638
  490.3000   119.9807     9.4730     9.5634
  490.4000   119.2255     9.4727     9.5203
  490.5000   118.4917     9.4725     9.4959
  490.6000   117.9251     9.4722     9.4955
  490.7000   117.4837     9.4461     9.4951
  490.8000   117.3147     9.3912     9.4946
  490.9000   117.3129     9.3396     9.4943
  491.0000   117.3111     9.3393     9.4939
  491.1000   117.3093     9.3390     9.4652
  491.2000   117.3071     9.3388     9.4102
  491.3000   117.3056     9.3153     9.3607
