~VERSION INFORMATION
 VERS.                2.0:   CWLS LOG ASCII STANDARD - VERSION 2.0
 WRAP.                 NO:   ONE LINE PER DEPTH STEP
~WELL INFORMATION
#MNEM.UNIT      DATA TYPE    INFORMATION
#----------   ------------   ------------------------------
 STRT.F           18.0000:   START DEPTH
 STOP.F          647.0000:   STOP DEPTH
 STEP.F            0.5000:   STEP LENGTH
 NULL.          -999.2500:   NO VALUE
 COMP. FENIX & SCISSON INC:   COMPANY
 WELL. NAVAL PETROLEUM RESERVE 3 SX-1 #82-15:   WELL
 FLD .        TEAPOT DOME:   FIELD
 LOC .      S15 T38N R78W:   LOCATION
 CNTY.            NATRONA:   COUNTY
 STAT.            WYOMING:   STATE
 CTRY. UNITED STATES OF AMERICA:   COUNTRY
 SRVC.            Unknown:   SERVICE COMPANY
 DATE.        15-MAR-1979:   LOGDATE
 API .       490251076500:   API NUMBER
~CURVE INFORMATION
#MNEM.UNIT       API CODE    CURVE DESCRIPTION
#----------   ------------   ------------------------------
 DEPT.F                  :   
 SPR .MV     05 010 01 00:   SPONTANEOUS POTENTIAL FROM RES.
 SN  .OHMM   05 040 16 00:   SHORT NORMAL 16"
 IL  .OHMM   05 120 00 00:   INDUCTION LOG
 CALD.IN     45 280 60 00:   CALIPER
 GRD .GAPI   45 310 01 00:   GAMMA RAY FROM DENSITY LOG
 RHOB.G/C3   45 350 01 00:   BULK DENSITY
 DPHI.DEC    45 890 12 00:   DENSITY POROSITY SANDSTONE
 CORR.G/C3   45 356 01 00:   DENSITY CORRECTION
~PARAMETER INFORMATION
#MNEM.UNIT          VALUE    DESCRIPTION
#----------   ------------   ------------------------------
 PD  .                 GL:   PERMANENT DATUM
 EPD .F              5249:   ELEVATION PERMANENT DATUM
 LMF .                 KB:   LOG MEASURED FROM
 DAPD.F                 4:   FEET ABOVE PERMANENT DATUM
 DMF .                 KB:   DRILLING MEASURED FROM
 EKB .F              5253:   KELLING BUSHING
 EGL .F              5249:   GROUND LEVEL
 DATE.            1-15-79:   RUN DATE
 RUN .                  1:   RUN NUMBER
 DD  .F               670:   DEPTH DRILLER
 DL  .F               647:   DEPTH LOGGER
 BLI .F               640:   BOTTOM LOG INTERVAL
 TLI .F                30:   TOP LOG INTERVAL
 CS  .IN            8.625:   CASING SIZE
 CBD .F                40:   CASING BOTTOM DRILLER
 CBL .F                34:   CASING BOTTOM LOGGER
 BS  .IN            7.875:   BIT SIZE
 BSD .F               670:   BIT SIZE AT DEPTH
 DFT .                KCL:   DRILLING FLUID TYPE
 DFD .                8.9:   DRILLING FLUID DENSITY
 DFV .                 44:   DRILLING FLUID VISCOSITY
 DFPH.                8.5:   DRILLING FLUID PH
 DFL .               14.8:   DRILLING FLUID LOSS
 MSS .           FLOWLINE:   MUD SAMPLE SOURCE
 RMS .OHMM            .26:   RESISTIVITY MUD SAMPLE
 MST .F                61:   MUD SAMPLE TEMPERATURE
 RMF .OHMM            .25:   RESISTIVITY MUD FILTRATE SAMPLE
 MFST.F                60:   MUD FILTRATE SAMPLE TEMPERATURE
 RMC .OHMM             .2:   RESISTIVITY MUD CAKE
 MCST.F                60:   MUD CAKE SAMPLE TEMPERATURE
 MFSS.           MEASURED:   MUD FILTRATE SAMPLE SOURCE
 MCSS.           MEASURED:   MUD CAKE SAMPLE SOURCE
 RMB .OHMM            .27:   RESISTIVITY MUD AT BHT
 BHT .F                58:   BOTTOM HOLE TEMPERATURE
 TCS .HRS               5:   TIME CURCULATED STOPPED
 MRT .F                58:   MAXIMUM RECORDED TEMPERATURE
 LUN .               3006:   LOGGING UNIT NUMBER
 LUL .             CASPER:   LOGGING UNIT LOCATION
 ENGI.            ROLLINS:   RECORDING ENGINEER
 WITN.              AMEND:   WITNESSED BY
 CLNT.            A2DTECH:   CLIENT CODE
 ORIG.         2.5" PRINT:   ORIGIN OF DATA
 UWI .       490251076500:   UNIQUE WELL ID
 DICO. A2D Technologies, Inc.:   DIGITIZING COMPANY
~OTHER INFORMATION
~A   DEPT      SPR         SN         IL       CALD         GRD      RHOB       DPHI       CORR   
# ...
  504.0000   -64.3960    12.1510    14.1800     8.3740    83.1080     2.3770     0.1890     0.0300
  504.5000   -64.1420    12.1510    14.3720     8.3760    87.4990     2.3730     0.1880     0.0300
  505.0000   -63.9280    12.1510    14.5640     8.3790    89.3920     2.3760     0.1820     0.0300
  505.5000   -64.0220    12.1510    14.7560     8.3810    86.3930     2.3830     0.1760     0.0300
  506.0000   -64.1090    12.1500    14.9480     8.3840    83.9880     2.3890     0.1690     0.0300
  506.5000   -64.2090    12.1510    15.1410     8.3860    81.5800     2.3990     0.1630     0.0300
  507.0000   -64.3010    12.1500    15.3330     8.3890    81.5380     2.4150     0.1580     0.0300
  507.5000   -64.3960    12.1500    15.5250     8.3910    84.6890     2.4310     0.1440     0.0300
  508.0000   -64.4900    12.1520    15.7330     8.3940    88.8620     2.4480     0.1330     0.0340
  508.5000   -64.5840    12.1520    15.7330     8.3960    90.4910     2.4640     0.1220     0.0390
  509.0000   -64.6790    12.1520    15.2320     8.3990    86.9070     2.4800     0.1140     0.0420
  509.5000   -64.7730    12.0940    14.9490     8.4010    84.6540     2.4980     0.1080     0.0420
  510.0000   -64.8680    11.9950    14.6650     8.4040    83.5610     2.5080     0.1170     0.0370
  510.5000   -64.9630    11.8960    14.3460     8.4070    83.0290     2.5060     0.1280     0.0290
  511.0000   -65.0570    11.7970    13.9010     8.4090    83.0150     2.4930     0.1390     0.0220
  511.5000   -65.1520    11.6980    13.3930     8.4120    83.9330     2.4670     0.1510     0.0220
  512.0000   -65.2460    11.5990    12.8850     8.4140    85.4550     2.4430     0.1620     0.0220
  512.5000   -65.3410    11.5000    12.3770     8.4170    86.2460     2.4170     0.1700     0.0220
  513.0000   -65.4350    11.4020    12.0540     8.4190    85.7990     2.4070     0.1690     0.0220
  513.5000   -65.5300    11.3030    11.7320     8.4220    86.7050     2.4050     0.1690     0.0220
  514.0000   -65.6250    11.2040    11.4090     8.4240    87.2960     2.4040     0.1720     0.0210
  514.5000   -65.7190    11.1050    11.0870     8.4270    87.0200     2.4020     0.1740     0.0200
  515.0000   -65.8140    11.0610    10.8670     8.4290    86.7020     2.4020     0.1730     0.0180
  515.5000   -65.9080    11.0360    10.8400     8.4320    86.5800     2.4030     0.1720     0.0200
  516.0000   -66.0020    11.0100    10.8120     8.4340    86.6950     2.4050     0.1690     0.0230
  516.5000   -66.0970    10.9850    10.7850     8.4370    87.6080     2.4070     0.1570     0.0250
  517.0000   -66.1890    10.9600    10.7570     8.4400    88.7940     2.4230     0.1440     0.0260
  517.5000   -66.2930    10.9350    10.7300     8.4370    89.4800     2.4450     0.1300     0.0260
  518.0000   -66.2910    10.9090    10.7020     8.4300    88.8560     2.4670     0.1280     0.0290
  518.5000   -66.1940    10.8840    10.6750     8.4250    83.3680     2.4760     0.1370     0.0380
  519.0000   -66.1110    10.8590    10.6470     8.4200    79.6890     2.4670     0.1470     0.0410
  519.5000   -66.0240    10.8340    10.6200     8.4140    82.7170     2.4530     0.1530     0.0390
  520.0000   -65.9370    10.8080    10.5920     8.4080    87.0700     2.4410     0.1520     0.0370
  520.5000   -65.8510    10.7830    10.5650     8.4030    88.9930     2.4390     0.1500     0.0350
  521.0000   -65.7640    10.7580    10.5370     8.3970    85.8410     2.4400     0.1480     0.0350
  521.5000   -65.6770    10.7330    10.5100     8.3920    84.0220     2.4410     0.1460     0.0360
  522.0000   -65.5910    10.7070    10.4820     8.3860    84.5550     2.4460     0.1440     0.0380
  522.5000   -65.5040    10.6820    10.4550     8.3810    88.0510     2.4510     0.1430     0.0400
  523.0000   -65.4170    10.6570    10.4270     8.3750    91.5400     2.4530     0.1420     0.0440
  523.5000   -65.3300    10.6320    10.4000     8.3700    89.9540     2.4540     0.1430     0.0460
  524.0000   -65.2430    10.6060    10.3730     8.3640    86.3460     2.4540     0.1410     0.0490
  524.5000   -65.1580    10.5810    10.3450     8.3590    84.6570     2.4550     0.1370     0.0360
  525.0000   -65.0620    10.5560    10.3180     8.3530    88.2870     2.4590     0.1320     0.0230
  525.5000   -64.9570    10.5310    10.2910     8.3480    91.5180     2.4660     0.1370     0.0070
  526.0000   -64.8390    10.5050    10.2770     8.3420    91.8180     2.4610     0.1440     0.0060
  526.5000   -64.7780    10.4830    10.2630     8.3370    91.7720     2.4530     0.1450     0.0060
  527.0000   -64.3900    10.4660    10.2490     8.3310    92.1560     2.4470     0.1480     0.0060
  527.5000   -63.8200    10.4510    10.2350     8.3260    92.8060     2.4450     0.1570     0.0080
  528.0000   -63.3100    10.4360    10.2210     8.3200    93.2780     2.4360     0.1720     0.0160
  528.5000   -62.7910    10.4210    10.2070     8.3220    92.2110     2.4230     0.1690     0.0230
  529.0000   -62.2690    10.4060    10.1930     8.3230    91.0480     2.4100     0.1630     0.0250
  529.5000   -61.7500    10.3920    10.1800     8.3250    90.1300     2.4150     0.1570     0.0240
  530.0000   -61.2300    10.3770    10.1660     8.3260    89.8340     2.4260     0.1540     0.0220
  530.5000   -60.7180    10.3630    10.1540     8.3280    88.5410     2.4330     0.1560     0.0240
  531.0000   -60.1640    10.3470    10.1400     8.3300    86.4190     2.4340     0.1500     0.0270
  531.5000   -59.8050    10.3310    10.1240     8.3310    87.3050     2.4360     0.1440     0.0290
  532.0000   -59.7070    10.3160    10.1100     8.3330    88.7190     2.4450     0.1390     0.0310
  532.5000   -59.5660    10.2910    10.1030     8.3340    90.1170     2.4530     0.1350     0.0310
  533.0000   -59.4370    10.3810    10.2580     8.3360    91.5950     2.4600     0.1350     0.0320
  533.5000   -59.3090    10.6770    10.7720     8.3370    91.8670     2.4620     0.1350     0.0330
  534.0000   -59.1770    10.9740    11.2850     8.3390    90.7410     2.4630     0.1350     0.0340
  534.5000   -59.0470    11.2700    12.3560     8.3410    89.9330     2.4630     0.1430     0.0350
  535.0000   -58.9170    11.5670    13.8150     8.3420    89.2160     2.4630     0.1540     0.0360
  535.5000   -58.7860    11.8630    15.2740     8.3440    92.2420     2.4430     0.1650     0.0360
  536.0000   -58.6700    12.1600    16.7320     8.3450    91.1740     2.4080     0.1830     0.0370
  536.5000   -58.6060    12.4560    18.1910     8.3470    89.5690     2.3720     0.2050     0.0390
  537.0000   -58.5480    12.7530    19.6500     8.3490    87.8390     2.3370     0.2400     0.0480
  537.5000   -58.4900    13.0490    21.1090     8.3500    83.4710     2.3010     0.2370     0.0580
  538.0000   -58.4340    13.3460    22.5680     8.3520    79.6040     2.2900     0.2320     0.0670
  538.5000   -58.3740    13.6430    24.0270     8.3530    76.0400     2.3000     0.2280     0.0770
  539.0000   -58.3180    13.9390    24.5020     8.3550    76.7470     2.3020     0.2340     0.0870
  539.5000   -58.2750    14.0840    24.0540     8.3560    77.2910     2.2960     0.2390     0.1120
  540.0000   -58.3530    14.0230    23.3160     8.3590    76.9080     2.2920     0.2370     0.1360
  540.5000   -58.4250    13.9410    22.6590     8.3610    76.4030     2.2940     0.2330     0.1630
  541.0000   -58.5030    13.8590    22.0010     8.3850    75.9560     2.2970     0.2340     0.1910
  541.5000   -58.5760    13.7760    21.3440     8.4180    75.4750     2.3000     0.2320     0.2620
  542.0000   -58.6520    13.6940    20.6870     8.4500    75.9790     2.3020     0.2150     0.3290
  542.5000   -58.7270    13.6120    20.0300     8.4830    76.6890     2.3080     0.1850     0.4000
  543.0000   -58.8020    13.4770    19.3730     8.5140    77.0280     2.3540     0.1550     0.4510
  543.5000   -58.8780    13.2950    18.7160     8.5490    76.9960     2.4040     0.1140     0.4430
  544.0000   -58.9530    13.1140    18.0590     8.5490    76.9670     2.4540     0.1170     0.4420
