~VERSION INFORMATION
 VERS.                2.0:   CWLS LOG ASCII STANDARD - VERSION 2.0
 WRAP.                 NO:   ONE LINE PER DEPTH STEP
~WELL INFORMATION
#MNEM.UNIT      DATA TYPE    INFORMATION
#----------   ------------   ------------------------------
 STRT.F            3.0000:   START DEPTH
 STOP.F         3449.0000:   STOP DEPTH
 STEP.F            0.5000:   STEP LENGTH
 NULL.          -999.2500:   NO VALUE
 COMP. LAWRENCE/ALLISON INC:   COMPANY
 WELL.       NPR 3 #24-10:   WELL
 FLD .             TEAPOT:   FIELD
 LOC .      S10 T38N R78W:   LOCATION
 CNTY.            NATRONA:   COUNTY
 STAT.            WYOMING:   STATE
 CTRY. UNITED STATES OF AMERICA:   COUNTRY
 SRVC.      Dresser Atlas:   SERVICE COMPANY
 DATE.        28-JUL-1985:   LOGDATE
 API .       490251104400:   API NUMBER
~CURVE INFORMATION
#MNEM.UNIT       API CODE    CURVE DESCRIPTION
#----------   ------------   ------------------------------
 DEPT.F                  :   
 PORD.DEC    45 890 12 00:   POROSITY DENSITY SANDSTONE
 CNC .DEC    42 890 03 00:   NEUTRON POROSITY SANDSTONE
 CORR.G/C3   45 356 01 00:   DENSITY CORRECTION
 DEN .G/C3   45 350 01 00:   COMPENSATED BULK DENSTIY
 AC  .US/F   60 520 00 00:   ACCOUSTIC
 CALR.IN     07 280 01 00:   CALIPER FROM RESISTIVITY
 GRR .GAPI   07 310 01 00:   GAMMA RAY
 RFOC.OHMM   07 220 04 00:   RESISTIVITY FOCUSED LOG
 RILD.OHMM   07 120 46 00:   INDUCTION LOG DEEP RESISTIVITY
 RILM.OHMM   07 120 44 00:   INDUCTION LOG MEDIUM RESISTIVITY
 SPR .MV     07 010 01 00:   SPONTANEOUS POTENTIAL
~PARAMETER INFORMATION
#MNEM.UNIT          VALUE    DESCRIPTION
#----------   ------------   ------------------------------
 PD  .                 GL:   PERMANENT DATUM
 EPD .F              5242:   ELEVATION PERMANENT DATUM
 LMF .                 KB:   LOG MEASURED FROM
 DAPD.F                13:   FEET ABOVE PERMANENT DATUM
 DMF .                 KB:   DRILLING MEASURED FROM
 EKB .F              5255:   KELLING BUSHING
 EGL .F              5242:   GROUND LEVEL
 DATE.        28-JUL-1985:   RUN DATE
 RUN .                  1:   RUN NUMBER
 DD  .F              3451:   DEPTH DRILLER
 DL  .F              3451:   DEPTH LOGGER
 BLI .F              3449:   BOTTOM LOG INTERVAL
 CS  .IN            8.625:   CASING SIZE
 CBD .F               688:   CASING BOTTOM DRILLER
 CBL .F               686:   CASING BOTTOM LOGGER
 BS  .IN            7.875:   BIT SIZE
 BSD .F              3451:   BIT SIZE AT DEPTH
 DFT .            KCL GEL:   DRILLING FLUID TYPE
 DFD .                8.9:   DRILLING FLUID DENSITY
 DFV .                 40:   DRILLING FLUID VISCOSITY
 DFPH.                8.0:   DRILLING FLUID PH
 DFL .                 10:   DRILLING FLUID LOSS
 MSS .           FLOWLINE:   MUD SAMPLE SOURCE
 RMS .OHMM           0.87:   RESISTIVITY MUD SAMPLE
 MST .F                92:   MUD SAMPLE TEMPERATURE
 RMF .OHMM             65:   RESISTIVITY MUD FILTRATE SAMPLE
 MFST.F                92:   MUD FILTRATE SAMPLE TEMPERATURE
 RMC .OHMM           1.09:   RESISTIVITY MUD CAKE
 MCST.F                92:   MUD CAKE SAMPLE TEMPERATURE
 MFSS.               CALC:   MUD FILTRATE SAMPLE SOURCE
 MCSS.               CALC:   MUD CAKE SAMPLE SOURCE
 RMB .OHMM            .66:   RESISTIVITY MUD AT BHT
 BHT .F               121:   BOTTOM HOLE TEMPERATURE
 TCS .HRS               4:   TIME CURCULATED STOPPED
 MRT .F               121:   MAXIMUM RECORDED TEMPERATURE
 LUN .               6264:   LOGGING UNIT NUMBER
 LUL .               GLTE:   LOGGING UNIT LOCATION
 ENGI.           FAHLSING:   RECORDING ENGINEER
 WITN.             STRONG:   WITNESSED BY
 CLNT.            A2DTECH:   CLIENT CODE
 ORIG.        2" 5" PRINT:   ORIGIN OF DATA
 UWI .       490251104400:   UNIQUE WELL ID
 DICO. A2D Technologies, Inc.:   DIGITIZING COMPANY
 R1  . POROSITY WITH SANDSTONE:   REMARKS 1
~OTHER INFORMATION
~A    DEPT    PORD        CNC       CORR        DEN         AC       CALR         GRR      RFOC       RILD       RILM        SPR   
# ...
 1253.5000  -999.2500  -999.2500  -999.2500  -999.2500  -999.2500    10.9774   100.0915     6.9508     6.9287     6.3940   -49.3741
 1254.0000  -999.2500  -999.2500  -999.2500  -999.2500  -999.2500    10.9925   100.0937     6.9512     6.8807     6.3945   -49.3711
 1254.5000  -999.2500  -999.2500  -999.2500  -999.2500  -999.2500    11.0075    99.6442     6.9517     6.8807     6.3949   -49.3681
 1255.0000  -999.2500  -999.2500  -999.2500  -999.2500  -999.2500    11.0246    98.2910     6.9039     6.8807     6.3954   -49.3652
 1255.5000  -999.2500  -999.2500  -999.2500  -999.2500  -999.2500    11.0555    97.6149     6.9045     6.8807     6.3515   -49.3622
 1256.0000  -999.2500  -999.2500  -999.2500  -999.2500  -999.2500    11.0980    98.7473     6.8570     6.8807     6.3079   -49.3592
 1256.5000  -999.2500  -999.2500  -999.2500  -999.2500  -999.2500    11.1282   100.3308     6.8576     6.8807     6.2646   -49.3562
 1257.0000  -999.2500  -999.2500  -999.2500  -999.2500  -999.2500    11.1885   101.9144     6.8580     6.8807     6.2216   -49.3532
 1257.5000  -999.2500  -999.2500  -999.2500  -999.2500  -999.2500    11.2338   102.3679     6.9064     6.8807     6.1789   -49.3502
 1258.0000  -999.2500  -999.2500  -999.2500  -999.2500  -999.2500    11.2790   100.1116     7.0036     6.8807     6.1793   -49.3472
 1258.5000  -999.2500  -999.2500  -999.2500  -999.2500  -999.2500    11.3243   100.1139     7.0530     6.8807     6.1797   -49.3443
 1259.0000  -999.2500  -999.2500  -999.2500  -999.2500  -999.2500    11.3695   100.3420     6.9560     6.8331     6.1801   -49.4924
 1259.5000  -999.2500  -999.2500  -999.2500  -999.2500  -999.2500    11.3846    99.4406     6.8128     6.7857     6.1377   -49.6405
 1260.0000  -999.2500  -999.2500  -999.2500  -999.2500  -999.2500    11.3846   101.4760     6.6726     6.6920     6.1383   -49.9395
 1260.5000  -999.2500  -999.2500  -999.2500  -999.2500  -999.2500    11.3544   103.7373     6.6268     6.6457     6.1387   -49.9365
 1261.0000  -999.2500  -999.2500  -999.2500  -999.2500  -999.2500    11.2338   103.7919     6.6272     6.5539     6.1391   -49.9336
 1261.5000  -999.2500  -999.2500  -999.2500  -999.2500  -999.2500    11.0980    97.4164     6.6277     6.5085     6.1395   -49.9305
 1262.0000  -999.2500  -999.2500  -999.2500  -999.2500  -999.2500    11.0226    94.2469     6.6744     6.5085     6.1399   -49.9093
 1262.5000  -999.2500  -999.2500  -999.2500  -999.2500  -999.2500    10.9925    95.7084     6.7215     6.5085     6.0977   -49.7734
 1263.0000  -999.2500  -999.2500  -999.2500  -999.2500  -999.2500    10.9925   100.7286     6.5813     6.5085     6.0982   -49.6187
 1263.5000  -999.2500  -999.2500  -999.2500  -999.2500  -999.2500    10.9925   103.5248     6.5379     6.5085     6.0986   -49.4647
 1264.0000  -999.2500  -999.2500  -999.2500  -999.2500  -999.2500    10.9925   100.8167     6.5384     6.5539     6.1416   -49.3107
 1264.5000  -999.2500  -999.2500  -999.2500  -999.2500  -999.2500    10.9925    96.0750     6.5388     6.5539     6.1421   -49.1566
 1265.0000  -999.2500  -999.2500  -999.2500  -999.2500  -999.2500    11.0075    93.1404     6.5394     6.5539     6.1854   -49.0026
 1265.5000  -999.2500  -999.2500  -999.2500  -999.2500  -999.2500    11.0075    92.4644     6.5855     6.5996     6.1858   -48.8485
 1266.0000  -999.2500  -999.2500  -999.2500  -999.2500  -999.2500    11.0075    94.0485     6.6319     6.5996     6.2294   -48.8455
 1266.5000  -999.2500  -999.2500  -999.2500  -999.2500  -999.2500    11.0075    94.5020     6.7253     6.6457     6.2733   -48.8426
 1267.0000  -999.2500  -999.2500  -999.2500  -999.2500  -999.2500    11.0075    93.1494     6.7258     6.6457     6.3616   -48.8396
 1267.5000  -999.2500  -999.2500  -999.2500  -999.2500  -999.2500    11.0075    94.7330     6.7262     6.6920     6.4065   -48.9884
 1268.0000  -999.2500  -999.2500  -999.2500  -999.2500  -999.2500    11.0075    97.2201     6.7267     6.6920     6.4517   -49.2875
 1268.5000  -999.2500  -999.2500  -999.2500  -999.2500  -999.2500    11.0075    98.5772     6.7272     6.6920     6.4971   -49.5859
 1269.0000  -999.2500  -999.2500  -999.2500  -999.2500  -999.2500    10.9925    97.6758     6.7276     6.6920     6.5429   -49.8858
 1269.5000  -999.2500  -999.2500  -999.2500  -999.2500  -999.2500    10.9774    98.5822     6.7750     6.6920     6.6362   -50.0332
 1270.0000  -999.2500  -999.2500  -999.2500  -999.2500  -999.2500    10.9170    99.4881     6.8228     6.7857     6.7308   -50.1813
 1270.5000  -999.2500  -999.2500  -999.2500  -999.2500  -999.2500    10.8718    96.5536     6.9189     6.8331     6.8232   -50.0271
 1271.0000  -999.2500  -999.2500  -999.2500  -999.2500  -999.2500    10.8115    89.7787     6.9677     6.8807     6.8787   -49.8731
 1271.5000  -999.2500  -999.2500  -999.2500  -999.2500  -999.2500    10.7360    84.8111     7.0168     6.9287     6.9682   -49.7190
 1272.0000  -999.2500  -999.2500  -999.2500  -999.2500  -999.2500    10.6606    83.6838     7.0173     6.9770     7.0663   -49.4058
 1272.5000  -999.2500  -999.2500  -999.2500  -999.2500  -999.2500    10.6003    84.3637     7.0667     7.0257     7.1161   -48.9577
 1273.0000  -999.2500  -999.2500  -999.2500  -999.2500  -999.2500    10.5551    87.0768     7.1166     7.0747     7.1663   -48.5015
 1273.5000  -999.2500  -999.2500  -999.2500  -999.2500  -999.2500    10.5249    90.4924     7.1170     7.1241     7.2672   -48.0447
 1274.0000  -999.2500  -999.2500  -999.2500  -999.2500  -999.2500    10.4947    93.2169     7.1175     7.1738     7.3184   -48.0417
 1274.5000  -999.2500  -999.2500  -999.2500  -999.2500  -999.2500    10.4646    95.0455     7.1180     7.2742     7.4215   -48.3409
 1275.0000  -999.2500  -999.2500  -999.2500  -999.2500  -999.2500    10.4344    95.8961     7.1682     7.3249     7.5260   -48.6400
 1275.5000  -999.2500  -999.2500  -999.2500  -999.2500  -999.2500    10.4186    96.5765     7.2207     7.4275     7.6319   -48.7888
 1276.0000  -999.2500  -999.2500  -999.2500  -999.2500  -999.2500    10.3891    97.2564     7.3204     7.4793     7.6857   -48.9369
 1276.5000  -999.2500  -999.2500  -999.2500  -999.2500  -999.2500    10.3741    97.9364     7.3782     7.5840     7.7940   -48.9331
 1277.0000  -999.2500  -999.2500  -999.2500  -999.2500  -999.2500    10.3590    98.6163     7.4758     7.6905     7.8489   -48.9302
 1277.5000  -999.2500  -999.2500  -999.2500  -999.2500  -999.2500    10.3439    99.2963     7.5812     7.8005     7.9594   -48.7761
 1278.0000  -999.2500  -999.2500  -999.2500  -999.2500  -999.2500    10.3137    97.7172     7.6879     7.9122     8.0155   -48.7731
 1278.5000  -999.2500  -999.2500  -999.2500  -999.2500  -999.2500    10.2986    90.7164     7.7421     8.0254     8.0720   -48.7701
 1279.0000  -999.2500  -999.2500  -999.2500  -999.2500  -999.2500    10.2986    86.4265     7.8511     8.1401     8.1857   -48.7672
 1279.5000  -999.2500  -999.2500  -999.2500  -999.2500  -999.2500    10.2836    86.2022     7.9065     8.2437     8.3009   -48.7642
 1280.0000  -999.2500  -999.2500  -999.2500  -999.2500  -999.2500    10.2836    87.3346     7.9622     8.3012     8.3595   -48.7612
 1280.5000  -999.2500  -999.2500  -999.2500  -999.2500  -999.2500    10.2836    87.7886     8.0184     8.3591     8.4772   -48.9092
 1281.0000  -999.2500  -999.2500  -999.2500  -999.2500  -999.2500    10.2836    86.4354     8.1313     8.4175     8.5369   -48.9063
 1281.5000  -999.2500  -999.2500  -999.2500  -999.2500  -999.2500    10.2836    85.5340     8.1886     8.4762     8.6009   -49.0543
 1282.0000  -999.2500  -999.2500  -999.2500  -999.2500  -999.2500    10.2685    87.3435     8.1891     8.5948     8.7182   -49.2024
 1282.5000  -999.2500  -999.2500  -999.2500  -999.2500  -999.2500    10.2534    89.8307     8.1897     8.6548     8.7796   -49.1994
 1283.0000  -999.2500  -999.2500  -999.2500  -999.2500  -999.2500    10.2081    90.7998     8.3050     8.7152     8.8417   -49.1963
 1283.5000  -999.2500  -999.2500  -999.2500  -999.2500  -999.2500    10.1931    86.6725     8.3636     8.7760     8.9040   -49.1933
