~VERSION INFORMATION
 VERS.                2.0:   CWLS LOG ASCII STANDARD - VERSION 2.0
 WRAP.                 NO:   ONE LINE PER DEPTH STEP
~WELL INFORMATION
#MNEM.UNIT      DATA TYPE    INFORMATION
#----------   ------------   ------------------------------
 STRT.F          695.0000:   START DEPTH
 STOP.F         1588.0000:   STOP DEPTH
 STEP.F            0.5000:   STEP LENGTH
 NULL.          -999.2500:   NO VALUE
 COMP. FENIX & SCISSON INC:   COMPANY
 WELL. 13 SHX 10 STX #13-10:   WELL
 FLD .             TEAPOT:   FIELD
 LOC .      S10 T38N R78W:   LOCATION
 CNTY.            NATRONA:   COUNTY
 STAT.            WYOMING:   STATE
 CTRY. UNITED STATES OF AMERICA:   COUNTRY
 SRVC.            Unknown:   SERVICE COMPANY
 DATE.        22-JUL-1979:   LOGDATE
 API .       490251078700:   API NUMBER
~CURVE INFORMATION
#MNEM.UNIT       API CODE    CURVE DESCRIPTION
#----------   ------------   ------------------------------
 DEPT.F                  :   
 CORR.G/C3   45 356 01 00:   DENSITY CORRECTION
 RHOB.G/C3   45 350 01 00:   BULK DENSITY
 CALD.IN     45 280 60 00:   CALIPER
 GRD .GAPI   45 310 01 00:   GAMMA RAY FROM DENSITY LOG
 DPHI.DEC    45 890 12 00:   DENSITY POROSITY SANDSTONE
~PARAMETER INFORMATION
#MNEM.UNIT          VALUE    DESCRIPTION
#----------   ------------   ------------------------------
 PD  .                 GL:   PERMANENT DATUM
 EPD .F              5306:   ELEVATION PERMANENT DATUM
 LMF .                 DF:   LOG MEASURED FROM
 DAPD.F                 9:   FEET ABOVE PERMANENT DATUM
 DMF .                 KB:   DRILLING MEASURED FROM
 EKB .F              5316:   KELLING BUSHING
 EDF .F              5315:   DRILLING FLOOR
 EGL .F              5306:   GROUND LEVEL
 DATE.            7-22-79:   RUN DATE
 RUN .                  1:   RUN NUMBER
 DD  .F              1595:   DEPTH DRILLER
 DL  .F              1588:   DEPTH LOGGER
 BLI .F              1588:   BOTTOM LOG INTERVAL
 TLI .F               700:   TOP LOG INTERVAL
 CS  .IN            9.625:   CASING SIZE
 CBD .F               950:   CASING BOTTOM DRILLER
 CBL .F               950:   CASING BOTTOM LOGGER
 BS  .IN             8.75:   BIT SIZE
 BSD .F              1595:   BIT SIZE AT DEPTH
 DFT .                OIL:   DRILLING FLUID TYPE
 TCS .HRS               2:   TIME CURCULATED STOPPED
 LUN .               2959:   LOGGING UNIT NUMBER
 LUL .             CASPER:   LOGGING UNIT LOCATION
 ENGI.            ROLLINS:   RECORDING ENGINEER
 WITN.           DINSMORE:   WITNESSED BY
 CLNT.            A2DTECH:   CLIENT CODE
 ORIG.     1", 2.5" PRINT:   ORIGIN OF DATA
 UWI .       490251078700:   UNIQUE WELL ID
 DICO. A2D Technologies, Inc.:   DIGITIZING COMPANY
~OTHER INFORMATION
~A   DEPT     CORR       RHOB       CALD         GRD      DPHI   
# ...
 1549.0000     0.0646     2.5372     7.9843   119.0800     0.0130
 1549.5000     0.0686     2.5347     8.0008   115.2692     0.0106
 1550.0000     0.0847     2.5428     8.0173   112.6724     0.0065
 1550.5000     0.1028     2.5466     8.0339   116.2679     0.0061
 1551.0000     0.1035     2.5317     8.0502   119.5050     0.0146
 1551.5000     0.0913     2.5137     8.0667   117.5210     0.0278
 1552.0000     0.0671     2.4894     8.0841   113.7983     0.0382
 1552.5000     0.0448     2.4974     8.0949   110.0930     0.0298
 1553.0000     0.0324     2.5157     8.0972   106.3385     0.0196
 1553.5000     0.0313     2.5336     8.1004   107.6417     0.0060
 1554.0000     0.0311     2.5446     8.1037   112.9387     0.0079
 1554.5000     0.0229     2.5350     8.1067   115.4799     0.0205
 1555.0000     0.0121     2.5128     8.1100   114.6923     0.0349
 1555.5000     0.0066     2.4927     8.1131   118.3790     0.0357
 1556.0000     0.0086     2.4924     8.1163   115.3457     0.0331
 1556.5000     0.0099     2.4975     8.1194   110.3457     0.0305
 1557.0000     0.0112     2.5045     8.1228   108.2807     0.0280
 1557.5000     0.0126     2.5120     8.1258   107.4292     0.0255
 1558.0000     0.0140     2.5125     8.1287   110.7884     0.0242
 1558.5000     0.0153     2.5094     8.1335   113.9290     0.0257
 1559.0000     0.0177     2.5062     8.1199   117.4195     0.0255
 1559.5000     0.0199     2.5086     8.0964   119.4672     0.0244
 1560.0000     0.0224     2.5126     8.0738   117.8737     0.0234
 1560.5000     0.0216     2.5161     8.0540   112.1892     0.0250
 1561.0000     0.0174     2.5080     8.0307   112.7976     0.0291
 1561.5000     0.0132     2.5002     8.0050   109.8579     0.0331
 1562.0000     0.0140     2.4973     7.9678   106.5834     0.0343
 1562.5000     0.0246     2.5021     7.9730   106.0058     0.0317
 1563.0000     0.0352     2.5059     7.9909   105.8246     0.0289
 1563.5000     0.0435     2.5144     8.0181   107.1134     0.0261
 1564.0000     0.0673     2.5268     8.0459   110.2494     0.0181
 1564.5000     0.1004     2.5399     8.0726   109.2270     0.0084
 1565.0000     0.1325     2.5547     8.0996   107.3793    -0.0014
 1565.5000     0.1664     2.5726     8.1265   116.2640    -0.0095
 1566.0000     0.1909     2.5682     8.1331   122.1884     0.0029
 1566.5000     0.1508     2.4803     8.1223   129.6990     0.0369
 1567.0000     0.0807     2.4319     8.1111   136.1841     0.0716
 1567.5000     0.0264     2.4392     8.0995   142.5694     0.0653
 1568.0000     0.0357     2.4832     8.0855   153.4492     0.0481
 1568.5000     0.0554     2.5204     8.0670   156.8827     0.0211
 1569.0000     0.0763     2.5317     8.0484  -999.2500     0.0148
 1569.5000     0.0819     2.5192     8.0306  -999.2500     0.0179
 1570.0000     0.0527     2.4905     8.0111  -999.2500     0.0328
 1570.5000     0.0227     2.4573     8.0260  -999.2500     0.0505
 1571.0000     0.0061     2.4621     8.0527  -999.2500     0.0513
 1571.5000     0.0160     2.4670     8.0766  -999.2500     0.0501
 1572.0000     0.0245     2.4743     8.1273  -999.2500     0.0480
 1572.5000     0.0255     2.4776     8.2136  -999.2500     0.0456
 1573.0000     0.0197     2.4757     8.2977  -999.2500     0.0459
 1573.5000     0.0117     2.4766     8.3823  -999.2500     0.0465
 1574.0000     0.0126     2.4810     8.4668  -999.2500     0.0390
 1574.5000     0.0380     2.5047     8.5514  -999.2500     0.0303
 1575.0000     0.0675     2.5258     8.6369  -999.2500     0.0216
 1575.5000     0.1031     2.5392     8.7045  -999.2500     0.0128
 1576.0000     0.1380     2.5512     8.7296  -999.2500     0.0041
 1576.5000     0.1777     2.5622     8.7557  -999.2500    -0.0067
 1577.0000     0.2391     2.5840     8.7808  -999.2500    -0.0227
 1577.5000     0.3162     2.6154     8.8070  -999.2500    -0.0387
 1578.0000     0.3464     2.6430     8.8312  -999.2500    -0.0485
 1578.5000     0.3688     2.6309     8.8579  -999.2500    -0.0385
 1579.0000     0.3314     2.5921     8.8612  -999.2500    -0.0258
 1579.5000     0.2400     2.5355     8.8299  -999.2500     0.0132
 1580.0000     0.1621     2.4709     8.7246  -999.2500     0.0484
 1580.5000     0.0911     2.4264     8.6161  -999.2500     0.0724
 1581.0000     0.0541     2.4298     8.3891  -999.2500     0.0724
 1581.5000     0.0510     2.4352     8.1438  -999.2500     0.0707
 1582.0000     0.0448     2.4316     7.9371  -999.2500     0.0714
 1582.5000     0.0384     2.4257     7.9336  -999.2500     0.0740
 1583.0000     0.0330     2.4207     7.9289  -999.2500     0.0766
 1583.5000     0.0352     2.4244     7.9313  -999.2500     0.0675
 1584.0000     0.0448     2.4535     7.9310  -999.2500     0.0544
 1584.5000     0.0561     2.4848     7.9307  -999.2500     0.0408
 1585.0000     0.0548     2.4779     7.9312  -999.2500     0.0414
 1585.5000     0.0429     2.4767     7.9314  -999.2500     0.0421
 1586.0000     0.0493     2.4905     7.9313  -999.2500     0.0362
 1586.5000     0.0602     2.5057     7.9314  -999.2500     0.0254
 1587.0000     0.0842     2.5213     7.9323  -999.2500     0.0146
 1587.5000     0.1102     2.5367     7.9292  -999.2500     0.0083
 1588.0000     0.1358     2.5477     7.9493  -999.2500     0.0051
