~VERSION INFORMATION
 VERS.                2.0:   CWLS LOG ASCII STANDARD - VERSION 2.0
 WRAP.                 NO:   ONE LINE PER DEPTH STEP
~WELL INFORMATION
#MNEM.UNIT      DATA TYPE    INFORMATION
#----------   ------------   ------------------------------
 STRT.F          276.0000:   START DEPTH
 STOP.F         2768.0000:   STOP DEPTH
 STEP.F            0.5000:   STEP LENGTH
 NULL.          -999.2500:   NO VALUE
 COMP.       TESORD PETRO:   COMPANY
 WELL. AX-20 NPR #3 #83-20:   WELL
 FLD .            WILDCAT:   FIELD
 LOC .      S20 T39N R78W:   LOCATION
 CNTY.            NATRONA:   COUNTY
 STAT.            WYOMING:   STATE
 CTRY. UNITED STATES OF AMERICA:   COUNTRY
 SRVC.       Schlumberger:   SERVICE COMPANY
 DATE.        20-JUL-1971:   LOGDATE
 API .       490251022000:   API NUMBER
~CURVE INFORMATION
#MNEM.UNIT       API CODE    CURVE DESCRIPTION
#----------   ------------   ------------------------------
 DEPT.F                  :   
 SPR .MV     05 010 01 00:   SPONTANEOUS POTENTIAL FROM RES.
 ASN .OHMM   05 041 16 00:   AMPLIFIED SHORT NORMAL 16"
 ILD .OHMM   05 120 46 00:   INDUCTION LOG DEEP
 CALD.IN     45 280 60 00:   CALIPER FROM DENSITY
 CORR.G/C3   45 356 01 00:   DENSITY CORRECTION
 DPHI.DEC    45 890 12 00:   DENSITY POROSITY SANDSTONE
 GRD .GAPI   45 310 01 00:   GAMMA RAY FROM DENSITY LOG
 RHOB.G/C3   45 350 01 00:   BULK DENSITY
 CILD.MMHO   05 110 46 00:   CONDUCTIVITY INDUCTION LOG DEEP
~PARAMETER INFORMATION
#MNEM.UNIT          VALUE    DESCRIPTION
#----------   ------------   ------------------------------
 PD  .                 GL:   PERMANENT DATUM
 EPD .F              4994:   ELEVATION PERMANENT DATUM
 LMF .                 KB:   LOG MEASURED FROM
 DAPD.F                11:   FEET ABOVE PERMANENT DATUM
 DMF .                 KB:   DRILLING MEASURED FROM
 EKB .F              5005:   KELLING BUSHING
 EGL .F              4994:   GROUND LEVEL
 DATE.        20-JUL-1971:   RUN DATE
 RUN .                  1:   RUN NUMBER
 DD  .F              2770:   DEPTH DRILLER
 DL  .F              2769:   DEPTH LOGGER
 BLI .F              2768:   BOTTOM LOG INTERVAL
 TLI .F               276:   TOP LOG INTERVAL
 CS  .IN            10.75:   CASING SIZE
 CBD .F               274:   CASING BOTTOM DRILLER
 CBL .F               276:   CASING BOTTOM LOGGER
 BS  .IN                9:   BIT SIZE
 BSD .F              2770:   BIT SIZE AT DEPTH
 DFT .      FRESH GEL MUD:   DRILLING FLUID TYPE
 DFD .                 10:   DRILLING FLUID DENSITY
 DFV .                 82:   DRILLING FLUID VISCOSITY
 DFPH.                  8:   DRILLING FLUID PH
 DFL .                4.8:   DRILLING FLUID LOSS
 MSS .           FLOWLINE:   MUD SAMPLE SOURCE
 RMS .OHMM            1.8:   RESISTIVITY MUD SAMPLE
 MST .F                73:   MUD SAMPLE TEMPERATURE
 RMF .OHMM            1.4:   RESISTIVITY MUD FILTRATE SAMPLE
 MFST.F                73:   MUD FILTRATE SAMPLE TEMPERATURE
 MFSS.               MEAS:   MUD FILTRATE SAMPLE SOURCE
 RMB .OHMM           1.15:   RESISTIVITY MUD AT BHT
 BHT .F               116:   BOTTOM HOLE TEMPERATURE
 TCS .HRS               2:   TIME CURCULATED STOPPED
 MRT .F               116:   MAXIMUM RECORDED TEMPERATURE
 LUN .               7037:   LOGGING UNIT NUMBER
 LUL .               CSPR:   LOGGING UNIT LOCATION
 ENGI.             JENSEN:   RECORDING ENGINEER
 WITN.                MAY:   WITNESSED BY
 CLNT.            A2DTECH:   CLIENT CODE
 ORIG.     1", 2.5" PRINT:   ORIGIN OF DATA
 UWI .       490251022000:   UNIQUE WELL ID
 DICO. A2D Technologies, Inc.:   DIGITIZING COMPANY
~OTHER INFORMATION
~A   DEPT      SPR          ASN        ILD     CALD       CORR       DPHI        GRD       RHOB       CILD   
# ...
 2247.0000   -23.7224     8.4292     6.5935     9.3346     0.0164     0.0932   121.2127     2.5138  -999.2500
 2247.5000   -23.7613     8.3386     6.4398     9.3336     0.0091     0.0934   119.4061     2.4958  -999.2500
 2248.0000   -24.0239     8.2866     6.4353     9.3624     0.0016     0.0934   118.0472     2.4866  -999.2500
 2248.5000   -24.0254     8.2469     6.4309     9.3614    -0.0089     0.0934   118.4795     2.4987  -999.2500
 2249.0000   -24.0269     8.2160     6.4264     9.3603     0.0001     0.0874   118.9119     2.5112  -999.2500
 2249.5000   -24.0284     8.1948     6.4220     9.3593     0.0284     0.0742   116.6573     2.5238  -999.2500
 2250.0000   -24.0299     8.1941     6.4175     9.3582     0.0313     0.0671   113.9552     2.5309  -999.2500
 2250.5000   -24.0313     8.1830     6.5623     9.3571     0.0179     0.0647   113.4918     2.5329  -999.2500
 2251.0000   -24.0328     8.1627     6.5579     9.3561     0.0148     0.0749   113.9530     2.5297  -999.2500
 2251.5000   -23.9770     8.1919     6.5534     9.3551     0.0148     0.0850   115.3397     2.5098  -999.2500
 2252.0000   -23.6109     8.1799     6.6985     9.3540     0.0163     0.0803   118.9361     2.5128  -999.2500
 2252.5000   -23.4008     8.1375     6.6938     9.3530     0.0237     0.0725   120.5939     2.5283  -999.2500
 2253.0000   -23.1906     8.0584     6.5401     9.3519     0.0386     0.0629   119.1898     2.5533  -999.2500
 2253.5000   -23.1448     7.9558     6.3864     9.3509     0.0520     0.0566   117.3756     2.5583  -999.2500
 2254.0000   -23.6139     7.8350     6.2327     9.3498     0.0146     0.0695   116.4569     2.5335  -999.2500
 2254.5000   -24.0433     7.7568     6.0790     9.3486     0.0280     0.0737   115.6052     2.5358  -999.2500
 2255.0000   -24.0448     7.6960     5.9253     9.3476     0.0384     0.0731   115.5151     2.5478  -999.2500
 2255.5000   -23.7478     7.6220     5.9208     9.3465     0.0354     0.0671   112.3955     2.5461  -999.2500
 2256.0000   -23.7496     7.5013     5.7671     9.3455     0.0279     0.0629   108.3046     2.5427  -999.2500
 2256.5000   -24.0495     7.3806     5.6134     9.3444     0.0232     0.0630   107.9306     2.5490  -999.2500
 2257.0000   -24.0510     7.3038     5.6089     9.3434     0.0263     0.0695   109.1238     2.5385  -999.2500
 2257.5000   -24.3510     7.3903     5.6045     9.3424     0.0233     0.0749   112.4888     2.5236  -999.2500
 2258.0000   -24.3525     7.4661     5.6000     9.3413     0.0113     0.0773   115.0498     2.5206  -999.2500
 2258.5000   -24.3540     7.3603     5.5955     9.3403     0.0292     0.0767   115.0321     2.5250  -999.2500
 2259.0000   -24.0567     7.2697     5.5910     9.3393     0.0396     0.0750   115.0164     2.5310  -999.2500
 2259.5000   -24.0585     7.2402     5.5866     9.3382     0.0112     0.0750   113.0361     2.5220  -999.2500
 2260.0000   -23.7614     7.2537     5.5821     9.3372     0.0080     0.0792   105.5847     2.5025  -999.2500
 2260.5000   -23.7629     7.3289     5.5776     9.3361     0.0216     0.0887   108.1405     2.5040  -999.2500
 2261.0000   -23.4657     7.4345     5.7226     9.3351     0.0260     0.0690   112.0281     2.5264  -999.2500
 2261.5000   -23.1689     7.5706     5.7331     9.3341     0.0409     0.0654   115.4529     2.5862  -999.2500
 2262.0000   -23.1704     7.7797     5.8795     9.3330     0.0454     0.0726   117.1643     2.5458  -999.2500
 2262.5000   -23.1719     8.0584     6.1753     9.3320     0.0244     0.0858   114.8692     2.5129  -999.2500
 2263.0000   -22.8746     8.4955     6.5123     9.3011     0.0260     0.1009   106.4277     2.4770  -999.2500
 2263.5000   -22.8763     9.0096     7.4303     9.1806     0.0454     0.1122    95.3287     2.4575  -999.2500
 2264.0000   -23.1763     9.7252     8.7761     8.9707     0.0431     0.1231    75.8410     2.4291  -999.2500
 2264.5000   -23.7748    12.1326    10.3226     8.8502     0.0151     0.1395    62.5009     2.4007  -999.2500
 2265.0000   -24.9703    16.7686    12.8686     8.7895     0.0268     0.1515    58.6343     2.3947  -999.2500
 2265.5000   -26.1659    21.3948    17.4898     8.8481     0.0451     0.1637    58.8575     2.3872  -999.2500
 2266.0000   -27.0629    26.0209    23.2602     8.8471     0.0354     0.1709    60.6479     2.3752  -999.2500
 2266.5000   -27.3629    28.5575    31.5424     8.8461     0.0192     0.1756    59.8632     2.3602  -999.2500
 2267.0000   -27.6628    29.7538    37.6879     8.8152     0.0137     0.1758    57.6461     2.3587  -999.2500
 2267.5000   -27.9628    30.5038    40.2450     8.8141     0.0183     0.1655    59.0412     2.3694  -999.2500
 2268.0000   -28.5613    31.2457    41.1827     8.7534     0.0434     0.1613    61.8954     2.3798  -999.2500
 2268.5000   -28.5628    31.5504    39.4478     8.7225     0.0392     0.1667    63.2231     2.3777  -999.2500
 2269.0000   -28.5643    31.9936    37.7242     8.7215     0.0142     0.1805    60.5210     2.3638  -999.2500
 2269.5000   -28.5658    32.1436    36.6049     8.7204     0.0135     0.1877    62.2965     2.3506  -999.2500
 2270.0000   -28.5673    32.2935    36.0448     8.7492     0.0275     0.1763    68.1019     2.3449  -999.2500
 2270.5000   -28.5688    32.5814    35.5907     8.8378     0.0533     0.1416    66.2953     2.3606  -999.2500
 2271.0000   -28.5703    32.5935    35.2861     8.9263     0.0686     0.1391    64.4887     2.4152  -999.2500
 2271.5000   -28.5717    32.7291    34.7821     8.9551     0.0660     0.1553    65.3687     2.4198  -999.2500
 2272.0000   -28.5732    32.7284    34.1771     8.9839     0.0218     0.1883    65.8030     2.3715  -999.2500
 2272.5000   -28.2761    32.7451    33.5721     8.9821    -0.0017     0.1949    64.8898     2.3373  -999.2500
 2273.0000   -28.5762    32.8762    33.1717     8.9520     0.0148     0.1787    63.5310     2.3451  -999.2500
 2273.5000   -28.5777    32.8753    32.8668     8.9509     0.0435     0.1608    59.4856     2.3837  -999.2500
 2274.0000   -28.8777    32.8746    32.6209     8.9499     0.0549     0.1662    55.8880     2.3958  -999.2500
 2274.5000   -28.8792    32.8739    32.6164     8.9488     0.0410     0.1727    54.9769     2.3804  -999.2500
 2275.0000   -29.1792    32.8731    32.6119     8.9478     0.0325     0.1763    54.0659     2.3713  -999.2500
 2275.5000   -29.1807    32.8461    32.6075     8.9467     0.0503     0.1752    57.6324     2.3677  -999.2500
 2276.0000   -29.4806    32.7224    32.8179     8.9456     0.0503     0.1710    58.9612     2.3643  -999.2500
 2276.5000   -29.4821    32.6922    32.9644     8.9446     0.0611     0.1686    56.7058     2.3681  -999.2500
 2277.0000   -29.7821    32.5716    33.0418     8.9436     0.0749     0.1655    56.6903     2.3802  -999.2500
 2277.5000   -29.7836    32.5385    33.1081     8.9425     0.0845     0.1605    56.6747     2.4019  -999.2500
 2278.0000   -29.7851    32.4209    33.1821     8.9415     0.0775     0.1511    57.5547     2.4013  -999.2500
 2278.5000   -30.0851    32.2709    33.1776     8.9404     0.0661     0.1540    55.3004     2.3860  -999.2500
 2279.0000   -30.0866    32.2701    33.0239     8.9394     0.0620     0.1603    57.0759     2.3821  -999.2500
 2279.5000   -30.0881    32.2694    33.0194     8.9384     0.0655     0.1608    59.2991     2.3911  -999.2500
 2280.0000   -30.0896    32.2687    33.0149     8.9373     0.0767     0.1494    60.6269     2.4099  -999.2500
 2280.5000   -30.0910    32.2679    33.0104     8.9064     0.0806     0.1423    61.9620     2.4227  -999.2500
 2281.0000   -30.0925    32.3100    33.0890     8.9054     0.0590     0.1482    63.3121     2.4005  -999.2500
 2281.5000   -30.0940    32.4599    33.1507     8.9044     0.0402     0.1591    65.9534     2.3865  -999.2500
 2282.0000   -29.7970    32.6099    33.3820     8.9033     0.0644     0.1633    63.4887     2.4044  -999.2500
 2282.5000   -29.5000    32.7599    33.6779     8.8647     0.0751     0.1581    59.1678     2.4029  -999.2500
 2283.0000   -29.1880    33.0593    34.1812     8.8334     0.0666     0.1498    58.7426     2.3924  -999.2500
