~VERSION INFORMATION
 VERS.                2.0:   CWLS LOG ASCII STANDARD - VERSION 2.0
 WRAP.                 NO:   ONE LINE PER DEPTH STEP
~WELL INFORMATION
#MNEM.UNIT      DATA TYPE    INFORMATION
#----------   ------------   ------------------------------
 STRT.F           11.0000:   START DEPTH
 STOP.F          804.0000:   STOP DEPTH
 STEP.F            0.1000:   STEP LENGTH
 NULL.          -999.2500:   NO VALUE
 COMP. BROWN JOHN E&C INC:   COMPANY
 WELL. 72-1 STX-34 #72-34:   WELL
 FLD .             TEAPOT:   FIELD
 LOC .      S34 T39N R78W:   LOCATION
 CNTY.            NATRONA:   COUNTY
 STAT.            WYOMING:   STATE
 CTRY. UNITED STATES OF AMERICA:   COUNTRY
 SRVC.     Atlas Wireline:   SERVICE COMPANY
 DATE.        31-JAN-1992:   LOGDATE
 API .       490252250200:   API NUMBER
~CURVE INFORMATION
#MNEM.UNIT       API CODE    CURVE DESCRIPTION
#----------   ------------   ------------------------------
 DEPT.F                  :   
 GRR .GAPI   07 310 01 00:   GAMMA RAY
 RILD.OHMM   07 120 46 00:   INDUCTION LOG DEEP RESISTIVITY
 RILM.OHMM   07 120 44 00:   INDUCTION LOG MEDIUM RESISTIVITY
~PARAMETER INFORMATION
#MNEM.UNIT          VALUE    DESCRIPTION
#----------   ------------   ------------------------------
 PD  .                 GL:   PERMANENT DATUM
 EPD .F              5069:   ELEVATION PERMANENT DATUM
 LMF .                 KB:   LOG MEASURED FROM
 DAPD.F                10:   FEET ABOVE PERMANENT DATUM
 DMF .                 KB:   DRILLING MEASURED FROM
 EKB .F              5079:   KELLING BUSHING
 EDF .F              5078:   DRILLING FLOOR
 EGL .F              5069:   GROUND LEVEL
 DATE.        31-JAN-1992:   RUN DATE
 RUN .                  1:   RUN NUMBER
 DD  .F               814:   DEPTH DRILLER
 DL  .F               813:   DEPTH LOGGER
 BLI .F               804:   BOTTOM LOG INTERVAL
 CS  .IN            9.625:   CASING SIZE
 CBD .F               100:   CASING BOTTOM DRILLER
 CBL .F               104:   CASING BOTTOM LOGGER
 BS  .IN             8.75:   BIT SIZE
 BSD .F               814:   BIT SIZE AT DEPTH
 DFT .                AIR:   DRILLING FLUID TYPE
 MRT .F                90:   MAXIMUM RECORDED TEMPERATURE
 LUN .           HL- 6274:   LOGGING UNIT NUMBER
 LUL .             CASPER:   LOGGING UNIT LOCATION
 ENGI.             RAUTIO:   RECORDING ENGINEER
 WITN.        GARY STRONG:   WITNESSED BY
 CLNT.            A2DTECH:   CLIENT CODE
 ORIG.           5" PRINT:   ORIGIN OF DATA
 UWI .       490252250200:   UNIQUE WELL ID
 DICO. A2D Technologies, Inc.:   DIGITIZING COMPANY
~OTHER INFORMATION
~A   DEPT       GRR      RILD       RILM   
# ...
  193.0000   119.9516     6.2530     6.1654
  193.1000   119.9540     6.2884     6.2011
  193.2000   119.9565     6.3239     6.2717
  193.3000   119.9591     6.3596     6.2864
  193.4000   119.9613     6.3989     6.3062
  193.5000   120.1311     6.4819     6.3303
  193.6000   120.4897     6.5135     6.3368
  193.7000   120.9298     6.5739     6.4191
  193.8000   121.1813     6.6336     6.4819
  193.9000   121.4260     6.6710     6.5556
  194.0000   122.0453     6.7112     6.6301
  194.1000   122.5275     6.7466     6.6993
  194.2000   122.9191     6.8121     6.7399
  194.3000   123.6739     6.8526     6.8112
  194.4000   124.8270     6.8617     6.8615
  194.5000   125.4403     6.9002     6.8822
  194.6000   125.8860     6.8999     6.8821
  194.7000   126.0442     6.8995     6.8820
  194.8000   126.0466     6.8993     6.8819
  194.9000   126.0493     6.8990     6.8818
  195.0000   126.0514     6.9019     6.8817
  195.1000   125.8888     6.9468     6.8816
  195.2000   125.3211     6.9465     6.8815
  195.3000   124.1865     6.9707     6.8814
  195.4000   122.4303     7.0101     6.9140
  195.5000   121.4729     7.0497     6.9532
  195.6000   120.4924     7.0926     6.9926
  195.7000   119.8906     7.1297     7.0321
  195.8000   119.5083     7.1984     7.0757
  195.9000   118.7614     7.2611     7.1120
  196.0000   117.6041     7.3215     7.1798
  196.1000   117.4048     7.4469     7.2432
  196.2000   116.8727     7.4890     7.3017
  196.3000   116.1381     7.5975     7.4294
  196.4000   115.4646     7.6806     7.4704
  196.5000   115.1954     7.7239     7.5446
  196.6000   114.7586     7.7708     7.6304
  196.7000   114.2697     7.8734     7.6927
  196.8000   113.8864     7.9108     7.6987
  196.9000   113.5942     7.9280     7.8552
  197.0000   113.0893     7.9447     7.8914
  197.1000   112.8540     7.9896     7.9361
  197.2000   112.2493     8.0387     7.9969
  197.3000   111.6385     8.0383     8.0824
  197.4000   111.0823     8.0380     8.1335
  197.5000   110.3681     8.0377     8.1334
  197.6000   110.0785     8.0474     8.1634
  197.7000   109.8815     8.0934     8.2096
  197.8000   109.7803     8.0931     8.2474
  197.9000   109.8680     8.0928     8.2472
  198.0000   110.1160     8.0924     8.2471
  198.1000   110.3930     8.0920     8.2470
  198.2000   110.3952     8.0917     8.2469
  198.3000   110.3976     8.0913     8.2468
  198.4000   110.4000     8.0910     8.2456
  198.5000   110.4024     8.0633     8.1990
  198.6000   110.4049     8.0173     8.1891
  198.7000   109.4663     7.9715     8.1632
  198.8000   108.6645     7.9217     8.1319
  198.9000   108.0512     7.9214     8.1318
  199.0000   107.4329     7.8909     8.1317
  199.1000   106.4606     7.8656     8.0921
  199.2000   105.7257     7.8466     8.0749
  199.3000   105.5807     7.7556     8.0390
  199.4000   105.4435     7.7124     7.9555
  199.5000   105.2829     7.7010     7.9073
  199.6000   105.2595     7.6781     7.8657
  199.7000   104.9855     7.6221     7.8212
  199.8000   104.9876     7.5378     7.7567
  199.9000   104.9900     7.4872     7.6792
  200.0000   105.4164     7.4395     7.6357
  200.1000   106.4504     7.3815     7.5907
  200.2000   107.4844     7.3234     7.5457
  200.3000   108.5184     7.2653     7.5006
  200.4000   109.5524     7.2073     7.4556
  200.5000   110.5864     7.1374     7.4106
  200.6000   111.4116     7.0672     7.3656
  200.7000   111.6756     7.0248     7.3208
  200.8000   112.5567     6.9310     7.2725
  200.9000   112.5567     6.8984     7.2381
  201.0000   112.6990     6.8590     7.1721
  201.1000   112.8593     6.7913     7.1065
  201.2000   112.8298     6.6866     7.0468
  201.3000   112.5567     6.6452     6.8782
  201.4000   112.5567     6.5419     6.8416
  201.5000   112.2308     6.4814     6.7480
  201.6000   111.8450     6.4106     6.6155
  201.7000   111.5486     6.2849     6.4663
  201.8000   111.0439     6.1069     6.3188
  201.9000   110.5638     5.8686     6.1093
  202.0000   109.8877     5.6644     5.9152
  202.1000   109.2764     5.4568     5.5924
  202.2000   108.7132     5.2524     5.2429
  202.3000   107.9746     5.0665     4.9512
  202.4000   107.1104     4.7822     4.6542
  202.5000   106.9061     4.5731     4.4418
  202.6000   106.5119     4.3446     4.2041
  202.7000   106.0195     4.1462     4.0020
  202.8000   105.5976     3.9791     3.8350
  202.9000   105.5976     3.7961     3.6420
  203.0000   105.3725     3.5535     3.4413
  203.1000   105.4637     3.3888     3.2950
  203.2000   105.7099     3.2847     3.1967
  203.3000   106.0677     3.2052     3.1307
  203.4000   106.8079     3.1136     3.0797
  203.5000   107.5448     2.9923     3.0413
  203.6000   108.2836     2.8942     2.9499
  203.7000   109.0218     2.7905     2.8617
  203.8000   109.7602     2.7023     2.7606
  203.9000   110.5194     2.6285     2.6504
  204.0000   111.6490     2.5652     2.5906
  204.1000   113.3284     2.5112     2.5324
  204.2000   115.7595     2.4449     2.4754
  204.3000   118.2724     2.3889     2.4197
  204.4000   120.6089     2.3449     2.3652
  204.5000   123.7519     2.2922     2.3131
  204.6000   125.8263     2.2456     2.2691
  204.7000   127.8675     2.2050     2.2466
  204.8000   129.7201     2.1623     2.2130
  204.9000   131.3826     2.1297     2.1914
  205.0000   132.8536     2.1055     2.1864
  205.1000   134.0856     2.0791     2.1611
  205.2000   135.3160     2.0684     2.1372
  205.3000   136.8233     2.0645     2.1221
  205.4000   138.3010     2.0645     2.1037
  205.5000   139.2348     2.0644     2.0835
  205.6000   139.7882     2.0643     2.0726
  205.7000   140.4345     2.0642     2.0727
  205.8000   140.8549     2.0642     2.0727
  205.9000   141.2038     2.0705     2.0802
  206.0000   141.6036     2.0823     2.0970
  206.1000   141.6036     2.0941     2.1188
  206.2000   141.6036     2.1077     2.1315
  206.3000   141.2442     2.1675     2.1550
  206.4000   140.8751     2.1674     2.1797
  206.5000   140.5620     2.1673     2.2112
  206.6000   140.0696     2.1796     2.2420
  206.7000   139.4856     2.2017     2.2572
  206.8000   138.8844     2.2269     2.3178
  206.9000   138.2899     2.2606     2.3513
  207.0000   137.6222     2.3114     2.4348
  207.1000   136.6374     2.3567     2.5483
  207.2000   135.5522     2.4037     2.6694
  207.3000   134.6679     2.4591     2.8181
  207.4000   133.6830     2.5157     3.0232
  207.5000   132.4816     2.5736     3.2704
  207.6000   131.0565     2.6353     3.4508
  207.7000   129.8033     2.7085     3.5615
  207.8000   128.5946     2.8106     3.7032
  207.9000   127.1782     2.9336     3.8045
  208.0000   125.7010     3.0907     3.8946
  208.1000   124.0785     3.3059     4.0349
  208.2000   122.0766     3.5345     4.1810
  208.3000   119.2133     3.6537     4.3089
  208.4000   117.3587     3.7893     4.4984
  208.5000   115.7417     3.9209     4.7171
  208.6000   114.2309     4.0783     4.9458
  208.7000   112.0766     4.3895     5.1623
  208.8000   108.6233     4.5787     5.3642
  208.9000   105.4490     4.7542     5.5501
  209.0000   102.3428     4.9739     5.7439
  209.1000    99.8445     5.2571     5.8898
  209.2000    98.3359     5.5324     6.0457
  209.3000    98.3347     5.8587     6.2586
  209.4000    98.0884     6.0912     6.5446
  209.5000    97.6512     6.3866     6.8382
  209.6000    97.2935     6.7738     7.0894
  209.7000    96.9690     7.1911     7.3496
  209.8000    96.4766     7.5188     7.5655
  209.9000    95.9153     7.7499     7.7297
  210.0000    95.7035     7.9592     7.8628
  210.1000    95.3020     8.2039     8.0445
  210.2000    94.9086     8.5265     8.1575
  210.3000    94.6624     8.8297     8.2773
  210.4000    94.4024     9.0284     8.4359
  210.5000    93.9376     9.3170     8.6458
  210.6000    93.4452     9.6118     9.0410
  210.7000    92.9528     9.8720     9.2712
  210.8000    92.4605    10.0991     9.6123
  210.9000    91.9611    10.3687     9.9285
  211.0000    91.2225    10.4688    10.1331
  211.1000    90.4840    10.6261    10.2516
