~VERSION INFORMATION
 VERS.                2.0:   CWLS LOG ASCII STANDARD - VERSION 2.0
 WRAP.                 NO:   ONE LINE PER DEPTH STEP
~WELL INFORMATION
#MNEM.UNIT      DATA TYPE    INFORMATION
#----------   ------------   ------------------------------
 STRT.F           10.0000:   START DEPTH
 STOP.F          833.5000:   STOP DEPTH
 STEP.F            0.5000:   STEP LENGTH
 NULL.          -999.2500:   NO VALUE
 COMP. FENIX & SCISSON INC:   COMPANY
 WELL.       NPR 3 #46-11:   WELL
 FLD .             TEAPOT:   FIELD
 LOC .      S11 T38N R78W:   LOCATION
 CNTY.            NATRONA:   COUNTY
 STAT.            WYOMING:   STATE
 CTRY. UNITED STATES OF AMERICA:   COUNTRY
 SRVC.           BIRDWELL:   SERVICE COMPANY
 DATE.        17-DEC-1978:   LOGDATE
 API .       490251075600:   API NUMBER
~CURVE INFORMATION
#MNEM.UNIT       API CODE    CURVE DESCRIPTION
#----------   ------------   ------------------------------
 DEPT.F                  :   
 GRD .GAPI   45 310 01 00:   GAMMA RAY FROM DENSITY LOG
 CALD.IN     45 280 60 00:   CALIPER
 CORR.G/C3   45 356 01 00:   DENSITY CORRECTION
 DPHI.DEC    45 890 12 00:   DENSITY POROSITY SANDSTONE
 RHOB.G/C3   45 350 01 00:   BULK DENSITY
 SPR .MV     05 010 01 00:   SPONTANEOUS POTENTIAL FROM RES.
 SN  .OHMM   05 040 16 00:   SHORT NORMAL 16"
 IL  .OHMM   05 120 00 00:   INDUCTION LOG
~PARAMETER INFORMATION
#MNEM.UNIT          VALUE    DESCRIPTION
#----------   ------------   ------------------------------
 PD  .                 GL:   PERMANENT DATUM
 EPD .F              5193:   ELEVATION PERMANENT DATUM
 LMF .                 KB:   LOG MEASURED FROM
 DAPD.F                 4:   FEET ABOVE PERMANENT DATUM
 DMF .                 KB:   DRILLING MEASURED FROM
 EKB .F              5197:   KELLING BUSHING
 EGL .F              5193:   GROUND LEVEL
 DATE.           12-17-78:   RUN DATE
 RUN .                  1:   RUN NUMBER
 DD  .F               845:   DEPTH DRILLER
 DL  .F               834:   DEPTH LOGGER
 BLI .F               827:   BOTTOM LOG INTERVAL
 TLI .F                60:   TOP LOG INTERVAL
 CS  .IN            8.625:   CASING SIZE
 CBD .F                40:   CASING BOTTOM DRILLER
 CBL .F                42:   CASING BOTTOM LOGGER
 BS  .IN            7.875:   BIT SIZE
 BSD .F               845:   BIT SIZE AT DEPTH
 DFT .                KCL:   DRILLING FLUID TYPE
 DFD .                8.8:   DRILLING FLUID DENSITY
 DFV .                 36:   DRILLING FLUID VISCOSITY
 DFPH.               10.5:   DRILLING FLUID PH
 MSS .          FLOW LINE:   MUD SAMPLE SOURCE
 RMS .OHMM            .34:   RESISTIVITY MUD SAMPLE
 MST .F                62:   MUD SAMPLE TEMPERATURE
 RMF .OHMM            .26:   RESISTIVITY MUD FILTRATE SAMPLE
 MFST.F                66:   MUD FILTRATE SAMPLE TEMPERATURE
 RMC .OHMM            .42:   RESISTIVITY MUD CAKE
 MCST.F                68:   MUD CAKE SAMPLE TEMPERATURE
 MFSS.           MEASURED:   MUD FILTRATE SAMPLE SOURCE
 MCSS.           MEASURED:   MUD CAKE SAMPLE SOURCE
 RMB .OHMM           .288:   RESISTIVITY MUD AT BHT
 BHT .F                73:   BOTTOM HOLE TEMPERATURE
 TCS .HRS               4:   TIME CURCULATED STOPPED
 MRT .F                73:   MAXIMUM RECORDED TEMPERATURE
 LUN .               3006:   LOGGING UNIT NUMBER
 LUL .             CASPER:   LOGGING UNIT LOCATION
 ENGI.         B. ROLLINS:   RECORDING ENGINEER
 WITN.         RICHARDSON:   WITNESSED BY
 CLNT.            A2DTECH:   CLIENT CODE
 ORIG.           5" PRINT:   ORIGIN OF DATA
 UWI .       490251075600:   UNIQUE WELL ID
 DICO. A2D Technologies, Inc.:   DIGITIZING COMPANY
~OTHER INFORMATION
~A   DEPT      GRD       CALD       CORR       DPHI       RHOB        SPR         SN         IL   
# ...
  455.5000   106.5490     8.1740     0.0020     0.1000     2.5010   -24.2550    10.6290    10.1760
  456.0000   105.0370     8.1800     0.0030     0.1030     2.4980   -24.5390    10.7360    10.2940
  456.5000   104.0290     8.1860     0.0030     0.1060     2.4960   -24.8300    10.8430    10.4140
  457.0000   103.8550     8.1900     0.0030     0.1090     2.4940   -25.1140    10.9500    10.5330
  457.5000   103.6740     8.1900     0.0040     0.1080     2.4910   -25.4080    11.0570    10.6930
  458.0000   103.4840     8.1900     0.0030     0.1050     2.4930   -25.5100    11.1650    10.6860
  458.5000   102.9510     8.1900     0.0020     0.1030     2.4980   -25.5020    11.2720    10.6610
  459.0000   102.4150     8.1900     0.0000     0.1010     2.5030   -25.5020    11.3790    10.6350
  459.5000   102.2610     8.1900    -0.0010     0.0990     2.5080   -25.5030    11.5210    10.6100
  460.0000   102.6550     8.1900    -0.0030     0.0970     2.5110   -25.5020    11.5000    10.5840
  460.5000   102.1860     8.1900    -0.0040     0.0950     2.5120   -25.5020    11.4690    10.5580
  461.0000   100.4570     8.1900    -0.0040     0.0920     2.5130   -25.5020    11.4380    10.5330
  461.5000    98.7450     8.1900    -0.0040     0.0900     2.5130   -25.5020    11.4070    10.5070
  462.0000    97.5550     8.1900    -0.0040     0.0900     2.5120   -25.5020    11.3760    10.4820
  462.5000    98.0660     8.1900    -0.0040     0.0920     2.5110   -25.5020    11.3450    10.4560
  463.0000    98.7250     8.1810    -0.0040     0.0950     2.5080   -25.5020    11.3140    10.4300
  463.5000    99.3920     8.1710    -0.0040     0.0970     2.5010   -25.5020    11.2830    10.4050
  464.0000   100.0590     8.1600    -0.0040     0.1000     2.4940   -25.5010    11.2520    10.3790
  464.5000    99.5250     8.1490    -0.0040     0.1020     2.4870   -25.5020    11.2210    10.3540
  465.0000    96.9190     8.1380    -0.0040     0.1040     2.4810   -25.5000    11.1900    10.3280
  465.5000    95.1530     8.1280    -0.0040     0.1040     2.4740   -25.5020    11.1590    10.3020
  466.0000    94.7140     8.1170    -0.0040     0.1040     2.4720   -25.5020    11.1280    10.2770
  466.5000    93.6410     8.1060    -0.0040     0.1050     2.4710   -25.4930    11.0970    10.2510
  467.0000    92.5460     8.0950     0.0010     0.1050     2.4740   -25.6230    11.0660    10.2250
  467.5000    92.0490     8.0840     0.0060     0.1030     2.4780   -26.0110    11.0350    10.2000
  468.0000    91.7370     8.0740     0.0100     0.1000     2.4870   -26.3860    11.0040    10.1740
  468.5000    92.6520     8.0630     0.0140     0.0950     2.4970   -26.7010    10.9730    10.1490
  469.0000    93.1490     8.0520     0.0110     0.0980     2.5070   -26.7670    10.9420    10.1240
  469.5000    93.2620     8.0410     0.0080     0.1060     2.5100   -26.8240    10.9110    10.0930
  470.0000    93.7980     8.0310     0.0050     0.1130     2.4930   -26.8760    10.8800    10.0570
  470.5000    95.9540     8.0640     0.0040     0.1160     2.4780   -26.9290    10.8490    10.0210
  471.0000    98.1780     8.1010     0.0030     0.1130     2.4800   -26.9780    10.8180     9.9860
  471.5000    99.7220     8.1130     0.0030     0.1100     2.4850   -27.0440    10.7870     9.9510
  472.0000    99.2810     8.1240     0.0020     0.1070     2.4900   -27.0750    10.7560     9.9150
  472.5000    98.4970     8.1350     0.0020     0.1050     2.4940   -27.0810    10.7250     9.8800
  473.0000    97.6840     8.1460     0.0010     0.1020     2.4990   -25.8860    10.6940     9.8440
  473.5000    98.2250     8.1560     0.0000     0.1000     2.5000   -24.2620    10.6620     9.8090
  474.0000    99.2030     8.1670     0.0000     0.1010     2.5020   -23.9490    10.6320     9.7740
  474.5000    99.6260     8.1680    -0.0010     0.1060     2.5030   -24.0750    10.6010     9.7380
  475.0000    99.3690     8.1660    -0.0010     0.1110     2.4990   -24.1780    10.5700     9.7030
  475.5000    99.1240     8.1630    -0.0020     0.1150     2.4880   -24.2840    10.5390     9.6670
  476.0000    98.9120     8.1610    -0.0010     0.1170     2.4770   -24.3430    10.5080     9.6320
  476.5000    99.0710     8.1580     0.0020     0.1180     2.4740   -24.4040    10.4200     9.5970
  477.0000    99.2290     8.1560     0.0050     0.1190     2.4720   -24.4610    10.2960     9.5620
  477.5000    99.3870     8.1530     0.0070     0.1200     2.4700   -24.5240    10.1720     9.3450
  478.0000    99.5700     8.1500     0.0040     0.1210     2.4680   -24.5790    10.0480     9.1310
  478.5000    99.8470     8.1300     0.0000     0.1220     2.4670   -24.6440     9.9240     8.9180
  479.0000   100.0870     8.0880    -0.0030     0.1220     2.4660   -24.7140     9.8010     8.7110
  479.5000    99.0640     8.0460    -0.0040     0.1210     2.4650   -25.0130     9.6770     8.6580
  480.0000    97.8790     8.0030    -0.0040     0.1170     2.4690   -25.3130     9.5530     8.6060
  480.5000    96.6910     8.0010    -0.0040     0.1130     2.4740   -25.6160     9.4290     8.5540
  481.0000    95.5060     8.0470    -0.0040     0.1120     2.4790   -25.8900     9.3050     8.5030
  481.5000    94.3190     8.0890    -0.0040     0.1150     2.4780   -25.9010     9.1970     8.4510
  482.0000    93.1300     8.0930    -0.0040     0.1180     2.4780   -25.9070     9.1380     8.3990
  482.5000    93.0210     8.0970    -0.0040     0.1210     2.4750   -25.9030     9.0790     8.3480
  483.0000    94.4160     8.1010    -0.0040     0.1240     2.4700   -25.9040     9.0200     8.2960
  483.5000    95.7930     8.1060    -0.0040     0.1260     2.4650   -25.9040     8.9620     8.2370
  484.0000    97.1660     8.1100    -0.0040     0.1260     2.4610   -25.9040     8.9030     8.3920
  484.5000    98.5420     8.1080    -0.0040     0.1220     2.4640   -25.9040     8.8440     8.3520
  485.0000    99.8730     8.1040    -0.0040     0.1180     2.4700   -25.9040     8.7850     8.3240
  485.5000    98.4360     8.0990    -0.0040     0.1140     2.4770   -25.9040     8.7260     8.2970
  486.0000    96.0940     8.0950    -0.0040     0.1100     2.4830   -25.9040     8.6670     8.2690
  486.5000    93.7480     8.0890    -0.0040     0.1080     2.4870   -25.9040     8.6080     8.2420
  487.0000    93.6720     8.0570    -0.0040     0.1140     2.4820   -25.9040     8.5490     8.2140
  487.5000    95.4900     8.0230    -0.0040     0.1190     2.4740   -25.9040     8.4900     8.1870
  488.0000    97.2590     7.9960    -0.0010     0.1250     2.4650   -25.9040     8.4310     8.1590
  488.5000    96.8810     8.1390     0.0020     0.1300     2.4560   -25.9040     8.3720     8.1320
  489.0000    96.3300     8.2830     0.0060     0.1340     2.4470   -25.9040     8.3130     8.1040
  489.5000    97.1680     8.2480     0.0090     0.1310     2.4460   -25.9040     8.2550     8.0800
  490.0000    98.9370     8.2050     0.0120     0.1270     2.4490   -25.9040     8.1960     8.0630
  490.5000   100.7210     8.1620     0.0110     0.1260     2.4540   -25.9040     8.1370     8.0450
  491.0000   101.2790     8.1200     0.0110     0.1270     2.4590   -25.9040     8.0850     8.0280
  491.5000   101.5380     8.0780     0.0100     0.1280     2.4600   -25.9040     8.0850     8.0110
  492.0000   101.7900     8.0680     0.0090     0.1270     2.4600   -25.9040     8.0850     7.9940
  492.5000   102.0500     8.1180     0.0090     0.1250     2.4590   -25.9040     8.0850     7.9760
  493.0000   101.8680     8.1680     0.0080     0.1230     2.4620   -25.9040     8.0850     7.9590
  493.5000   101.5740     8.2160     0.0070     0.1210     2.4650   -25.9040     8.0850     7.9420
  494.0000   101.2760     8.2170     0.0070     0.1180     2.4680   -25.9040     8.0850     7.9240
  494.5000   100.9730     8.1030     0.0060     0.1170     2.4690   -25.9040     8.0850     7.9070
  495.0000   100.9100     8.0320     0.0070     0.1190     2.4690   -25.9040     8.0840     7.8900
  495.5000   101.1030     8.0550     0.0080     0.1200     2.4690   -25.9040     8.1100     7.8730
