~VERSION INFORMATION
 VERS.                2.0:   CWLS LOG ASCII STANDARD - VERSION 2.0
 WRAP.                 NO:   ONE LINE PER DEPTH STEP
~WELL INFORMATION
#MNEM.UNIT      DATA TYPE    INFORMATION
#----------   ------------   ------------------------------
 STRT.F           10.0000:   START DEPTH
 STOP.F          580.0000:   STOP DEPTH
 STEP.F            0.5000:   STEP LENGTH
 NULL.          -999.2500:   NO VALUE
 COMP. FENIX & SCISSON INC:   COMPANY
 WELL.     NPR 3 #28-S-34:   WELL
 FLD .        TEAPOT DOME:   FIELD
 LOC .      S34 T39N R78W:   LOCATION
 CNTY.            NATRONA:   COUNTY
 STAT.            WYOMING:   STATE
 CTRY. UNITED STATES OF AMERICA:   COUNTRY
 SRVC.           BIRDWELL:   SERVICE COMPANY
 DATE.        05-AUG-1978:   LOGDATE
 API .       490251068200:   API NUMBER
~CURVE INFORMATION
#MNEM.UNIT       API CODE    CURVE DESCRIPTION
#----------   ------------   ------------------------------
 DEPT.F                  :   
 SPR .MV     05 010 01 00:   SPONTANEOUS POTENTIAL FROM RES.
 IL  .OHMM   05 120 00 00:   INDUCTION LOG
 SN  .OHMM   05 040 16 00:   SHORT NORMAL 16"
 GRD .GAPI   45 310 01 00:   GAMMA RAY FROM DENSITY LOG
 CALD.IN     45 280 60 00:   CALIPER
 RHOB.G/C3   45 350 01 00:   BULK DENSITY
 DPHI.DEC    45 890 12 00:   DENSITY POROSITY SANDSTONE
 CORR.G/C3   45 356 01 00:   DENSITY CORRECTION
~PARAMETER INFORMATION
#MNEM.UNIT          VALUE    DESCRIPTION
#----------   ------------   ------------------------------
 PD  .                 GL:   PERMANENT DATUM
 EPD .F              5191:   ELEVATION PERMANENT DATUM
 LMF .                 KB:   LOG MEASURED FROM
 DAPD.F                 4:   FEET ABOVE PERMANENT DATUM
 DMF .                 KB:   DRILLING MEASURED FROM
 EKB .F              5195:   KELLING BUSHING
 EGL .F              5191:   GROUND LEVEL
 DATE.             8-5-78:   RUN DATE
 RUN .                  1:   RUN NUMBER
 DD  .F               570:   DEPTH DRILLER
 DL  .F               586:   DEPTH LOGGER
 BLI .F               580:   BOTTOM LOG INTERVAL
 TLI .F                30:   TOP LOG INTERVAL
 CS  .IN            8.625:   CASING SIZE
 BS  .IN            7.875:   BIT SIZE
 BSD .F               570:   BIT SIZE AT DEPTH
 DFT .                KCL:   DRILLING FLUID TYPE
 DFD .                8.6:   DRILLING FLUID DENSITY
 DFV .                 32:   DRILLING FLUID VISCOSITY
 DFPH.                9.5:   DRILLING FLUID PH
 MSS .          FLOW LINE:   MUD SAMPLE SOURCE
 RMS .OHMM             .9:   RESISTIVITY MUD SAMPLE
 MST .F                74:   MUD SAMPLE TEMPERATURE
 RMF .OHMM            .17:   RESISTIVITY MUD FILTRATE SAMPLE
 MFST.F                79:   MUD FILTRATE SAMPLE TEMPERATURE
 RMC .OHMM            .42:   RESISTIVITY MUD CAKE
 MCST.F                80:   MUD CAKE SAMPLE TEMPERATURE
 MFSS.               MEAS:   MUD FILTRATE SAMPLE SOURCE
 TCS .HRS               3:   TIME CURCULATED STOPPED
 LUN .               3006:   LOGGING UNIT NUMBER
 LUL .               CASP:   LOGGING UNIT LOCATION
 ENGI.             MILLER:   RECORDING ENGINEER
 WITN.           MCGINLEY:   WITNESSED BY
 CLNT.            A2DTECH:   CLIENT CODE
 ORIG.           5" PRINT:   ORIGIN OF DATA
 UWI .       490251068200:   UNIQUE WELL ID
 DICO. A2D Technologies, Inc.:   DIGITIZING COMPANY
~OTHER INFORMATION
~A   DEPT      SPR         IL         SN         GRD      CALD       RHOB       DPHI       CORR   
# ...
  293.5000   -16.5640     5.9510     5.4600    89.4950     7.4730     2.4490     0.1360     0.0030
  294.0000   -16.5070     6.0040     5.5260    87.8910     7.4800     2.4480     0.1370     0.0020
  294.5000   -16.5110     6.0570     5.5930    87.0410     7.4870     2.4480     0.1410     0.0000
  295.0000   -16.5270     6.1100     5.6590    88.1170     7.4930     2.4440     0.1440    -0.0020
  295.5000   -16.5430     6.1630     5.7250    87.6620     7.5000     2.4350     0.1440     0.0000
  296.0000   -16.5590     6.2150     5.7910    88.5140     7.5070     2.4360     0.1420     0.0040
  296.5000   -16.5760     6.2680     5.8570    93.5310     7.5130     2.4390     0.1400     0.0080
  297.0000   -16.5920     6.3210     5.9170    96.0950     7.5200     2.4420     0.1380     0.0090
  297.5000   -16.6080     6.3680     5.9710    94.0280     7.5270     2.4450     0.1360     0.0070
  298.0000   -16.6240     6.2720     5.8660    88.4450     7.5340     2.4480     0.1400     0.0050
  298.5000   -16.6400     6.1850     5.7850    89.4280     7.5400     2.4400     0.1450     0.0040
  299.0000   -16.6560     6.0970     5.7040    91.2940     7.5460     2.4350     0.1450     0.0020
  299.5000   -16.6730     6.0100     5.6220    90.8500     7.5470     2.4330     0.1460     0.0000
  300.0000   -16.6890     5.9220     5.5410    94.0610     7.5490     2.4310     0.1490     0.0010
  300.5000   -16.6990     5.8350     5.4600    97.1720     7.5510     2.4300     0.1480     0.0030
  301.0000   -16.6670     5.7470     5.3790    94.9430     7.5530     2.4350     0.1470     0.0050
  301.5000   -16.6370     5.6230     5.2980    92.7180     7.5550     2.4300     0.1490     0.0070
  302.0000   -16.6080     5.4990     5.2170    90.6080     7.5570     2.4200     0.1540     0.0100
  302.5000   -16.5780     5.3760     5.1350    91.0710     7.5590     2.4140     0.1550     0.0120
  303.0000   -16.5480     5.2520     5.0540    91.0700     7.5610     2.4140     0.1540     0.0140
  303.5000   -16.5180     5.1290     4.9730    85.5790     7.5630     2.4240     0.1460     0.0150
  304.0000   -16.4890     5.0050     4.8920    80.6170     7.5630     2.4370     0.1400     0.0110
  304.5000   -16.4590     4.9230     4.8110    82.3670     7.5870     2.4490     0.1350     0.0080
  305.0000   -16.4290     5.0730     4.7890    88.1820     7.5910     2.4480     0.1350     0.0050
  305.5000   -16.3990     5.2460     4.8890    93.0910     7.5950     2.4470     0.1390     0.0030
  306.0000   -16.3700     5.4180     5.0240    90.4680     7.6000     2.4550     0.1280     0.0050
  306.5000   -16.3400     5.5910     5.1590    88.4360     7.6040     2.4640     0.1290     0.0060
  307.0000   -16.3100     5.7630     5.2940    87.0790     7.6090     2.4640     0.1270     0.0080
  307.5000   -16.2800     5.9360     5.4290    85.7640     7.6140     2.4620     0.1240     0.0090
  308.0000   -16.2510     6.1090     5.5640    84.8150     7.6180     2.4770     0.1220     0.0110
  308.5000   -16.2210     6.2520     5.7030    90.1510     7.6230     2.4770     0.1300     0.0120
  309.0000   -16.1910     6.2640     5.7610    89.0310     7.6270     2.4620     0.1300     0.0090
  309.5000   -16.1610     6.2960     5.8220    89.5780     7.6320     2.4620     0.1300     0.0060
  310.0000   -16.1320     6.3270     5.8820    90.6240     7.6360     2.4620     0.1300     0.0020
  310.5000   -16.1040     6.3590     5.9420    91.1520     7.6410     2.4590     0.1330    -0.0010
  311.0000   -16.1620     6.3900     6.0270    90.3900     7.6450     2.4530     0.1360    -0.0040
  311.5000   -16.5810     6.4220     5.9710    89.6610     7.6500     2.4470     0.1370    -0.0050
  312.0000   -17.0030     6.4540     5.9840    88.9120     7.6540     2.4480     0.1300    -0.0010
  312.5000   -17.4220     6.4850     6.0150    89.3630     7.6590     2.4740     0.1240     0.0030
  313.0000   -17.6750     6.5170     6.0450    89.9090     7.6650     2.4750     0.1250     0.0070
  313.5000   -17.5720     6.5480     6.0760    89.3850     7.6420     2.4710     0.1280     0.0040
  314.0000   -17.6260     6.5800     6.1070    89.1800     7.6350     2.4660     0.1290     0.0000
  314.5000   -18.0530     6.6120     6.1380    89.9490     7.6270     2.4630     0.1290    -0.0030
  315.0000   -18.4620     6.6430     6.1690    90.8160     7.6190     2.4630     0.1300    -0.0020
  315.5000   -18.8700     6.6680     6.2000    89.6100     7.6110     2.4620     0.1300    -0.0010
  316.0000   -19.2790     6.6480     6.2310    87.8730     7.6040     2.4620     0.1310     0.0000
  316.5000   -19.6820     6.6320     6.2620    86.6960     7.5960     2.4630     0.1300     0.0000
  317.0000   -19.6870     6.6160     6.3100    90.1620     7.5880     2.4650     0.1280     0.0010
  317.5000   -19.6720     6.6070     6.2790    92.9750     7.5890     2.4680     0.1260     0.0010
  318.0000   -19.6570     6.5020     6.2070    92.0780     7.5970     2.4700     0.1250     0.0000
  318.5000   -19.6420     6.4340     6.1360    90.9960     7.6050     2.4650     0.1310     0.0000
  319.0000   -19.6280     6.3650     6.0640    91.0760     7.6130     2.4590     0.1260    -0.0010
  319.5000   -19.6130     6.2960     5.9930    91.7890     7.6210     2.4750     0.1230    -0.0010
  320.0000   -19.5990     6.2280     5.9210    92.2370     7.6290     2.4630     0.1310    -0.0020
  320.5000   -19.5840     6.1590     5.8500    85.3800     7.6370     2.4520     0.1350    -0.0020
  321.0000   -19.5700     6.0900     5.7780    79.0270     7.6400     2.4550     0.1310    -0.0020
  321.5000   -19.5550     6.0270     5.7070    79.1810     7.6420     2.4600     0.1310    -0.0030
  322.0000   -19.5410     5.9440     5.6350    84.0780     7.6870     2.4520     0.1430    -0.0050
  322.5000   -19.5260     5.8660     5.5640    88.3810     7.6970     2.4390     0.1450    -0.0030
  323.0000   -19.5130     5.7890     5.4920    92.0770     7.6780     2.4340     0.1470    -0.0020
  323.5000   -19.5140     5.7120     5.4210    91.0740     7.6600     2.4270     0.1530    -0.0010
  324.0000   -19.5940     5.5850     5.3490    86.0450     7.6440     2.4150     0.1610    -0.0030
  324.5000   -19.6730     5.4130     5.2990    87.3380     7.6520     2.4030     0.1700    -0.0060
  325.0000   -19.7510     5.2400     5.2020    90.9590     7.6650     2.3900     0.1790    -0.0080
  325.5000   -19.8300     5.0330     4.9720    91.4840     7.6770     2.3660     0.1890    -0.0100
  326.0000   -19.9080     4.6280     4.7620    91.1540     7.6900     2.3420     0.2030    -0.0130
  326.5000   -19.9870     4.2230     4.5240    93.4900     7.7020     2.3140     0.2210    -0.0150
  327.0000   -20.0650     3.8180     4.2590    94.2570     7.7040     2.2840     0.2400    -0.0120
  327.5000   -20.1440     3.4120     3.9950    93.2430     7.6960     2.2530     0.2510    -0.0050
  328.0000   -20.2230     3.0070     3.7300    90.3630     7.6880     2.2280     0.2560     0.0090
  328.5000   -20.2710     2.6590     3.4650    87.6000     7.6800     2.2260     0.2460     0.0240
  329.0000   -19.6060     2.5870     3.2010    84.8460     7.6720     2.2470     0.2290     0.0320
  329.5000   -18.9200     2.5170     3.0070    82.0960     7.6640     2.2950     0.2060     0.0310
  330.0000   -18.2410     2.4480     2.9550    81.6380     7.6560     2.3440     0.1900     0.0160
  330.5000   -17.6910     2.4260     2.9020    84.1610     7.6470     2.3490     0.1900     0.0000
  331.0000   -17.4370     2.4260     2.8890    90.3650     7.6390     2.3460     0.1900    -0.0020
  331.5000   -17.3060     2.6570     2.9990    96.5320     7.6310     2.3440     0.1600     0.0230
  332.0000   -17.3020     2.9950     3.1280   100.2400     7.6220     2.3800     0.1380     0.0120
  332.5000   -17.3010     3.3330     3.3430    97.3070     7.6250     2.4280     0.1320     0.0000
  333.0000   -17.3000     3.6710     3.5570    92.9010     7.6120     2.4550     0.1340    -0.0030
  333.5000   -17.3000     4.0090     3.7710    90.0830     7.6190     2.4550     0.1390    -0.0010
