~VERSION INFORMATION
 VERS.                2.0:   CWLS LOG ASCII STANDARD - VERSION 2.0
 WRAP.                 NO:   ONE LINE PER DEPTH STEP
~WELL INFORMATION
#MNEM.UNIT      DATA TYPE    INFORMATION
#----------   ------------   ------------------------------
 STRT.F           43.0000:   START DEPTH
 STOP.F          620.0000:   STOP DEPTH
 STEP.F            0.5000:   STEP LENGTH
 NULL.          -999.2500:   NO VALUE
 COMP. FENIX & SCISSON INC:   COMPANY
 WELL.      16 SX 2 #16-2:   WELL
 FLD .             TEAPOT:   FIELD
 LOC .       S2 T38N R78W:   LOCATION
 CNTY.            NATRONA:   COUNTY
 STAT.            WYOMING:   STATE
 CTRY. UNITED STATES OF AMERICA:   COUNTRY
 SRVC.            Unknown:   SERVICE COMPANY
 DATE.        11-OCT-1978:   LOGDATE
 API .       490251071400:   API NUMBER
~CURVE INFORMATION
#MNEM.UNIT       API CODE    CURVE DESCRIPTION
#----------   ------------   ------------------------------
 DEPT.F                  :   
 SPR .MV     05 010 01 00:   SPONTANEOUS POTENTIAL FROM RES.
 SN  .OHMM   05 040 16 00:   SHORT NORMAL 16"
 ILD .OHMM   05 120 46 00:   INDUCTION LOG DEEP
 CALD.IN     45 280 60 00:   CALIPER
 GRD .GAPI   45 310 01 00:   GAMMA RAY FROM DENSITY LOG
 DPHI.DEC    45 890 12 00:   DENSITY POROSITY SANDSTONE
 RHOB.G/C3   45 350 01 00:   BULK DENSITY
 DRHO.G/C3   45 356 01 00:   DENSITY CORRECTION
~PARAMETER INFORMATION
#MNEM.UNIT          VALUE    DESCRIPTION
#----------   ------------   ------------------------------
 PD  .                 GL:   PERMANENT DATUM
 EPD .F              5135:   ELEVATION PERMANENT DATUM
 LMF .                 KB:   LOG MEASURED FROM
 DAPD.F                 4:   FEET ABOVE PERMANENT DATUM
 DMF .                 KB:   DRILLING MEASURED FROM
 EKB .F              5139:   KELLING BUSHING
 EGL .F              5135:   GROUND LEVEL
 DATE.           10-11-78:   RUN DATE
 RUN .                  1:   RUN NUMBER
 DD  .F               620:   DEPTH DRILLER
 DL  .F               620:   DEPTH LOGGER
 BLI .F               614:   BOTTOM LOG INTERVAL
 TLI .F                40:   TOP LOG INTERVAL
 CS  .IN            8.625:   CASING SIZE
 CBD .F                40:   CASING BOTTOM DRILLER
 CBL .F                40:   CASING BOTTOM LOGGER
 BS  .IN            7.875:   BIT SIZE
 BSD .F               620:   BIT SIZE AT DEPTH
 DFT .                KCL:   DRILLING FLUID TYPE
 RMS .OHMM            .16:   RESISTIVITY MUD SAMPLE
 MST .F                66:   MUD SAMPLE TEMPERATURE
 RMF .OHMM            .16:   RESISTIVITY MUD FILTRATE SAMPLE
 MFST.F                70:   MUD FILTRATE SAMPLE TEMPERATURE
 RMC .OHMM             .2:   RESISTIVITY MUD CAKE
 MCST.F                71:   MUD CAKE SAMPLE TEMPERATURE
 TCS .HRS               1:   TIME CURCULATED STOPPED
 MRT .F                70:   MAXIMUM RECORDED TEMPERATURE
 LUN .               2958:   LOGGING UNIT NUMBER
 LUL .               CASP:   LOGGING UNIT LOCATION
 ENGI.             MILLER:   RECORDING ENGINEER
 WITN.              AMEND:   WITNESSED BY
 CLNT.            A2DTECH:   CLIENT CODE
 ORIG.           5" PRINT:   ORIGIN OF DATA
 UWI .       490251071400:   UNIQUE WELL ID
 DICO. A2D Technologies, Inc.:   DIGITIZING COMPANY
~OTHER INFORMATION
~A   DEPT      SPR         SN        ILD       CALD         GRD      DPHI       RHOB       DRHO   
# ...
  286.0000   -49.8374     7.1511     8.2494     7.6777   104.1801     0.1202     2.4951     0.0122
  286.5000   -49.8246     7.2667     8.2448     7.6898   107.0857     0.1160     2.4984     0.0100
  287.0000   -49.8117     7.3225     8.2402     7.7021   112.3826     0.1146     2.4975     0.0079
  287.5000   -49.7989     7.3219     8.2355     7.7143   117.6711     0.1154     2.4964     0.0074
  288.0000   -49.7860     7.3214     8.2310     7.7264   122.5557     0.1162     2.4954     0.0102
  288.5000   -49.7732     7.3876     8.2264     7.7386   125.9396     0.1165     2.4969     0.0130
  289.0000   -49.7603     7.4305     8.2218     7.7508   125.3307     0.1116     2.5107     0.0159
  289.5000   -49.7475     7.4582     8.2172     7.7631   124.6988     0.1051     2.5245     0.0163
  290.0000   -49.7346     7.4576     8.2126     7.7755   117.7751     0.0985     2.5383     0.0104
  290.5000   -49.7217     7.4576     8.2080     7.7734   108.3121     0.0919     2.5520     0.0040
  291.0000   -49.7096     7.4576     8.2034     7.7657   105.9237     0.0853     2.5639    -0.0025
  291.5000   -49.7421     7.4576     8.1988     7.7579   108.0501     0.0832     2.5556    -0.0046
  292.0000   -49.8485     7.4576     8.1943     7.7501   110.0204     0.0883     2.5458     0.0014
  292.5000   -49.9538     7.4577     8.1897     7.7423   105.8345     0.0925     2.5360     0.0076
  293.0000   -50.0593     7.4580     8.1852     7.7345    98.5654     0.0967     2.5262     0.0108
  293.5000   -50.1648     7.4588     8.1799     7.7267    95.7116     0.1009     2.5164     0.0116
  294.0000   -50.2703     7.4061     8.1400     7.7190   100.2960     0.1051     2.5066     0.0124
  294.5000   -50.3758     7.3556     8.0517     7.7112   104.3605     0.1093     2.4977     0.0122
  295.0000   -50.4812     7.3055     7.9643     7.7034   103.7857     0.1125     2.4980     0.0119
  295.5000   -50.5867     7.2559     7.8818     7.6956   103.3163     0.1118     2.5033     0.0116
  296.0000   -50.6920     7.2066     7.7450     7.6878   105.6824     0.1094     2.5090     0.0114
  296.5000   -50.7962     7.1576     7.6164     7.6801   105.9699     0.1071     2.5136     0.0111
  297.0000   -50.9064     7.0813     7.4899     7.6884   103.7674     0.1047     2.5154     0.0108
  297.5000   -51.1655     6.9297     7.3655     7.6986   104.7362     0.1022     2.5169     0.0105
  298.0000   -51.4215     6.7814     7.2432     7.7087   105.5359     0.1086     2.5057     0.0113
  298.5000   -51.6761     6.6362     7.1229     7.7189   104.6738     0.1177     2.4932     0.0125
  299.0000   -51.9306     6.4941     7.0046     7.7291   105.3862     0.1276     2.4801     0.0136
  299.5000   -52.1851     6.3551     6.7824     7.7392   108.6452     0.1282     2.4815     0.0146
  300.0000   -52.4396     6.1520     6.5546     7.7494   111.9490     0.1286     2.4876     0.0152
  300.5000   -52.6941     5.8055     6.3344     7.7596   115.3556     0.1295     2.4790     0.0158
  301.0000   -52.9486     5.4509     6.0707     7.7697   117.6374     0.1315     2.4690     0.0164
  301.5000   -53.2033     5.3513     5.4426     7.7800   119.7117     0.1346     2.4559     0.0170
  302.0000   -53.4579     4.9717     4.8796     7.7901   118.7884     0.1406     2.4362     0.0176
  302.5000   -53.7096     4.5890     4.3748     7.7970   117.3964     0.1631     2.4151     0.0182
  303.0000   -53.9145     4.2358     3.9222     7.7813   116.0063     0.1856     2.3883     0.0188
  303.5000   -53.9990     3.9097     3.5138     7.7658   114.6207     0.2081     2.3500     0.0194
  304.0000   -54.0863     3.6087     3.1396     7.7503   113.2333     0.2307     2.3113     0.0200
  304.5000   -54.1719     3.3310     3.0459     7.7349   111.8352     0.2532     2.2731     0.0200
  305.0000   -54.2760     3.1349     3.0494     7.7194   110.6037     0.2632     2.2488     0.0168
  305.5000   -54.0725     3.1061     2.9937     7.7040   109.3661     0.2350     2.2923     0.0137
  306.0000   -53.8117     3.1061     2.9937     7.6887   108.1164     0.2145     2.3292     0.0160
  306.5000   -53.3112     3.1349     3.1954     7.6836   107.5772     0.1969     2.3598     0.0218
  307.0000   -52.8111     3.2527     3.4765     7.6949   111.1111     0.1907     2.3804     0.0244
  307.5000   -52.3101     3.5220     3.7824     7.7060   115.9296     0.1781     2.4054     0.0131
  308.0000   -51.7986     3.8184     4.1151     7.7172   117.9362     0.1579     2.4368     0.0047
  308.5000   -51.5890     4.1399     4.4771     7.7284   119.8229     0.1416     2.4667     0.0068
  309.0000   -51.4513     4.4884     4.8710     7.7395   121.6783     0.1311     2.4731     0.0088
  309.5000   -51.3158     4.8662     5.2995     7.7507   125.2573     0.1279     2.4789     0.0108
  310.0000   -51.1810     5.2758     5.7657     7.7618   129.6512     0.1248     2.4849     0.0127
  310.5000   -51.1105     5.7080     6.2593     7.7730   133.6012     0.1212     2.4913     0.0147
  311.0000   -51.1550     5.7609     6.3758     7.7842   130.1939     0.1161     2.4976     0.0164
  311.5000   -51.1976     5.7609     6.3758     7.7953   126.0978     0.1110     2.5040     0.0165
  312.0000   -51.2406     5.7609     6.2264     7.8065   123.0202     0.1059     2.5103     0.0165
  312.5000   -51.2834     5.7609     6.1197     7.8177   122.7710     0.1050     2.5110     0.0165
  313.0000   -51.3263     5.7609     6.0149     7.8288   124.2551     0.1062     2.5088     0.0165
  313.5000   -51.3691     5.7609     5.9119     7.8372   129.2767     0.1209     2.4937     0.0165
  314.0000   -51.4120     5.6505     5.8106     7.8215   127.3663     0.1356     2.4714     0.0165
  314.5000   -51.4549     5.5485     5.7111     7.8060   125.5720     0.1503     2.4492     0.0160
  315.0000   -51.4977     5.4483     5.6133     7.7905   124.8730     0.1597     2.4263     0.0153
  315.5000   -51.5406     5.3500     5.5171     7.7751   127.2684     0.1647     2.4142     0.0146
  316.0000   -51.5835     5.2534     5.4225     7.7596   129.6466     0.1591     2.4120     0.0139
  316.5000   -51.6266     5.2053     5.3299     7.7442   132.0128     0.1531     2.4219     0.0133
  317.0000   -51.6706     5.2053     5.3006     7.7288   134.0052     0.1472     2.4347     0.0126
  317.5000   -51.6852     5.2535     5.3996     7.7133   135.2645     0.1412     2.4474     0.0119
  318.0000   -51.4743     5.3022     5.5252     7.6978   136.5391     0.1352     2.4602     0.0113
  318.5000   -51.2608     5.4494     5.7031     7.6819   137.8183     0.1293     2.4730     0.0105
  319.0000   -51.0484     5.6145     5.8877     7.6874   139.0889     0.1255     2.4790     0.0120
  319.5000   -50.8361     5.7850     6.0780     7.6976   140.2823     0.1248     2.4805     0.0140
  320.0000   -50.6241     5.9605     6.2746     7.7078   140.7303     0.1212     2.4911     0.0159
  320.5000   -50.4125     6.1414     6.4775     7.7181   127.1570     0.1131     2.5034     0.0179
  321.0000   -50.3070     6.3277     6.6870     7.7283   117.9993     0.1062     2.5143     0.0198
  321.5000   -50.3266     6.5196     6.9032     7.7385   118.2291     0.1029     2.5245     0.0218
  322.0000   -50.3452     6.7184     7.1265     7.7487   120.6763     0.0998     2.5280     0.0203
  322.5000   -50.3642     6.9292     7.3589     7.7589   122.1164     0.0997     2.5223     0.0172
  323.0000   -50.3831     6.9268     7.5293     7.7691   122.4679     0.1037     2.5158     0.0140
  323.5000   -50.4019     6.9285     7.5262     7.7793   125.0515     0.1081     2.5092     0.0108
  324.0000   -50.4208     6.8638     7.4831     7.7896   129.6599     0.1121     2.5026     0.0114
  324.5000   -50.4397     6.8638     7.4091     7.7986   130.0184     0.1134     2.4959     0.0125
  325.0000   -50.4586     6.8008     7.3359     7.7968   115.0656     0.1145     2.4941     0.0136
  325.5000   -50.4776     6.7218     7.2633     7.7948   110.7718     0.1153     2.4931     0.0147
  326.0000   -50.4970     6.5927     7.1915     7.7930   110.6008     0.1150     2.4945     0.0157
