~VERSION INFORMATION
 VERS.                2.0:   CWLS LOG ASCII STANDARD - VERSION 2.0
 WRAP.                 NO:   ONE LINE PER DEPTH STEP
~WELL INFORMATION
#MNEM.UNIT      DATA TYPE    INFORMATION
#----------   ------------   ------------------------------
 STRT.F          484.0000:   START DEPTH
 STOP.F         2291.5000:   STOP DEPTH
 STEP.F            0.5000:   STEP LENGTH
 NULL.          -999.2500:   NO VALUE
 COMP. FENIX & SCISSON INC:   COMPANY
 WELL.     45 SHX 3 #45-3:   WELL
 FLD .             TEAPOT:   FIELD
 LOC .       S3 T38N R78W:   LOCATION
 CNTY.            NATRONA:   COUNTY
 STAT.            WYOMING:   STATE
 CTRY. UNITED STATES OF AMERICA:   COUNTRY
 SRVC.              Welex:   SERVICE COMPANY
 DATE.        20-APR-1980:   LOGDATE
 API .       490251080400:   API NUMBER
~CURVE INFORMATION
#MNEM.UNIT       API CODE    CURVE DESCRIPTION
#----------   ------------   ------------------------------
 DEPT.F                  :   
 CALD.IN     45 280 60 00:   CALIPER
 GRD .GAPI   45 310 01 00:   GAMMA RAY FROM DENSITY LOG
 CORR.G/C3   45 356 01 00:   DENSITY CORRECTION
 RHOB.G/C3   45 350 01 00:   BULK DENSITY
 DPHI.DEC    45 890 12 00:   DENSITY POROSITY SANDSTONE
~PARAMETER INFORMATION
#MNEM.UNIT          VALUE    DESCRIPTION
#----------   ------------   ------------------------------
 PD  .                 GL:   PERMANENT DATUM
 EPD .F              5186:   ELEVATION PERMANENT DATUM
 LMF .                 KB:   LOG MEASURED FROM
 DAPD.F                10:   FEET ABOVE PERMANENT DATUM
 DMF .                 KB:   DRILLING MEASURED FROM
 EKB .F              5196:   KELLING BUSHING
 EGL .F              5186:   GROUND LEVEL
 DATE.            4-20-80:   RUN DATE
 RUN .                  1:   RUN NUMBER
 DD  .F              2341:   DEPTH DRILLER
 DL  .F              2293:   DEPTH LOGGER
 BLI .F              2291:   BOTTOM LOG INTERVAL
 TLI .F               500:   TOP LOG INTERVAL
 CS  .IN            9.625:   CASING SIZE
 BS  .IN             8.75:   BIT SIZE
 BSD .F              2341:   BIT SIZE AT DEPTH
 DFT .                OIL:   DRILLING FLUID TYPE
 TCS .HRS               2:   TIME CURCULATED STOPPED
 MRT .F               218:   MAXIMUM RECORDED TEMPERATURE
 ENGI.            TOTHILL:   RECORDING ENGINEER
 WITN.           DINSMORE:   WITNESSED BY
 CLNT.            A2DTECH:   CLIENT CODE
 ORIG.           5" PRINT:   ORIGIN OF DATA
 UWI .       490251080400:   UNIQUE WELL ID
 DICO. A2D Technologies, Inc.:   DIGITIZING COMPANY
~OTHER INFORMATION
~A   DEPT     CALD         GRD      CORR       RHOB       DPHI   
# ...
 2253.0000     8.7306    74.7960    -0.0129     2.5046     0.0811
 2253.5000     8.7313    73.8826    -0.0095     2.5088     0.0788
 2254.0000     8.7320    72.9674    -0.0169     2.4989     0.0880
 2254.5000     8.7326    72.0587    -0.0305     2.4869     0.0941
 2255.0000     8.7332    70.6393    -0.0343     2.4807     0.0961
 2255.5000     8.7338    68.8906    -0.0315     2.4844     0.0948
 2256.0000     8.7344    67.1396    -0.0289     2.4880     0.0924
 2256.5000     8.7350    65.3708    -0.0262     2.4916     0.0900
 2257.0000     8.7355    64.7019    -0.0260     2.4944     0.0882
 2257.5000     8.7361    64.6209    -0.0274     2.4938     0.0890
 2258.0000     8.7367    64.5509    -0.0287     2.4913     0.0902
 2258.5000     8.7374    64.4811    -0.0354     2.4857     0.0924
 2259.0000     8.7380    64.4103    -0.0353     2.4841     0.0950
 2259.5000     8.7386    64.3393    -0.0270     2.4889     0.0897
 2260.0000     8.7392    64.2675    -0.0209     2.4791     0.0962
 2260.5000     8.7397    64.1962    -0.0288     2.4700     0.1014
 2261.0000     8.7403    64.1765    -0.0239     2.4749     0.0989
 2261.5000     8.7409    64.5571    -0.0185     2.4797     0.0966
 2262.0000     8.7415    64.9397    -0.0196     2.4778     0.0985
 2262.5000     8.7421    65.3209    -0.0235     2.4747     0.1004
 2263.0000     8.7427    65.7003    -0.0272     2.4715     0.1022
 2263.5000     8.7433    66.0827    -0.0196     2.4786     0.0979
 2264.0000     8.7439    66.4633    -0.0071     2.4858     0.0928
 2264.5000     8.7445    66.8445     0.0033     2.4971     0.0848
 2265.0000     8.7451    67.2261     0.0116     2.4992     0.0821
 2265.5000     8.7457    67.6034     0.0150     2.5021     0.0845
 2266.0000     8.7463    68.2457     0.0150     2.5032     0.0829
 2266.5000     8.7469    69.0444     0.0094     2.4913     0.0900
 2267.0000     8.7475    69.8439    -0.0028     2.4799     0.0965
 2267.5000     8.7481    70.6196    -0.0067     2.4756     0.0993
 2268.0000     8.7487    72.1070    -0.0025     2.4733     0.0998
 2268.5000     8.7493    73.6883     0.0020     2.4755     0.0967
 2269.0000     8.7499    75.2739     0.0033     2.4758     0.1035
 2269.5000     8.7505    76.8566    -0.0081     2.4638     0.1096
 2270.0000     8.7511    78.4606    -0.0116     2.4581     0.1050
 2270.5000     8.7517    78.8288     0.0022     2.4818     0.0935
 2271.0000     8.7510    78.7136     0.0195     2.4957     0.0869
 2271.5000     8.7490    78.6922     0.0224     2.4921     0.0897
 2272.0000     8.7469    78.9301     0.0165     2.4885     0.0922
 2272.5000     8.7449    79.1658     0.0151     2.4872     0.0924
 2273.0000     8.7429    79.5400     0.0137     2.4853     0.0942
 2273.5000     8.7408    79.9663     0.0108     2.4785     0.0987
 2274.0000     8.7388    80.3877     0.0069     2.4732     0.1016
 2274.5000     8.7367    80.5467     0.0031     2.4713     0.1034
 2275.0000     8.7347    79.3054     0.0069     2.4743     0.1004
 2275.5000     8.7326    78.0806     0.0066     2.4702     0.1035
 2276.0000     8.7319    76.8598    -0.0069     2.4652     0.1071
 2276.5000     8.7318    75.6743    -0.0007     2.4683     0.1024
 2277.0000     8.7318    75.2165    -0.0018     2.4731     0.1006
 2277.5000     8.7319    74.7558    -0.0047     2.4706     0.1016
 2278.0000     8.7319    75.3295    -0.0026     2.4778     0.0987
 2278.5000     8.7318    76.2954    -0.0007     2.4771     0.0966
 2279.0000     8.7261    77.2723     0.0006     2.4768     0.0986
 2279.5000     8.6997    78.2481     0.0095     2.4824     0.0949
 2280.0000     8.6742    79.2367     0.0139     2.4800     0.0975
 2280.5000     8.6514    79.5658    -0.0012     2.4704     0.1022
 2281.0000     8.6511    79.7480    -0.0018     2.4735     0.0997
 2281.5000     8.6512    79.6236     0.0012     2.4811     0.0957
 2282.0000     8.6512    79.2237     0.0060     2.4889     0.0914
 2282.5000     8.6512    78.8223     0.0107     2.4965     0.0876
 2283.0000     8.6512    78.4065     0.0139     2.5005     0.0851
 2283.5000     8.6539    78.3894     0.0173     2.5034     0.0830
 2284.0000     8.6725    78.4799     0.0253     2.5092     0.0779
 2284.5000     8.6911    78.5733     0.0331     2.5156     0.0745
 2285.0000     8.7098    78.6659     0.0413     2.5222     0.0712
 2285.5000     8.7299    78.7592     0.0431     2.5199     0.0728
 2286.0000     8.6655    78.8540     0.0485     2.5243     0.0680
 2286.5000     8.6613    78.9091     0.0586     2.5350     0.0619
 2287.0000     8.6769    78.4131     0.0683     2.5397     0.0582
 2287.5000     8.6933    77.9020     0.0720     2.5354     0.0638
 2288.0000     8.7102    77.3923     0.0657     2.5280     0.0668
 2288.5000     8.6644    76.8849     0.0838     2.5348     0.0626
 2289.0000     8.6032    76.5096     0.0983     2.5396     0.0608
 2289.5000     8.5421    76.7232     0.1060     2.5379     0.0611
 2290.0000     8.4810    76.9257     0.1137     2.5409     0.0596
 2290.5000     8.4495    77.0714     0.1256     2.5521     0.0544
 2291.0000     8.4496    77.7271     0.1387     2.5632     0.0444
 2291.5000  -999.2500  -999.2500     0.1512  -999.2500     0.0398
