~VERSION INFORMATION
 VERS.                2.0:   CWLS LOG ASCII STANDARD - VERSION 2.0
 WRAP.                 NO:   ONE LINE PER DEPTH STEP
~WELL INFORMATION
#MNEM.UNIT      DATA TYPE    INFORMATION
#----------   ------------   ------------------------------
 STRT.F            2.0000:   START DEPTH
 STOP.F          548.0000:   STOP DEPTH
 STEP.F            0.1000:   STEP LENGTH
 NULL.          -999.2500:   NO VALUE
 COMP.       F D SERV INC:   COMPANY
 WELL. NAVAL PETROLEUM RESERVE 3 SX-3 #88-10-3:   WELL
 FLD .             TEAPOT:   FIELD
 LOC .       S3 T38N R78W:   LOCATION
 CNTY.            NATRONA:   COUNTY
 STAT.            WYOMING:   STATE
 CTRY. UNITED STATES OF AMERICA:   COUNTRY
 SRVC.     Atlas Wireline:   SERVICE COMPANY
 DATE.        19-OCT-1992:   LOGDATE
 API .       490252254600:   API NUMBER
~CURVE INFORMATION
#MNEM.UNIT       API CODE    CURVE DESCRIPTION
#----------   ------------   ------------------------------
 DEPT.F                  :   
 GRR .GAPI   07 310 01 00:   GAMMA RAY
 ILD .OHMM   07 120 46 00:   INDUCTION LOG DEEP
 ILM .OHMM   07 120 44 00:   INDUCTION LOG MEDIUM
~PARAMETER INFORMATION
#MNEM.UNIT          VALUE    DESCRIPTION
#----------   ------------   ------------------------------
 PD  .                 GL:   PERMANENT DATUM
 EPD .F              5126:   ELEVATION PERMANENT DATUM
 LMF .                 KB:   LOG MEASURED FROM
 DAPD.F                10:   FEET ABOVE PERMANENT DATUM
 DMF .                 KB:   DRILLING MEASURED FROM
 EKB .F              5136:   KELLING BUSHING
 EDF .F              5135:   DRILLING FLOOR
 EGL .F              5126:   GROUND LEVEL
 DATE.        19-OCT-1992:   RUN DATE
 RUN .                  1:   RUN NUMBER
 DD  .F               566:   DEPTH DRILLER
 DL  .F               558:   DEPTH LOGGER
 BLI .F               550:   BOTTOM LOG INTERVAL
 TLI .F                98:   TOP LOG INTERVAL
 CS  .IN            8.625:   CASING SIZE
 CBD .F                85:   CASING BOTTOM DRILLER
 CBL .F                98:   CASING BOTTOM LOGGER
 BS  .IN            7.875:   BIT SIZE
 BSD .F               566:   BIT SIZE AT DEPTH
 DFT .           AIR FOAM:   DRILLING FLUID TYPE
 TCS .HRS               2:   TIME CURCULATED STOPPED
 MRT .F                73:   MAXIMUM RECORDED TEMPERATURE
 LUN .            HL-6274:   LOGGING UNIT NUMBER
 LUL .             CASPER:   LOGGING UNIT LOCATION
 ENGI.             RAUTIO:   RECORDING ENGINEER
 WITN.        GARY STRONG:   WITNESSED BY
 CLNT.            A2DTECH:   CLIENT CODE
 ORIG.           5" PRINT:   ORIGIN OF DATA
 UWI .       490252254600:   UNIQUE WELL ID
 DICO. A2D Technologies, Inc.:   DIGITIZING COMPANY
~OTHER INFORMATION
~A    DEPT     GRR        ILD        ILM   
# ...
  238.6000   137.1340     7.7180     7.6058
  238.7000   136.8297     7.7174     7.5622
  238.8000   136.5277     7.6803     7.5189
  238.9000   136.4886     7.6361     7.4759
  239.0000   136.2239     7.5922     7.4282
  239.1000   136.2233     7.5486     7.4279
  239.2000   136.0516     7.5022     7.3998
  239.3000   135.6908     7.4621     7.3574
  239.4000   135.2561     7.4490     7.3153
  239.5000   135.0086     7.4082     7.2727
  239.6000   134.5162     7.3342     7.2318
  239.7000   134.0238     7.2920     7.2215
  239.8000   133.5314     7.2501     7.1994
  239.9000   133.0390     7.1759     7.1457
  240.0000   132.5467     7.1172     7.0676
  240.1000   131.9812     7.0763     7.0214
  240.2000   131.5619     7.0309     6.9870
  240.3000   131.3749     6.9422     6.8976
  240.4000   131.2783     6.9066     6.8114
  240.5000   130.9925     6.8410     6.7588
  240.6000   130.4653     6.7631     6.6385
  240.7000   130.2362     6.6860     6.6023
  240.8000   129.9897     6.6088     6.5105
  240.9000   129.6281     6.5346     6.4181
  241.0000   129.1942     6.4602     6.3451
  241.1000   128.9495     6.3866     6.2710
  241.2000   129.1966     6.3029     6.1461
  241.3000   129.4419     6.1928     6.0884
  241.4000   129.8215     6.0327     5.9988
  241.5000   130.3904     5.9452     5.9093
  241.6000   131.1484     5.8649     5.8421
  241.7000   132.2740     5.7720     5.7706
  241.8000   132.4837     5.6469     5.6504
  241.9000   132.8825     5.5459     5.5448
  242.0000   133.1800     5.4860     5.4652
  242.1000   133.1393     5.4015     5.4030
  242.2000   132.8762     5.2949     5.3414
  242.3000   132.6463     5.1752     5.2808
  242.4000   132.5725     5.0568     5.1972
  242.5000   132.4559     4.8887     5.0925
  242.6000   132.2687     4.7550     4.9872
  242.7000   132.2707     4.6255     4.8957
  242.8000   132.5160     4.5028     4.7436
  242.9000   132.7613     4.3443     4.6245
  243.0000   133.1417     4.1330     4.4610
  243.1000   133.6328     3.9865     4.2758
  243.2000   134.1240     3.8601     4.0993
  243.3000   134.6849     3.7514     3.9829
  243.4000   134.8954     3.6411     3.8503
  243.5000   134.9864     3.5182     3.7210
  243.6000   134.8881     3.4195     3.5850
  243.7000   134.5598     3.3380     3.4444
  243.8000   133.7742     3.2728     3.3075
  243.9000   132.8531     3.2113     3.1404
  244.0000   131.8689     3.1386     3.0791
  244.1000   130.4176     3.0586     3.0206
  244.2000   128.3296     2.9839     2.9487
  244.3000   125.9044     2.9105     2.8582
  244.4000   127.8128     2.8582     2.8078
  244.5000   126.1209     2.8256     2.7923
  244.6000   124.4938     2.7923     2.7532
  244.7000   123.9117     2.7465     2.7222
  244.8000   123.2993     2.6886     2.7066
  244.9000   122.5574     2.6355     2.6902
  245.0000   121.8154     2.5990     2.6546
  245.1000   121.0389     2.5832     2.6545
  245.2000   119.9634     2.5489     2.6452
  245.3000   119.5117     2.5367     2.6300
  245.4000   118.6796     2.5221     2.6150
  245.5000   117.7247     2.5076     2.5990
  245.6000   117.4753     2.4954     2.5851
  245.7000   117.2254     2.4952     2.5807
  245.8000   116.7311     2.4819     2.5806
  245.9000   116.2354     2.4676     2.5805
  246.0000   115.4734     2.4534     2.5804
  246.1000   114.7159     2.4428     2.5803
  246.2000   114.4666     2.4426     2.5802
  246.3000   114.1811     2.4424     2.5887
  246.4000   113.9679     2.4423     2.6034
  246.5000   113.8729     2.4421     2.6181
  246.6000   113.8699     2.4467     2.6344
  246.7000   113.8669     2.4605     2.6479
  246.8000   113.8637     2.4759     2.6733
  246.9000   114.3244     2.4883     2.6968
  247.0000   114.8139     2.5024     2.7192
  247.1000   115.3035     2.5102     2.7658
  247.2000   115.8560     2.5161     2.7815
  247.3000   116.5918     2.5452     2.8223
  247.4000   117.3277     2.5737     2.8618
  247.5000   118.2602     2.6030     2.9054
  247.6000   119.1020     2.6487     2.9704
  247.7000   120.0902     2.7047     3.0278
  247.8000   121.5092     2.7535     3.0890
  247.9000   122.6048     2.8448     3.1601
  248.0000   123.6914     2.9290     3.2328
  248.1000   125.4046     3.0307     3.3109
  248.2000   127.0560     3.1284     3.4087
  248.3000   128.2843     3.2151     3.5245
  248.4000   129.5491     3.2930     3.6314
  248.5000   130.9803     3.3646     3.7362
  248.6000   132.2724     3.4562     3.8573
  248.7000   133.6273     3.5456     4.0135
  248.8000   134.8914     3.6326     4.2020
  248.9000   135.6272     3.7377     4.3260
  249.0000   136.4897     3.8921     4.4765
  249.1000   137.0990     4.0021     4.6000
  249.2000   137.5395     4.1982     4.6790
  249.3000   137.7827     4.4245     4.7638
  249.4000   138.0611     4.6186     4.8414
  249.5000   138.5928     4.7641     4.9247
  249.6000   138.8151     4.8635     4.9952
  249.7000   138.8896     4.9752     5.0600
  249.8000   138.9991     5.0629     5.1456
  249.9000   139.1861     5.1205     5.2152
  250.0000   139.1831     5.1787     5.4762
  250.1000   139.1800     5.0518     5.5703
  250.2000   138.9870     5.1604     5.6409
  250.3000   138.8714     5.3003     5.7051
  250.4000   138.7909     5.3994     5.7804
  250.5000   138.5416     5.4841     5.8735
  250.6000   138.2568     5.5784     5.9114
  250.7000   137.8317     5.6743     5.9985
  250.8000   137.4911     5.7717     6.0576
  250.9000   137.2418     5.8703     6.0779
  251.0000   136.9501     5.9036     6.0835
  251.1000   136.4265     5.9635     6.1198
  251.2000   135.9588     6.0125     6.1195
  251.3000   135.2872     6.0466     6.1191
  251.4000   134.4255     6.0774     6.1358
  251.5000   133.5007     6.0771     6.1704
  251.6000   132.7806     6.0769     6.2041
  251.7000   132.7770     6.0991     6.2037
  251.8000   132.9719     6.1336     6.2034
  251.9000   133.3561     6.1684     6.2031
  252.0000   133.7610     6.2045     6.2149
  252.1000   134.0327     6.2042     6.2459
  252.2000   134.5776     6.2040     6.2455
  252.3000   135.0118     6.2219     6.2452
  252.4000   135.1770     6.2469     6.2448
  252.5000   135.1740     6.2466     6.2445
  252.6000   135.2206     6.2463     6.2370
  252.7000   135.4704     6.2461     6.2003
  252.8000   135.4675     6.2459     6.2000
  252.9000   135.2811     6.2456     6.1996
  253.0000   135.1589     6.2398     6.1812
  253.1000   135.0142     6.2016     6.1458
  253.2000   134.5331     6.2014     6.1126
  253.3000   134.2415     6.1764     6.1122
  253.4000   134.4436     6.1411     6.0832
  253.5000   134.5386     6.1059     6.0484
  253.6000   134.6275     6.0702     6.0011
  253.7000   134.8708     6.0013     5.9377
  253.8000   135.1344     5.9600     5.9009
  253.9000   135.3573     5.9259     5.9006
  254.0000   135.6006     5.8920     5.8544
  254.1000   135.8439     5.8506     5.7879
  254.2000   136.0872     5.7404     5.7221
  254.3000   136.3311     5.6538     5.6571
  254.4000   136.8206     5.5788     5.5929
  254.5000   137.3101     5.5154     5.5294
  254.6000   137.7997     5.4527     5.4666
  254.7000   138.2893     5.3897     5.4141
  254.8000   138.7788     5.2998     5.3778
  254.9000   139.3369     5.2099     5.2738
  255.0000   139.9697     5.1062     5.2224
  255.1000   140.5501     4.9909     5.1448
  255.2000   140.9404     4.8760     5.0574
  255.3000   141.2696     4.7188     4.9667
  255.4000   142.0452     4.6283     4.8486
  255.5000   142.2753     4.5722     4.7455
  255.6000   142.3419     4.5358     4.6575
  255.7000   142.3389     4.4886     4.5785
  255.8000   142.3359     4.4615     4.5007
  255.9000   142.3328     4.4374     4.4250
  256.0000   142.3292     4.3940     4.3649
  256.1000   142.3268     4.3563     4.3449
  256.2000   142.3238     4.3379     4.3200
  256.3000   142.3207     4.3367     4.2869
  256.4000   142.3177     4.3073     4.2410
  256.5000   142.3143     4.2873     4.2140
  256.6000   142.3116     4.2628     4.1926
  256.7000   142.3086     4.2384     4.1686
