~VERSION INFORMATION
 VERS.                2.0:   CWLS LOG ASCII STANDARD - VERSION 2.0
 WRAP.                 NO:   ONE LINE PER DEPTH STEP
~WELL INFORMATION
#MNEM.UNIT      DATA TYPE    INFORMATION
#----------   ------------   ------------------------------
 STRT.F           19.5000:   START DEPTH
 STOP.F          635.0000:   STOP DEPTH
 STEP.F            0.5000:   STEP LENGTH
 NULL.          -999.2500:   NO VALUE
 COMP. FENIX & SCISSON INC:   COMPANY
 WELL. NPR-3 68-S-34 #3-34:   WELL
 FLD .  TEAPOT DOME NPR-3:   FIELD
 LOC .      S34 T39N R78W:   LOCATION
 CNTY.            NATRONA:   COUNTY
 STAT.            WYOMING:   STATE
 CTRY. UNITED STATES OF AMERICA:   COUNTRY
 SRVC.           BIRDWELL:   SERVICE COMPANY
 DATE.        01-AUG-1978:   LOGDATE
 API .       490251070600:   API NUMBER
~CURVE INFORMATION
#MNEM.UNIT       API CODE    CURVE DESCRIPTION
#----------   ------------   ------------------------------
 DEPT.F                  :   
 SPR .MV     05 010 01 00:   SPONTANEOUS POTENTIAL
 SN  .OHMM   05 040 16 00:   SHORT NORMAL 16'
 ILD .OHMM   05 120 46 00:   INDUCTION LOG DEEP RESISTIVITY
 GRD .GAPI   45 310 01 00:   GAMMA RAY FROM DENSITY LOG
 CALD.IN     45 280 60 00:   CALIPER
 RHOB.G/C3   45 350 01 00:   BULK DENSITY
 DPHI.DEC    45 890 12 00:   DENSITY POROSITY SANDSTONE
 CORR.G/C3   45 356 01 00:   DENSITY CORRECTION
~PARAMETER INFORMATION
#MNEM.UNIT          VALUE    DESCRIPTION
#----------   ------------   ------------------------------
 PD  .                 GL:   PERMANENT DATUM
 EPD .F              5100:   ELEVATION PERMANENT DATUM
 LMF .                 KB:   LOG MEASURED FROM
 DAPD.F                 4:   FEET ABOVE PERMANENT DATUM
 DMF .                 KB:   DRILLING MEASURED FROM
 EKB .F              5104:   KELLING BUSHING
 EGL .F              5100:   GROUND LEVEL
 DATE.           9-1-1978:   RUN DATE
 RUN .                  1:   RUN NUMBER
 DD  .F               635:   DEPTH DRILLER
 DL  .F               635:   DEPTH LOGGER
 BLI .F               629:   BOTTOM LOG INTERVAL
 TLI .F                40:   TOP LOG INTERVAL
 CS  .IN            8.625:   CASING SIZE
 CBD .F                40:   CASING BOTTOM DRILLER
 CBL .F                40:   CASING BOTTOM LOGGER
 BS  .IN            7.875:   BIT SIZE
 BSD .F               635:   BIT SIZE AT DEPTH
 DFT .                KCL:   DRILLING FLUID TYPE
 DFD .                8.6:   DRILLING FLUID DENSITY
 DFV .                 32:   DRILLING FLUID VISCOSITY
 DFPH.                  9:   DRILLING FLUID PH
 DFL .                  7:   DRILLING FLUID LOSS
 MSS .          FLOW LINE:   MUD SAMPLE SOURCE
 RMS .OHMM             .4:   RESISTIVITY MUD SAMPLE
 MST .F                76:   MUD SAMPLE TEMPERATURE
 RMF .OHMM             .3:   RESISTIVITY MUD FILTRATE SAMPLE
 MFST.F                80:   MUD FILTRATE SAMPLE TEMPERATURE
 RMC .OHMM             .4:   RESISTIVITY MUD CAKE
 MCST.F                80:   MUD CAKE SAMPLE TEMPERATURE
 MFSS.               MEAS:   MUD FILTRATE SAMPLE SOURCE
 MCSS.               MEAS:   MUD CAKE SAMPLE SOURCE
 RMB .OHMM            .43:   RESISTIVITY MUD AT BHT
 BHT .F                70:   BOTTOM HOLE TEMPERATURE
 TCS .HRS               3:   TIME CURCULATED STOPPED
 MRT .F                70:   MAXIMUM RECORDED TEMPERATURE
 LUN .               2958:   LOGGING UNIT NUMBER
 LUL .               CASP:   LOGGING UNIT LOCATION
 ENGI.            POINTER:   RECORDING ENGINEER
 WITN.           MCGINLEY:   WITNESSED BY
 CLNT.            A2DTECH:   CLIENT CODE
 ORIG.           5" PRINT:   ORIGIN OF DATA
 UWI .       490251070600:   UNIQUE WELL ID
 DICO. A2D Technologies, Inc.:   DIGITIZING COMPANY
~OTHER INFORMATION
~A   DEPT      SPR         SN        ILD         GRD      CALD       RHOB       DPHI       CORR   
# ...
   60.0000   -11.8138    12.1245    15.3907    90.2232     7.1459     2.3746     0.1849     0.0722
   60.5000   -11.7787    12.1826    15.3907    93.5194     7.1248     2.3796     0.1839     0.0695
   61.0000   -11.7427    12.2410    15.3907    96.7408     7.1182     2.3836     0.1877     0.0643
   61.5000   -11.7060    12.2996    15.0223    98.1056     7.1118     2.3724     0.1975     0.0480
   62.0000   -11.6692    12.3438    14.5677    95.6383     7.1100     2.3609     0.1986     0.0313
   62.5000   -11.6325    12.3438    14.1687    93.6971     7.1098     2.3528     0.1998     0.0277
   63.0000   -11.5957    12.3438    14.1687    92.0417     7.1335     2.3524     0.1997     0.0279
   63.5000   -11.5590    12.3437    14.1687    92.6000     7.1747     2.3520     0.1987     0.0282
   64.0000   -11.5223    12.3439    14.1687    94.1765     7.2160     2.3532     0.1967     0.0285
   64.5000   -11.4855    12.3415    14.3654    95.7425     7.2623     2.3559     0.1943     0.0288
   65.0000   -11.4488    12.4007    14.6809    95.0546     7.3102     2.3585     0.1919     0.0291
   65.5000   -11.4120    12.4856    15.0034    93.8432     7.3597     2.3612     0.1894     0.0293
   66.0000   -11.3753    12.5728    15.3329    92.0715     7.3825     2.3693     0.1871     0.0284
   66.5000   -11.3386    13.0437    15.5778    90.2458     7.3989     2.3683     0.1977     0.0231
   67.0000   -11.3018    12.9969    15.6899    92.4375     7.4152     2.3601     0.1989     0.0194
   67.5000   -11.2651    12.9406    15.8028    94.1467     7.4297     2.3517     0.1986     0.0195
   68.0000   -11.2283    12.9244    15.9165    91.3571     7.4261     2.3519     0.1984     0.0195
   68.5000   -11.1916    13.1448    16.2245    89.3398     7.4223     2.3550     0.1951     0.0195
   69.0000   -11.1549    13.3134    16.6966    92.9894     7.4186     2.3602     0.1901     0.0195
   69.5000   -11.1183    13.4084    16.9933    94.7638     7.4149     2.3685     0.1860     0.0195
   70.0000   -11.0792    13.4084    17.1855    99.2431     7.4112     2.3753     0.1869     0.0194
   70.5000   -10.9738    13.4084    17.3799   103.2734     7.4100     2.3750     0.1929     0.0168
   71.0000   -10.8584    13.4981    17.5043   101.6575     7.4100     2.3671     0.1989     0.0141
   71.5000   -10.7427    13.6603    17.5043   101.9421     7.4100     2.3536     0.2052     0.0114
   72.0000   -10.6368    13.7833    17.5043   103.0745     7.4100     2.3402     0.2118     0.0102
   72.5000   -10.5425    13.7350    18.2795   102.8016     7.4100     2.3287     0.2139     0.0126
   73.0000   -10.4482    13.6964    18.5780    98.1156     7.4100     2.3280     0.2159     0.0149
   73.5000   -10.3538    13.6572    18.8291    92.9269     7.4100     2.3270     0.2154     0.0172
   74.0000   -10.2593    13.7371    19.0825    89.3982     7.4100     2.3261     0.2139     0.0175
   74.5000   -10.1647    13.8203    19.3404    90.4686     7.4100     2.3311     0.1957     0.0175
   75.0000   -10.0798    13.9101    19.7249    90.4864     7.4100     2.3475     0.1831     0.0175
   75.5000   -10.0784    13.8779    19.6071    91.6412     7.4100     2.3646     0.1846     0.0175
   76.0000   -10.0829    13.8404    19.3716    93.4132     7.4100     2.3781     0.1879     0.0175
   76.5000   -10.3024    13.8037    19.1414    95.3689     7.4128     2.3728     0.1913     0.0194
   77.0000   -10.8691    13.7504    18.9138    97.9513     7.4186     2.3643     0.1936     0.0232
   77.5000   -11.4492    13.6184    18.7470   101.1618     7.4243     2.3593     0.1938     0.0253
   78.0000   -11.6258    13.5129    18.6097   103.2402     7.4298     2.3600     0.1949     0.0247
   78.5000   -11.7811    13.4505    18.4599    99.8821     7.4274     2.3572     0.1973     0.0242
   79.0000   -11.9085    13.3896    18.2482    98.8120     7.4247     2.3560     0.1952     0.0236
   79.5000   -11.9867    13.3288    18.0389    98.6816     7.4220     2.3574     0.1947     0.0231
   80.0000   -12.0760    13.2427    17.8319    96.6930     7.4194     2.3588     0.1947     0.0225
   80.5000   -12.6550    13.0946    17.6274    94.6732     7.4167     2.3603     0.1940     0.0220
   81.0000   -13.0768    12.9481    17.4252    92.6385     7.4141     2.3616     0.1907     0.0219
   81.5000   -13.0727    12.8033    17.1803    92.1937     7.4114     2.3708     0.1813     0.0255
   82.0000   -13.1574    12.6601    16.8716    96.9843     7.4083     2.3828     0.1715     0.0292
   82.5000   -13.5512    12.5186    16.8717   103.1880     7.4046     2.3949     0.1646     0.0330
   83.0000   -13.9345    12.3786    16.8724   109.4619     7.4009     2.4062     0.1641     0.0304
   83.5000   -14.3139    12.0354    16.4945   110.4308     7.3972     2.4094     0.1664     0.0267
   84.0000   -15.0308    11.6361    16.2154   109.3699     7.3935     2.4067     0.1688     0.0230
   84.5000   -15.9662    11.2500    15.1476   107.4912     7.3897     2.4067     0.1605     0.0215
   85.0000   -16.3464    10.7218    13.7403   105.6295     7.4025     2.4137     0.1498     0.0215
   85.5000   -16.7630    10.0757    12.4637   105.0092     7.4173     2.4317     0.1391     0.0215
   86.0000   -19.0341     9.4616    11.3058   111.2049     7.4321     2.4492     0.1276     0.0215
   86.5000   -19.4640     8.8861    10.2554   116.7421     7.4473     2.4668     0.1266     0.0215
   87.0000   -19.6411     8.3457     9.3174   122.3026     7.4483     2.4739     0.1255     0.0214
   87.5000   -20.4702     7.8382     8.4679   127.0076     7.4462     2.4740     0.1232     0.0213
   88.0000   -20.8326     7.5142     7.7290   124.6952     7.4440     2.4775     0.1230     0.0211
   88.5000   -20.8052     7.5142     7.2429   122.4289     7.4418     2.4808     0.1242     0.0209
   89.0000   -20.7689     7.5289     7.2406   121.1229     7.4397     2.4779     0.1251     0.0207
   89.5000   -20.7322     7.5439     7.2415   117.1937     7.4375     2.4750     0.1250     0.0205
   90.0000   -20.6957     7.5589     7.2429   114.3884     7.4354     2.4749     0.1249     0.0203
   90.5000   -20.6617     7.5742     7.2429   116.4711     7.4332     2.4761     0.1248     0.0201
   91.0000   -20.7665     7.5831     7.2429   116.5325     7.4311     2.4771     0.1264     0.0200
   91.5000   -20.8826     7.5326     7.2429   115.7241     7.4306     2.4728     0.1346     0.0198
   92.0000   -20.9979     7.4954     7.2429   114.8227     7.4317     2.4654     0.1347     0.0196
   92.5000   -21.0580     7.4584     7.2429   116.8749     7.4329     2.4578     0.1321     0.0207
   93.0000   -21.0578     7.4216     7.2429   119.6933     7.4341     2.4615     0.1292     0.0235
   93.5000   -21.0574     7.3773     7.2429   121.3071     7.4352     2.4668     0.1278     0.0263
   94.0000   -21.0519     7.4066     7.2430   120.5448     7.4364     2.4721     0.1263     0.0263
   94.5000   -21.2717     7.4440     7.2480   119.1666     7.4376     2.4768     0.1280     0.0232
   95.0000   -21.5313     7.4815     7.2596   119.0920     7.4387     2.4722     0.1319     0.0201
   95.5000   -21.7986     7.5192     7.2711   119.0992     7.4399     2.4674     0.1334     0.0169
   96.0000   -21.9149     7.5572     7.2828   118.9575     7.4410     2.4627     0.1347     0.0155
   96.5000   -21.9931     7.5954     7.2943   118.2157     7.4422     2.4578     0.1361     0.0155
   97.0000   -22.0704     7.6343     7.3093   117.6848     7.4434     2.4567     0.1355     0.0154
   97.5000   -22.1482     7.6536     7.2912   117.7446     7.4445     2.4562     0.1345     0.0141
   98.0000   -22.2260     7.5460     7.2631   119.3641     7.4457     2.4577     0.1321     0.0172
   98.5000   -22.3041     7.4742     7.2353   122.0894     7.4468     2.4626     0.1285     0.0207
   99.0000   -22.3825     7.4031     7.2077   122.5867     7.4480     2.4676     0.1248     0.0231
   99.5000   -22.4522     7.3773     7.1801   118.2696     7.4492     2.4726     0.1230     0.0206
  100.0000   -22.4079     7.3773     7.1527   119.4273     7.4497     2.4778     0.1236     0.0182
