~VERSION INFORMATION
 VERS.                2.0:   CWLS LOG ASCII STANDARD - VERSION 2.0
 WRAP.                 NO:   ONE LINE PER DEPTH STEP
~WELL INFORMATION
#MNEM.UNIT      DATA TYPE    INFORMATION
#----------   ------------   ------------------------------
 STRT.F           40.0000:   START DEPTH
 STOP.F          821.0000:   STOP DEPTH
 STEP.F            0.5000:   STEP LENGTH
 NULL.          -999.2500:   NO VALUE
 COMP. FENIX & SCISSON INC:   COMPANY
 WELL. NPR 3 -68 SX #68-27:   WELL
 FLD .             TEAPOT:   FIELD
 LOC .      S27 T39N R78W:   LOCATION
 CNTY.            NATRONA:   COUNTY
 STAT.            WYOMING:   STATE
 CTRY. UNITED STATES OF AMERICA:   COUNTRY
 SRVC.           BIRDWELL:   SERVICE COMPANY
 DATE.        11-SEP-1978:   LOGDATE
 API .       490251069500:   API NUMBER
~CURVE INFORMATION
#MNEM.UNIT       API CODE    CURVE DESCRIPTION
#----------   ------------   ------------------------------
 DEPT.F                  :   
 SPR .MV     05 010 01 00:   SPONTANEOUS POTENTIAL FROM RES.
 SN  .OHMM   05 040 16 00:   SHORT NORMAL 16"
 ILD .OHMM   05 120 46 00:   INDUCTION LOG DEEP
 GRD .GAPI   45 310 01 00:   GAMMA RAY FROM DENSITY LOG
 CALD.IN     45 280 60 00:   CALIPER
 RHOB.G/C3   45 350 01 00:   BULK DENSITY
 CORR.G/C3   45 356 01 00:   DENSITY CORRECTION
 DPHI.DEC    45 890 12 00:   DENSITY POROSITY SANDSTONE
~PARAMETER INFORMATION
#MNEM.UNIT          VALUE    DESCRIPTION
#----------   ------------   ------------------------------
 PD  .                 GL:   PERMANENT DATUM
 EPD .F              5032:   ELEVATION PERMANENT DATUM
 LMF .                 GL:   LOG MEASURED FROM
 DAPD.F                 4:   FEET ABOVE PERMANENT DATUM
 DMF .                 GL:   DRILLING MEASURED FROM
 EKB .F              5036:   KELLING BUSHING
 EGL .F              5032:   GROUND LEVEL
 DATE.            9-11-78:   RUN DATE
 RUN .                  1:   RUN NUMBER
 DD  .F               820:   DEPTH DRILLER
 DL  .F               822:   DEPTH LOGGER
 BLI .F               818:   BOTTOM LOG INTERVAL
 TLI .F                40:   TOP LOG INTERVAL
 CS  .IN            8.625:   CASING SIZE
 CBD .F                40:   CASING BOTTOM DRILLER
 CBL .F                40:   CASING BOTTOM LOGGER
 BS  .IN            7.875:   BIT SIZE
 BSD .F               820:   BIT SIZE AT DEPTH
 DFT .                KCL:   DRILLING FLUID TYPE
 DFD .                8.6:   DRILLING FLUID DENSITY
 DFV .                 34:   DRILLING FLUID VISCOSITY
 DFPH.                  9:   DRILLING FLUID PH
 DFL .                  8:   DRILLING FLUID LOSS
 MSS .           FLOWLINE:   MUD SAMPLE SOURCE
 RMS .OHMM            .24:   RESISTIVITY MUD SAMPLE
 MST .F                62:   MUD SAMPLE TEMPERATURE
 RMF .OHMM            .18:   RESISTIVITY MUD FILTRATE SAMPLE
 MFST.F                64:   MUD FILTRATE SAMPLE TEMPERATURE
 RMC .OHMM             .3:   RESISTIVITY MUD CAKE
 MCST.F                66:   MUD CAKE SAMPLE TEMPERATURE
 MFSS.               MEAS:   MUD FILTRATE SAMPLE SOURCE
 MCSS.               MEAS:   MUD CAKE SAMPLE SOURCE
 RMB .OHMM            .22:   RESISTIVITY MUD AT BHT
 BHT .F                68:   BOTTOM HOLE TEMPERATURE
 TCS .HRS               1:   TIME CURCULATED STOPPED
 MRT .F                68:   MAXIMUM RECORDED TEMPERATURE
 LUN .               3006:   LOGGING UNIT NUMBER
 LUL .               CASP:   LOGGING UNIT LOCATION
 ENGI.            POINTER:   RECORDING ENGINEER
 WITN.              AMEND:   WITNESSED BY
 CLNT.            A2DTECH:   CLIENT CODE
 ORIG.           5" PRINT:   ORIGIN OF DATA
 UWI .       490251069500:   UNIQUE WELL ID
 DICO. A2D Technologies, Inc.:   DIGITIZING COMPANY
~OTHER INFORMATION
~A   DEPT       SPR        SN        ILD         GRD        CALD     RHOB       CORR       DPHI   
# ...
  445.0000   -37.5748     9.9890     9.1235   118.4918     8.0361     2.5341     0.0193     0.0984
  445.5000   -37.5751    10.0012     9.1082   118.5365     8.0573     2.5324     0.0195     0.0996
  446.0000   -37.5751    10.0135     9.0929   120.6700     8.0786     2.5266     0.0182     0.1007
  446.5000   -37.5751    10.0258     9.0777   121.9497     8.0913     2.5206     0.0168     0.1046
  447.0000   -37.5751    10.0381     9.0625   119.6759     8.0469     2.5124     0.0154     0.1092
  447.5000   -37.5751    10.0504     9.0472   116.1039     7.9967     2.5043     0.0139     0.1138
  448.0000   -37.5751    10.0627     9.0321   112.5317     7.9462     2.5030     0.0125     0.1160
  448.5000   -37.5755    10.0751     9.0169   109.7491     7.8959     2.5044     0.0115     0.1146
  449.0000   -37.5752    10.0874     9.0019   110.4247     7.8455     2.5059     0.0115     0.1124
  449.5000   -37.5719    10.0998     8.9821   113.6926     7.7953     2.5073     0.0125     0.1103
  450.0000   -37.3965    10.1119     9.0651   116.8142     7.7529     2.5088     0.0135     0.1091
  450.5000   -37.0373    10.1232     9.1355   118.3363     7.7091     2.5103     0.0146     0.1101
  451.0000   -36.6769    10.1144     9.2136   117.4329     7.7077     2.5117     0.0157     0.1111
  451.5000   -36.5220    10.2874     9.2959   113.1335     7.7022     2.5128     0.0168     0.1115
  452.0000   -36.4465    10.4185     9.5277   108.4978     7.6971     2.5112     0.0179     0.1102
  452.5000   -36.3727    10.5572     9.7595   103.6182     7.6919     2.5100     0.0189     0.1103
  453.0000   -36.2990    10.6972     9.9021   101.6022     7.6867     2.5067     0.0200     0.1127
  453.5000   -36.2233    10.8389    10.1286   102.9054     7.6816     2.5032     0.0211     0.1151
  454.0000   -36.0633    10.9825    10.1184   104.6860     7.6765     2.5022     0.0222     0.1175
  454.5000   -35.6792    11.1280    10.2134   104.8919     7.6714     2.5013     0.0233     0.1200
  455.0000   -35.5987    11.2755    10.3043   105.1741     7.6688     2.5004     0.0243     0.1200
  455.5000   -35.6895    11.4248    10.3565   107.5710     7.6123     2.5004     0.0255     0.1169
  456.0000   -35.7779    11.5762    10.4093   110.0863     7.5518     2.5019     0.0275     0.1133
  456.5000   -35.4307    11.7296    10.4908   111.1827     7.4915     2.5085     0.0297     0.1097
  457.0000   -34.9704    11.8850    10.4849   110.3679     7.4315     2.5149     0.0322     0.1089
  457.5000   -34.5003    12.0424    10.8884   109.5845     7.3675     2.5189     0.0373     0.1093
  458.0000   -34.4271    12.2020    11.2767   109.9169     7.1985     2.5177     0.0423     0.1097
  458.5000   -34.5060    12.3636    11.6789   110.5339     7.1312     2.5158     0.0473     0.1100
  459.0000   -34.5878    12.5274    12.0953   110.7543     7.1488     2.5177     0.0506     0.1092
  459.5000   -34.6693    12.6934    12.4030   108.5339     7.2238     2.5221     0.0538     0.1078
  460.0000   -34.7505    12.8616    12.5999   105.6426     7.3175     2.5264     0.0571     0.1064
  460.5000   -34.8316    13.0320    12.8000   105.5761     7.4250     2.5303     0.0603     0.1050
  461.0000   -34.9132    13.0989    13.0032   108.6357     7.5334     2.5300     0.0635     0.1036
  461.5000   -35.0279    12.8793    13.2096   110.8022     7.6418     2.5288     0.0668     0.1022
  462.0000   -35.2312    12.7261    13.4193   111.9205     7.7505     2.5298     0.0670     0.1007
  462.5000   -35.5169    12.5745    13.5893   111.6142     7.8495     2.5345     0.0665     0.0992
  463.0000   -36.0218    12.4251    13.3534   108.1367     7.9377     2.5392     0.0660     0.0977
  463.5000   -36.5233    12.2686    13.0639   103.1552     8.0253     2.5390     0.0653     0.0959
  464.0000   -37.0240    12.2034    12.7808    98.2227     8.0913     2.5370     0.0608     0.0948
  464.5000   -37.5253    12.1386    12.5037    97.0155     8.0826     2.5317     0.0561     0.0965
  465.0000   -37.7558    12.0741    12.2327    96.1494     8.0663     2.5264     0.0514     0.0981
  465.5000   -37.7154    12.0099    11.9675    95.0036     8.0503     2.5212     0.0468     0.1006
  466.0000   -37.6757    11.9461    11.7081    95.4084     8.0342     2.5160     0.0421     0.1034
  466.5000   -37.6353    11.8826    11.4543   101.9074     8.0181     2.5118     0.0384     0.1062
  467.0000   -37.5952    11.8195    11.2060   112.6022     7.9596     2.5116     0.0359     0.1084
  467.5000   -37.5813    11.7567    11.0554   115.0248     7.8582     2.5113     0.0334     0.1094
  468.0000   -37.5937    11.6942    10.9354   114.0019     7.7522     2.5109     0.0309     0.1104
  468.5000   -37.6060    11.6320    10.8167   116.6926     7.7347     2.5026     0.0283     0.1104
  469.0000   -37.6185    11.5702    10.6994   116.5178     7.7194     2.4931     0.0258     0.1211
  469.5000   -37.6308    11.5087    10.6000   115.1758     7.7037     2.4871     0.0250     0.1256
  470.0000   -37.6432    11.4476    10.6314   114.6471     7.6895     2.4828     0.0244     0.1139
  470.5000   -37.6556    11.3868    10.6739   114.6214     7.6832     2.4786     0.0238     0.1252
  471.0000   -37.6679    11.3263    10.7166   113.7123     7.6760     2.4744     0.0232     0.1317
  471.5000   -37.6803    11.2661    10.7593   112.7997     7.6698     2.4721     0.0226     0.1382
  472.0000   -37.6927    11.2070    10.7974   113.3149     7.6694     2.4710     0.0221     0.1417
  472.5000   -37.7050    11.0936    10.7249   119.5602     7.6934     2.4735     0.0212     0.1328
  473.0000   -37.7174    11.0912    10.6476   126.4038     7.7240     2.4806     0.0157     0.1221
  473.5000   -37.7298    11.0766    10.5709   127.5077     7.7547     2.4909     0.0103     0.1178
  474.0000   -37.7422    11.0660    10.4947   121.6612     7.7850     2.5010     0.0088     0.1136
  474.5000   -37.7545    11.0555    10.4190   114.6041     7.8122     2.5051     0.0114     0.1128
  475.0000   -37.7669    11.0449    10.3438   120.5523     7.8646     2.5027     0.0139     0.1172
  475.5000   -37.7757    11.0344    10.2693   123.2253     7.9199     2.4995     0.0165     0.1206
  476.0000   -37.7756    11.0241    10.2170   110.1084     7.9752     2.4962     0.0191     0.1236
  476.5000   -37.7756    11.0133    10.2170    97.0241     8.0304     2.4960     0.0217     0.1213
  477.0000   -37.7756    11.0028    10.2171    92.4752     8.0857     2.4957     0.0236     0.1180
  477.5000   -37.7756    10.8722    10.2186    94.7405     8.1414     2.4932     0.0237     0.1160
  478.0000   -37.7756    10.6169    10.2201   100.4914     8.1506     2.4908     0.0239     0.1160
  478.5000   -37.7756    10.3676     9.9683   109.3753     8.1534     2.4953     0.0241     0.1125
  479.0000   -37.7756    10.1242     9.6942   116.2681     8.1559     2.5020     0.0243     0.1084
  479.5000   -37.7756     9.8865     9.4265   112.4094     8.1586     2.5088     0.0244     0.1083
  480.0000   -37.7756     9.6682     9.2335    99.0410     8.1612     2.5130     0.0246     0.1094
  480.5000   -37.7756     9.6682     9.2406    93.1014     8.1639     2.5116     0.0248     0.1134
  481.0000   -37.7756     9.6885     9.2473   104.1014     8.1665     2.5091     0.0250     0.1176
  481.5000   -37.7755     9.7046     9.2541   118.6855     8.1690     2.5066     0.0251     0.1172
  482.0000   -37.7753     9.7208     9.2608   118.8813     8.1567     2.5041     0.0253     0.1166
  482.5000   -37.7861     9.7370     9.2675   103.9331     8.1290     2.5034     0.0260     0.1164
  483.0000   -37.8009     9.7533     9.2743    98.4950     8.1014     2.5028     0.0275     0.1178
  483.5000   -37.8159     9.7695     9.2810    96.5546     8.0737     2.5023     0.0305     0.1192
  484.0000   -37.8309     9.7858     9.2878   108.7157     8.0460     2.4992     0.0337     0.1196
  484.5000   -37.8458     9.8021     9.2945   114.1774     8.0183     2.4943     0.0369     0.1196
  485.0000   -37.8608     9.8182     9.3013   110.3063     7.9906     2.4895     0.0397     0.1216
