~VERSION INFORMATION
 VERS.                2.0:   CWLS LOG ASCII STANDARD - VERSION 2.0
 WRAP.                 NO:   ONE LINE PER DEPTH STEP
~WELL INFORMATION
#MNEM.UNIT      DATA TYPE    INFORMATION
#----------   ------------   ------------------------------
 STRT.F            0.0000:   START DEPTH
 STOP.F          555.0000:   STOP DEPTH
 STEP.F            0.5000:   STEP LENGTH
 NULL.          -999.2500:   NO VALUE
 COMP.       F D SERV INC:   COMPANY
 WELL. NAVAL PETROLEUM RESERVE 3 SX-3 #77-3:   WELL
 FLD .        N. P. R NO3:   FIELD
 LOC .       S3 T38N R78W:   LOCATION
 CNTY.            NATRONA:   COUNTY
 STAT.            WYOMING:   STATE
 CTRY. UNITED STATES OF AMERICA:   COUNTRY
 SRVC.     Atlas Wireline:   SERVICE COMPANY
 DATE.        26-OCT-1992:   LOGDATE
 API .       490252255200:   API NUMBER
~CURVE INFORMATION
#MNEM.UNIT       API CODE    CURVE DESCRIPTION
#----------   ------------   ------------------------------
 DEPT.F                  :   
 GRR .GAPI   07 310 01 00:   GAMMA RAY
 RILD.OHMM   07 120 46 00:   INDUCTION LOG DEEP RESISTIVITY
 RILM.OHMM   07 120 44 00:   INDUCTION LOG MEDIUM RESISTIVITY
~PARAMETER INFORMATION
#MNEM.UNIT          VALUE    DESCRIPTION
#----------   ------------   ------------------------------
 PD  .                 GL:   PERMANENT DATUM
 EPD .F              5161:   ELEVATION PERMANENT DATUM
 LMF .                 KB:   LOG MEASURED FROM
 DAPD.F                10:   FEET ABOVE PERMANENT DATUM
 DMF .                 KB:   DRILLING MEASURED FROM
 EKB .F              5171:   KELLING BUSHING
 EDF .F              5170:   DRILLING FLOOR
 EGL .F              5161:   GROUND LEVEL
 DATE.        26-OCT-1992:   RUN DATE
 RUN .                  1:   RUN NUMBER
 DD  .F               562:   DEPTH DRILLER
 DL  .F               563:   DEPTH LOGGER
 BLI .F               555:   BOTTOM LOG INTERVAL
 CS  .IN            8.625:   CASING SIZE
 CBD .F                85:   CASING BOTTOM DRILLER
 CBL .F                56:   CASING BOTTOM LOGGER
 BS  .IN            7.875:   BIT SIZE
 BSD .F               562:   BIT SIZE AT DEPTH
 DFT .           AIR FOAM:   DRILLING FLUID TYPE
 TCS .HRS               1:   TIME CURCULATED STOPPED
 MRT .F                67:   MAXIMUM RECORDED TEMPERATURE
 LUN .            HL-6274:   LOGGING UNIT NUMBER
 LUL .             CASPER:   LOGGING UNIT LOCATION
 ENGI.             RAUTIO:   RECORDING ENGINEER
 WITN.        GARY STRONG:   WITNESSED BY
 CLNT.            A2DTECH:   CLIENT CODE
 ORIG.           5" PRINT:   ORIGIN OF DATA
 UWI .       490252255200:   UNIQUE WELL ID
 DICO. A2D Technologies, Inc.:   DIGITIZING COMPANY
~OTHER INFORMATION
~A    DEPT      GRR      RILD       RILM   
    0.0000    15.1976  -999.2500  -999.2500
    0.5000    24.5431  -999.2500  -999.2500
    1.0000    34.6140  -999.2500  -999.2500
    1.5000    37.6721  -999.2500  -999.2500
    2.0000    36.4488  -999.2500  -999.2500
    2.5000    32.7954  -999.2500  -999.2500
    3.0000    28.2302  -999.2500  -999.2500
    3.5000    20.9294  -999.2500  -999.2500
    4.0000    16.6681  -999.2500  -999.2500
    4.5000    13.6226  -999.2500  -999.2500
    5.0000    11.1851  -999.2500  -999.2500
    5.5000     9.6593  -999.2500  -999.2500
    6.0000    10.5652  -999.2500  -999.2500
    6.5000    10.5593  -999.2500  -999.2500
    7.0000    10.2492  -999.2500  -999.2500
    7.5000    11.2918  -999.2500  -999.2500
    8.0000    14.4927  -999.2500  -999.2500
    8.5000    14.7907  -999.2500  -999.2500
    9.0000    15.6951  -999.2500  -999.2500
    9.5000    18.7287  -999.2500  -999.2500
   10.0000    29.0571  -999.2500  -999.2500
   10.5000    43.3368  -999.2500  -999.2500
   11.0000    58.8324  -999.2500  -999.2500
   11.5000    67.6410  -999.2500  -999.2500
   12.0000    71.5864  -999.2500  -999.2500
   12.5000    74.3160  -999.2500  -999.2500
   13.0000    69.1428  -999.2500  -999.2500
   13.5000    58.7812  -999.2500  -999.2500
   14.0000    65.0618  -999.2500  -999.2500
   14.5000    74.8985  -999.2500  -999.2500
   15.0000    77.3242  -999.2500  -999.2500
   15.5000    80.0538  -999.2500  -999.2500
   16.0000    81.8715  -999.2500  -999.2500
   16.5000    82.7789  -999.2500  -999.2500
   17.0000    77.6043  -999.2500  -999.2500
   17.5000    74.5588  -999.2500  -999.2500
   18.0000    73.6410  -999.2500  -999.2500
   18.5000    72.1153  -999.2500  -999.2500
   19.0000    70.8935  -999.2500  -999.2500
   19.5000    69.3678  -999.2500  -999.2500
   20.0000    70.3141  -999.2500  -999.2500
   20.5000    73.0902  -999.2500  -999.2500
   21.0000    74.5170  -999.2500  -999.2500
   21.5000    73.5977  -999.2500  -999.2500
   22.0000    72.6799  -999.2500  -999.2500
   22.5000    72.3715  -999.2500  -999.2500
   23.0000    73.2759  -999.2500  -999.2500
   23.5000    75.7015  -999.2500  -999.2500
   24.0000    77.5193  -999.2500  -999.2500
   24.5000    79.0331  -999.2500  -999.2500
   25.0000    80.8508  -999.2500  -999.2500
   25.5000    82.0607  -999.2500  -999.2500
   26.0000    82.3587  -999.2500  -999.2500
   26.5000    82.3526  -999.2500  -999.2500
   27.0000    82.0426  -999.2500  -999.2500
   27.5000    81.1235  -999.2500  -999.2500
   28.0000    78.6859  -999.2500  -999.2500
   28.5000    76.8562  -999.2500  -999.2500
   29.0000    74.4186  -999.2500  -999.2500
   29.5000    72.5890  -999.2500  -999.2500
   30.0000    71.9751  -999.2500  -999.2500
   30.5000    74.0968  -999.2500  -999.2500
   31.0000    76.2185  -999.2500  -999.2500
   31.5000    74.9967  -999.2500  -999.2500
   32.0000    74.9625  -999.2500  -999.2500
   32.5000    76.5045  -999.2500  -999.2500
   33.0000    78.0547  -999.2500  -999.2500
   33.5000    79.2282  -999.2500  -999.2500
   34.0000    75.8773  -999.2500  -999.2500
   34.5000    74.6555  -999.2500  -999.2500
   35.0000    76.1693  -999.2500  -999.2500
   35.5000    76.7727  -999.2500  -999.2500
   36.0000    74.3336  -999.2500  -999.2500
   36.5000    73.7213  -999.2500  -999.2500
   37.0000    75.2336  -999.2500  -999.2500
   37.5000    76.4434  -999.2500  -999.2500
   38.0000    76.1335  -999.2500  -999.2500
   38.5000    75.2157  -999.2500  -999.2500
   39.0000    76.1216  -999.2500  -999.2500
   39.5000    76.7235  -999.2500  -999.2500
   40.0000    77.4063  -999.2500  -999.2500
   40.5000    79.7496  -999.2500  -999.2500
   41.0000    80.6570  -999.2500  -999.2500
   41.5000    78.2179  -999.2500  -999.2500
   42.0000    77.3001  -999.2500  -999.2500
   42.5000    77.2941  -999.2500  -999.2500
   43.0000    77.2882  -999.2500  -999.2500
   43.5000    77.8916  -999.2500  -999.2500
   44.0000    77.5802  -999.2500  -999.2500
   44.5000    77.5742  -999.2500  -999.2500
   45.0000    77.2643  -999.2500  -999.2500
   45.5000    76.3465  -999.2500  -999.2500
   46.0000    78.8045  -999.2500  -999.2500
   46.5000    80.2859  -999.2500  -999.2500
   47.0000    80.5824  -999.2500  -999.2500
   47.5000    82.7041  -999.2500  -999.2500
   48.0000    85.7376  -999.2500  -999.2500
   48.5000    88.7712  -999.2500  -999.2500
   49.0000    91.1968  -999.2500  -999.2500
   49.5000    93.6225  -999.2500  -999.2500
   50.0000    95.4402  -999.2500  -999.2500
   50.5000    96.0422  -999.2500  -999.2500
   51.0000    96.3404  -999.2500  -999.2500
   51.5000    96.9421  -999.2500  -999.2500
   52.0000    99.6590  -999.2500  -999.2500
   52.5000   102.9836  -999.2500  -999.2500
   53.0000   105.7021  -999.2500  -999.2500
   53.5000   104.7843  -999.2500  -999.2500
   54.0000   100.8361  -999.2500  -999.2500
   54.5000   107.7956  -999.2500  -999.2500
   55.0000   122.9384  -999.2500  -999.2500
   55.5000   131.7175  -999.2500  -999.2500
   56.0000   135.9512     3.3487     3.6235
   56.5000   135.0333     2.1058     3.8949
   57.0000   134.1155     2.4730     5.3331
   57.5000   135.6197     5.0046     7.9957
   58.0000   136.8252    10.5609    10.2817
   58.5000   136.8143    14.5607    13.3138
   59.0000   136.1987    16.6282    18.0748
   59.5000   133.7657     9.4515    20.6764
   60.0000   129.6967     8.6941    19.1540
   60.5000   129.3909     8.7563    12.3443
   61.0000   132.1136     8.2830    11.5147
   61.5000   133.6339     8.0563    12.1798
   62.0000   134.2274     7.8913    12.0984
   62.5000   130.2834    10.4175    11.8510
   63.0000   125.4313    12.5127    11.5287
   63.5000   123.6094    12.8694    11.2929
   64.0000   122.3936    12.2584    11.2167
   64.5000   122.0869    11.3551    11.0650
   65.0000   120.2650    10.9674    10.8379
   65.5000   120.2601    10.5204    10.5432
   66.0000   122.4495    10.3046    10.3276
   66.5000   126.3137    10.3793    10.3311
   67.0000   130.2494    10.3814    10.3339
   67.5000   134.4882    10.3108    10.3366
   68.0000   137.8178    10.1705    10.1961
   68.5000   140.8444    10.1013     9.9876
   69.0000   141.1439    10.1039     9.7834
   69.5000   141.1401    10.0356     9.7180
   70.0000   139.8737     9.9587     9.6530
   70.5000   135.6773     9.8317     9.7239
   71.0000   131.1282     9.7653     9.7946
   71.5000   128.3972     9.7680     9.8658
   72.0000   127.7884     9.7700     9.9376
   72.5000   130.2080     9.7719     9.8025
   73.0000   130.8113     9.7060     9.6693
   73.5000   127.1704     9.6399     9.5379
   74.0000   127.1667     9.5087     9.4748
   74.5000   127.5177     9.3769     9.3453
   75.0000   129.8857     9.2508     9.2829
   75.5000   135.3366     9.2531     9.2208
   76.0000   140.1823     9.3850     9.3535
   76.5000   139.2686     9.5855     9.5540
   77.0000   138.9619     9.5874     9.4211
   77.5000   139.2614     9.5894     9.2314
   78.0000   141.6919     9.3926     9.1059
   78.5000   142.2842     9.2644     9.1728
   79.0000   141.3705     9.2018     9.2395
   79.5000   138.6396     9.2686     9.2420
   80.0000   138.0308     9.2705     9.2445
   80.5000   139.5413     9.2723     9.1827
   81.0000   141.0537     9.2093     9.1213
   81.5000   141.3939     9.0839     9.0603
   82.0000   140.1363     8.9549     8.9378
   82.5000   137.3737     8.7760     8.7550
   83.0000   136.4926     8.5960     8.5163
   83.5000   140.4274     8.3611     8.3416
   84.0000   142.8480     8.1326     8.1147
   84.5000   141.9352     7.8011     7.8935
   85.0000   140.4164     7.5352     7.6783
   85.5000   140.1097     7.3806     7.4695
   86.0000   141.0145     7.4862     7.3167
   86.5000   146.1623     7.5929     7.4735
   87.0000   147.0687     7.7012     7.6871
   87.5000   141.6095     7.9208     7.9068
   88.0000   134.0301     8.1466     8.1359
   88.5000   131.9052     8.3789     8.3658
   89.0000   130.6894     8.5578     8.6049
   89.5000   129.0922     8.6878     8.7893
   90.0000   125.8326     8.8657     9.0405
   90.5000   123.4047     8.9291     9.1063
