~VERSION INFORMATION
 VERS.                2.0:   CWLS LOG ASCII STANDARD - VERSION 2.0
 WRAP.                 NO:   ONE LINE PER DEPTH STEP
~WELL INFORMATION
#MNEM.UNIT      DATA TYPE    INFORMATION
#----------   ------------   ------------------------------
 STRT.F         1304.0000:   START DEPTH
 STOP.F         2900.0000:   STOP DEPTH
 STEP.F            0.5000:   STEP LENGTH
 NULL.          -999.2500:   NO VALUE
 COMP.   FLUOR DANIEL INC:   COMPANY
 WELL. NAVAL PETROLEUM RESERVE 3 SHX- #18-14:   WELL
 FLD .             TEAPOT:   FIELD
 LOC .      S14 T38N R78W:   LOCATION
 CNTY.            NATRONA:   COUNTY
 STAT.            WYOMING:   STATE
 CTRY. UNITED STATES OF AMERICA:   COUNTRY
 SRVC.            Unknown:   SERVICE COMPANY
 DATE.        17-APR-1995:   LOGDATE
 API .       490252270800:   API NUMBER
~CURVE INFORMATION
#MNEM.UNIT       API CODE    CURVE DESCRIPTION
#----------   ------------   ------------------------------
 DEPT.F                  :   
 ROP .FT/HR  91 810 01 00:   RAT OF DRILLING PENETRATION
 TGAS.TC/CC  91 830 01 00:   TOTAL GAS UNIT
~PARAMETER INFORMATION
#MNEM.UNIT          VALUE    DESCRIPTION
#----------   ------------   ------------------------------
 EKB .F              5271:   KELLING BUSHING
 EGL .F              5281:   GROUND LEVEL
 DATE.        17-APR-1995:   RUN DATE
 RUN .                  1:   RUN NUMBER
 BLI .F              2900:   BOTTOM LOG INTERVAL
 TLI .F              1310:   TOP LOG INTERVAL
 WITN.     C.TOWER/R.HUSK:   WITNESSED BY
 CLNT.            A2DTECH:   CLIENT CODE
 ORIG.           5" PRINT:   ORIGIN OF DATA
 UWI .       490252270800:   UNIQUE WELL ID
 DICO. A2D Technologies, Inc.:   DIGITIZING COMPANY
~OTHER INFORMATION
~A  DEPT         ROP     TGAS   
# ...
 1547.0000     0.5207    60.9660
 1547.5000     0.5216    61.1731
 1548.0000     0.5224    61.7125
 1548.5000     0.5233    61.8975
 1549.0000     0.5242    62.0825
 1549.5000     0.5251    62.4571
 1550.0000     0.5259    62.4738
 1550.5000     0.5268    62.5996
 1551.0000     0.5277    62.7254
 1551.5000     0.5285    62.8361
 1552.0000     0.5294    62.8379
 1552.5000     0.5303    63.0285
 1553.0000     0.5312    63.0303
 1553.5000     0.5320    62.8431
 1554.0000     0.5329    62.4680
 1554.5000     0.5338    61.9038
 1555.0000     0.5346    61.5283
 1555.5000     0.5355    61.3415
 1556.0000     0.5364    61.1547
 1556.5000     0.6497    61.1566
 1557.0000     0.6591    61.1585
 1557.5000     0.6497    60.9716
 1558.0000     0.6215    60.9739
 1558.5000     0.5172    60.9758
 1559.0000     0.5085    60.9777
 1559.5000     0.5273    60.9795
 1560.0000     0.5179    60.9814
 1560.5000     0.5179    60.9832
 1561.0000     0.5088    60.9851
 1561.5000     0.5092    61.1756
 1562.0000     0.5097    61.1775
 1562.5000     0.5102    60.9902
 1563.0000     0.5107    60.9925
 1563.5000     0.5111    60.9944
 1564.0000     0.5116    60.6189
 1564.5000     0.5121    60.6208
 1565.0000     0.5126    60.6226
 1565.5000     0.5130    60.6245
 1566.0000     0.5135    60.5988
 1566.5000     0.5140    60.4395
 1567.0000     0.5145    60.4419
 1567.5000     0.5149    60.4437
 1568.0000     0.5154    60.4456
 1568.5000     0.5159    60.4474
 1569.0000     0.5164    60.4493
 1569.5000     0.5169    60.4512
 1570.0000     0.5173    60.4530
 1570.5000     0.5179    60.4549
 1571.0000     0.5186    60.2681
 1571.5000     0.5195    60.2699
 1572.0000     0.5203    60.2718
 1572.5000     0.5212    60.2736
 1573.0000     0.5220    60.4642
 1573.5000     0.5229    60.4660
 1574.0000     0.5238    60.4679
 1574.5000     0.5246    60.3651
 1575.0000     0.5255    60.2830
 1575.5000     0.5264    60.4739
 1576.0000     0.7815    60.2867
 1576.5000     0.7795    60.2890
 1577.0000     0.7772    60.2908
 1577.5000     0.7750    60.2925
 1578.0000     0.7727    60.2943
 1578.5000     0.6309    60.2964
 1579.0000     0.6309    60.2983
 1579.5000     0.6591    60.3001
 1580.0000     0.7156    60.3020
 1580.5000     0.6780    60.3039
 1581.0000     0.6780    60.3057
 1581.5000     0.6780    60.3075
 1582.0000     0.6874    60.3095
 1582.5000     0.5838    60.3113
 1583.0000     0.5367    60.3132
 1583.5000     0.5273    60.3151
 1584.0000     0.5277    60.3170
 1584.5000     0.5300    60.3192
 1585.0000     0.5323    60.3211
 1585.5000     0.5346    60.3226
 1586.0000     0.5369    60.3248
 1586.5000     0.5391    60.3267
 1587.0000     0.5414    60.3285
 1587.5000     0.5437    60.1511
 1588.0000     0.5461    60.1777
 1588.5000     0.6685    60.2043
 1589.0000     0.6591    60.2309
 1589.5000     0.6591    60.2575
 1590.0000     0.5813    60.2840
 1590.5000     0.5273    60.3106
 1591.0000     0.5273    60.3372
 1591.5000     0.5273    60.3453
 1592.0000     0.5273    60.3472
 1592.5000     0.5273    60.3491
 1593.0000     0.5273    60.3513
 1593.5000     0.5273    60.3532
 1594.0000     0.5273    60.5437
 1594.5000     0.5367    60.3564
 1595.0000     0.5367    60.3588
 1595.5000     0.5273    60.3606
 1596.0000     0.5273    60.3625
 1596.5000     0.5273    60.3643
 1597.0000     0.5273    60.3662
 1597.5000     0.5273    60.1794
 1598.0000     0.5273    59.9921
 1598.5000     0.5273    60.1831
 1599.0000     0.5273    60.3736
 1599.5000     0.5273    60.3755
 1600.0000     0.5382    60.3774
 1600.5000     0.6782    60.2948
 1601.0000     0.6783    60.2122
 1601.5000     0.6785    60.1296
 1602.0000     0.6787    60.0471
 1602.5000     0.6789    60.3870
 1603.0000     0.6791    60.5775
 1603.5000     0.6793    60.3907
 1604.0000     0.6795    60.3925
 1604.5000     0.6797    60.3944
 1605.0000     0.6798    60.3962
 1605.5000     0.6800    60.2094
 1606.0000     0.6802    60.5890
 1606.5000     0.6804    61.1569
 1607.0000     0.6806    61.9135
 1607.5000     0.6808    63.4247
 1608.0000     0.6810    64.3700
 1608.5000     0.6812    65.3152
 1609.0000     0.6814    65.6944
 1609.5000     0.6815    65.8849
 1610.0000     0.6817    65.3083
 1610.5000     0.6819    64.5678
 1611.0000     0.6821    63.8154
 1611.5000     0.6823    63.0625
 1612.0000     0.6825    62.3092
 1612.5000     0.6827    61.5563
 1613.0000     0.6829    61.1808
 1613.5000     0.6831    60.8053
 1614.0000     0.6832    60.8076
 1614.5000     0.6834    61.1868
 1615.0000     0.6836    61.1887
 1615.5000     0.6838    61.1909
 1616.0000     0.6840    60.8150
 1616.5000     0.6842    60.6281
 1617.0000     0.6844    60.4413
 1617.5000     0.6846    60.4436
 1618.0000     0.6847    60.4453
 1618.5000     0.6849    60.4473
 1619.0000     0.6851    60.4491
 1619.5000     0.6853    60.4509
 1620.0000     0.6855    60.2641
 1620.5000     0.6857    60.4547
 1621.0000     0.6859    60.4569
 1621.5000     0.6861    60.4585
 1622.0000     0.6769    60.4604
 1622.5000     0.5712    60.4624
 1623.0000     0.5676    60.2756
 1623.5000     0.5639    60.4661
 1624.0000     0.5602    60.4679
 1624.5000     0.5566    60.4698
 1625.0000     0.5556    60.4717
 1625.5000     0.5557    60.4739
 1626.0000     0.5559    60.2868
 1626.5000     0.5561    60.2889
 1627.0000     0.5563    60.2632
 1627.5000     0.5565    60.1035
 1628.0000     0.5567    60.1057
 1628.5000     0.5569    60.1076
 1629.0000     0.5571    60.1094
 1629.5000     0.5573    59.9226
 1630.0000     0.5574    59.9249
 1630.5000     0.5576    59.9267
 1631.0000     0.5578    59.7394
 1631.5000     0.5580    59.6934
 1632.0000     0.5582    59.1775
 1632.5000     0.5584    58.9902
 1633.0000     0.5586    58.6147
 1633.5000     0.5588    58.6170
 1634.0000     0.5589    58.6189
 1634.5000     0.5591    58.6208
 1635.0000     0.5593    58.6230
 1635.5000     0.5595    58.6248
 1636.0000     0.5597    58.4375
 1636.5000     0.5599    58.4398
 1637.0000     0.5601    58.6302
 1637.5000     0.5603    58.6321
 1638.0000     0.5605    58.5535
 1638.5000     0.5606    58.4472
 1639.0000     0.5608    58.0604
 1639.5000     0.5610    57.6962
 1640.0000     0.5612    57.5094
 1640.5000     0.5614    57.5113
 1641.0000     0.5616    57.7021
 1641.5000     0.5618    57.7040
 1642.0000     0.5620    57.7058
 1642.5000     0.6743    57.7076
 1643.0000     0.6727    57.5208
 1643.5000     0.6710    57.5226
 1644.0000     0.6694    57.5245
 1644.5000     0.6678    57.3284
 1645.0000     0.6662    57.1508
 1645.5000     0.6645    57.3415
 1646.0000     0.6629    57.1545
 1646.5000     0.6613    56.9676
 1647.0000     0.6596    56.9699
 1647.5000     0.6580    56.9718
 1648.0000     0.6564    56.7849
 1648.5000     0.6548    56.9755
 1649.0000     0.6531    56.9774
 1649.5000     0.6515    56.7909
 1650.0000     0.6497    56.7987
 1650.5000     0.8006    56.8391
 1651.0000     0.8008    56.8794
 1651.5000     0.8009    56.9198
 1652.0000     0.8011    56.9524
 1652.5000     0.5280    56.9432
 1653.0000     0.5279    56.5585
 1653.5000     0.5277    56.5509
 1654.0000     0.5276    56.7325
 1654.5000     0.5274    56.5347
 1655.0000     0.5272    56.7178
 1655.5000     0.5271    56.7087
 1656.0000     0.5269    56.7013
 1656.5000     0.5268    56.8845
 1657.0000     0.5266    56.8753
 1657.5000     0.5265    56.8679
 1658.0000     0.5263    56.6717
 1658.5000     0.5262    56.6628
 1659.0000     0.5260    56.6555
 1659.5000     0.5259    56.6481
 1660.0000     0.5257    56.8295
 1660.5000     0.5256    56.8226
 1661.0000     0.5254    57.0038
 1661.5000     0.5253    56.8074
 1662.0000     0.5251    56.8000
 1662.5000     0.5249    56.7925
 1663.0000     0.5248    56.5949
 1663.5000     0.5246    56.5876
 1664.0000     0.5245    56.5802
 1664.5000     0.5243    56.5729
 1665.0000     0.5242    56.7561
 1665.5000     0.5240    56.5582
 1666.0000     0.5519    56.5509
 1666.5000     0.6455    56.5434
 1667.0000     0.6440    56.5344
 1667.5000     0.6424    56.3383
 1668.0000     0.6408    56.3310
