~VERSION INFORMATION
 VERS.                2.0:   CWLS LOG ASCII STANDARD - VERSION 2.0
 WRAP.                 NO:   ONE LINE PER DEPTH STEP
~WELL INFORMATION
#MNEM.UNIT      DATA TYPE    INFORMATION
#----------   ------------   ------------------------------
 STRT.F           30.0000:   START DEPTH
 STOP.F          444.0000:   STOP DEPTH
 STEP.F            0.5000:   STEP LENGTH
 NULL.          -999.2500:   NO VALUE
 COMP. FENIX & SCISSON INC:   COMPANY
 WELL.       SX 3FO #54-3:   WELL
 FLD .             TEAPOT:   FIELD
 LOC .       S3 T38N R78W:   LOCATION
 CNTY.            NATRONA:   COUNTY
 STAT.            WYOMING:   STATE
 CTRY. UNITED STATES OF AMERICA:   COUNTRY
 SRVC.              Welex:   SERVICE COMPANY
 DATE.        08-JUL-1980:   LOGDATE
 API .       490251082800:   API NUMBER
~CURVE INFORMATION
#MNEM.UNIT       API CODE    CURVE DESCRIPTION
#----------   ------------   ------------------------------
 DEPT.F                  :   
 GRD .GAPI   45 310 01 00:   GAMMA RAY FROM DENSITY LOG
 CALD.IN     45 280 60 00:   CALIPER
 RHOB.G/C3   45 350 01 00:   BULK DENSITY
 DPHI.DEC    45 890 12 00:   DENSITY POROSITY SANDSTONE
 CORR.G/C3   45 356 01 00:   DENSITY CORRECTION
~PARAMETER INFORMATION
#MNEM.UNIT          VALUE    DESCRIPTION
#----------   ------------   ------------------------------
 PD  .                 GL:   PERMANENT DATUM
 EPD .F              5162:   ELEVATION PERMANENT DATUM
 LMF .                 KB:   LOG MEASURED FROM
 DAPD.F                 5:   FEET ABOVE PERMANENT DATUM
 DMF .                 KB:   DRILLING MEASURED FROM
 EKB .F              5167:   KELLING BUSHING
 EGL .F              5162:   GROUND LEVEL
 DATE.             7-8-80:   RUN DATE
 RUN .                  1:   RUN NUMBER
 DD  .F               470:   DEPTH DRILLER
 DL  .F               446:   DEPTH LOGGER
 BLI .F               444:   BOTTOM LOG INTERVAL
 TLI .F                30:   TOP LOG INTERVAL
 CS  .IN                7:   CASING SIZE
 CBD .F                43:   CASING BOTTOM DRILLER
 BS  .IN             6.25:   BIT SIZE
 BSD .F               470:   BIT SIZE AT DEPTH
 DFT .        AIR DRILLED:   DRILLING FLUID TYPE
 BHT .F                75:   BOTTOM HOLE TEMPERATURE
 TCS .HRS             2.5:   TIME CURCULATED STOPPED
 MRT .F                75:   MAXIMUM RECORDED TEMPERATURE
 ENGI.               REIN:   RECORDING ENGINEER
 WITN.            RHOADES:   WITNESSED BY
 CLNT.            A2DTECH:   CLIENT CODE
 ORIG.           5" PRINT:   ORIGIN OF DATA
 UWI .       490251082800:   UNIQUE WELL ID
 DICO. A2D Technologies, Inc.:   DIGITIZING COMPANY
~OTHER INFORMATION
~A   DEPT       GRD      CALD       RHOB       DPHI       CORR   
# ...
  213.0000   116.4793     5.9139     2.5094     0.1057     0.0779
  213.5000   116.7029     5.9104     2.5082     0.1074     0.0790
  214.0000   115.3028     5.9069     2.5065     0.1053     0.0802
  214.5000   113.8718     5.9034     2.5079     0.1051     0.0813
  215.0000   113.1312     5.9010     2.5093     0.1054     0.0823
  215.5000   114.2041     5.9060     2.5101     0.1034     0.0830
  216.0000   115.7167     5.9115     2.5073     0.1055     0.0838
  216.5000   117.2145     5.9169     2.5054     0.1082     0.0846
  217.0000   118.5023     5.9209     2.5047     0.1067     0.0853
  217.5000   119.6677     5.9208     2.5023     0.1086     0.0854
  218.0000   118.9855     5.9208     2.4961     0.1129     0.0827
  218.5000   117.9983     5.9207     2.4899     0.1171     0.0799
  219.0000   117.0027     5.9209     2.4838     0.1214     0.0796
  219.5000   116.5860     5.9280     2.4783     0.1238     0.0873
  220.0000   118.9119     5.9582     2.4871     0.1186     0.0972
  220.5000   120.5842     5.9809     2.4986     0.1118     0.1071
  221.0000   120.0470     5.9543     2.5045     0.1062     0.1171
  221.5000   120.7840     5.9242     2.5087     0.1062     0.1248
  222.0000   121.2343     5.8992     2.5128     0.1019     0.1330
  222.5000   120.1336     5.8946     2.5172     0.0964     0.1417
  223.0000   119.0788     5.8894     2.5230     0.0922     0.1419
  223.5000   117.1957     5.8841     2.5287     0.0954     0.1352
  224.0000   114.9457     5.8688     2.5375     0.0912     0.1287
  224.5000   115.6300     5.8384     2.5431     0.0858     0.1223
  225.0000   116.8500     5.8080     2.5451     0.0833     0.1187
  225.5000   118.0796     5.8294     2.5527     0.0747     0.1321
  226.0000   119.5910     5.8732     2.5735     0.0662     0.1458
  226.5000   121.1324     5.8927     2.5826     0.0615     0.1559
  227.0000   120.9430     5.8695     2.5843     0.0615     0.1526
  227.5000   119.5780     5.8465     2.5800     0.0643     0.1463
  228.0000   119.1656     5.8416     2.5750     0.0669     0.1400
  228.5000   119.7374     5.8413     2.5700     0.0696     0.1337
  229.0000   120.2774     5.8346     2.5651     0.0722     0.1276
  229.5000   122.1454     5.8129     2.5613     0.0730     0.1213
  230.0000   123.6574     5.8831     2.5625     0.0725     0.1160
  230.5000   123.6434     5.9764     2.5643     0.0716     0.1189
  231.0000   123.1839     5.9289     2.5661     0.0707     0.1169
  231.5000   121.3398     5.8827     2.5688     0.0698     0.1169
  232.0000   119.7485     5.8892     2.5749     0.0669     0.1209
  232.5000   118.7010     5.9010     2.5809     0.0629     0.1280
  233.0000   117.6351     5.9126     2.5869     0.0589     0.1352
  233.5000   116.5169     5.9194     2.5918     0.0575     0.1401
  234.0000   115.5114     5.9133     2.5809     0.0655     0.1416
  234.5000   116.2657     5.9075     2.5691     0.0751     0.1267
  235.0000   117.8432     5.9017     2.5491     0.0847     0.1121
  235.5000   119.4460     5.8978     2.5284     0.0942     0.0974
  236.0000   121.0800     5.8941     2.5185     0.0994     0.0857
  236.5000   122.7272     5.8904     2.5113     0.1046     0.0757
  237.0000   125.7599     5.8867     2.5052     0.1070     0.0717
  237.5000   129.4193     5.8838     2.5057     0.1052     0.0782
  238.0000   128.1420     5.8984     2.5144     0.1024     0.0860
  238.5000   125.6740     5.9355     2.5234     0.0971     0.0939
  239.0000   124.2426     5.9683     2.5322     0.0910     0.1016
  239.5000   125.4858     5.9661     2.5280     0.0932     0.1009
  240.0000   125.8966     5.9332     2.5206     0.0970     0.0994
  240.5000   124.4183     5.9054     2.5153     0.0999     0.0979
  241.0000   127.0094     5.9035     2.5115     0.1027     0.0994
  241.5000   125.9994     5.9097     2.5077     0.1054     0.1011
  242.0000   123.4728     5.9157     2.5031     0.1093     0.0995
  242.5000   122.7412     5.9182     2.4954     0.1141     0.0956
  243.0000   124.7590     5.9029     2.4875     0.1189     0.0916
  243.5000   122.8249     5.8877     2.4797     0.1230     0.0903
  244.0000   122.8476     5.8957     2.4733     0.1239     0.0931
  244.5000   123.9830     5.9200     2.4744     0.1249     0.0959
  245.0000   124.2218     5.9444     2.4757     0.1253     0.0988
  245.5000   124.2306     5.9569     2.4794     0.1234     0.1017
  246.0000   124.2242     5.9455     2.4945     0.1202     0.1001
  246.5000   124.0941     5.9347     2.5095     0.1033     0.0977
  247.0000   123.6422     5.9235     2.5248     0.0955     0.0954
  247.5000   123.2089     5.9303     2.5366     0.0899     0.0952
  248.0000   122.7773     5.9475     2.5398     0.0903     0.1005
  248.5000   122.3460     5.9649     2.5436     0.0857     0.1056
  249.0000   121.8909     5.9768     2.5380     0.0890     0.1034
  249.5000   120.6531     5.9489     2.5290     0.0933     0.1007
  250.0000   119.3942     5.9209     2.5200     0.0976     0.0980
  250.5000   118.2932     5.9035     2.5155     0.0998     0.1018
  251.0000   117.6603     5.9153     2.5168     0.0989     0.1076
  251.5000   116.8610     5.9201     2.5174     0.0990     0.1136
  252.0000   117.7519     5.9139     2.5135     0.1017     0.1120
  252.5000   119.8265     5.9076     2.5058     0.1046     0.1096
  253.0000   121.8611     5.9013     2.5084     0.1032     0.1166
  253.5000   123.9800     5.9099     2.5172     0.1010     0.1259
  254.0000   125.8227     5.9199     2.5275     0.0940     0.1353
  254.5000   125.0226     5.9300     2.5496     0.0843     0.1389
  255.0000   124.1928     5.9401     2.5516     0.0815     0.1329
  255.5000   125.1392     5.9328     2.5532     0.0808     0.1278
  256.0000   126.1861     5.9240     2.5547     0.0810     0.1313
  256.5000   124.5288     5.9153     2.5568     0.0800     0.1376
  257.0000   122.6772     5.9069     2.5612     0.0782     0.1358
  257.5000   120.8594     5.9041     2.5656     0.0763     0.1358
  258.0000   118.8822     5.9156     2.5672     0.0780     0.1397
  258.5000   116.9589     5.9267     2.5585     0.0810     0.1375
  259.0000   115.2692     5.9383     2.5493     0.0841     0.1313
  259.5000   116.1443     5.9283     2.5423     0.0872     0.1250
  260.0000   116.1012     5.9120     2.5515     0.0854     0.1240
  260.5000   115.0588     5.8954     2.5544     0.0778     0.1363
  261.0000   114.0178     5.8788     2.5517     0.0808     0.1397
  261.5000   113.1168     5.8622     2.5444     0.0846     0.1325
  262.0000   113.5991     5.8454     2.5372     0.0884     0.1234
  262.5000   114.4747     5.8465     2.5305     0.0930     0.1196
  263.0000   115.3444     5.8795     2.5336     0.0878     0.1254
  263.5000   116.2813     5.9133     2.5388     0.0904     0.1322
  264.0000   117.3272     5.9169     2.5232     0.0968     0.1356
  264.5000   118.3986     5.9059     2.5069     0.1048     0.1235
  265.0000   118.6106     5.8949     2.4906     0.1151     0.1120
  265.5000   116.9781     5.8838     2.4848     0.1183     0.1124
  266.0000   115.3503     5.8982     2.4905     0.1155     0.1355
  266.5000   114.2945     5.9278     2.4911     0.1154     0.1468
  267.0000   114.5194     5.9322     2.4901     0.1170     0.1578
  267.5000   113.6262     5.9183     2.4926     0.1147     0.1765
  268.0000   112.6136     5.9039     2.4897     0.1126     0.1951
  268.5000   115.3279     5.9064     2.4726     0.1235     0.2083
  269.0000   118.2492     5.9136     2.4565     0.1340     0.2109
  269.5000   121.3488     5.9234     2.4456     0.1429     0.2141
  270.0000   124.8179     5.8260     2.4351     0.1473     0.2299
  270.5000   128.6290     5.8120     2.4277     0.1517     0.2444
  271.0000   125.2812     5.8364     2.4210     0.1561     0.2540
  271.5000   119.0144     5.8600     2.4135     0.1593     0.2459
  272.0000   112.0870     5.8373     2.4394     0.1445     0.2055
  272.5000   105.9298     5.8123     2.4913     0.1134     0.1664
  273.0000   105.0695     5.8190     2.5251     0.0897     0.1600
  273.5000   104.2446     5.8635     2.5331     0.0913     0.1566
