~VERSION INFORMATION
 VERS.                2.0:   CWLS LOG ASCII STANDARD - VERSION 2.0
 WRAP.                 NO:   ONE LINE PER DEPTH STEP
~WELL INFORMATION
#MNEM.UNIT      DATA TYPE    INFORMATION
#----------   ------------   ------------------------------
 STRT.F            0.0000:   START DEPTH
 STOP.F          666.0000:   STOP DEPTH
 STEP.F            0.1000:   STEP LENGTH
 NULL.          -999.2500:   NO VALUE
 COMP.   FLUOR DANIEL INC:   COMPANY
 WELL.   77-2 X 34 #77-34:   WELL
 FLD .             TEAPOT:   FIELD
 LOC .      S34 T39N R78W:   LOCATION
 CNTY.            NATRONA:   COUNTY
 STAT.            WYOMING:   STATE
 CTRY. UNITED STATES OF AMERICA:   COUNTRY
 SRVC.      Western Atlas:   SERVICE COMPANY
 DATE.        01-APR-1995:   LOGDATE
 API .       490252270000:   API NUMBER
~CURVE INFORMATION
#MNEM.UNIT       API CODE    CURVE DESCRIPTION
#----------   ------------   ------------------------------
 DEPT.F                  :   
 GRR .GAPI   07 310 01 00:   GAMMA RAY
 RILD.OHMM   07 120 46 00:   INDUCTION LOG DEEP RESISTIVITY
 RILM.OHMM   07 120 44 00:   INDUCTION LOG MEDIUM RESISTIVITY
~PARAMETER INFORMATION
#MNEM.UNIT          VALUE    DESCRIPTION
#----------   ------------   ------------------------------
 PD  .                 GL:   PERMANENT DATUM
 EPD .F              5106:   ELEVATION PERMANENT DATUM
 LMF .                 KB:   LOG MEASURED FROM
 DAPD.F                10:   FEET ABOVE PERMANENT DATUM
 DMF .                 KB:   DRILLING MEASURED FROM
 EKB .F              5116:   KELLING BUSHING
 EDF .F              5115:   DRILLING FLOOR
 EGL .F              5106:   GROUND LEVEL
 DATE.        01-APR-1995:   RUN DATE
 RUN .                  1:   RUN NUMBER
 DD  .F               674:   DEPTH DRILLER
 DL  .F               674:   DEPTH LOGGER
 BLI .F               666:   BOTTOM LOG INTERVAL
 TLI .F                52:   TOP LOG INTERVAL
 CS  .IN            9.625:   CASING SIZE
 CBD .F                52:   CASING BOTTOM DRILLER
 CBL .F                52:   CASING BOTTOM LOGGER
 BS  .IN             8.75:   BIT SIZE
 BSD .F               674:   BIT SIZE AT DEPTH
 DFT .                AIR:   DRILLING FLUID TYPE
 MRT .F                89:   MAXIMUM RECORDED TEMPERATURE
 LUN .            HL 6530:   LOGGING UNIT NUMBER
 LUL .             CASPER:   LOGGING UNIT LOCATION
 ENGI.      PAT RASMUSSEN:   RECORDING ENGINEER
 WITN.        GARY STRONG:   WITNESSED BY
 CLNT.            A2DTECH:   CLIENT CODE
 ORIG.           5" PRINT:   ORIGIN OF DATA
 UWI .       490252270000:   UNIQUE WELL ID
 DICO. A2D Technologies, Inc.:   DIGITIZING COMPANY
~OTHER INFORMATION
~A    DEPT      GRR      RILD       RILM   
# ...
   91.0000   105.6068    11.8673    11.4165
   91.1000   105.7750    11.8705    11.4158
   91.2000   105.7762    11.9511    11.4744
   91.3000   105.7775    11.9514    11.4941
   91.4000   105.7786    11.9517    11.4935
   91.5000   105.7798    11.9807    11.5112
   91.6000   105.6619    12.0360    11.5723
   91.7000   105.4805    12.0363    11.5715
   91.8000   105.4685    12.0367    11.5710
   91.9000   105.1815    12.0370    11.5703
   92.0000   104.9734    12.0373    11.5697
   92.1000   104.7258    12.0636    11.5853
   92.2000   104.4782    12.1222    11.6490
   92.3000   104.2307    12.1226    11.6482
   92.4000   103.9807    12.1899    11.7035
   92.5000   103.7355    12.2081    11.7281
   92.6000   103.4880    12.2084    11.7275
   92.7000   103.0998    12.2319    11.7410
   92.8000   102.6912    12.2945    11.8081
   92.9000   102.4783    12.2949    11.8756
   93.0000   102.4797    12.2952    11.9984
   93.1000   102.2502    12.3455    12.0953
   93.2000   102.1804    12.3819    12.1644
   93.3000   102.3065    12.3823    12.2215
   93.4000   102.4845    12.3826    12.2207
   93.5000   102.4857    12.3830    12.2201
   93.6000   102.4870    12.3833    12.2194
   93.7000   102.4881    12.3836    12.2187
   93.8000   102.4893    12.4162    12.2180
   93.9000   102.4905    12.4710    12.2174
   94.0000   102.4917    12.4737    12.2166
   94.1000   102.4929    12.5590    12.2160
   94.2000   102.4944    12.5593    12.2153
   94.3000   102.4953    12.6043    12.2146
   94.4000   102.3501    12.6479    12.2362
   94.5000   102.0090    12.6627    12.3061
   94.6000   101.5534    12.7371    12.3833
   94.7000   101.2936    12.7374    12.4471
   94.8000   100.3487    12.7953    12.5182
   94.9000    99.3549    12.8697    12.5543
   95.0000    98.4917    12.9445    12.5740
   95.1000    97.8244    13.0081    12.6458
   95.2000    97.3531    13.0085    12.7276
   95.3000    97.0777    13.0800    12.7907
   95.4000    96.8579    13.1002    12.8149
   95.5000    96.7783    13.1406    12.8478
   95.6000    96.7795    13.2170    12.9027
   95.7000    96.8428    13.2853    12.9051
   95.8000    97.0928    13.2857    12.9910
   95.9000    97.3866    13.3554    13.0530
   96.0000    97.5928    13.4330    13.0802
   96.1000    97.9950    13.4733    13.1112
   96.2000    98.3944    13.4952    13.1698
   96.3000    98.6443    13.5736    13.1691
   96.4000    98.9008    13.6637    13.2599
   96.5000    99.1443    13.7319    13.2593
   96.6000    99.3943    13.7600    13.2586
   96.7000    99.6442    13.7955    13.2875
   96.8000    99.8106    13.8571    13.3634
   96.9000    99.8118    13.8612    13.4417
   97.0000    99.8131    14.0525    13.5165
   97.1000    99.5875    14.0528    13.5937
   97.2000    99.1662    14.1025    13.6273
   97.3000    98.9116    14.1845    13.6543
   97.4000    98.7769    14.2514    13.7440
   97.5000    98.2956    14.2518    13.9117
   97.6000    98.0104    14.3330    13.9110
   97.7000    97.8005    14.4164    13.9690
   97.8000    97.7110    14.5002    14.0488
   97.9000    97.7122    14.5546    14.1031
   98.0000    97.8180    14.5673    14.1114
   98.1000    98.3180    14.6573    14.1996
   98.2000    98.8155    14.6577    14.2732
   98.3000    99.1189    14.7198    14.2970
   98.4000    99.5113    14.8054    14.2962
   98.5000    99.9206    14.8915    14.2954
   98.6000   100.1339    14.9780    14.2946
   98.7000   100.1352    15.0744    14.2937
   98.8000   100.3688    15.1527    14.2931
   98.9000   100.4392    15.2408    14.2923
   99.0000   100.4404    15.3294    14.2915
   99.1000   100.4416    15.4185    14.2907
   99.2000   100.4428    15.5028    14.2899
   99.3000   100.4442    15.5033    14.2890
   99.4000   100.4452    15.5799    14.3574
   99.5000   100.2826    15.6705    14.3870
   99.6000    99.9240    15.7616    14.3862
   99.7000    99.4276    15.8532    14.3854
   99.8000    98.9313    15.9453    14.3846
   99.9000    98.3399    16.0560    14.4838
  100.0000    97.9387    16.1313    14.5504
  100.1000    97.4423    16.2251    14.5416
  100.2000    96.9460    16.3194    14.6416
  100.3000    96.5237    16.3971    15.1560
  100.4000    96.5213    16.3976    15.1935
  100.5000    96.5185    15.9470    15.2623
  100.6000    96.5164    15.9887    15.2657
  100.7000    96.5140    16.0595    15.3695
  100.8000    96.5116    16.0654    15.4451
  100.9000    96.5092    16.1728    15.5356
  101.0000    96.5068    16.1732    15.6266
  101.1000    96.5042    16.2377    15.7420
  101.2000    96.5020    16.2873    15.9201
  101.3000    96.3121    16.3156    16.0252
  101.4000    96.1955    16.4022    16.1072
  101.5000    96.1005    16.4027    16.2660
  101.6000    95.8440    16.5788    16.4099
  101.7000    95.5849    16.7745    16.5344
  101.8000    95.2804    17.0253    16.7280
  101.9000    95.0741    17.2588    16.9422
  102.0000    94.9744    17.3899    17.0323
  102.1000    94.7531    17.7131    17.2036
  102.2000    94.3043    17.8126    17.4052
  102.3000    94.0621    18.0786    17.6091
  102.4000    94.0594    18.3377    17.8153
  102.5000    93.8361    18.5540    18.0365
  102.6000    93.7532    18.7728    18.3358
  102.7000    93.7508    18.9953    18.5777
  102.8000    93.6696    19.3975    18.7954
  102.9000    93.4443    19.4894    19.0157
  103.0000    93.4418    19.6750    19.2195
  103.1000    93.6776    19.8579    19.3350
  103.2000    93.7388    20.0292    19.5559
  103.3000    93.8795    20.3749    19.7852
  103.4000    94.0356    20.5136    19.9486
  103.5000    94.0814    20.8219    20.1117
  103.6000    94.3332    21.0288    20.3233
  103.7000    94.6312    21.2106    20.4423
  103.8000    94.8368    21.4607    20.5844
  103.9000    95.0886    21.6932    20.7810
  104.0000    95.2278    21.6939    20.9485
  104.1000    95.2253    22.0366    21.0712
  104.2000    95.2229    22.2444    21.1946
  104.3000    95.2202    22.3755    21.3186
  104.4000    94.9937    22.5075    21.4626
  104.5000    94.9140    22.6401    21.5692
  104.6000    94.7821    22.7828    21.6131
  104.7000    94.4434    22.7833    21.6718
  104.8000    94.0018    22.8830    21.7647
  104.9000    93.9993    22.9440    21.7747
  105.0000    93.7556    22.8968    21.9175
  105.1000    93.4990    22.7858    21.9180
  105.2000    93.2424    22.7865    21.9186
  105.3000    92.9858    22.7872    21.9192
  105.4000    92.7292    22.6837    21.9198
  105.5000    92.4726    22.4744    21.9204
  105.6000    92.1721    22.3173    21.9211
  105.7000    91.9594    22.2908    21.9217
  105.8000    91.7028    22.1590    21.9223
  105.9000    91.3303    21.8573    21.8559
  106.0000    90.8879    21.7525    21.7720
  106.1000    90.6313    21.5464    21.7372
  106.2000    90.3479    21.2963    21.4733
  106.3000    90.1180    21.0797    21.2390
  106.4000    89.6812    20.9499    20.9030
  106.5000    89.3032    20.6750    20.6088
  106.6000    89.1318    20.5707    20.3282
  106.7000    89.1294    20.3707    19.9969
  106.8000    89.1269    20.1342    19.7617
  106.9000    89.1246    19.9345    19.4278
  107.0000    89.5163    19.8068    19.0928
  107.1000    90.0223    19.5566    18.6995
  107.2000    90.6305    19.4531    18.3543
  107.3000    91.3906    19.2591    18.1210
  107.4000    92.1580    19.0356    17.8078
  107.5000    93.3330    18.8514    17.4460
  107.6000    94.4008    18.7419    17.1992
  107.7000    95.8359    18.6281    16.9025
  107.8000    97.3587    18.4219    16.6107
  107.9000    98.8099    18.2894    16.3464
  108.0000   100.0543    18.1228    16.1577
  108.1000   101.1618    17.9520    15.9445
  108.2000   102.0831    17.8477    15.7876
  108.3000   102.7306    17.7437    15.6056
  108.4000   103.1007    17.4986    15.4674
  108.5000   103.2640    17.3350    15.3782
  108.6000   103.2615    17.1339    15.2895
  108.7000   103.2591    16.9767    15.1914
  108.8000   103.2567    16.8553    15.1137
  108.9000   102.6534    16.6595    15.0265
  109.0000   102.3469    16.4370    14.9833
  109.1000   102.1338    16.3560    14.9570
