~VERSION INFORMATION
 VERS.                2.0:   CWLS LOG ASCII STANDARD - VERSION 2.0
 WRAP.                 NO:   ONE LINE PER DEPTH STEP
~WELL INFORMATION
#MNEM.UNIT      DATA TYPE    INFORMATION
#----------   ------------   ------------------------------
 STRT.F            0.1000:   START DEPTH
 STOP.F          550.8000:   STOP DEPTH
 STEP.F            0.1000:   STEP LENGTH
 NULL.          -999.2500:   NO VALUE
 COMP.       F D SERV INC:   COMPANY
 WELL.  82-1 SX 10 #82-10:   WELL
 FLD .             TEAPOT:   FIELD
 LOC .      S10 T38N R78W:   LOCATION
 CNTY.            NATRONA:   COUNTY
 STAT.            WYOMING:   STATE
 CTRY. UNITED STATES OF AMERICA:   COUNTRY
 SRVC.     Atlas Wireline:   SERVICE COMPANY
 DATE.        11-DEC-1992:   LOGDATE
 API .       490252257600:   API NUMBER
~CURVE INFORMATION
#MNEM.UNIT       API CODE    CURVE DESCRIPTION
#----------   ------------   ------------------------------
 DEPT.F                  :   
 GRR .GAPI   07 310 01 00:   GAMMA RAY
 RILD.OHMM   07 120 46 00:   INDUCTION LOG DEEP RESISTIVITY
 RILM.OHMM   07 120 44 00:   INDUCTION LOG MEDIUM RESISTIVITY
~PARAMETER INFORMATION
#MNEM.UNIT          VALUE    DESCRIPTION
#----------   ------------   ------------------------------
 PD  .                 GL:   PERMANENT DATUM
 EPD .F              5136:   ELEVATION PERMANENT DATUM
 LMF .                 KB:   LOG MEASURED FROM
 DAPD.F                10:   FEET ABOVE PERMANENT DATUM
 DMF .                 KB:   DRILLING MEASURED FROM
 EKB .F              5146:   KELLING BUSHING
 EDF .F              5145:   DRILLING FLOOR
 EGL .F              5136:   GROUND LEVEL
 DATE.        11-DEC-1992:   RUN DATE
 RUN .                  1:   RUN NUMBER
 DD  .F               560:   DEPTH DRILLER
 DL  .F               560:   DEPTH LOGGER
 BLI .F               551:   BOTTOM LOG INTERVAL
 CS  .IN            8.625:   CASING SIZE
 CBD .F                53:   CASING BOTTOM DRILLER
 CBL .F                54:   CASING BOTTOM LOGGER
 BS  .IN            7.875:   BIT SIZE
 BSD .F               560:   BIT SIZE AT DEPTH
 DFT .           AIR FOAM:   DRILLING FLUID TYPE
 BHT .F                60:   BOTTOM HOLE TEMPERATURE
 MRT .F                60:   MAXIMUM RECORDED TEMPERATURE
 LUN .           HL- 6274:   LOGGING UNIT NUMBER
 LUL .             CASPER:   LOGGING UNIT LOCATION
 ENGI.       P. RASMUSSEN:   RECORDING ENGINEER
 WITN.          G. STRONG:   WITNESSED BY
 CLNT.            A2DTECH:   CLIENT CODE
 ORIG.           5" PRINT:   ORIGIN OF DATA
 UWI .       490252257600:   UNIQUE WELL ID
 DICO. A2D Technologies, Inc.:   DIGITIZING COMPANY
~OTHER INFORMATION
~A    DEPT      GRR      RILD       RILM   
# ...
  473.3000   115.9439    10.5034    10.5670
  473.4000   115.6679    10.5034    10.5865
  473.5000   115.6662    10.5392    10.5865
  473.6000   115.6644    10.5764    10.6114
  473.7000   115.8304    10.5764    10.6600
  473.8000   116.2174    10.5764    10.6600
  473.9000   116.5612    10.5764    10.6600
  474.0000   116.6075    10.6499    10.7201
  474.1000   116.8666    10.6499    10.7340
  474.2000   117.1571    10.6499    10.7340
  474.3000   117.3847    10.6816    10.7340
  474.4000   117.8331    10.7239    10.7554
  474.5000   118.3529    10.7361    10.8084
  474.6000   118.8728    10.7984    10.8084
  474.7000   119.3927    10.7984    10.8084
  474.8000   119.8829    10.8559    10.8656
  474.9000   120.1521    10.8735    10.8834
  475.0000   120.4508    10.8735    10.8834
  475.1000   120.4493    10.8735    10.9113
  475.2000   120.4475    10.8735    10.9770
  475.3000   120.3148    10.8812    11.0350
  475.4000   119.9611    10.9490    11.0350
  475.5000   119.3865    10.9490    11.0350
  475.6000   118.6132    10.9490    11.0350
  475.7000   118.0323    10.9490    11.0350
  475.8000   117.5663    10.9490    11.0350
  475.9000   116.8504    10.9490    11.0350
  476.0000   115.9137    10.9490    11.0493
  476.1000   114.9811    10.9521    11.1116
  476.2000   114.1242    11.0251    11.1116
  476.3000   113.1116    11.0251    11.1116
  476.4000   112.3055    11.0251    11.1116
  476.5000   112.0027    11.0251    11.1116
  476.6000   111.5738    11.0540    11.1423
  476.7000   111.2241    11.1017    11.1887
  476.8000   110.9614    11.1017    11.1887
  476.9000   110.6988    11.1017    11.1887
  477.0000   110.4361    11.1017    11.1887
  477.1000   110.1734    11.1017    11.1887
  477.2000   109.8849    11.1466    11.1887
  477.3000   109.8833    11.1789    11.2259
  477.4000   110.0768    11.1789    11.2663
  477.5000   110.3358    11.1789    11.2832
  477.6000   110.5949    11.1828    11.3445
  477.7000   110.9295    11.2566    11.3445
  477.8000   111.4494    11.2566    11.3445
  477.9000   111.9777    11.2566    11.3989
  478.0000   112.5771    11.2566    11.4232
  478.1000   113.0091    11.2566    11.4232
  478.2000   113.5290    11.2765    11.4467
  478.3000   114.0489    11.3348    11.5024
  478.4000   114.4717    11.3348    11.5024
  478.5000   114.6737    11.4136    11.5024
  478.6000   114.6891    11.4136    11.5024
  478.7000   114.9707    11.4136    11.5536
  478.8000   114.9690    11.4136    11.5822
  478.9000   114.7689    11.4394    11.5822
  479.0000   114.6647    11.4929    11.6021
  479.1000   114.5443    11.4929    11.6626
  479.2000   114.2817    11.4929    11.6626
  479.3000   113.9804    11.4929    11.6626
  479.4000   113.4544    11.4929    11.6626
  479.5000   113.1516    11.4929    11.6626
  479.6000   112.7106    11.4929    11.6257
  479.7000   112.3669    11.4929    11.5822
  479.8000   112.1043    11.4929    11.5822
  479.9000   111.9417    11.4929    11.5822
  480.0000   112.0000    11.4929    11.5822
  480.1000   112.2794    11.4929    11.5822
  480.2000   112.8384    11.4929    11.5822
  480.3000   113.0779    11.4557    11.5822
  480.4000   113.5383    11.4136    11.5822
  480.5000   114.2195    11.4136    11.5822
  480.6000   114.8788    11.4136    11.5822
  480.7000   115.3171    11.4136    11.5822
  480.8000   115.6594    11.4136    11.5822
  480.9000   116.4384    11.4136    11.6124
  481.0000   117.0343    11.4136    11.6473
  481.1000   117.4783    11.4136    11.6626
  481.2000   118.1811    11.4136    11.6626
  481.3000   118.8189    11.4136    11.6626
  481.4000   119.2357    11.4136    11.6626
  481.5000   119.4316    11.4136    11.6626
  481.6000   119.4298    11.4136    11.6626
  481.7000   119.4279    11.4136    11.6626
  481.8000   119.1820    11.4136    11.6626
  481.9000   118.9193    11.4136    11.6626
  482.0000   118.4922    11.4136    11.6626
  482.1000   118.0932    11.4136    11.6485
  482.2000   117.8305    11.4136    11.5822
  482.3000   117.5679    11.4136    11.5822
  482.4000   117.3053    11.3598    11.5822
  482.5000   117.0073    11.3348    11.5304
  482.6000   116.7799    11.3348    11.5024
  482.7000   116.5173    11.3348    11.5024
  482.8000   116.2546    11.3348    11.5024
  482.9000   115.9920    11.3348    11.5024
  483.0000   115.7955    11.3348    11.5024
  483.1000   115.7937    11.3348    11.5024
  483.2000   115.7918    11.3348    11.5024
  483.3000   115.7901    11.3348    11.5024
  483.4000   116.2030    11.3348    11.5024
  483.5000   116.7229    11.3348    11.5024
  483.6000   117.2427    11.3348    11.5024
  483.7000   117.9378    11.3348    11.4966
  483.8000   118.9794    11.3348    11.4232
  483.9000   120.0054    11.3348    11.4232
  484.0000   120.5893    11.3348    11.4232
  484.1000   121.0452    11.3348    11.4232
  484.2000   121.5651    11.3348    11.4232
  484.3000   121.7871    11.3221    11.4232
  484.4000   121.6762    11.2566    11.4354
  484.5000   121.4135    11.2566    11.5024
  484.6000   121.1216    11.2566    11.5024
  484.7000   120.5768    11.2566    11.5024
  484.8000   120.2739    11.2566    11.5024
  484.9000   119.8518    11.2566    11.5024
  485.0000   119.3283    11.2566    11.5024
  485.1000   118.6743    11.2566    11.5024
  485.2000   117.7993    11.2566    11.4942
  485.3000   116.9570    11.1789    11.4232
  485.4000   116.8441    11.1789    11.4232
  485.5000   116.1545    11.1789    11.4232
  485.6000   114.4205    11.1789    11.4232
  485.7000   113.3407    11.1789    11.3880
  485.8000   112.7371    11.1789    11.3445
  485.9000   112.5233    11.1759    11.3300
  486.0000   112.4331    11.1017    11.2663
  486.1000   112.4313    11.1017    11.2663
  486.2000   112.5221    11.1017    11.2049
  486.3000   112.7812    11.0628    11.1887
  486.4000   113.0402    11.0251    11.1479
  486.5000   113.3261    11.0251    11.1116
  486.6000   113.7921    11.0167    11.0912
  486.7000   114.3120    10.9490    11.0350
  486.8000   114.9859    10.9490    11.0350
  486.9000   115.7665    10.9490    11.0350
  487.0000   116.4731    10.9490    10.9787
  487.1000   116.9248    10.9490    10.9130
  487.2000   116.9227    10.9253    10.8476
  487.3000   116.9206    10.8735    10.8084
  487.4000   116.7038    10.8735    10.8084
  487.5000   116.4411    10.8735    10.8022
  487.6000   116.1784    10.8735    10.7340
  487.7000   115.9158    10.8735    10.6733
  487.8000   115.6531    10.8346    10.6600
  487.9000   115.4063    10.7697    10.6190
  488.0000   115.4043    10.7052    10.5865
  488.1000   115.4027    10.6499    10.5650
  488.2000   115.4009    10.6499    10.5017
  488.3000   115.5561    10.5764    10.4411
  488.4000   115.6980    10.5764    10.4411
  488.5000   115.8506    10.5764    10.4411
  488.6000   116.3333    10.5430    10.3495
  488.7000   116.5949    10.5034    10.2617
  488.8000   116.8935    10.4895    10.2268
  488.9000   117.1104    10.4267    10.2095
  489.0000   117.3695    10.3589    10.1563
  489.1000   117.7670    10.3589    10.1563
  489.2000   118.2869    10.3117    10.0863
  489.3000   118.9244    10.2875    10.0363
  489.4000   119.9281    10.2593    10.0168
  489.5000   120.4901    10.2165    10.0168
  489.6000   120.9681    10.2073     9.9944
  489.7000   121.4879    10.1460     9.9478
  489.8000   121.6878    10.0759     9.9478
  489.9000   121.6860    10.0759     9.9478
  490.0000   121.6842    10.0342     9.8930
  490.1000   121.6421    10.0064     9.8792
  490.2000   121.3790    10.0064     9.8427
  490.3000   120.7763     9.9925     9.8112
  490.4000   119.8895     9.9374     9.7926
  490.5000   119.5699     9.9374     9.7436
  490.6000   119.5681     9.8822     9.7428
  490.7000   119.5663     9.8231     9.6764
  490.8000   119.5645     9.8007     9.6265
  490.9000   119.5845     9.8007     9.6097
  491.0000   119.8615     9.7822     9.6097
  491.1000   120.1027     9.7330     9.6097
  491.2000   120.3617     9.7330     9.6097
  491.3000   120.4577     9.7330     9.6036
  491.4000   120.5790     9.6831     9.5435
