~VERSION INFORMATION
 VERS.                2.0:   CWLS LOG ASCII STANDARD - VERSION 2.0
 WRAP.                 NO:   ONE LINE PER DEPTH STEP
~WELL INFORMATION
#MNEM.UNIT      DATA TYPE    INFORMATION
#----------   ------------   ------------------------------
 STRT.F           60.0000:   START DEPTH
 STOP.F         3052.0000:   STOP DEPTH
 STEP.F            0.5000:   STEP LENGTH
 NULL.          -999.2500:   NO VALUE
 COMP.   FLUOR DANIEL INC:   COMPANY
 WELL. NAVAL PETROLEUM RESERVE 3 X-14 #57-14:   WELL
 FLD .            WILDCAT:   FIELD
 LOC .      S14 T38N R78W:   LOCATION
 CNTY.            NATRONA:   COUNTY
 STAT.            WYOMING:   STATE
 CTRY. UNITED STATES OF AMERICA:   COUNTRY
 SRVC.            Unknown:   SERVICE COMPANY
 DATE.        16-MAY-1995:   LOGDATE
 API .       490252272000:   API NUMBER
~CURVE INFORMATION
#MNEM.UNIT       API CODE    CURVE DESCRIPTION
#----------   ------------   ------------------------------
 DEPT.F                  :   
 ROP .FT/HR  91 810 01 00:   RAT OF DRILLING PENETRATION
 TGAS.TC/CC  91 830 01 00:   TOTAL GAS UNIT
~PARAMETER INFORMATION
#MNEM.UNIT          VALUE    DESCRIPTION
#----------   ------------   ------------------------------
 EKB .F              5312:   KELLING BUSHING
 EGL .F              5302:   GROUND LEVEL
 DATE.        16-MAY-1995:   RUN DATE
 RUN .                  1:   RUN NUMBER
 BLI .F              3062:   BOTTOM LOG INTERVAL
 TLI .F                60:   TOP LOG INTERVAL
 ENGI.     C.TOWER/R.HUSK:   RECORDING ENGINEER
 CLNT.            A2DTECH:   CLIENT CODE
 ORIG.           5" PRINT:   ORIGIN OF DATA
 UWI .       490252272000:   UNIQUE WELL ID
 DICO. A2D Technologies, Inc.:   DIGITIZING COMPANY
~OTHER INFORMATION
~A   DEPT        ROP       TGAS 
# ...
 2004.0000     1.5443    12.6616
 2004.5000     1.5443    12.6568
 2005.0000     1.5443    12.6519
 2005.5000     1.5443    12.6516
 2006.0000     1.0075    12.6662
 2006.5000     1.0048    12.6808
 2007.0000     1.0020    12.6954
 2007.5000     0.9993    12.7101
 2008.0000     0.9965    12.7247
 2008.5000     0.9937    12.7393
 2009.0000     0.9909    12.7539
 2009.5000     1.0386    12.7685
 2010.0000     1.3541    12.7831
 2010.5000     1.3520    12.7977
 2011.0000     1.3499    12.8123
 2011.5000     1.3478    12.8269
 2012.0000     1.3457    12.8416
 2012.5000     1.3437    12.8562
 2013.0000     1.3416    12.8708
 2013.5000     1.3395    12.8854
 2014.0000     1.3374    12.9000
 2014.5000     1.3353    12.9146
 2015.0000     1.3333    12.9292
 2015.5000     1.3312    12.9438
 2016.0000     1.3291    12.9584
 2016.5000     1.3270    12.9731
 2017.0000     1.3250    12.9877
 2017.5000     1.3229    13.0023
 2018.0000     1.4487    13.0169
 2018.5000     1.5954    13.0315
 2019.0000     1.6051    13.0461
 2019.5000     1.6006    13.0607
 2020.0000     1.2849    13.0753
 2020.5000     1.2946    13.0899
 2021.0000     1.2855    13.1045
 2021.5000     1.2909    13.1192
 2022.0000     1.0313    13.1338
 2022.5000     1.0416    13.1484
 2023.0000     1.0448    13.1630
 2023.5000     1.0481    13.1776
 2024.0000     1.0513    13.1922
 2024.5000     0.8818    13.2017
 2025.0000     0.8821    13.3965
 2025.5000     0.8824    13.5913
 2026.0000     0.8827    13.5975
 2026.5000     0.8830    13.6038
 2027.0000     0.8832    13.6113
 2027.5000     0.8835    13.6174
 2028.0000     0.8838    13.6236
 2028.5000     0.8935    13.6297
 2029.0000     0.8938    13.6359
 2029.5000     0.8941    13.6420
 2030.0000     1.0082    13.6481
 2030.5000     1.0173    13.6543
 2031.0000     1.0270    13.6604
 2031.5000     1.0367    13.6667
 2032.0000     1.0465    13.6730
 2032.5000     1.5562    13.4902
 2033.0000     1.5659    13.6865
 2033.5000     1.5662    13.6927
 2034.0000     1.3627    13.6988
 2034.5000     1.2742    13.7050
 2035.0000     1.2651    13.7111
 2035.5000     1.2654    13.7173
 2036.0000     1.2668    13.9121
 2036.5000     1.2704    13.9182
 2037.0000     1.2740    13.9245
 2037.5000     1.2775    13.9321
 2038.0000     1.2811    13.9382
 2038.5000     1.2846    13.9443
 2039.0000     1.2882    13.9505
 2039.5000     1.2918    13.9566
 2040.0000     1.2953    13.7726
 2040.5000     0.9851    13.5900
 2041.0000     0.9949    13.5977
 2041.5000     1.0077    13.6039
 2042.0000     1.0124    13.6101
 2042.5000     1.3071    13.6164
 2043.0000     1.3073    13.4351
 2043.5000     1.3035    13.4413
 2044.0000     1.3001    13.2572
 2044.5000     0.9969    13.0747
 2045.0000     0.9972    13.0824
 2045.5000     0.9975    13.0885
 2046.0000     0.9978    13.0946
 2046.5000     1.3094    13.1008
 2047.0000     1.3097    13.1069
 2047.5000     1.3004    13.1132
 2048.0000     1.3008    13.3082
 2048.5000     0.9991    13.3156
 2049.0000     1.0089    13.3217
 2049.5000     1.0092    13.3279
 2050.0000     1.2925    13.3340
 2050.5000     1.2885    13.3402
 2051.0000     1.2843    13.3463
 2051.5000     1.2800    13.3524
 2052.0000     1.2758    13.3586
 2052.5000     1.0099    13.3648
 2053.0000     1.0100    13.3711
 2053.5000     1.0101    13.3786
 2054.0000     1.0102    13.3847
 2054.5000     1.2367    13.3909
 2055.0000     1.2557    13.2083
 2055.5000     1.2652    11.3277
 2056.0000     1.2653     5.2961
 2056.5000     1.2654     2.6607
 2057.0000     1.2655     1.9119
 2057.5000     1.2561     1.9183
 2058.0000     1.2657     2.3144
 2058.5000     1.8318     3.1233
 2059.0000     1.8225     6.6552
 2059.5000     1.8226    21.7557
 2060.0000     0.8132    73.2713
 2060.5000     0.7850    73.6548
 2061.0000     0.7945    74.2270
 2061.5000     0.7946    74.7992
 2062.0000     1.0023    74.8053
 2062.5000     1.0024    74.8115
 2063.0000     1.0025    74.6289
 2063.5000     1.0026    74.6352
 2064.0000     1.0875    74.6427
 2064.5000     1.2952    74.6489
 2065.0000     1.3047    74.6550
 2065.5000     1.3048    74.6612
 2066.0000     1.2768    74.6673
 2066.5000     0.9937    74.6735
 2067.0000     0.9938    74.6796
 2067.5000     1.0033    74.6857
 2068.0000     1.0128    74.5031
 2068.5000     1.2677    74.5408
 2069.0000     1.2772    74.6097
 2069.5000     1.2773    74.6786
 2070.0000     1.2774    74.7170
 2070.5000     1.5699    74.7233
 2071.0000     1.5606    74.7308
 2071.5000     1.5607    74.7370
 2072.0000     1.3155    74.7431
 2072.5000     1.3061    74.7492
 2073.0000     1.2968    74.7554
 2073.5000     1.2874    74.7615
 2074.0000     1.2876    74.5790
 2074.5000     0.5611    74.5851
 2075.0000     0.5603    74.5913
 2075.5000     0.5596    74.5974
 2076.0000     0.5588    74.4149
 2076.5000     0.5580    74.2339
 2077.0000     0.5572    74.2400
 2077.5000     0.5565    74.0575
 2078.0000     0.5557    73.8734
 2078.5000     0.5549    74.0698
 2079.0000     0.5541    74.2646
 2079.5000     0.5534    74.4594
 2080.0000     0.6283    74.6543
 2080.5000     0.6284    75.0378
 2081.0000     0.6285    75.2327
 2081.5000     0.6286    75.4277
 2082.0000     0.6947    75.4351
 2082.5000     0.7797    75.6299
 2083.0000     0.7704    75.6361
 2083.5000     0.7610    75.4520
 2084.0000     0.7611    75.4597
 2084.5000     0.7707    75.4658
 2085.0000     0.7708    75.4720
 2085.5000     0.7710    75.2893
 2086.0000     0.7813    75.2956
 2086.5000     0.9786    75.3019
 2087.0000     0.9787    75.3094
 2087.5000     0.9788    75.5042
 2088.0000     0.9789    75.3201
 2088.5000     0.9790    75.1376
 2089.0000     0.9791    75.1453
 2089.5000     0.9792    75.1514
 2090.0000     0.9887    75.1576
 2090.5000     1.2624    75.3524
 2091.0000     1.2625    75.3585
 2091.5000     1.2720    75.3648
 2092.0000     1.2402    75.5597
 2092.5000     1.0080    75.5672
 2093.0000     1.0081    75.5733
 2093.5000     1.0082    75.5795
 2094.0000     1.0083    75.5856
 2094.5000     1.0084    75.5918
 2095.0000     1.0085    75.5979
 2095.5000     1.0180    75.7927
 2096.0000     1.0181    75.9876
 2096.5000     1.2824    75.9937
 2097.0000     1.2825    76.0000
 2097.5000     1.2920    76.0075
 2098.0000     1.3015    76.2023
 2098.5000     1.0699    76.2085
 2099.0000     1.0170    76.4033
 2099.5000     0.9999    76.4095
 2100.0000     1.0094    76.4156
 2100.5000     1.2831    76.6104
 2101.0000     1.2832    76.6166
 2101.5000     1.2833    76.4607
 2102.0000     1.2834    76.2992
 2102.5000     1.0099    76.1376
 2103.0000     1.0100    75.9761
 2103.5000     1.0195    75.8780
 2104.0000     1.0196    75.7203
 2104.5000     1.4766    75.9182
 2105.0000     1.5481    75.9255
 2105.5000     1.5482    75.9329
 2106.0000     1.3596    75.9402
 2106.5000     1.2666    75.9475
 2107.0000     1.2668    75.9549
 2107.5000     1.2705    75.9623
 2108.0000     1.2766    75.9698
 2108.5000     1.2768    75.9787
 2109.0000     1.2770    75.9861
 2109.5000     1.2772    75.9934
 2110.0000     1.2774    76.0007
 2110.5000     1.2775    76.1968
 2111.0000     1.2777    76.2041
 2111.5000     1.2779    76.2114
 2112.0000     1.2781    76.2189
 2112.5000     1.2783    76.2264
 2113.0000     1.2785    76.2353
 2113.5000     1.2787    76.2426
 2114.0000     1.2789    76.0594
 2114.5000     1.0054    76.2573
 2115.0000     1.0057    76.2646
 2115.5000     1.0059    76.2720
 2116.0000     1.0098    76.2793
 2116.5000     1.2610    76.2868
 2117.0000     1.2612    76.2958
 2117.5000     1.2708    76.1127
 2118.0000     1.2804    75.5540
 2118.5000     0.9881    74.9971
 2119.0000     0.9890    74.6271
 2119.5000     0.9898    74.2552
 2120.0000     0.9906    73.8868
 2120.5000     0.9914    73.5170
 2121.0000     0.9922    73.1470
 2121.5000     0.9930    72.7770
 2122.0000     0.9938    72.4070
 2122.5000     0.9946    71.8501
 2123.0000     0.9954    71.6669
 2123.5000     0.9962    71.1101
 2124.0000     0.9970    70.5495
 2124.5000     0.9978    70.1813
 2125.0000     0.9986    69.8113
