~VERSION INFORMATION
 VERS.                2.0:   CWLS LOG ASCII STANDARD - VERSION 2.0
 WRAP.                 NO:   ONE LINE PER DEPTH STEP
~WELL INFORMATION
#MNEM.UNIT      DATA TYPE    INFORMATION
#----------   ------------   ------------------------------
 STRT.F            0.0000:   START DEPTH
 STOP.F         4535.0000:   STOP DEPTH
 STEP.F            0.5000:   STEP LENGTH
 NULL.          -999.2500:   NO VALUE
 COMP.   FLUOR DANIEL INC:   COMPANY
 WELL.     56 X 15 #56-15:   WELL
 FLD .             TEAPOT:   FIELD
 LOC .      S15 T38N R78W:   LOCATION
 CNTY.            NATRONA:   COUNTY
 STAT.            WYOMING:   STATE
 CTRY. UNITED STATES OF AMERICA:   COUNTRY
 SRVC.      Dresser Atlas:   SERVICE COMPANY
 DATE.        03-MAY-1984:   LOGDATE
 API .       490252268500:   API NUMBER
~CURVE INFORMATION
#MNEM.UNIT       API CODE    CURVE DESCRIPTION
#----------   ------------   ------------------------------
 DEPT.F                  :   
 CNC .DEC    42 890 03 00:   NEUTRON POROSITY SANDSTONE
 PORD.DEC    45 890 12 00:   POROSITY DENSITY SANDSTONE
 RHOB.G/C3   45 350 01 00:   BULK DENSITY
 CORR.G/C3   45 356 01 00:   DENSITY CORRECTION
 DT  .US/F   60 520 00 00:   INTERVAL TRANSIT TIME
 RILD.OHMM   07 120 46 00:   INDUCTION LOG DEEP RESISTIVITY
 RILM.OHMM   07 120 44 00:   INDUCTION LOG MEDIUM RESISTIVITY
 CALR.IN     07 280 01 00:   CALIPER FROM RESISTIVITY
 GRR .GAPI   07 310 01 00:   GAMMA RAY FROM RESISTIVITY LOG
 SPR .MV     07 010 01 00:   SPONTANEOUS POTENTIAL
 RFOC.OHMM   07 220 04 00:   RESISTIVITY FOCUSED LOG
~PARAMETER INFORMATION
#MNEM.UNIT          VALUE    DESCRIPTION
#----------   ------------   ------------------------------
 PD  .                 GL:   PERMANENT DATUM
 EPD .F              5326:   ELEVATION PERMANENT DATUM
 LMF .                 KB:   LOG MEASURED FROM
 DAPD.F                12:   FEET ABOVE PERMANENT DATUM
 DMF .                 KB:   DRILLING MEASURED FROM
 EKB .F              5338:   KELLING BUSHING
 EDF .F              5337:   DRILLING FLOOR
 EGL .F              5326:   GROUND LEVEL
 DATE.        03-MAY-1984:   RUN DATE
 RUN .                  1:   RUN NUMBER
 DD  .F              4547:   DEPTH DRILLER
 DL  .F              4539:   DEPTH LOGGER
 BLI .F              4536:   BOTTOM LOG INTERVAL
 TLI .F              1021:   TOP LOG INTERVAL
 CS  .IN            8.625:   CASING SIZE
 CBD .F              1027:   CASING BOTTOM DRILLER
 CBL .F              1021:   CASING BOTTOM LOGGER
 BS  .IN            7.875:   BIT SIZE
 BSD .F              4547:   BIT SIZE AT DEPTH
 DFT .            KCL GEL:   DRILLING FLUID TYPE
 DFD .                9.1:   DRILLING FLUID DENSITY
 DFV .                 44:   DRILLING FLUID VISCOSITY
 DFPH.                  8:   DRILLING FLUID PH
 DFL .               14.5:   DRILLING FLUID LOSS
 MSS .            MUDTANK:   MUD SAMPLE SOURCE
 RMS .OHMM           0.56:   RESISTIVITY MUD SAMPLE
 MST .F                73:   MUD SAMPLE TEMPERATURE
 RMF .OHMM           0.42:   RESISTIVITY MUD FILTRATE SAMPLE
 MFST.F                73:   MUD FILTRATE SAMPLE TEMPERATURE
 RMC .OHMM           0.71:   RESISTIVITY MUD CAKE
 MCST.F                73:   MUD CAKE SAMPLE TEMPERATURE
 MFSS.               MEAS:   MUD FILTRATE SAMPLE SOURCE
 MCSS.               CALC:   MUD CAKE SAMPLE SOURCE
 RMB .OHMM           0.29:   RESISTIVITY MUD AT BHT
 BHT .F               141:   BOTTOM HOLE TEMPERATURE
 TCS .HRS             3.5:   TIME CURCULATED STOPPED
 MRT .F               125:   MAXIMUM RECORDED TEMPERATURE
 LUN .               6302:   LOGGING UNIT NUMBER
 LUL .               CODY:   LOGGING UNIT LOCATION
 ENGI.              GETTY:   RECORDING ENGINEER
 WITN.           JENNINGS:   WITNESSED BY
 CLNT.            A2DTECH:   CLIENT CODE
 ORIG.           5" PRINT:   ORIGIN OF DATA
 UWI .       490252268500:   UNIQUE WELL ID
 DICO. A2D Technologies, Inc.:   DIGITIZING COMPANY
~OTHER INFORMATION
~A    DEPT     CNC       PORD       RHOB       CORR         DT       RILD       RILM       CALR         GRR       SPR       RFOC   
# ...
 2897.5000     0.2484     0.0392     2.5865     0.1303    89.7734     3.7102     4.0362     8.6401   109.4956    -6.8966     4.4641
 2898.0000     0.2514     0.0391     2.5880     0.1394    89.3202     4.0038     4.1197     8.6398   110.6942    -7.1964     4.5261
 2898.5000     0.2496     0.0401     2.5872     0.1363    88.8671     4.1446     4.2342     8.6396   112.1947    -7.6286     4.3709
 2899.0000     0.2430     0.0416     2.5842     0.1073    88.2628     4.1153     4.2922     8.6393   108.2794    -8.1582     4.3100
 2899.5000     0.2312     0.0392     2.5834     0.0970    87.0544     4.0581     4.3806     8.6240   106.7713    -8.6878     4.5242
 2900.0000     0.2219     0.0283     2.5940     0.1181    85.7636     4.1427     4.3792     8.5788   106.7669    -9.2175     4.8154
 2900.5000     0.2261     0.0265     2.6083     0.1407    85.1549     4.2292     4.3779     8.5790   106.8617    -9.7471     4.9496
 2901.0000     0.2385     0.0244     2.6106     0.1392    84.9396     4.2872     4.3767     8.5793   106.9565   -10.2768     4.9140
 2901.5000     0.2352     0.0301     2.6021     0.1331    85.6193     4.3476     4.4060     8.5796   107.0497   -11.1027     4.8091
 2902.0000     0.2300     0.0410     2.5894     0.1255    86.2236     4.4420     4.4971     8.5799   106.4409   -11.8378     4.7434
 2902.5000     0.2294     0.0461     2.5811     0.1149    86.6767     4.5921     4.5904     8.5802   106.7359   -12.1366     4.7755
 2903.0000     0.2370     0.0507     2.5720     0.1072    87.1299     4.7203     4.7511     8.5805   107.0323   -12.5845     4.8410
 2903.5000     0.2475     0.0501     2.5682     0.1058    87.4320     4.8521     4.8835     8.5809   107.3272   -12.7334     5.0104
 2904.0000     0.2566     0.0495     2.5720     0.1073    87.2810     4.9876     5.0896     8.5812   109.1244   -13.0318     5.1145
 2904.5000     0.2533     0.0498     2.5713     0.1058    86.9649     5.1625     5.2314     8.5814   113.3291   -13.1799     5.2208
 2905.0000     0.2367     0.0513     2.5690     0.1042    86.1614     5.3436     5.4522     8.5817   116.3308   -13.3283     5.3293
 2905.5000     0.2279     0.0597     2.5635     0.0982    85.6242     5.5334     5.6106     8.5820   116.6258   -13.4765     5.4830
 2906.0000     0.2270     0.0640     2.5441     0.0891    84.9564     5.7248     5.8403     8.5823   114.2125   -13.7752     5.6697
 2906.5000     0.2313     0.0606     2.5471     0.0815    84.5046     5.8440     6.0029     8.5826   113.0036   -14.0733     5.8278
 2907.0000     0.2340     0.0582     2.5523     0.0754    83.9775     5.9659     6.1275     8.5830   112.6971   -14.3720     5.9904
 2907.5000     0.2295     0.0570     2.5569     0.0724    83.7518     6.0898     6.2114     8.5682   112.3905   -14.5205     6.1149
 2908.0000     0.2116     0.0567     2.5584     0.1237    83.6017     6.1736     6.2097     8.5686   111.7832   -14.6687     6.2420
 2908.5000     0.2074     0.0591     2.5538     0.1433    83.9044     6.1724     6.2081     8.5538   111.7774   -14.6672     6.2403
 2909.0000     0.2153     0.0595     2.5523     0.1357    84.0559     6.1712     6.2064     8.5241   111.7714   -14.8157     6.2386
 2909.5000     0.2298     0.0570     2.5539     0.1175    84.2075     6.1699     6.2043     8.4945   110.8620   -14.9641     6.3242
 2910.0000     0.2373     0.0531     2.5621     0.1024    84.2082     6.1684     6.2027     8.4948   110.2547   -14.9623     6.4105
 2910.5000     0.2325     0.0519     2.5666     0.0931    83.7564     6.1671     6.2010     8.4951   112.3541   -15.1112     6.4535
 2911.0000     0.2298     0.0547     2.5629     0.0827    83.4555     6.1659     6.1993     8.4954   116.5588   -15.1094     6.4971
 2911.5000     0.2289     0.0586     2.5583     0.0751    82.9937     6.1646     6.2412     8.5107   118.6583   -15.1744     6.5862
 2912.0000     0.2289     0.0561     2.5538     0.0630    82.4014     6.1634     6.2826     8.5260   119.5549   -15.2564     6.6300
 2912.5000     0.2279     0.0583     2.5576     0.0464    82.4021     6.2050     6.4203     8.5263   117.4436   -15.5548     6.6281
 2913.0000     0.2244     0.0604     2.5552     0.0494    82.5536     6.3342     6.7765     8.4966   117.1370   -15.8528     6.6324
 2913.5000     0.2183     0.0483     2.5575     0.0660    82.8559     6.7572     7.2111     8.4515   119.2350   -16.0017     6.7641
 2914.0000     0.2150     0.0389     2.5779     0.1112    82.4043     7.5824     7.6735     8.4072   120.4337   -16.1501     7.0008
 2914.5000     0.2144     0.0429     2.5877     0.1972    81.5000     7.9034     8.0530     8.3925   111.4038   -16.1483     7.5546
 2915.0000     0.2102     0.0387     2.5877     0.1836    78.3333     7.9014     8.1074     8.3778   100.5709   -16.1469     8.9848
 2915.5000     0.2095     0.0199     2.5915     0.1730    75.3479     7.8998     7.9931     8.3931    91.5426   -15.9943    10.3930
 2916.0000     0.2184     0.0218     2.6133     0.1609    72.4526     7.7894     7.6631     8.4084    87.3063   -15.6723    11.1376
 2916.5000     0.2208     0.0281     2.6111     0.1443    73.0567     7.4704     7.2491     8.4537    93.8962   -15.0927    11.2903
 2917.0000     0.2211     0.0420     2.5969     0.1156    76.0740     6.9685     6.9037     8.4690   104.4560   -14.6415     8.0306
 2917.5000     0.2232     0.0456     2.5748     0.0869    79.9209     6.5364     6.5748     8.4693   106.5554   -14.1903     7.1343
 2918.0000     0.2259     0.0471     2.5733     0.0763    83.6923     6.1906     6.3932     8.4696   108.0534   -13.7390     6.6537
 2918.5000     0.2292     0.0508     2.5695     0.0890    84.5226     6.1894     6.3473     8.4699   109.5513   -13.2878     6.4697
 2919.0000     0.2304     0.0571     2.5567     0.1049    84.5234     6.2749     6.3897     8.4702   111.3500   -12.8366     6.4679
 2919.5000     0.2307     0.0505     2.5612     0.1124    84.1472     6.3613     6.4325     8.4705   112.8479   -12.2163     6.6024
 2920.0000     0.2319     0.0486     2.5688     0.1139    83.6200     6.4488     6.4755     8.4708   114.3459   -11.6339     6.7396
 2920.5000     0.2344     0.0490     2.5687     0.1003    83.1683     6.3144     6.5188     8.4861   111.2120   -11.1827     6.9276
 2921.0000     0.2368     0.0477     2.5703     0.0851    82.7919     6.0980     6.4716     8.5013   105.6110   -11.0313     7.1204
 2921.5000     0.2395     0.0423     2.5778     0.0866    82.4910     5.9207     6.2929     8.5017   101.3946   -10.8286     7.2185
 2922.0000     0.2365     0.0426     2.5838     0.1019    82.4063     5.6868     6.1190     8.5320    99.2850   -10.7286     7.1661
 2922.5000     0.2311     0.0484     2.5748     0.1152    82.7941     5.4919     5.9089     8.5323   109.2025   -10.4273     6.9197
 2923.0000     0.2283     0.0555     2.5695     0.1137    84.2680     5.4528     5.7060     8.5326   117.9185   -10.4258     6.3646
 2923.5000     0.2293     0.0656     2.5589     0.1137    87.0944     5.6051     5.7841     8.5329   123.3262   -10.5743     5.6936
 2924.0000     0.2398     0.0707     2.5393     0.1167    87.7739     5.8421     5.9862     8.5181   130.7188   -10.7228     5.1552
 2924.5000     0.2434     0.0689     2.5332     0.1197    87.3975     6.1315     6.2389     8.5034   134.1416   -10.8713     4.7171
 2925.0000     0.2401     0.0595     2.5450     0.1287    85.1358     6.4352     6.5475     8.4887   126.9163   -11.3192     5.2337
 2925.5000     0.2238     0.0472     2.5672     0.1317    80.7625     6.6727     6.8714     8.4891   112.7752   -11.7675     7.1522
 2926.0000     0.1940     0.0381     2.5875     0.1161    78.5762     7.0391     7.1614     8.4743   104.0475   -12.2159     7.9354
 2926.5000     0.1910     0.0406     2.5853     0.0969    78.5015     7.2357     7.3609     8.4747   100.4327   -12.6772     7.9333
 2927.0000     0.1943     0.0479     2.5792     0.0938    79.7090     7.3353     7.4101     8.4599   101.0284   -13.1125     7.7676
 2927.5000     0.1994     0.0454     2.5702     0.0968    80.6148     7.3338     7.4077     8.4603   103.1278   -13.4109     7.6054
