~VERSION INFORMATION
 VERS.                2.0:   CWLS LOG ASCII STANDARD - VERSION 2.0
 WRAP.                 NO:   ONE LINE PER DEPTH STEP
~WELL INFORMATION
#MNEM.UNIT      DATA TYPE    INFORMATION
#----------   ------------   ------------------------------
 STRT.F           43.0000:   START DEPTH
 STOP.F          551.0000:   STOP DEPTH
 STEP.F            0.5000:   STEP LENGTH
 NULL.          -999.2500:   NO VALUE
 COMP. FENIX & SCISSON INC:   COMPANY
 WELL.   NPR 3  27-S #3-3:   WELL
 FLD .             TEAPOT:   FIELD
 LOC .       S3 T38N R78W:   LOCATION
 CNTY.            NATRONA:   COUNTY
 STAT.            WYOMING:   STATE
 CTRY. UNITED STATES OF AMERICA:   COUNTRY
 SRVC.           BIRDWELL:   SERVICE COMPANY
 DATE.        07-OCT-1978:   LOGDATE
 API .       490251071600:   API NUMBER
~CURVE INFORMATION
#MNEM.UNIT       API CODE    CURVE DESCRIPTION
#----------   ------------   ------------------------------
 DEPT.F                  :   
 SPR .MV     05 010 01 00:   SPONTANEOUS POTENTIAL FROM RES.
 SN  .OHMM   05 040 16 00:   SHORT NORMAL 16"
 ILD .OHMM   05 120 46 00:   INDUCTION LOG DEEP
 GRD .GAPI   45 310 01 00:   GAMMA RAY FROM DENSITY LOG
 CALD.IN     45 280 60 00:   CALIPER
 RHOB.G/C3   45 350 01 00:   BULK DENSITY
 CORR.G/C3   45 356 01 00:   DENSITY CORRECTION
 DPHI.DEC    45 890 12 00:   DENSITY POROSITY SANDSTONE
~PARAMETER INFORMATION
#MNEM.UNIT          VALUE    DESCRIPTION
#----------   ------------   ------------------------------
 PD  .                 GL:   PERMANENT DATUM
 EPD .F              5241:   ELEVATION PERMANENT DATUM
 LMF .                 KB:   LOG MEASURED FROM
 DAPD.F                 4:   FEET ABOVE PERMANENT DATUM
 DMF .                 KB:   DRILLING MEASURED FROM
 EKB .F              5245:   KELLING BUSHING
 EGL .F              5241:   GROUND LEVEL
 DATE.            10-7-78:   RUN DATE
 RUN .                  1:   RUN NUMBER
 DD  .F               552:   DEPTH DRILLER
 DL  .F               551:   DEPTH LOGGER
 BLI .F               545:   BOTTOM LOG INTERVAL
 TLI .F                48:   TOP LOG INTERVAL
 CS  .IN            8.625:   CASING SIZE
 CBL .F                43:   CASING BOTTOM LOGGER
 BS  .IN            7.875:   BIT SIZE
 BSD .F               552:   BIT SIZE AT DEPTH
 DFT .                KCL:   DRILLING FLUID TYPE
 DFD .                8.7:   DRILLING FLUID DENSITY
 DFV .                 38:   DRILLING FLUID VISCOSITY
 DFPH.                  9:   DRILLING FLUID PH
 DFL .                 38:   DRILLING FLUID LOSS
 MSS .            MUD PIT:   MUD SAMPLE SOURCE
 RMS .OHMM            .24:   RESISTIVITY MUD SAMPLE
 MST .F                48:   MUD SAMPLE TEMPERATURE
 RMF .OHMM             .2:   RESISTIVITY MUD FILTRATE SAMPLE
 MFST.F                62:   MUD FILTRATE SAMPLE TEMPERATURE
 RMC .OHMM             .3:   RESISTIVITY MUD CAKE
 MCST.F                62:   MUD CAKE SAMPLE TEMPERATURE
 MFSS.               MEAS:   MUD FILTRATE SAMPLE SOURCE
 MCSS.               MEAS:   MUD CAKE SAMPLE SOURCE
 TCS .HRS               3:   TIME CURCULATED STOPPED
 LUN .               2958:   LOGGING UNIT NUMBER
 LUL .               CASP:   LOGGING UNIT LOCATION
 ENGI.             MILLER:   RECORDING ENGINEER
 WITN.              AMEND:   WITNESSED BY
 CLNT.            A2DTECH:   CLIENT CODE
 ORIG.       2", 5" PRINT:   ORIGIN OF DATA
 UWI .       490251071600:   UNIQUE WELL ID
 DICO. A2D Technologies, Inc.:   DIGITIZING COMPANY
~OTHER INFORMATION
~A   DEPT      SPR         SN        ILD        GRD         CALD       RHOB      CORR        DPHI 
# ...
  448.0000   -16.0252    10.9817    15.1674    83.5974     8.2813     2.3946     0.0124     0.1703
  448.5000   -16.0193    10.9731    15.1674    84.7110     8.2867     2.4001     0.0128     0.1669
  449.0000   -15.9976    10.9645    15.1674    84.7864     8.2927     2.4056     0.0125     0.1635
  449.5000   -15.9768    10.9559    15.1705    84.8504     8.2986     2.4112     0.0121     0.1600
  450.0000   -15.9565    10.9473    15.0656    84.9146     8.3045     2.4167     0.0118     0.1566
  450.5000   -15.9361    10.9388    14.9203    84.5357     8.3105     2.4222     0.0115     0.1531
  451.0000   -15.9158    10.9302    14.7767    84.1068     8.3162     2.4217     0.0112     0.1538
  451.5000   -15.8953    10.9216    14.6345    83.7091     8.2821     2.4206     0.0110     0.1550
  452.0000   -15.8741    10.9131    14.4937    83.9592     8.2442     2.4199     0.0110     0.1568
  452.5000   -15.8534    10.9046    14.3542    84.2932     8.2184     2.4140     0.0110     0.1573
  453.0000   -15.8887    10.8960    14.2160    84.6390     8.2251     2.4034     0.0110     0.1669
  453.5000   -16.3454    10.8877    14.0792    84.7221     8.2311     2.3935     0.0110     0.1699
  454.0000   -16.8094    10.8304    13.9437    84.1048     8.2372     2.3992     0.0110     0.1697
  454.5000   -17.0289    10.7305    13.8096    82.9063     8.2432     2.4180     0.0110     0.1593
  455.0000   -17.1169    10.6313    13.6766    81.7127     8.2492     2.4365     0.0110     0.1490
  455.5000   -17.3979    10.5336    13.5450    80.5092     8.2550     2.4457     0.0110     0.1396
  456.0000   -17.6752    10.4717    13.4147    79.9507     8.2832     2.4411     0.0110     0.1396
  456.5000   -17.9637    10.4395    13.3307    79.9624     8.3195     2.4445     0.0110     0.1410
  457.0000   -17.9816    10.4073    13.3307    80.0337     8.3372     2.4462     0.0110     0.1457
  457.5000   -17.9214    10.3790    13.3307    80.1060     8.3403     2.4319     0.0118     0.1504
  458.0000   -17.8570    10.3538    13.3307    80.1773     8.3431     2.4209     0.0149     0.1551
  458.5000   -17.9841    10.3286    13.3307    80.2486     8.3459     2.4222     0.0179     0.1547
  459.0000   -18.2728    10.3029    13.3307    80.3199     8.3486     2.4304     0.0210     0.1504
  459.5000   -18.5624    10.2959    13.3307    80.3912     8.3514     2.4413     0.0209     0.1447
  460.0000   -18.8526    10.2937    13.3307    80.4624     8.3542     2.4497     0.0173     0.1390
  460.5000   -19.1424    10.2914    13.3309    80.5337     8.3579     2.4525     0.0134     0.1365
  461.0000   -19.4290    10.2891    13.3315    80.6050     8.3669     2.4522     0.0129     0.1371
  461.5000   -19.6246    10.2869    13.3307    80.6763     8.3760     2.4519     0.0129     0.1376
  462.0000   -19.6211    10.2846    13.2047    80.7475     8.3851     2.4522     0.0130     0.1353
  462.5000   -19.6216    10.2823    13.0788    80.8187     8.3950     2.4542     0.0130     0.1329
  463.0000   -19.6215    10.2800    12.9542    80.8902     8.3729     2.4562     0.0130     0.1337
  463.5000   -19.6215    10.2778    12.8308    80.9980     8.3420     2.4537     0.0130     0.1344
  464.0000   -19.6215    10.2755    12.7085    81.1809     8.3105     2.4494     0.0130     0.1388
  464.5000   -19.6215    10.2732    12.6023    81.4555     8.2984     2.4452     0.0130     0.1409
  465.0000   -19.6215    10.2709    12.5531    82.2415     8.3006     2.4445     0.0130     0.1403
  465.5000   -19.6215    10.2687    12.5037    83.0185     8.3030     2.4574     0.0130     0.1320
  466.0000   -19.6215    10.2664    12.4546    83.4486     8.3055     2.4755     0.0091     0.1204
  466.5000   -19.6215    10.2641    12.4056    83.1982     8.3079     2.4840     0.0037     0.1169
  467.0000   -19.6215    10.2618    12.3569    82.9594     8.3104     2.4813     0.0010     0.1215
  467.5000   -19.6215    10.2596    12.3083    82.7190     8.3128     2.4650     0.0010     0.1282
  468.0000   -19.6216    10.2573    12.2599    82.4877     8.3149     2.4473     0.0019     0.1373
  468.5000   -19.6213    10.2550    12.2117    82.7304     8.3007     2.4464     0.0102     0.1401
  469.0000   -19.6229    10.2527    12.1566    83.9225     8.2553     2.4529     0.0187     0.1399
  469.5000   -19.4762    10.2505    12.2230    85.1136     8.2633     2.4674     0.0219     0.1296
  470.0000   -19.2280    10.2482    12.3013    86.2730     8.3085     2.4768     0.0199     0.1250
  470.5000   -18.9806    10.2459    12.3800    86.2837     8.2971     2.4719     0.0179     0.1267
  471.0000   -18.8269    10.2437    12.4593    86.2374     8.2727     2.4653     0.0166     0.1303
  471.5000   -18.8405    10.2414    12.5391    86.1958     8.2583     2.4611     0.0160     0.1323
  472.0000   -18.8513    10.2391    12.6133    86.1559     8.2625     2.4630     0.0155     0.1305
  472.5000   -18.8626    10.2369    12.6135    86.1159     8.2665     2.4641     0.0149     0.1306
  473.0000   -18.8738    10.2346    12.6134    86.0760     8.2705     2.4592     0.0143     0.1337
  473.5000   -18.8851    10.2323    12.6133    86.0361     8.2744     2.4566     0.0137     0.1337
  474.0000   -18.8963    10.2301    12.6134    85.9959     8.2760     2.4611     0.0131     0.1316
  474.5000   -18.9075    10.2278    12.6135    85.9548     8.2737     2.4666     0.0125     0.1281
  475.0000   -18.9187    10.2255    12.6158    85.9234     8.2715     2.4664     0.0120     0.1281
  475.5000   -18.9299    10.2233    12.4880    86.1144     8.2692     2.4661     0.0114     0.1281
  476.0000   -18.9411    10.2210    12.3114    86.3152     8.2669     2.4658     0.0111     0.1291
  476.5000   -18.9524    10.2187    12.1477    86.5151     8.2647     2.4662     0.0117     0.1300
  477.0000   -18.9636    10.2165    12.0676    86.7148     8.2624     2.4684     0.0122     0.1269
  477.5000   -18.9748    10.2142    11.9881    86.9159     8.2601     2.4741     0.0128     0.1237
  478.0000   -18.9860    10.2120    11.9091    87.1234     8.2578     2.4802     0.0133     0.1195
  478.5000   -18.9979    10.2097    11.8250    87.2808     8.2556     2.4864     0.0139     0.1152
  479.0000   -19.0089    10.2074    11.9015    86.3891     8.2533     2.4925     0.0144     0.1110
  479.5000   -19.0127    10.2051    11.9844    84.5365     8.2510     2.4956     0.0149     0.1105
  480.0000   -18.6087    10.2030    12.0679    80.8963     8.2488     2.4903     0.0146     0.1167
  480.5000   -17.5942    10.2028    12.1566    80.7915     8.2465     2.4778     0.0143     0.1256
  481.0000   -17.3281    10.2654    12.3100    80.5647     8.2442     2.4564     0.0140     0.1344
  481.5000   -17.1985    10.3495    12.5190    77.8188     8.2420     2.4248     0.0137     0.1526
  482.0000   -17.0885    10.4346    12.9290    75.7300     8.2399     2.3934     0.0134     0.1719
  482.5000   -16.0355    10.5670    13.5190    75.6663     8.2393     2.3620     0.0132     0.1912
  483.0000   -14.7348    10.7866    14.1360    75.8138     8.1663     2.3305     0.0144     0.2105
  483.5000   -14.3918    11.0108    14.7812    75.9610     8.1057     2.2998     0.0177     0.2268
  484.0000   -13.0652    11.2397    15.4558    76.1040     8.0786     2.2740     0.0208     0.2400
  484.5000   -11.4893    11.2923    16.1785    76.3229     8.0512     2.2675     0.0227     0.2481
  485.0000   -10.2083    11.2923    16.2599    76.1878     8.0239     2.2871     0.0202     0.2342
  485.5000    -8.9116    11.2923    16.3437    75.9887     7.9987     2.3091     0.0176     0.2239
  486.0000    -8.4723    11.2923    16.4280    75.7875     8.0014     2.3309     0.0199     0.2136
  486.5000    -8.4646    11.2923    16.4788    75.5808     8.0050     2.3353     0.0240     0.2095
  487.0000    -8.4638    11.2923    16.1099    75.3779     8.0085     2.3373     0.0264     0.2043
  487.5000    -8.5224    11.2923    15.8468    75.9919     8.0119     2.3506     0.0244     0.1975
  488.0000    -8.5870    11.2923    15.5927    78.0410     8.0154     2.3682     0.0225     0.1906
