~VERSION INFORMATION
 VERS.                2.0:   CWLS LOG ASCII STANDARD - VERSION 2.0
 WRAP.                 NO:   ONE LINE PER DEPTH STEP
~WELL INFORMATION
#MNEM.UNIT      DATA TYPE    INFORMATION
#----------   ------------   ------------------------------
 STRT.F           10.0000:   START DEPTH
 STOP.F          580.0000:   STOP DEPTH
 STEP.F            0.5000:   STEP LENGTH
 NULL.          -999.2500:   NO VALUE
 COMP. FENIX & SCISSON INC:   COMPANY
 WELL.     NPR 3 #28-S-34:   WELL
 FLD .        TEAPOT DOME:   FIELD
 LOC .      S34 T39N R78W:   LOCATION
 CNTY.            NATRONA:   COUNTY
 STAT.            WYOMING:   STATE
 CTRY. UNITED STATES OF AMERICA:   COUNTRY
 SRVC.           BIRDWELL:   SERVICE COMPANY
 DATE.        05-AUG-1978:   LOGDATE
 API .       490251068200:   API NUMBER
~CURVE INFORMATION
#MNEM.UNIT       API CODE    CURVE DESCRIPTION
#----------   ------------   ------------------------------
 DEPT.F                  :   
 SPR .MV     05 010 01 00:   SPONTANEOUS POTENTIAL FROM RES.
 IL  .OHMM   05 120 00 00:   INDUCTION LOG
 SN  .OHMM   05 040 16 00:   SHORT NORMAL 16"
 GRD .GAPI   45 310 01 00:   GAMMA RAY FROM DENSITY LOG
 CALD.IN     45 280 60 00:   CALIPER
 RHOB.G/C3   45 350 01 00:   BULK DENSITY
 DPHI.DEC    45 890 12 00:   DENSITY POROSITY SANDSTONE
 CORR.G/C3   45 356 01 00:   DENSITY CORRECTION
~PARAMETER INFORMATION
#MNEM.UNIT          VALUE    DESCRIPTION
#----------   ------------   ------------------------------
 PD  .                 GL:   PERMANENT DATUM
 EPD .F              5191:   ELEVATION PERMANENT DATUM
 LMF .                 KB:   LOG MEASURED FROM
 DAPD.F                 4:   FEET ABOVE PERMANENT DATUM
 DMF .                 KB:   DRILLING MEASURED FROM
 EKB .F              5195:   KELLING BUSHING
 EGL .F              5191:   GROUND LEVEL
 DATE.             8-5-78:   RUN DATE
 RUN .                  1:   RUN NUMBER
 DD  .F               570:   DEPTH DRILLER
 DL  .F               586:   DEPTH LOGGER
 BLI .F               580:   BOTTOM LOG INTERVAL
 TLI .F                30:   TOP LOG INTERVAL
 CS  .IN            8.625:   CASING SIZE
 BS  .IN            7.875:   BIT SIZE
 BSD .F               570:   BIT SIZE AT DEPTH
 DFT .                KCL:   DRILLING FLUID TYPE
 DFD .                8.6:   DRILLING FLUID DENSITY
 DFV .                 32:   DRILLING FLUID VISCOSITY
 DFPH.                9.5:   DRILLING FLUID PH
 MSS .          FLOW LINE:   MUD SAMPLE SOURCE
 RMS .OHMM             .9:   RESISTIVITY MUD SAMPLE
 MST .F                74:   MUD SAMPLE TEMPERATURE
 RMF .OHMM            .17:   RESISTIVITY MUD FILTRATE SAMPLE
 MFST.F                79:   MUD FILTRATE SAMPLE TEMPERATURE
 RMC .OHMM            .42:   RESISTIVITY MUD CAKE
 MCST.F                80:   MUD CAKE SAMPLE TEMPERATURE
 MFSS.               MEAS:   MUD FILTRATE SAMPLE SOURCE
 TCS .HRS               3:   TIME CURCULATED STOPPED
 LUN .               3006:   LOGGING UNIT NUMBER
 LUL .               CASP:   LOGGING UNIT LOCATION
 ENGI.             MILLER:   RECORDING ENGINEER
 WITN.           MCGINLEY:   WITNESSED BY
 CLNT.            A2DTECH:   CLIENT CODE
 ORIG.           5" PRINT:   ORIGIN OF DATA
 UWI .       490251068200:   UNIQUE WELL ID
 DICO. A2D Technologies, Inc.:   DIGITIZING COMPANY
~OTHER INFORMATION
~A   DEPT      SPR         IL         SN         GRD      CALD       RHOB       DPHI       CORR   
# ...
  496.0000    -6.3570    10.0490     8.7270    71.0600     7.5580     2.3900     0.1780     0.0030
  496.5000    -6.2250    10.6010     8.8730    72.1610     7.5980     2.3630     0.1940     0.0030
  497.0000    -6.0920    11.1530     9.0310    73.2410     7.6030     2.3370     0.2090     0.0050
  497.5000    -5.9600    11.7050     9.3080    72.8330     7.6000     2.3100     0.2230     0.0120
  498.0000    -5.8280    12.2570     9.6120    65.8980     7.5960     2.2830     0.2260     0.0200
  498.5000    -5.6950    12.8090     9.9160    57.7350     7.5930     2.2780     0.2200     0.0270
  499.0000    -5.5630    13.3610    10.2200    55.1970     7.5890     2.2860     0.2130     0.0270
  499.5000    -5.4310    13.9130    10.5240    57.3010     7.5860     2.3010     0.2050     0.0230
  500.0000    -5.2990    14.4320    10.8270    61.8520     7.5850     2.3170     0.2000     0.0190
  500.5000    -5.1670    14.9720    11.1310    65.2190     7.6240     2.3290     0.1990     0.0160
  501.0000    -5.1600    14.9480    11.4350    64.3880     7.6680     2.3290     0.2010     0.0120
  501.5000    -5.2780    14.9130    11.7390    63.5500     7.7110     2.3260     0.2030     0.0080
  502.0000    -5.3950    14.8790    12.0190    62.7850     7.7550     2.3210     0.2050     0.0040
  502.5000    -5.5090    14.8450    12.1100    61.7220     7.7510     2.3210     0.1970     0.0250
  503.0000    -5.6840    14.8350    12.2020    59.0990     7.7170     2.3680     0.1720     0.0390
  503.5000    -5.8520    15.2630    12.2930    56.4650     7.6840     2.4180     0.1510     0.0370
  504.0000    -6.0190    15.6440    12.3840    53.8540     7.6500     2.4220     0.1540     0.0240
  504.5000    -6.1860    15.8210    12.4760    53.2750     7.6160     2.4180     0.1650     0.0110
  505.0000    -6.3530    15.6920    12.5730    54.6440     7.5820     2.3930     0.1760    -0.0020
  505.5000    -6.4980    15.5960    12.4870    57.6360     7.5770     2.3680     0.1870    -0.0050
  506.0000    -6.5000    15.4990    12.3950    60.5830     7.6030     2.3430     0.1970    -0.0010
  506.5000    -6.5000    15.4030    12.3040    59.0790     7.6210     2.3330     0.2000     0.0050
  507.0000    -6.5000    15.3070    12.2120    57.1800     7.5980     2.3260     0.2020     0.0020
  507.5000    -6.5000    15.2100    12.1210    54.8230     7.5750     2.3200     0.2050    -0.0010
  508.0000    -6.5000    15.1100    12.0290    56.2460     7.5520     2.3160     0.2050     0.0040
  508.5000    -6.5000    15.0030    11.9380    59.9910     7.5290     2.3260     0.1940     0.0080
  509.0000    -6.5000    14.8630    11.8290    63.3440     7.5050     2.3360     0.1930     0.0110
  509.5000    -6.5000    14.7230    11.7060    62.2380     7.4820     2.3400     0.1950     0.0070
  510.0000    -6.5000    14.5830    11.5840    60.8760     7.4590     2.3370     0.1980     0.0020
  510.5000    -6.5000    14.4430    11.4620    59.6950     7.4350     2.3280     0.2010    -0.0030
  511.0000    -6.5000    14.3030    11.3400    61.6870     7.4120     2.3200     0.2050    -0.0010
  511.5000    -6.5000    14.1630    11.2170    64.1590     7.4130     2.3150     0.2080     0.0030
  512.0000    -6.5000    14.0230    11.0950    64.7210     7.4400     2.3100     0.2110     0.0060
  512.5000    -6.5000    13.9010    10.9730    61.7150     7.4670     2.3050     0.2110     0.0100
  513.0000    -6.5000    13.8550    10.8510    61.9380     7.4760     2.3030     0.2070     0.0140
  513.5000    -6.5000    13.8090    10.7280    61.9680     7.4500     2.3080     0.2010     0.0180
  514.0000    -6.5000    13.7620    10.6060    60.4730     7.4250     2.3220     0.1950     0.0210
  514.5000    -6.5000    13.7160    10.4840    58.8740     7.4040     2.3360     0.1890     0.0250
  515.0000    -6.5000    13.6700    10.4610    58.3820     7.4230     2.3510     0.1850     0.0210
  515.5000    -6.4990    13.6230    10.4610    59.7580     7.4440     2.3590     0.1840     0.0180
  516.0000    -6.4980    13.5770    10.4610    61.0810     7.4650     2.3580     0.1870     0.0140
  516.5000    -6.5050    13.5320    10.4610    62.4350     7.4860     2.3510     0.1900     0.0110
  517.0000    -6.2850    13.3820    10.4610    62.9750     7.5050     2.3440     0.1940     0.0070
  517.5000    -6.5150    13.2360    10.4610    62.9310     7.5050     2.3370     0.1970     0.0030
  518.0000    -6.9570    13.0900    10.4610    62.8850     7.5050     2.3300     0.1990     0.0040
  518.5000    -7.4270    12.9440    10.4610    62.8340     7.5050     2.3270     0.1990     0.0050
  519.0000    -7.9010    12.7980    10.4610    62.8360     7.5050     2.3310     0.1960     0.0070
  519.5000    -8.0800    12.6520    10.4610    63.5840     7.5050     2.3370     0.1940     0.0080
  520.0000    -8.0340    12.5390    10.4610    64.2420     7.5050     2.3400     0.1930     0.0100
  520.5000    -7.9880    12.4640    10.4610    63.5660     7.5050     2.3350     0.1970     0.0110
  521.0000    -7.9420    12.3890    10.4610    62.7040     7.5050     2.3290     0.2030     0.0100
  521.5000    -7.8960    12.3150    10.4610    65.2360     7.5050     2.3270     0.2030     0.0050
  522.0000    -7.8490    12.2340    10.4610    67.3660     7.5050     2.3290     0.2020     0.0000
  522.5000    -7.8030    12.2550    10.4610    64.3900     7.5050     2.3260     0.2020    -0.0050
  523.0000    -7.7570    12.2820    10.4610    61.0240     7.5050     2.3230     0.2040    -0.0070
  523.5000    -7.7140    12.3090    10.4610    61.0200     7.5050     2.3190     0.2070    -0.0040
  524.0000    -7.8100    12.3440    10.4610    64.8940     7.5050     2.3150     0.2080    -0.0020
  524.5000    -8.3990    12.2750    10.4610    66.4130     7.5050     2.3110     0.2070     0.0000
  525.0000    -8.9880    12.1760    10.4610    66.0040     7.5060     2.3180     0.2000     0.0020
  525.5000    -9.0800    12.0770    10.4610    65.3490     7.5190     2.3250     0.1940     0.0040
  526.0000    -9.0060    11.9780    10.4610    64.6920     7.4680     2.3330     0.1920     0.0060
  526.5000    -8.9300    11.8790    10.4620    64.0050     7.4120     2.3400     0.1900     0.0080
  527.0000    -8.8530    11.7800    10.4540    63.6790     7.4660     2.3470     0.1880     0.0100
  527.5000    -8.7760    11.6820    10.3930    63.8590     7.5340     2.3510     0.1860     0.0130
  528.0000    -8.7000    11.5830    10.3320    64.8110     7.6040     2.3530     0.1810     0.0150
  528.5000    -8.6240    11.4840    10.2710    65.7730     7.6650     2.3640     0.1750     0.0170
  529.0000    -8.5430    11.3850    10.2090    67.3110     7.6750     2.3750     0.1700     0.0190
  529.5000    -8.4750    11.2860    10.1480    69.0810     7.6830     2.3860     0.1640     0.0210
  530.0000    -9.3340    11.2220    10.0870    70.4110     7.6920     2.3970     0.1580     0.0160
  530.5000   -10.2730    11.1700    10.0260    70.2220     7.7010     2.4010     0.1590     0.0110
  531.0000   -10.3030    11.1190     9.9640    69.4670     7.7100     2.4000     0.1590     0.0060
  531.5000   -10.2950    11.0670     9.9000    68.7020     7.7180     2.3990     0.1600     0.0010
  532.0000   -10.7840    10.9270     9.7350    67.9360     7.7270     2.3980     0.1570    -0.0010
  532.5000   -11.5430    10.6960     9.5620    67.1980     7.7360     2.3990     0.1530     0.0020
  533.0000   -12.3020    10.4650     9.3890    66.7900     7.7450     2.4110     0.1500     0.0050
  533.5000   -13.0630    10.2330     9.2160    67.8810     7.7530     2.4220     0.1480     0.0080
  534.0000   -13.5390    10.0020     9.0430    69.3920     7.7620     2.4190     0.1420     0.0110
  534.5000   -13.7270     9.7710     8.8660    70.9460     7.7610     2.4300     0.1390     0.0140
  535.0000   -13.9180     9.6310     8.8420    71.1750     7.7510     2.4430     0.1390     0.0120
  535.5000   -14.0960     9.6480     8.8180    68.7390     7.7410     2.4410     0.1400     0.0090
  536.0000   -14.0620     9.6620     8.7930    66.7170     7.7310     2.4400     0.1400     0.0060
