~VERSION INFORMATION
 VERS.                2.0:   CWLS LOG ASCII STANDARD - VERSION 2.0
 WRAP.                 NO:   ONE LINE PER DEPTH STEP
~WELL INFORMATION
#MNEM.UNIT      DATA TYPE    INFORMATION
#----------   ------------   ------------------------------
 STRT.F          502.0000:   START DEPTH
 STOP.F         5661.0000:   STOP DEPTH
 STEP.F            0.5000:   STEP LENGTH
 NULL.          -999.2500:   NO VALUE
 COMP. FENIX & SCISSON INC:   COMPANY
 WELL.   NPR 3 #32DX22-22:   WELL
 FLD .             TEAPOT:   FIELD
 LOC .      S22 T38N R78W:   LOCATION
 CNTY.            NATRONA:   COUNTY
 STAT.            WYOMING:   STATE
 CTRY. UNITED STATES OF AMERICA:   COUNTRY
 SRVC.       Schlumberger:   SERVICE COMPANY
 DATE.        29-NOV-1978:   LOGDATE
 API .       490251073100:   API NUMBER
~CURVE INFORMATION
#MNEM.UNIT       API CODE    CURVE DESCRIPTION
#----------   ------------   ------------------------------
 DEPT.F                  :   
 SPR .MV     07 010 01 00:   SPONTANEOUS POTENTIAL
 GRR .GAPI   07 310 01 00:   GAMMA RAY FROM RES. LOG.
 SFL .OHMM   07 220 01 00:   SHALLOW FOCUSED LOG RESISTIVITY
 ILD .OHMM   07 120 46 00:   INDUCTION LOG DEEP
 ILM .OHMM   07 120 44 00:   INDUCTION LOG MEDIUM
 NPHI.DEC    42 890 03 00:   NEUTRON POROSITY SANDSTONE
 DPHI.DEC    45 890 12 00:   DENSITY POROSITY SANDSTONE
 RHOB.G/C3   45 350 01 00:   BULK DENSITY
 CORR.G/C3   45 356 01 00:   DENSITY CORRECTION
 CALD.IN     45 280 60 00:   CALIPER
~PARAMETER INFORMATION
#MNEM.UNIT          VALUE    DESCRIPTION
#----------   ------------   ------------------------------
 PD  .                 GL:   PERMANENT DATUM
 EPD .F              5514:   ELEVATION PERMANENT DATUM
 LMF .                 KB:   LOG MEASURED FROM
 DAPD.F                10:   FEET ABOVE PERMANENT DATUM
 DMF .                 KB:   DRILLING MEASURED FROM
 EKB .F              5524:   KELLING BUSHING
 EGL .F              5514:   GROUND LEVEL
 DATE.           11-29-78:   RUN DATE
 RUN .                  1:   RUN NUMBER
 DD  .F              5680:   DEPTH DRILLER
 DL  .F              5667:   DEPTH LOGGER
 BLI .F              5661:   BOTTOM LOG INTERVAL
 TLI .F               530:   TOP LOG INTERVAL
 CS  .IN            8.625:   CASING SIZE
 CBD .F               513:   CASING BOTTOM DRILLER
 CBL .F               530:   CASING BOTTOM LOGGER
 BS  .IN            7.875:   BIT SIZE
 BSD .F              5680:   BIT SIZE AT DEPTH
 DFT .                FGM:   DRILLING FLUID TYPE
 DFD .                9.2:   DRILLING FLUID DENSITY
 DFV .                 50:   DRILLING FLUID VISCOSITY
 DFPH.               11.5:   DRILLING FLUID PH
 DFL .                6.8:   DRILLING FLUID LOSS
 MSS .               TANK:   MUD SAMPLE SOURCE
 RMS .OHMM           1.45:   RESISTIVITY MUD SAMPLE
 MST .F                56:   MUD SAMPLE TEMPERATURE
 RMF .OHMM           1.16:   RESISTIVITY MUD FILTRATE SAMPLE
 MFST.F                56:   MUD FILTRATE SAMPLE TEMPERATURE
 MFSS.               MEAS:   MUD FILTRATE SAMPLE SOURCE
 RMB .OHMM            .62:   RESISTIVITY MUD AT BHT
 BHT .F               132:   BOTTOM HOLE TEMPERATURE
 TCS .HRS            0700:   TIME CURCULATED STOPPED
 TLAB.HRS            1200:   TIME LOGGER AT BOTTOM
 MRT .F               132:   MAXIMUM RECORDED TEMPERATURE
 LUN .               8039:   LOGGING UNIT NUMBER
 LUL .               CSPR:   LOGGING UNIT LOCATION
 ENGI.           STADULIS:   RECORDING ENGINEER
 WITN.           DINSMORE:   WITNESSED BY
 CLNT.            A2DTECH:   CLIENT CODE
 ORIG.       2", 5" PRINT:   ORIGIN OF DATA
 UWI .       490251073100:   UNIQUE WELL ID
 DICO. A2D Technologies, Inc.:   DIGITIZING COMPANY
~OTHER INFORMATION
~A   DEPT      SPR         GRR       SFL        ILD        ILM       NPHI       DPHI       RHOB       CORR       CALD   
# ...
 2244.0000   -64.0354    99.6435     5.4180     5.4337     5.0446  -999.2500  -999.2500  -999.2500  -999.2500  -999.2500
 2244.5000   -64.5255    98.6572     5.3886     5.4498     5.2348  -999.2500  -999.2500  -999.2500  -999.2500  -999.2500
 2245.0000   -64.9513   100.9931     5.3595     5.4660     5.2260  -999.2500  -999.2500  -999.2500  -999.2500  -999.2500
 2245.5000   -64.8561   104.8602     5.3303     5.4897     5.1846  -999.2500  -999.2500  -999.2500  -999.2500  -999.2500
 2246.0000   -64.7706   108.9016     5.3294     5.5457     5.2397  -999.2500  -999.2500  -999.2500  -999.2500  -999.2500
 2246.5000   -64.6859   112.5097     5.3316     5.5996     5.3731  -999.2500  -999.2500  -999.2500  -999.2500  -999.2500
 2247.0000   -64.6050   114.2186     5.3265     5.8029     5.5098  -999.2500  -999.2500  -999.2500  -999.2500  -999.2500
 2247.5000   -64.6609   111.1004     5.8167     6.1683     5.6875  -999.2500  -999.2500  -999.2500  -999.2500  -999.2500
 2248.0000   -65.0613   107.7454     6.4509     6.5592     6.1470  -999.2500  -999.2500  -999.2500  -999.2500  -999.2500
 2248.5000   -65.4524   105.7151     7.1502     6.9749     6.6445  -999.2500  -999.2500  -999.2500  -999.2500  -999.2500
 2249.0000   -65.6803   107.4152     7.9242     7.4172     7.0183  -999.2500  -999.2500  -999.2500  -999.2500  -999.2500
 2249.5000   -65.2252   109.8499     8.3846     7.8902     7.4128  -999.2500  -999.2500  -999.2500  -999.2500  -999.2500
 2250.0000   -64.7868   109.5494     8.7520     8.4326     7.8277  -999.2500  -999.2500  -999.2500  -999.2500  -999.2500
 2250.5000   -64.3494   108.9943     8.7833     8.4975     8.2252  -999.2500  -999.2500  -999.2500  -999.2500  -999.2500
 2251.0000   -63.9107   109.5014     8.8436     8.5657     8.3255  -999.2500  -999.2500  -999.2500  -999.2500  -999.2500
 2251.5000   -63.5962   109.9903     8.9044     8.6344     8.4019  -999.2500  -999.2500  -999.2500  -999.2500  -999.2500
 2252.0000   -63.3579   108.6874     8.9742     8.7037     8.4790  -999.2500  -999.2500  -999.2500  -999.2500  -999.2500
 2252.5000   -63.1213   103.4333     9.0794     8.7732     8.5567  -999.2500  -999.2500  -999.2500  -999.2500  -999.2500
 2253.0000   -62.8847   100.7340     9.0501     8.8334     8.6098  -999.2500  -999.2500  -999.2500  -999.2500  -999.2500
 2253.5000   -62.6479   101.2813     8.9960     8.8333     8.6417  -999.2500  -999.2500  -999.2500  -999.2500  -999.2500
 2254.0000   -62.4105   102.6896     8.9422     8.8328     8.6720  -999.2500  -999.2500  -999.2500  -999.2500  -999.2500
 2254.5000   -62.1698   102.9341     8.9142     8.8328     8.6324  -999.2500  -999.2500  -999.2500  -999.2500  -999.2500
 2255.0000   -61.9344   102.3930     8.9142     8.8330     8.5866  -999.2500  -999.2500  -999.2500  -999.2500  -999.2500
 2255.5000   -62.3795   102.4399     8.9142     8.8079     8.5410  -999.2500  -999.2500  -999.2500  -999.2500  -999.2500
 2256.0000   -62.8867   102.6662     8.8480     8.7412     8.4800  -999.2500  -999.2500  -999.2500  -999.2500  -999.2500
 2256.5000   -63.3897   102.8580     8.6886     8.6747     8.3251  -999.2500  -999.2500  -999.2500  -999.2500  -999.2500
 2257.0000   -63.8937   102.3828     8.5320     8.6088     8.1730  -999.2500  -999.2500  -999.2500  -999.2500  -999.2500
 2257.5000   -64.1369   100.7189     8.3783     8.5434     8.0822  -999.2500  -999.2500  -999.2500  -999.2500  -999.2500
 2258.0000   -64.1421    98.9745     8.2274     8.4785     8.0141  -999.2500  -999.2500  -999.2500  -999.2500  -999.2500
 2258.5000   -64.1419    98.1897     8.0791     8.4141     7.9466  -999.2500  -999.2500  -999.2500  -999.2500  -999.2500
 2259.0000   -64.1414    99.3229     7.9485     8.3501     7.9111  -999.2500  -999.2500  -999.2500  -999.2500  -999.2500
 2259.5000   -64.1414   101.7656     7.8225     8.2828     7.9111  -999.2500  -999.2500  -999.2500  -999.2500  -999.2500
 2260.0000   -64.1414   104.4336     7.6985     8.2542     7.9111  -999.2500  -999.2500  -999.2500  -999.2500  -999.2500
 2260.5000   -64.1417   105.2837     7.6258     8.2238     7.9111  -999.2500  -999.2500  -999.2500  -999.2500  -999.2500
 2261.0000   -64.1408   104.1477     7.6727     8.2071     7.9111  -999.2500  -999.2500  -999.2500  -999.2500  -999.2500
 2261.5000   -64.1450    99.9753     7.7115     8.2389     7.9111  -999.2500  -999.2500  -999.2500  -999.2500  -999.2500
 2262.0000   -63.8989    95.3409     7.7505     8.2608     7.9246  -999.2500  -999.2500  -999.2500  -999.2500  -999.2500
 2262.5000   -63.5552    92.2784     7.7822     8.2828     7.9499  -999.2500  -999.2500  -999.2500  -999.2500  -999.2500
 2263.0000   -63.3019    94.6436     7.8215     8.3049     7.9754  -999.2500  -999.2500  -999.2500  -999.2500  -999.2500
 2263.5000   -63.2250   100.5999     7.8611     8.3271     8.0009  -999.2500  -999.2500  -999.2500  -999.2500  -999.2500
 2264.0000   -63.1455   104.1928     7.9013     8.3493     8.0266  -999.2500  -999.2500  -999.2500  -999.2500  -999.2500
 2264.5000   -63.0668   106.3446     7.9112     8.3715     8.0522  -999.2500  -999.2500  -999.2500  -999.2500  -999.2500
 2265.0000   -62.9879   107.0020     7.9112     8.3938     8.0780  -999.2500  -999.2500  -999.2500  -999.2500  -999.2500
 2265.5000   -62.9087   107.2463     7.9113     8.4162     8.1041  -999.2500  -999.2500  -999.2500  -999.2500  -999.2500
 2266.0000   -62.8298   107.2521     7.9111     8.4396     8.1324  -999.2500  -999.2500  -999.2500  -999.2500  -999.2500
 2266.5000   -62.7461   106.3443     7.9432     8.4717     8.1089  -999.2500  -999.2500  -999.2500  -999.2500  -999.2500
 2267.0000   -62.9323   104.8445     8.0389     8.5038     8.0765  -999.2500  -999.2500  -999.2500  -999.2500  -999.2500
 2267.5000   -63.2239   102.6808     8.2685     8.5360     8.0442  -999.2500  -999.2500  -999.2500  -999.2500  -999.2500
 2268.0000   -63.5172   102.4821     8.5153     8.5684     8.0123  -999.2500  -999.2500  -999.2500  -999.2500  -999.2500
 2268.5000   -63.7376   103.6609     8.4123     8.6009     7.9818  -999.2500  -999.2500  -999.2500  -999.2500  -999.2500
 2269.0000   -63.6076   104.6478     8.2660     8.6335     7.9659  -999.2500  -999.2500  -999.2500  -999.2500  -999.2500
 2269.5000   -63.4861   103.7360     8.1231     8.6718     7.9496  -999.2500  -999.2500  -999.2500  -999.2500  -999.2500
 2270.0000   -63.3690   101.4172     7.9828     8.6273     7.9334  -999.2500  -999.2500  -999.2500  -999.2500  -999.2500
 2270.5000   -63.4001    99.1326     7.9111     8.5738     7.9173  -999.2500  -999.2500  -999.2500  -999.2500  -999.2500
 2271.0000   -63.8245    98.6116     7.9109     8.5203     7.9011  -999.2500  -999.2500  -999.2500  -999.2500  -999.2500
 2271.5000   -64.2523    97.1114     7.9163     8.4671     7.8850  -999.2500  -999.2500  -999.2500  -999.2500  -999.2500
 2272.0000   -64.5564    95.6694     7.9458     8.4143     7.8689  -999.2500  -999.2500  -999.2500  -999.2500  -999.2500
 2272.5000   -64.2793    95.9898     7.9751     8.3619     7.8530  -999.2500  -999.2500  -999.2500  -999.2500  -999.2500
 2273.0000   -63.9235    96.4067     7.9840     8.3098     7.8327  -999.2500  -999.2500  -999.2500  -999.2500  -999.2500
 2273.5000   -63.4262    96.8876     7.9310     8.2580     7.7818  -999.2500  -999.2500  -999.2500  -999.2500  -999.2500
 2274.0000   -62.8785    99.6040     7.8742     8.2071     7.7310  -999.2500  -999.2500  -999.2500  -999.2500  -999.2500
 2274.5000   -62.7440   104.0063     7.8176     8.1906     7.6806  -999.2500  -999.2500  -999.2500  -999.2500  -999.2500
 2275.0000   -62.5984   108.2812     7.7672     8.1705     7.6258  -999.2500  -999.2500  -999.2500  -999.2500  -999.2500
 2275.5000   -62.4573   110.0587     7.7927     8.1504     7.6258  -999.2500  -999.2500  -999.2500  -999.2500  -999.2500
 2276.0000   -62.3090   109.2325     7.8161     8.1304     7.6258  -999.2500  -999.2500  -999.2500  -999.2500  -999.2500
 2276.5000   -61.9693   108.5022     7.8388     8.1104     7.6258  -999.2500  -999.2500  -999.2500  -999.2500  -999.2500
 2277.0000   -61.6348   107.6849     7.8557     8.0906     7.6258  -999.2500  -999.2500  -999.2500  -999.2500  -999.2500
