~VERSION INFORMATION
 VERS.                2.0:   CWLS LOG ASCII STANDARD - VERSION 2.0
 WRAP.                 NO:   ONE LINE PER DEPTH STEP
~WELL INFORMATION
#MNEM.UNIT      DATA TYPE    INFORMATION
#----------   ------------   ------------------------------
 STRT.F            0.0000:   START DEPTH
 STOP.F          890.0000:   STOP DEPTH
 STEP.F            0.1000:   STEP LENGTH
 NULL.          -999.2500:   NO VALUE
 COMP.   FLUOR DANIEL INC:   COMPANY
 WELL.   35-1 X 14 #35-14:   WELL
 FLD .             TEAPOT:   FIELD
 LOC .      S14 T38N R78W:   LOCATION
 CNTY.            NATRONA:   COUNTY
 STAT.            WYOMING:   STATE
 CTRY. UNITED STATES OF AMERICA:   COUNTRY
 SRVC.      Western Atlas:   SERVICE COMPANY
 DATE.        23-JUL-1995:   LOGDATE
 API .       490252273300:   API NUMBER
~CURVE INFORMATION
#MNEM.UNIT       API CODE    CURVE DESCRIPTION
#----------   ------------   ------------------------------
 DEPT.F                  :   
 RILM.OHMM   07 120 44 00:   RESITIVITY LONG MEDIUM
 RILD.OHMM   07 120 46 00:   INDUCTION LOG DEEP RESISTIVITY
 GRR .GAPI   07 310 01 00:   GAMMA RAY
~PARAMETER INFORMATION
#MNEM.UNIT          VALUE    DESCRIPTION
#----------   ------------   ------------------------------
 PD  .                 GL:   PERMANENT DATUM
 EPD .F              5238:   ELEVATION PERMANENT DATUM
 LMF .                 KB:   LOG MEASURED FROM
 DAPD.F                10:   FEET ABOVE PERMANENT DATUM
 DMF .                 KB:   DRILLING MEASURED FROM
 EKB .F              5248:   KELLING BUSHING
 EDF .F              5247:   DRILLING FLOOR
 EGL .F              5238:   GROUND LEVEL
 DATE.        23-JUL-1995:   RUN DATE
 RUN .                  1:   RUN NUMBER
 DD  .F               898:   DEPTH DRILLER
 DL  .F               898:   DEPTH LOGGER
 BLI .F               890:   BOTTOM LOG INTERVAL
 CS  .IN            9.625:   CASING SIZE
 CBD .F                78:   CASING BOTTOM DRILLER
 CBL .F                80:   CASING BOTTOM LOGGER
 BS  .IN             8.75:   BIT SIZE
 BSD .F               898:   BIT SIZE AT DEPTH
 DFT .                AIR:   DRILLING FLUID TYPE
 MRT .F                94:   MAXIMUM RECORDED TEMPERATURE
 LUN .            HL 6530:   LOGGING UNIT NUMBER
 LUL .             CASPER:   LOGGING UNIT LOCATION
 ENGI.       VERRN RAUTIO:   RECORDING ENGINEER
 WITN.        GARY STRONG:   WITNESSED BY
 CLNT.            A2DTECH:   CLIENT CODE
 ORIG.           5" PRINT:   ORIGIN OF DATA
 UWI .       490252273300:   UNIQUE WELL ID
 DICO. A2D Technologies, Inc.:   DIGITIZING COMPANY
~OTHER INFORMATION
~A    DEPT    RILM       RILD         GRR  
# ...
  819.0000     6.7990     6.5857   137.9476
  819.1000     6.8353     6.6132   138.4840
  819.2000     6.9040     6.6174   139.1832
  819.3000     6.9645     6.6606   139.5727
  819.4000     7.0056     6.6612   139.6943
  819.5000     7.0516     6.6885   139.3850
  819.6000     7.1416     6.7279   138.3326
  819.7000     7.1801     6.7563   136.6750
  819.8000     7.2527     6.7603   135.5537
  819.9000     7.3380     6.8048   134.4754
  820.0000     7.4242     6.8402   133.3538
  820.1000     7.5060     6.8535   132.0331
  820.2000     7.5537     6.8923   130.5495
  820.3000     7.6358     6.9619   129.1258
  820.4000     7.7256     7.0029   128.9103
  820.5000     7.8165     7.0494   128.6606
  820.6000     7.9083     7.0857   128.5233
  820.7000     7.9951     7.1552   128.5239
  820.8000     8.0454     7.2194   128.5334
  820.9000     8.1338     7.2732   128.8273
  821.0000     8.2294     7.3584   128.8278
  821.1000     8.3262     7.4566   128.9841
  821.2000     8.4240     7.5321   129.2351
  821.3000     8.5230     7.6491   129.4338
  821.4000     8.6289     7.7814   129.4344
  821.5000     8.6769     7.9136   129.4350
  821.6000     8.7661     8.0459   129.4357
  821.7000     8.8409     8.1781   129.1418
  821.8000     8.8931     8.3104   128.0695
  821.9000     8.9455     8.4426   126.2417
  822.0000     9.0009     8.5381   125.2085
  822.1000     9.1017     8.6007   124.9668
  822.2000     9.1684     8.6992   124.7170
  822.3000     9.2226     8.7585   124.6060
  822.4000     9.2577     8.8886   124.6066
  822.5000     9.2671     8.9778   124.6072
  822.6000     9.3239     9.0538   124.6079
  822.7000     9.3768     9.1472   124.8424
  822.8000     9.4322     9.2011   124.9112
  822.9000     9.4879     9.2644   125.0421
  823.0000     9.5439     9.3099   125.2145
  823.1000     9.6002     9.3306   125.2151
  823.2000     9.6584     9.3548   125.2158
  823.3000     9.7138     9.3975   125.4416
  823.4000     9.7274     9.3984   125.6927
  823.5000     9.7608     9.3995   125.8217
  823.6000     9.7969     9.4002   125.8223
  823.7000     9.8079     9.4351   125.8230
  823.8000     9.8669     9.4676   125.8236
  823.9000     9.8677     9.4685   125.3903
  824.0000     9.8685     9.4694   124.7250
  824.1000     9.8694     9.4705   123.9746
  824.2000     9.8702     9.4713   123.2859
  824.3000     9.8710     9.4722   122.7955
  824.4000     9.8718     9.4731   122.5040
  824.5000     9.8727     9.4740   122.2961
  824.6000     9.8735     9.4750   122.0463
  824.7000     9.8743     9.4761   121.9015
  824.8000     9.8751     9.4768   121.9553
  824.9000     9.8759     9.4777   122.2048
  825.0000     9.8768     9.4786   122.2054
  825.1000     9.8093     9.4796   122.2060
  825.2000     9.8100     9.4805   122.2066
  825.3000     9.8108     9.4814   122.2073
  825.4000     9.7886     9.4823   122.1631
  825.5000     9.7445     9.4833   121.9064
  825.6000     9.7453     9.4842   121.4205
  825.7000     9.7463     9.4851   120.9202
  825.8000     9.7012     9.4860   120.5598
  825.9000     9.6802     9.4869   120.3982
  826.0000     9.6810     9.4879   120.4713
  826.1000     9.6697     9.4888   121.0037
  826.2000     9.6155     9.4689   121.0042
  826.3000     9.6165     9.4248   121.1879
  826.4000     9.6172     9.4259   121.4388
  826.5000     9.5833     9.4268   121.6103
  826.6000     9.5521     9.3856   121.6387
  826.7000     9.5404     9.3633   121.9137
  826.8000     9.4875     9.3643   122.1405
  826.9000     9.4885     9.3652   122.5661
  827.0000     9.4891     9.3661   122.9446
  827.1000     9.4552     9.3670   123.1956
  827.2000     9.4250     9.3679   123.4464
  827.3000     9.4258     9.3688   123.7300
  827.4000     9.4245     9.3697   123.7305
  827.5000     9.3621     9.3706   123.7311
  827.6000     9.3628     9.3716   123.7317
  827.7000     9.3636     9.3725   123.7323
  827.8000     9.3644     9.3734   123.7329
  827.9000     9.3651     9.3743   123.7336
  828.0000     9.3659     9.3752   123.7341
  828.1000     9.3668     9.3761   123.7347
  828.2000     9.3675     9.3771   123.7354
  828.3000     9.3683     9.3779   123.7360
  828.4000     9.3691     9.3788   123.7366
  828.5000     9.3698     9.3798   123.7373
  828.6000     9.3706     9.3807   123.7378
  828.7000     9.3715     9.3816   123.7384
  828.8000     9.3722     9.3825   123.7390
  828.9000     9.3730     9.3834   123.7396
  829.0000     9.3737     9.3843   123.7402
  829.1000     9.3745     9.3852   123.7408
  829.2000     9.3753     9.4043   123.7414
  829.3000     9.3762     9.4525   123.6012
  829.4000     9.3769     9.4535   123.4405
  829.5000     9.3777     9.4543   123.4411
  829.6000     9.3784     9.4552   123.4417
  829.7000     9.3792     9.4562   123.2064
  829.8000     9.3800     9.4571   122.9567
  829.9000     9.3809     9.4580   122.8393
  830.0000     9.3816     9.4590   122.6786
  830.1000     9.3823     9.5103   122.1499
  830.2000     9.3831     9.5267   121.3306
  830.3000     9.3839     9.5276   120.4214
  830.4000     9.3847     9.5286   119.5962
  830.5000     9.3856     9.5295   118.8459
  830.6000     9.3863     9.5305   118.1677
  830.7000     9.3870     9.5313   117.6473
  830.8000     9.3878     9.5714   116.8025
  830.9000     9.3727     9.5996   116.5841
  831.0000     9.3243     9.6006   116.3344
  831.1000     9.3252     9.6015   116.2000
  831.2000     9.3259     9.6025   116.2006
  831.3000     9.2890     9.6034   116.2132
  831.4000     9.2629     9.6043   116.5040
  831.5000     9.2474     9.6052   116.7151
  831.6000     9.1946     9.6062   117.1248
  831.7000     9.1373     9.6071   117.8398
  831.8000     9.1380     9.6081   118.8419
  831.9000     9.1013     9.6090   119.8406
  832.0000     9.0762     9.6099   120.7373
  832.1000     9.0605     9.5839   121.3437
  832.2000     9.0089     9.5452   121.9452
  832.3000     8.9532     9.5416   122.4466
  832.4000     8.9064     9.4811   122.9478
  832.5000     8.8557     9.4338   123.4592
  832.6000     8.8318     9.3804   123.4598
  832.7000     8.8160     9.3272   123.6540
  832.8000     8.7657     9.2744   123.7631
  832.9000     8.7121     9.2218   123.6738
  833.0000     8.7127     9.1629   123.4240
  833.1000     8.6768     9.1176   123.1608
  833.2000     8.6273     9.0660   122.6876
  833.3000     8.5781     9.0146   122.0024
  833.4000     8.5292     8.9635   121.2519
  833.5000     8.4774     8.9127   120.5830
  833.6000     8.4322     8.8553   120.0531
  833.7000     8.3841     8.8120   119.2369
  833.8000     8.3363     8.7289   118.7806
  833.9000     8.2725     8.6751   118.2805
  834.0000     8.1844     8.6631   117.9054
  834.1000     8.1352     8.6140   117.5825
  834.2000     8.0913     8.5580   117.1037
  834.3000     8.0452     8.4750   116.8236
  834.4000     7.9740     8.3784   116.8242
  834.5000     7.8986     8.3043   116.8248
  834.6000     7.8466     8.2456   116.7089
  834.7000     7.7527     8.1536   116.4593
  834.8000     7.7105     8.1002   116.2223
  834.9000     7.6330     8.0615   116.2231
  835.0000     7.5456     7.9863   116.0120
  835.1000     7.4747     7.9152   115.7623
  835.2000     7.4251     7.8597   115.6205
  835.3000     7.3370     7.7716   115.6211
  835.4000     7.2571     7.7202   115.6217
  835.5000     7.1743     7.6105   115.6225
  835.6000     7.0915     7.4805   115.6230
  835.7000     7.0245     7.3526   115.7748
  835.8000     6.9775     7.2268   116.0258
  835.9000     6.8955     7.1030   116.2767
  836.0000     6.7562     6.9604   116.5317
  836.1000     6.6133     6.8303   116.7787
  836.2000     6.4703     6.6514   117.6133
  836.3000     6.3273     6.4933   118.4724
  836.4000     6.1844     6.3665   119.2241
  836.5000     6.0414     6.1853   119.9366
  836.6000     5.8984     5.9776   120.4629
  836.7000     5.7555     5.7860   120.7012
  836.8000     5.6125     5.5572   120.7662
  836.9000     5.4695     5.3495   120.7668
  837.0000     5.3562     5.1614   120.6847
  837.1000     5.2407     4.9565   120.4658
