~VERSION INFORMATION
 VERS.                2.0:   CWLS LOG ASCII STANDARD - VERSION 2.0
 WRAP.                 NO:   ONE LINE PER DEPTH STEP
~WELL INFORMATION
#MNEM.UNIT      DATA TYPE    INFORMATION
#----------   ------------   ------------------------------
 STRT.F            7.0000:   START DEPTH
 STOP.F          480.0000:   STOP DEPTH
 STEP.F            0.1000:   STEP LENGTH
 NULL.          -999.2500:   NO VALUE
 COMP.       F D SERV INC:   COMPANY
 WELL.    67-2 SX-3 #67-3:   WELL
 FLD .          N.P.R. #3:   FIELD
 LOC .       S3 T38N R78W:   LOCATION
 CNTY.            NATRONA:   COUNTY
 STAT.            WYOMING:   STATE
 CTRY. UNITED STATES OF AMERICA:   COUNTRY
 SRVC.     Atlas Wireline:   SERVICE COMPANY
 DATE.        12-FEB-1992:   LOGDATE
 API .       490252250400:   API NUMBER
~CURVE INFORMATION
#MNEM.UNIT       API CODE    CURVE DESCRIPTION
#----------   ------------   ------------------------------
 DEPT.F                  :   
 SPR .MV     07 010 01 00:   SPONTANEOUS POTENTIAL
 GRR .GAPI   07 310 01 00:   GAMMA RAY
 RILD.OHMM   07 120 46 00:   INDUCTION LOG DEEP RESISTIVITY
 RILM.OHMM   07 120 44 00:   INDUCTION LOG MEDIUM RESISTIVITY
 RFOC.OHMM   07 220 04 00:   RESISTIVITY FOCUSED LOG
~PARAMETER INFORMATION
#MNEM.UNIT          VALUE    DESCRIPTION
#----------   ------------   ------------------------------
 PD  .                 GL:   PERMANENT DATUM
 EPD .F              5165:   ELEVATION PERMANENT DATUM
 LMF .                 KB:   LOG MEASURED FROM
 DAPD.F                10:   FEET ABOVE PERMANENT DATUM
 DMF .                 KB:   DRILLING MEASURED FROM
 EKB .F              5175:   KELLING BUSHING
 EDF .F              5174:   DRILLING FLOOR
 EGL .F              5165:   GROUND LEVEL
 DATE.        12-FEB-1992:   RUN DATE
 RUN .                  1:   RUN NUMBER
 DD  .F               487:   DEPTH DRILLER
 DL  .F               485:   DEPTH LOGGER
 BLI .F               482:   BOTTOM LOG INTERVAL
 CS  .IN            8.625:   CASING SIZE
 CBD .F               183:   CASING BOTTOM DRILLER
 CBL .F               186:   CASING BOTTOM LOGGER
 BS  .IN            7.875:   BIT SIZE
 BSD .F               487:   BIT SIZE AT DEPTH
 DFT .           CHEM GEL:   DRILLING FLUID TYPE
 DFD .               16.1:   DRILLING FLUID DENSITY
 DFV .                 43:   DRILLING FLUID VISCOSITY
 DFPH.                9.5:   DRILLING FLUID PH
 DFL .               11.8:   DRILLING FLUID LOSS
 MSS .           MUD TANK:   MUD SAMPLE SOURCE
 RMS .OHMM           2.36:   RESISTIVITY MUD SAMPLE
 MST .F                65:   MUD SAMPLE TEMPERATURE
 RMF .OHMM           1.17:   RESISTIVITY MUD FILTRATE SAMPLE
 MFST.F                65:   MUD FILTRATE SAMPLE TEMPERATURE
 RMC .OHMM           5.18:   RESISTIVITY MUD CAKE
 MCST.F                65:   MUD CAKE SAMPLE TEMPERATURE
 MFSS.               MEAS:   MUD FILTRATE SAMPLE SOURCE
 MCSS.               CALC:   MUD CAKE SAMPLE SOURCE
 RMB .OHMM           1.67:   RESISTIVITY MUD AT BHT
 BHT .F                92:   BOTTOM HOLE TEMPERATURE
 TCS .HRS               2:   TIME CURCULATED STOPPED
 MRT .F                92:   MAXIMUM RECORDED TEMPERATURE
 LUN .           HL- 6224:   LOGGING UNIT NUMBER
 LUL .             CASPER:   LOGGING UNIT LOCATION
 ENGI.        VERN RAUTIO:   RECORDING ENGINEER
 WITN.        GARY STRONG:   WITNESSED BY
 CLNT.            A2DTECH:   CLIENT CODE
 ORIG.           5" PRINT:   ORIGIN OF DATA
 UWI .       490252250400:   UNIQUE WELL ID
 DICO. A2D Technologies, Inc.:   DIGITIZING COMPANY
~OTHER INFORMATION
~A    DEPT     SPR        GRR       RILD       RILM       RFOC   
# ...
  421.8000   -28.1393    89.5480    10.7478    10.6684    10.3378
  421.9000   -28.1391    89.3077    10.6707    10.6083    10.5566
  422.0000   -28.0503    89.0675    10.5797    10.5378    10.5565
  422.1000   -27.9264    88.7846    10.4765    10.4136    10.5563
  422.2000   -27.8365    88.5869    10.4140    10.3014    10.5562
  422.3000   -27.8362    88.3467    10.2754    10.1852    10.5177
  422.4000   -27.8358    88.1063    10.1328    10.0415    10.4824
  422.5000   -27.8356    87.9004     9.9949     9.8717    10.4822
  422.6000   -27.8353    87.9056     9.8616     9.7114    10.4821
  422.7000   -27.8350    87.9094     9.7020     9.6478    10.4251
  422.8000   -27.8560    87.9136     9.5822     9.5114    10.3659
  422.9000   -27.9852    88.0312     9.4354     9.3833    10.3069
  423.0000   -27.9849    88.2219     9.2759     9.2569    10.2640
  423.1000   -27.9846    88.2261     9.1190     9.1089    10.2615
  423.2000   -28.0474    88.2303     8.9759     9.0004    10.1923
  423.3000   -28.1348    88.4262     8.8737     8.8570    10.1921
  423.4000   -28.1346    88.5385     8.6273     8.6721    10.1582
  423.5000   -28.1342    88.6237     8.4585     8.4536    10.1004
  423.6000   -28.2390    88.8724     8.3155     8.2289    10.0430
  423.7000   -28.2845    89.1513     8.1607     8.0368     9.9801
  423.8000   -28.3346    89.1550     7.9805     7.6697     9.9291
  423.9000   -28.4579    89.3185     7.8256     7.3889     9.9104
  424.0000   -28.5852    89.4633     7.7131     7.0841     9.8854
  424.1000   -28.7045    89.5161     7.5828     6.8073     9.8292
  424.2000   -28.7355    89.7716     7.4055     6.5464     9.7724
  424.3000   -28.8003    90.0134     7.1699     6.3117     9.7177
  424.4000   -28.8857    90.2621     6.9985     6.8796     9.7041
  424.5000   -28.8959    90.5108     6.7794     6.8890     9.6749
  424.6000   -29.0359    90.7595     6.6047     6.6579     9.6199
  424.7000   -29.0356    91.0081     6.4562     6.4341     9.5651
  424.8000   -28.9557    91.2966     6.3198     6.2149     9.5022
  424.9000   -28.8318    91.5055     6.2120     5.8885     9.4567
  425.0000   -28.7079    91.7541     6.0727     5.7808     9.4029
  425.1000   -28.5819    92.0028     5.9363     5.6887     9.3495
  425.2000   -28.4602    92.2906     5.8030     5.6362     9.2880
  425.3000   -28.3363    92.8165     5.6725     5.6044     9.1753
  425.4000   -28.1454    93.0487     5.5346     5.5704     9.0789
  425.5000   -27.9377    93.4702     5.2933     5.5125     8.9056
  425.6000   -27.8138    93.9633     5.1887     5.4504     8.7050
  425.7000   -27.6751    94.4565     5.1096     5.4034     8.4973
  425.8000   -27.5660    94.9498     5.0398     5.3806     8.2569
  425.9000   -27.5237    95.5409     4.9709     5.3808     7.9358
  426.0000   -27.4691    95.9360     4.9708     5.3811     7.4945
  426.1000   -27.3722    96.7102     4.9435     5.3812     7.0616
  426.2000   -27.3719    97.7776     4.9568     5.3815     6.6350
  426.3000   -27.3717    99.0936     4.9706     5.3927     6.1621
  426.4000   -27.2753   101.2586     4.9865     5.4195     5.7040
  426.5000   -27.1514   103.4508     5.0418     5.4198     5.4571
  426.6000   -27.0691   105.2460     5.0755     5.4200     5.2409
  426.7000   -27.0688   106.7173     5.0993     5.4202     5.0649
  426.8000   -27.0684   108.1883     5.1634     5.4204     4.9148
  426.9000   -27.0682   109.6750     5.2409     5.4281     4.8568
  427.0000   -27.0679   110.8886     5.3006     5.4598     4.8567
  427.1000   -27.0676   112.1151     5.3665     5.5227     4.8365
  427.2000   -27.0672   113.0795     5.4506     5.5609     4.8365
  427.3000   -27.0687   113.5898     5.5226     5.6296     4.8793
  427.4000   -27.1919   113.5735     5.5856     5.7268     4.9631
  427.5000   -27.2172   113.2990     5.6493     5.8214     5.0643
  427.6000   -27.2877   112.0456     5.7139     5.8951     5.1838
  427.7000   -27.3674   110.2748     5.8119     6.0177     5.4070
  427.8000   -27.3672   108.4217     5.8859     6.1567     5.7272
  427.9000   -27.3668   106.4972     5.9531     6.2824     6.1904
  428.0000   -27.3665   103.4245     6.0209     6.3992     7.1818
  428.1000   -27.4516   100.1740     6.0896     6.5466     8.1010
  428.2000   -27.5167    97.8177     6.1692     6.6980     8.8382
  428.3000   -27.5473    96.2312     6.2294     6.8222     9.4118
  428.4000   -27.6670    94.8803     6.3005     6.9178     9.9093
  428.5000   -27.6666    93.2065     6.3724     7.0108    10.2562
  428.6000   -27.6663    92.0559     6.4450     7.1317    10.6091
  428.7000   -27.7387    91.4590     6.5229     7.2688    10.7881
  428.8000   -27.8166    90.8746     6.5930     7.3430    10.9114
  428.9000   -27.8163    90.3006     6.6955     7.4275    10.9979
  429.0000   -27.8160    89.5034     6.8104     7.5129    10.9931
  429.1000   -27.8157    88.1785     6.9478     7.5992    10.9210
  429.2000   -27.9027    87.9592     7.1472     7.6870    10.8685
  429.3000   -27.9059    87.5512     7.3535     7.7749    10.7317
  429.4000   -27.8148    87.1788     7.6354     7.8298    10.5499
  429.5000   -27.8089    86.8816     7.9984     7.8995    10.3896
  429.6000   -27.6633    86.3984     8.3664     8.0052    10.3265
  429.7000   -27.6630    86.1581     8.6439     8.1432    10.2177
  429.8000   -27.6628    86.1085     8.8656     8.3014    10.0620
  429.9000   -27.6625    85.9774     9.0460     8.4272     9.9447
  430.0000   -27.6420    85.8171     9.1846     8.5408     9.8881
  430.1000   -27.5110    85.8213     9.3351     8.6390     9.8319
  430.2000   -27.5107    85.8260     9.5491     8.7486     9.7760
  430.3000   -27.4212    86.0433     9.7747     8.9022     9.7641
  430.4000   -27.3593    86.1337     9.8830     9.0028     9.7639
  430.5000   -27.3243    86.1379     9.9958     9.1064     9.7638
  430.6000   -27.2005    86.2373    10.1099     9.1829     9.7694
  430.7000   -27.0567    86.7462    10.2085     9.2689     9.8320
  430.8000   -26.9527    87.2236    10.2698     9.4191     9.8319
  430.9000   -26.8288    87.8981    10.4073     9.4807     9.8680
  431.0000   -26.7049    88.5098    10.4563     9.5750     9.9005
  431.1000   -26.5811    89.0735    10.4799     9.6497     9.9111
  431.2000   -26.4519    89.7959    10.5019     9.7052     9.9697
  431.3000   -26.3333    90.3701    10.5530     9.7502    10.0242
  431.4000   -26.2094    90.9865    10.5528     9.7506    10.0813
  431.5000   -26.1493    91.7241    10.6076     9.7510    10.1386
  431.6000   -26.1490    92.3682    10.6264     9.7930    10.1963
  431.7000   -26.1487    92.8232    10.6263     9.8200    10.2543
  431.8000   -26.1484    93.0893    10.6262     9.8372    10.3233
  431.9000   -26.1481    93.5478    10.6260     9.8895    10.4199
  432.0000   -26.1478    94.0409    10.6864     9.8899    10.4683
  432.1000   -26.1987    94.4176    10.7001     9.9385    10.4897
  432.2000   -26.3220    94.6051    10.7330     9.9957    10.5574
  432.3000   -26.4486    94.6092    10.7747    10.0299    10.6896
  432.4000   -26.4483    94.3632    10.7746    10.0408    10.7447
  432.5000   -26.5410    94.3178    10.7744    10.1009    10.7643
  432.6000   -26.6642    94.1825    10.8268    10.1566    10.7916
  432.7000   -26.7875    93.9423    10.8884    10.2151    10.8530
  432.8000   -26.8996    93.6732    10.9502    10.2439    10.9153
  432.9000   -26.8992    93.1357    11.0124    10.2612    10.9769
  433.0000   -27.0066    92.9215    11.0786    10.3202    11.0394
  433.1000   -27.0495    92.6813    11.1380    10.3890    11.0685
  433.2000   -27.0492    92.4410    11.2013    10.4393    11.0684
  433.3000   -27.0488    92.1490    11.2649    10.5366    11.0730
  433.4000   -27.0486    91.6570    11.3123    10.6336    11.1456
  433.5000   -27.0483    91.4203    11.3141    10.6947    11.1994
  433.6000   -27.0479    91.1800    11.3912    10.7595    11.2235
  433.7000   -27.0477    90.9398    11.3911    10.8768    11.2484
  433.8000   -27.0474    90.7742    11.4280    10.9565    11.3019
  433.9000   -27.0471    90.7784    11.4704    11.0195    11.3017
