~VERSION INFORMATION
 VERS.                2.0:   CWLS LOG ASCII STANDARD - VERSION 2.0
 WRAP.                 NO:   ONE LINE PER DEPTH STEP
~WELL INFORMATION
#MNEM.UNIT      DATA TYPE    INFORMATION
#----------   ------------   ------------------------------
 STRT.F           30.0000:   START DEPTH
 STOP.F          597.0000:   STOP DEPTH
 STEP.F            0.5000:   STEP LENGTH
 NULL.          -999.2500:   NO VALUE
 COMP. FENIX & SCISSON-U.S. NAVY:   COMPANY
 WELL.    NPR #3 #15-S-11:   WELL
 FLD .             TEAPOT:   FIELD
 LOC .      S11 T38N R78W:   LOCATION
 CNTY.            NATRONA:   COUNTY
 STAT.            WYOMING:   STATE
 CTRY. UNITED STATES OF AMERICA:   COUNTRY
 SRVC.       Schlumberger:   SERVICE COMPANY
 DATE.        22-FEB-1977:   LOGDATE
 API .       490251028000:   API NUMBER
~CURVE INFORMATION
#MNEM.UNIT       API CODE    CURVE DESCRIPTION
#----------   ------------   ------------------------------
 DEPT.F                  :   
 SPR .MV     07 010 01 00:   SPONTANEOUS POTENTIAL
 ILD .OHMM   07 120 46 00:   INDUCTION LOG DEEP RES
 ILM .OHMM   07 120 44 00:   INDUCTION LOG MEDIUM RES
 LL8 .OHMM   07 220 08 00:   LATEROLOG-8 RES
 CALD.IN     45 280 60 00:   CALIPER FROM DENSITY LOG
 GRD .GAPI   45 310 01 00:   GAMMA RAY FROM DENSITY LOG
 CORR.G/C3   45 356 01 00:   DENSITY CORRECTION
 RHOB.G/C3   45 350 01 00:   BULK DENSITY
 DPHI.DEC    45 890 12 00:   DENSITY POROSITY SANDSTONE
~PARAMETER INFORMATION
#MNEM.UNIT          VALUE    DESCRIPTION
#----------   ------------   ------------------------------
 PD  .                 GL:   PERMANENT DATUM
 EPD .F              5188:   ELEVATION PERMANENT DATUM
 LMF .                 KB:   LOG MEASURED FROM
 DAPD.F                 5:   FEET ABOVE PERMANENT DATUM
 DMF .                 KB:   DRILLING MEASURED FROM
 EKB .F              5193:   KELLING BUSHING
 EGL .F              5188:   GROUND LEVEL
 DATE.         22FEB-1977:   RUN DATE
 RUN .                  1:   RUN NUMBER
 DD  .F               598:   DEPTH DRILLER
 DL  .F               598:   DEPTH LOGGER
 BLI .F               597:   BOTTOM LOG INTERVAL
 TLI .F                35:   TOP LOG INTERVAL
 CS  .IN            8.625:   CASING SIZE
 CBD .F                42:   CASING BOTTOM DRILLER
 CBL .F                45:   CASING BOTTOM LOGGER
 BS  .IN            7.875:   BIT SIZE
 BSD .F               598:   BIT SIZE AT DEPTH
 DFT .                KCL:   DRILLING FLUID TYPE
 DFD .                8.7:   DRILLING FLUID DENSITY
 DFV .                 31:   DRILLING FLUID VISCOSITY
 DFPH.                  8:   DRILLING FLUID PH
 DFL .                7.2:   DRILLING FLUID LOSS
 MSS .           MUD TANK:   MUD SAMPLE SOURCE
 RMS .OHMM           .526:   RESISTIVITY MUD SAMPLE
 MST .F                70:   MUD SAMPLE TEMPERATURE
 RMF .OHMM           .515:   RESISTIVITY MUD FILTRATE SAMPLE
 MFST.F                71:   MUD FILTRATE SAMPLE TEMPERATURE
 RMC .OHMM            .77:   RESISTIVITY MUD CAKE
 MCST.F                70:   MUD CAKE SAMPLE TEMPERATURE
 MFSS.               MEAS:   MUD FILTRATE SAMPLE SOURCE
 MCSS.               CALC:   MUD CAKE SAMPLE SOURCE
 RMB .OHMM            .67:   RESISTIVITY MUD AT BHT
 BHT .F                55:   BOTTOM HOLE TEMPERATURE
 TCS .HRS            0600:   TIME CURCULATED STOPPED
 MRT .F                55:   MAXIMUM RECORDED TEMPERATURE
 LUN .               5642:   LOGGING UNIT NUMBER
 LUL .               CSPR:   LOGGING UNIT LOCATION
 ENGI.                FIX:   RECORDING ENGINEER
 WITN.         STUEBINGER:   WITNESSED BY
 CLNT.            A2DTECH:   CLIENT CODE
 ORIG.           5" PRINT:   ORIGIN OF DATA
 UWI .       490251028000:   UNIQUE WELL ID
 DICO. A2D Technologies, Inc.:   DIGITIZING COMPANY
~OTHER INFORMATION
~A   DEPT      SPR        ILD        ILM        LL8       CALD         GRD      CORR       RHOB       DPHI   
# ...
  212.5000   -51.9598     8.1019     9.2713     9.8915     8.1861   127.6951    -0.0008     2.4329     0.1252
  213.0000   -50.7442     8.1037     9.2082     9.9601     8.1868   128.4496    -0.0015     2.4224     0.1297
  213.5000   -50.1319     8.1055     9.0825    10.0292     8.1876   130.2520    -0.0045     2.4172     0.1321
  214.0000   -49.2179     8.1073     8.8968     9.9603     8.1734   131.0050    -0.0068     2.4217     0.1321
  214.5000   -48.7564     8.0532     8.8357     9.7562     8.1741   130.2640    -0.0038     2.4412     0.1251
  215.0000   -48.2950     7.9995     8.7761     9.5562     8.1764   130.1188     0.0008     2.4367     0.1212
  215.5000   -47.9843     7.9461     8.8413     9.3604     8.1756   129.6771     0.0030     2.4262     0.1305
  216.0000   -47.5228     7.8933     9.0864     9.1686     8.1764   128.9346    -0.0075     2.4428     0.1278
  216.5000   -47.0613     7.7866     9.0182     9.1056     8.1771   126.3957     0.0030     2.4503     0.1203
  217.0000   -46.5998     7.6814     8.8324     9.1687     8.1779   120.4137     0.0105     2.4405     0.1236
  217.5000   -45.9875     7.5254     8.5997     9.2963     8.1786   114.7758     0.0060     2.4435     0.1245
  218.0000   -45.3752     7.4237     8.4238     9.3607     8.1793   116.7338     0.0030     2.4676     0.1136
  218.5000   -44.7629     7.2729     8.3089     9.1058     8.1801   120.6437     0.0203     2.4646     0.1145
  219.0000   -44.1506     7.1746     8.1390     8.7961     8.1958   128.6077     0.0150     2.4481     0.1184
  219.5000   -43.5383     7.1268     8.0281     8.5549     8.2115   132.5176     0.0128     2.4428     0.1221
  220.0000   -42.9259     7.0793     8.0288     8.3205     8.2122   133.7233     0.0053     2.4406     0.1242
  220.5000   -42.3136     7.0808     7.9740     8.2102     8.2130   129.0762     0.0015     2.4454     0.1235
  221.0000   -41.8521     7.0336     7.9199     8.2103     8.2137   129.2324    -0.0015     2.4458     0.1214
  221.5000   -41.3902     7.0840     7.9206     8.2672     8.2145   129.5372    -0.0045     2.4436     0.1226
  222.0000   -40.9291     7.1348     7.9212     8.3246     8.2152   123.8390    -0.0038     2.4495     0.1199
  222.5000   -40.7692     7.1406     7.9219     8.4404     8.2010   122.3420     0.0045     2.4619     0.1154
  223.0000   -40.6093     7.2374     7.9776     8.6171     8.2018   123.2505     0.0060     2.4718     0.1109
  223.5000   -40.4495     7.3398     7.9783     8.7370     8.2025   124.3358     0.0120     2.4767     0.1100
  224.0000   -40.4404     7.3925     8.0343     8.8585     8.2033   125.2412     0.0161     2.4627     0.1145
  224.5000   -40.2806     7.4971     8.1469     8.9200     8.2040   125.1398     0.0075     2.4372     0.1235
  225.0000   -40.2715     7.5508     8.2041     8.9818     8.1898   123.0230    -0.0038     2.4420     0.1265
  225.5000   -40.2625     7.6577     8.3191     9.1068     8.1906   121.4772    -0.0030     2.4594     0.1184
  226.0000   -39.9500     7.7664     8.3776     9.2335     8.1913   121.8500     0.0060     2.4742     0.1114
  226.5000   -39.6393     7.8763     8.5539     9.3619     8.1920   123.3323     0.0098     2.4726     0.1117
  227.0000   -39.1778     7.9327     8.7339     9.4922     8.1928   124.3674     0.0023     2.4636     0.1153
  227.5000   -38.8672     7.9345     8.9178     9.5580     8.1786   122.9505     0.0000     2.4548     0.1183
  228.0000   -38.5565     7.9914     9.1055     9.4923     8.1793   121.9419     0.0015     2.4527     0.1180
  228.5000   -38.2459     7.9932     9.2331     9.2338     8.1801   121.3488     0.0060     2.4640     0.1125
  229.0000   -37.9352     7.9394     9.3625     9.1703     8.1659   120.3053     0.0090     2.4849     0.1059
  229.5000   -37.6245     7.9416     9.3633     9.1073     8.1666   118.7423     0.0068     2.5197     0.0933
  230.0000   -37.1631     7.8887     9.2355     9.2340     8.1676   110.0007     0.0038     2.5684     0.0803
  230.5000   -37.0032     7.8905     8.9843    12.4581     8.1683   110.6786     0.0053     2.6162     0.0755
  231.0000   -36.6926     7.8922     8.8006    14.9724     8.1691   117.7508     0.0090     2.6019     0.0762
  231.5000   -36.5327     7.8940     8.6805    11.4381     8.1848   124.4135     0.0255     2.5268     0.0840
  232.0000   -36.3729     7.8414     8.6214     8.7381     8.2004   126.3722     0.0240     2.4923     0.0996
  232.5000   -36.2131     7.7891     8.6133     8.6183     8.2311   128.0256     0.0053     2.4727     0.1104
  233.0000   -36.2041     7.7908     8.6828     8.7382     8.2318   129.8268     0.0030     2.4517     0.1170
  233.5000   -36.0443     7.6855     8.6237     9.0452     8.2326   130.4324     0.0023     2.4337     0.1233
  234.0000   -36.0353     7.6339     8.3891     9.2985     8.2333   124.7328     0.0038     2.4322     0.1291
  234.5000   -36.0263     7.6360     8.3321     9.2346     8.2189   121.5856     0.0083     2.4291     0.1319
  235.0000   -35.8664     7.6905     8.3906     9.1080     8.2047   120.6907     0.0120     2.4254     0.1358
  235.5000   -35.5558     7.6923     8.5672     9.1081     8.2057   122.3484     0.0098     2.4224     0.1400
  236.0000   -35.3960     7.8015     8.6889     9.1713     8.2064   123.2553     0.0075     2.4208     0.1426
  236.5000   -35.0853     7.9119     8.9936     9.2989     8.2072   120.8589     0.0076     2.4479     0.1323
  237.0000   -34.9255     8.0238     9.1868     9.7594     8.2079   119.9641     0.0156     2.4644     0.1160
  237.5000   -34.6148     8.1939     9.3871    10.2427     8.2087   118.4686     0.0203     2.4682     0.1195
  238.0000   -34.3042     8.3098     9.6400    10.6026     8.2094   116.8230     0.0117     2.4431     0.1227
  238.5000   -33.9935     8.4859     9.7840    10.6761     8.2102   116.6168    -0.0009     2.4666     0.1158
  239.0000   -33.8337     8.7259     9.9121    10.6762     8.2258   118.7870     0.0041     2.4711     0.1128
  239.5000   -33.5230     8.9726    10.0510    10.7502     8.2266   120.1443     0.0113     2.4448     0.1194
  240.0000   -33.3632     9.2263    10.1218    10.8248     8.2273   119.2495     0.0065     2.4372     0.1257
  240.5000   -33.2034     9.3569    10.1929    10.8998     8.2281   120.4567    -0.0008     2.4320     0.1269
  241.0000   -33.0435     9.4893    10.3358    11.0658     8.2288   120.3125     0.0019     2.4747     0.1155
  241.5000   -32.8837     9.7576    10.5533    11.4398     8.2296   120.1682     0.0090     2.4680     0.1215
  242.0000   -32.8747    10.0335    10.8502    11.6793     8.2303   119.5738     0.0029     2.4402     0.1245
  242.5000   -32.8657    10.2461    11.1555    11.9238     8.2311   113.7240     0.0036     2.4495     0.1176
  243.0000   -32.8567    10.3911    11.4693    12.0065     8.2318   113.2796     0.0159     2.4740     0.1157
  243.5000   -32.8476    10.6113    11.7920    12.1735     8.2326   112.5348     0.0113     2.4479     0.1221
  244.0000   -32.6878    10.7615    12.1237    12.4284     8.2483   109.6880     0.0015     2.4469     0.1233
  244.5000   -32.6787    10.9138    12.3789    12.6886     8.2490   109.3922    -0.0038     2.4679     0.1163
  245.0000   -32.3680    10.9920    12.5524    12.8651     8.2498   109.3997    -0.0060     2.4491     0.1169
  245.5000   -32.1895    11.0707    12.7283    12.6888     8.2505   109.5559    -0.0038     2.4614     0.1181
  246.0000   -31.8975    10.9963    12.6414    12.6016     8.2513   110.9133     0.0038     2.4573     0.1238
  246.5000   -31.5867    10.9230    12.5557    12.6017     8.2520   111.8202    -0.0030     2.4251     0.1323
  247.0000   -31.4269    10.8501    12.4699    12.5150     8.2527   113.6280    -0.0068     2.4393     0.1290
  247.5000   -30.9635    10.7041    12.3851    12.4290     8.2535   114.3848     0.0030     2.4265     0.1344
  248.0000   -30.8037    10.6322    12.3008    12.3436     8.2542   113.3398     0.0000     2.4100     0.1350
  248.5000   -30.6439    10.5613    12.2171    12.1744     8.2399   111.8443    -0.0075     2.4400     0.1277
