~VERSION INFORMATION
 VERS.                2.0:   CWLS LOG ASCII STANDARD - VERSION 2.0
 WRAP.                 NO:   ONE LINE PER DEPTH STEP
~WELL INFORMATION
#MNEM.UNIT      DATA TYPE    INFORMATION
#----------   ------------   ------------------------------
 STRT.F            0.0000:   START DEPTH
 STOP.F          534.0000:   STOP DEPTH
 STEP.F            0.1000:   STEP LENGTH
 NULL.          -999.2500:   NO VALUE
 COMP.       F D SERV INC:   COMPANY
 WELL. NAVAL PETROLEUM RESERVE 3 SX-1 #71-2-10:   WELL
 FLD .            N.P.R 3:   FIELD
 LOC .      S10 T38N R78W:   LOCATION
 CNTY.            NATRONA:   COUNTY
 STAT.            WYOMING:   STATE
 CTRY. UNITED STATES OF AMERICA:   COUNTRY
 SRVC.     Atlas Wireline:   SERVICE COMPANY
 DATE.        07-DEC-1992:   LOGDATE
 API .       490252257200:   API NUMBER
~CURVE INFORMATION
#MNEM.UNIT       API CODE    CURVE DESCRIPTION
#----------   ------------   ------------------------------
 DEPT.F                  :   
 GRR .GAPI   07 310 01 00:   GAMMA RAY
 RILD.OHMM   07 120 46 00:   INDUCTION LOG DEEP RESISTIVITY
 RILM.OHMM   07 120 44 00:   RESITIVITY LONG MEDIUM
~PARAMETER INFORMATION
#MNEM.UNIT          VALUE    DESCRIPTION
#----------   ------------   ------------------------------
 PD  .                 GL:   PERMANENT DATUM
 EPD .F              5165:   ELEVATION PERMANENT DATUM
 LMF .                 KB:   LOG MEASURED FROM
 DAPD.F                10:   FEET ABOVE PERMANENT DATUM
 DMF .                 KB:   DRILLING MEASURED FROM
 EKB .F              5175:   KELLING BUSHING
 EDF .F              5174:   DRILLING FLOOR
 EGL .F              5165:   GROUND LEVEL
 DATE.        07-DEC-1992:   RUN DATE
 RUN .                  1:   RUN NUMBER
 DD  .F               540:   DEPTH DRILLER
 DL  .F               542:   DEPTH LOGGER
 BLI .F               534:   BOTTOM LOG INTERVAL
 CS  .IN            8.625:   CASING SIZE
 CBD .F                78:   CASING BOTTOM DRILLER
 CBL .F                82:   CASING BOTTOM LOGGER
 BS  .IN            7.875:   BIT SIZE
 BSD .F               540:   BIT SIZE AT DEPTH
 DFT .           AIR FOAM:   DRILLING FLUID TYPE
 BHT .F                70:   BOTTOM HOLE TEMPERATURE
 MRT .F                70:   MAXIMUM RECORDED TEMPERATURE
 LUN .           HL- 6345:   LOGGING UNIT NUMBER
 LUL .         FT. MORGAN:   LOGGING UNIT LOCATION
 ENGI.             BURLEY:   RECORDING ENGINEER
 WITN.        GARY STRONG:   WITNESSED BY
 CLNT.            A2DTECH:   CLIENT CODE
 ORIG.           5" PRINT:   ORIGIN OF DATA
 UWI .       490252257200:   UNIQUE WELL ID
 DICO. A2D Technologies, Inc.:   DIGITIZING COMPANY
~OTHER INFORMATION
~A    DEPT      GRR      RILD       RILM   
# ...
  455.0000   100.3643    10.1190    10.0518
  455.1000   100.3621    10.1187    10.0514
  455.2000   100.7782    10.1185    10.0052
  455.3000   101.2785    10.1182     9.9805
  455.4000   101.7788    10.0937     9.9587
  455.5000   102.3308    10.0350     9.9100
  455.6000   103.0847     9.9765     9.9096
  455.7000   103.3331     9.9762     9.9092
  455.8000   103.3845     9.9305     9.9088
  455.9000   103.3827     9.9060     9.8780
  456.0000   103.3809     9.8845     9.8206
  456.1000   103.3791     9.8362     9.7698
  456.2000   103.3772     9.8359     9.7694
  456.3000   103.3754     9.7815     9.7690
  456.4000   103.3736     9.7667     9.7686
  456.5000   103.3718     9.7362     9.7409
  456.6000   103.3700     9.6979     9.6997
  456.7000   103.4277     9.6977     9.6956
  456.8000   103.9731     9.6974     9.6311
  456.9000   104.1999     9.6462     9.6308
  457.0000   104.6251     9.5901     9.6304
  457.1000   105.4963     9.5616     9.6058
  457.2000   106.5364     9.5457     9.5500
  457.3000   107.0367     9.4902     9.4953
  457.4000   107.6040     9.4277     9.4949
  457.5000   108.0374     9.4274     9.4945
  457.6000   108.5377     9.3914     9.4615
  457.7000   108.9255     9.3611     9.4065
  457.8000   109.1747     9.3478     9.3423
  457.9000   109.4319     9.2952     9.2309
  458.0000   110.0209     9.2949     9.2305
  458.1000   110.0194     9.2505     9.1497
  458.2000   110.0176     9.1967     9.0441
  458.3000   110.0158     9.1647     8.9570
  458.4000   110.0140     9.1541     8.9049
  458.5000   110.0121     9.1002     8.8490
  458.6000   110.0103     9.0480     8.7552
  458.7000   109.8129     9.0361     8.6896
  458.8000   109.5599     8.9765     8.6391
  458.9000   109.3979     8.9098     8.5746
  459.0000   109.3960     8.9017     8.4755
  459.1000   109.3941     8.8471     8.3650
  459.2000   109.3924     8.7986     8.2810
  459.3000   109.3906     8.7848     8.2167
  459.4000   109.3888     8.7313     8.1478
  459.5000   109.5468     8.6461     8.0648
  459.6000   110.0471     8.5959     8.0179
  459.7000   110.5971     8.5410     7.9631
  459.8000   111.2740     8.4963     7.9251
  459.9000   112.0256     8.4469     7.8513
  460.0000   112.8984     8.4214     7.7606
  460.1000   113.9007     8.3945     7.6709
  460.2000   114.8702     8.2974     7.5808
  460.3000   115.4419     8.1878     7.4948
  460.4000   115.4404     8.1068     7.4083
  460.5000   115.4385     7.9536     7.2757
  460.6000   115.3263     7.7710     7.1376
  460.7000   115.0734     7.5924     7.0551
  460.8000   114.8205     7.4186     6.9684
  460.9000   114.5204     7.2668     6.8194
  461.0000   114.3146     7.1313     6.6633
  461.1000   114.0617     6.9919     6.5491
  461.2000   113.8088     6.8867     6.4621
  461.3000   113.6030     6.7998     6.3505
  461.4000   113.6012     6.6797     6.2286
  461.5000   113.5994     6.5299     6.1335
  461.6000   113.7910     6.4085     6.0277
  461.7000   114.0402     6.2978     5.8923
  461.8000   114.4667     6.1642     5.7156
  461.9000   115.3267     5.9923     5.5212
  462.0000   116.9286     5.8458     5.3384
  462.1000   118.1602     5.7515     5.1860
  462.2000   120.0255     5.5821     5.0090
  462.3000   122.6897     5.4552     4.8608
  462.4000   122.6875     5.4017     4.7381
  462.5000   125.1893     5.3703     4.5756
  462.6000   128.2998     5.3358     4.5229
  462.7000   130.0888     5.3356     4.5117
  462.8000   130.3381     5.3355     4.5115
  462.9000   130.6595     5.3353     4.5113
  463.0000   132.0847     5.3352     4.5111
  463.1000   133.6000     5.3350     4.5109
  463.2000   134.8629     5.3349     4.5107
  463.3000   135.6417     5.3611     4.5105
  463.4000   136.2015     5.3721     4.5383
  463.5000   136.9388     5.3720     4.5996
  463.6000   137.2331     5.3718     4.6736
  463.7000   137.6431     5.3721     4.7032
  463.8000   138.1434     5.4093     4.7775
  463.9000   138.4419     5.4345     4.8610
  464.0000   138.4401     5.4659     4.9319
  464.1000   138.4382     5.4976     5.0133
  464.2000   138.1892     5.5351     5.1598
  464.3000   137.7414     5.6014     5.3332
  464.4000   136.8100     5.6013     5.3595
  464.5000   135.5528     5.6509     5.4310
  464.6000   134.1447     5.6983     5.5400
  464.7000   131.7504     5.7313     5.6543
  464.8000   129.3856     5.7644     5.7198
  464.9000   127.9764     5.8002     5.7990
  465.0000   126.1811     5.8946     5.8809
  465.1000   123.8264     5.9729     6.0045
  465.2000   121.8161     6.0604     6.1308
  465.3000   119.5998     6.1557     6.2313
  465.4000   119.1474     6.2272     6.3058
  465.5000   118.6434     6.3082     6.3410
  465.6000   117.8982     6.4059     6.4340
  465.7000   116.8922     6.4926     6.5254
  465.8000   115.8860     6.5861     6.6274
  465.9000   114.7330     6.7014     6.7717
  466.0000   113.6591     6.8186     6.8565
  466.1000   112.7259     6.9574     6.9668
  466.2000   111.7514     7.0599     7.1180
  466.3000   110.6088     7.2371     7.2631
  466.4000   109.8489     7.4127     7.3773
  466.5000   108.6522     7.5330     7.4662
  466.6000   108.2436     7.6210     7.6135
  466.7000   107.4373     7.8001     7.7296
  466.8000   106.7274     7.9092     7.8952
  466.9000   106.4745     8.0288     8.1229
  467.0000   106.2154     8.1694     8.3491
  467.1000   106.4587     8.3124     8.3972
  467.2000   106.7079     8.4635     8.4541
  467.3000   106.8170     8.5583     8.4538
  467.4000   106.9907     8.6201     8.4535
  467.5000   107.4911     8.6426     8.4729
  467.6000   108.0254     8.6424     8.5217
  467.7000   108.4919     8.6422     8.5716
  467.8000   108.8105     8.6419     8.5712
  467.9000   109.0598     8.6878     8.5709
  468.0000   109.2322     8.7022     8.5705
  468.1000   109.2303     8.7020     8.5701
  468.2000   109.2283     8.7165     8.5698
  468.3000   109.2267     8.7627     8.5694
  468.4000   109.2249     8.7624     8.5691
  468.5000   109.2231     8.7622     8.6048
  468.6000   109.2212     8.7620     8.6285
  468.7000   109.2194     8.7850     8.6435
  468.8000   109.2173     8.8231     8.6884
  468.9000   109.2158     8.8249     8.6880
  469.0000   109.2140     8.8846     8.7324
  469.1000   109.2121     8.8844     8.7827
  469.2000   109.2103     8.8842     8.8094
  469.3000   109.2085     8.9268     8.8090
  469.4000   109.5098     9.0091     8.8086
  469.5000   109.7096     9.0088     8.8082
  469.6000   109.8100     9.0086     8.8508
  469.7000   110.0013     9.0912     8.9018
  469.8000   110.4575     9.1352     8.9313
  469.9000   110.7150     9.1350     8.9418
  470.0000   111.9272     9.1519     8.9933
  470.1000   112.4192     9.2634     9.0451
  470.2000   112.6685     9.2632     9.0557
  470.3000   112.8322     9.3030     9.0858
  470.4000   112.8303     9.3568     9.1381
  470.5000   112.8284     9.3931     9.1994
  470.6000   112.8267     9.3929     9.3112
  470.7000   112.8249     9.3926     9.4141
  470.8000   112.8231     9.4420     9.5233
  470.9000   112.7465     9.4967     9.6039
  471.0000   112.4937     9.5244     9.6592
  471.1000   112.2104     9.5241     9.7085
  471.2000   112.2088     9.5239     9.7080
  471.3000   112.0384     9.5236     9.8098
  471.4000   111.9017     9.5713     9.8441
  471.5000   111.8998     9.5901     9.8713
  471.6000   111.8980     9.5898     9.9124
  471.7000   111.8959     9.5895     9.9157
  471.8000   112.1044     9.5910     9.9811
  471.9000   112.1961     9.6564     9.9808
  472.0000   112.1942     9.6562     9.9803
  472.1000   112.2452     9.6559     9.9799
  472.2000   112.4945     9.7012     9.9795
  472.3000   112.7438     9.7917     9.9800
  472.4000   112.7939     9.7914    10.0487
  472.5000   112.7921     9.7911    10.0954
  472.6000   112.7903     9.8352    10.1185
  472.7000   112.7466     9.8921    10.1181
  472.8000   112.4831     9.9494    10.1176
  472.9000   112.0002    10.0069    10.1172
  473.0000   111.6844    10.0681    10.1168
  473.1000   111.2957    10.1231    10.1164
