~VERSION INFORMATION
 VERS.                2.0:   CWLS LOG ASCII STANDARD - VERSION 2.0
 WRAP.                 NO:   ONE LINE PER DEPTH STEP
~WELL INFORMATION
#MNEM.UNIT      DATA TYPE    INFORMATION
#----------   ------------   ------------------------------
 STRT.F           32.0000:   START DEPTH
 STOP.F          688.5000:   STOP DEPTH
 STEP.F            0.5000:   STEP LENGTH
 NULL.          -999.2500:   NO VALUE
 COMP. FENIX & SCISSON INC:   COMPANY
 WELL.       NPR 3 #78-34:   WELL
 FLD .  TEAPOT DOME NPR-3:   FIELD
 LOC .      S34 T39N R78W:   LOCATION
 CNTY.            NATRONA:   COUNTY
 STAT.            WYOMING:   STATE
 CTRY. UNITED STATES OF AMERICA:   COUNTRY
 SRVC.           BIRDWELL:   SERVICE COMPANY
 DATE.        16-AUG-1978:   LOGDATE
 API .       490251070700:   API NUMBER
~CURVE INFORMATION
#MNEM.UNIT       API CODE    CURVE DESCRIPTION
#----------   ------------   ------------------------------
 DEPT.F                  :   
 SPR .MV     05 010 01 00:   SPONTANEOUS POTENTIAL
 SN  .OHMM   05 040 16 00:   SHORT NORMAL 16'
 ILD .OHMM   05 120 46 00:   INDUCTION LOG DEEP RESISTIVITY
 CALD.IN     45 280 60 00:   CALIPER
 GRD .GAPI   45 310 01 00:   GAMMA RAY FROM DENSITY LOG
 RHOB.G/C3   45 350 01 00:   BULK DENSITY
 DPHI.DEC    45 890 12 00:   DENSITY POROSITY SANDSTONE
 CORR.G/C3   45 356 01 00:   DENSITY CORRECTION
~PARAMETER INFORMATION
#MNEM.UNIT          VALUE    DESCRIPTION
#----------   ------------   ------------------------------
 PD  .                 GL:   PERMANENT DATUM
 EPD .F              5085:   ELEVATION PERMANENT DATUM
 LMF .                 KB:   LOG MEASURED FROM
 DAPD.F                 4:   FEET ABOVE PERMANENT DATUM
 DMF .                 KB:   DRILLING MEASURED FROM
 EKB .F              5089:   KELLING BUSHING
 EGL .F              5085:   GROUND LEVEL
 DATE.          8-16-1978:   RUN DATE
 RUN .                  1:   RUN NUMBER
 DD  .F               680:   DEPTH DRILLER
 DL  .F               688:   DEPTH LOGGER
 BLI .F               682:   BOTTOM LOG INTERVAL
 TLI .F                50:   TOP LOG INTERVAL
 CS  .IN            8.625:   CASING SIZE
 CBD .F                40:   CASING BOTTOM DRILLER
 BS  .IN            7.875:   BIT SIZE
 BSD .F               680:   BIT SIZE AT DEPTH
 DFT .                KCL:   DRILLING FLUID TYPE
 RMS .OHMM            .32:   RESISTIVITY MUD SAMPLE
 MST .F                64:   MUD SAMPLE TEMPERATURE
 RMF .OHMM             .3:   RESISTIVITY MUD FILTRATE SAMPLE
 MFST.F                76:   MUD FILTRATE SAMPLE TEMPERATURE
 RMC .OHMM            .16:   RESISTIVITY MUD CAKE
 MCST.F                64:   MUD CAKE SAMPLE TEMPERATURE
 MFSS.               MEAS:   MUD FILTRATE SAMPLE SOURCE
 MCSS.               MEAS:   MUD CAKE SAMPLE SOURCE
 TCS .HRS               1:   TIME CURCULATED STOPPED
 LUN .               3006:   LOGGING UNIT NUMBER
 LUL .               CASP:   LOGGING UNIT LOCATION
 ENGI.             MILLER:   RECORDING ENGINEER
 WITN.           MCGINLEY:   WITNESSED BY
 CLNT.            A2DTECH:   CLIENT CODE
 ORIG.           5" PRINT:   ORIGIN OF DATA
 UWI .       490251070700:   UNIQUE WELL ID
 DICO. A2D Technologies, Inc.:   DIGITIZING COMPANY
~OTHER INFORMATION
~A   DEPT      SPR         SN        ILD       CALD         GRD      RHOB       DPHI       CORR   
# ...
  437.0000   -32.1805     6.1328     5.6602     7.5967    94.4346     2.4995     0.1089     0.0159
  437.5000   -32.2281     6.0952     5.6437     7.6398    92.7813     2.5036     0.1046     0.0160
  438.0000   -32.2756     6.0578     5.6271     7.6270    93.5294     2.5047     0.1042     0.0165
  438.5000   -32.3232     6.0206     5.6106     7.5956    94.5171     2.4985     0.1111     0.0178
  439.0000   -32.3707     5.9837     5.5593     7.5637    95.5063     2.4911     0.1162     0.0191
  439.5000   -32.4183     5.9470     5.4351     7.5320    95.4961     2.4886     0.1157     0.0204
  440.0000   -32.4662     5.9105     5.3138     7.5061    95.4210     2.4943     0.1134     0.0217
  440.5000   -32.5159     5.8743     5.1951     7.5277    95.3285     2.4985     0.1122     0.0222
  441.0000   -32.5600     5.7434     5.0790     7.5596    96.3108     2.5004     0.1090     0.0226
  441.5000   -32.1342     5.5720     4.9656     7.5870    97.4288     2.5075     0.1014     0.0231
  442.0000   -31.6569     5.4057     4.8323     7.5571    98.5619     2.5086     0.1076     0.0236
  442.5000   -31.1806     5.2504     4.8341     7.5272    98.7154     2.4987     0.1115     0.0240
  443.0000   -30.7050     5.1379     4.9393     7.5470    97.2465     2.4982     0.1119     0.0245
  443.5000   -30.2295     5.0318     4.9989     7.7822    95.2925     2.4966     0.1128     0.0249
  444.0000   -29.7540     4.9279     5.0592     7.9914    93.3344     2.4855     0.1211     0.0254
  444.5000   -29.2786     4.8262     5.1203     7.9882    92.2062     2.4690     0.1345     0.0258
  445.0000   -28.8031     4.7266     5.1821     7.9550    97.6880     2.4524     0.1453     0.0282
  445.5000   -28.3276     4.6289     5.2024     7.9358   103.9213     2.4369     0.1487     0.0309
  446.0000   -27.8519     4.5334     5.1795     7.9170   108.2870     2.4417     0.1509     0.0336
  446.5000   -27.3755     4.4398     5.1113     7.8984   105.9512     2.4474     0.1441     0.0363
  447.0000   -26.9013     4.3687     5.0441     7.8799   101.7569     2.4496     0.1410     0.0393
  447.5000   -26.5453     4.3782     4.9778     7.8659   100.4016     2.4509     0.1392     0.0441
  448.0000   -26.5531     4.4158     4.9124     7.8664   101.3510     2.4565     0.1421     0.0645
  448.5000   -26.5976     4.4536     4.8478     7.8846   102.3057     2.4742     0.1230     0.0881
  449.0000   -26.7297     4.4908     4.7893     7.9045   102.2337     2.4904     0.1122     0.0989
  449.5000   -26.8602     4.6170     4.9341     7.9245   101.5359     2.4796     0.1256     0.1013
  450.0000   -26.9909     4.7756     5.1166     7.9446    98.6428     2.4665     0.1353     0.1034
  450.5000   -27.1257     4.9397     5.3059     7.9454    95.8335     2.4535     0.1441     0.1056
  451.0000   -27.1544     5.1094     5.5022     7.8569    93.0156     2.4469     0.1326     0.1076
  451.5000   -27.1547     5.2849     5.5481     7.7591    90.1284     2.4826     0.1168     0.1017
  452.0000   -27.1544     5.4665     5.4550     7.6615    89.6650     2.5141     0.1011     0.0953
  452.5000   -27.1543     5.5481     5.3413     7.5647    94.1839     2.5400     0.0858     0.0889
  453.0000   -27.1543     5.5481     5.2298     7.5065    98.1244     2.5399     0.0855     0.0825
  453.5000   -27.1543     5.4126     5.1207     7.5078   101.4405     2.5321     0.0914     0.0776
  454.0000   -27.1543     5.3228     5.0139     7.5283    99.7824     2.5246     0.0958     0.0770
  454.5000   -27.1543     5.2344     4.9093     7.5272    97.3278     2.5225     0.0958     0.0764
  455.0000   -27.1543     5.1475     4.8069     7.5268    97.1942     2.5178     0.1024     0.0764
  455.5000   -27.1543     5.0621     4.7455     7.5629    97.7057     2.5130     0.1054     0.0804
  456.0000   -27.1543     4.9780     4.7021     7.6336    98.1697     2.5082     0.1022     0.0843
  456.5000   -27.1543     4.9232     4.7021     7.7046    97.2004     2.5030     0.1071     0.0882
  457.0000   -27.1543     5.0101     4.7021     7.7408    93.6070     2.4965     0.1134     0.0921
  457.5000   -27.1540     5.2769     4.8997     7.7757    93.0470     2.4941     0.1123     0.0960
  458.0000   -27.1535     5.5586     5.1867     7.8109    96.4858     2.4914     0.1167     0.0999
  458.5000   -27.1562     5.8551     5.4905     7.8466   100.0860     2.4764     0.1266     0.1067
  459.0000   -27.3064     6.1384     5.8120     7.8803   103.6476     2.4656     0.1289     0.1159
  459.5000   -27.7304     6.3683     6.1553     7.9062   104.5231     2.4925     0.1088     0.1251
  460.0000   -28.1504     6.3683     6.4299     7.9206   102.2960     2.5157     0.0880     0.1344
  460.5000   -28.5712     6.3530     6.4256     7.8766    99.0966     2.5389     0.0750     0.1388
  461.0000   -28.9917     6.3416     6.4265     7.8314    95.8621     2.5606     0.0722     0.1405
  461.5000   -29.4121     6.3301     6.4271     7.7856    93.0746     2.5657     0.0695     0.1422
  462.0000   -29.8329     6.3187     6.4271     7.7650    93.5937     2.5668     0.0675     0.1439
  462.5000   -30.2544     6.3073     6.4271     7.8196    94.3949     2.5617     0.0713     0.1456
  463.0000   -30.6694     6.2959     6.4271     7.8772    91.4926     2.5565     0.0750     0.1473
  463.5000   -30.9587     6.2845     6.4271     7.9345    89.1870     2.5570     0.0759     0.1490
  464.0000   -30.8885     6.2732     6.4271     7.9664    90.3751     2.5637     0.0699     0.1507
  464.5000   -30.8244     6.2619     6.4271     7.9680    92.1732     2.5693     0.0667     0.1524
  465.0000   -30.7590     6.2505     6.4271     7.9036    93.0125     2.5625     0.0714     0.1541
  465.5000   -30.6936     6.2393     6.4271     7.8321    93.8004     2.5523     0.0813     0.1569
  466.0000   -30.6257     6.2280     6.4271     7.7607    92.5905     2.5419     0.0866     0.1678
  466.5000   -30.5718     6.2168     6.4271     7.6894    91.0263     2.5387     0.0691     0.1789
  467.0000   -31.0311     6.2055     6.4264     7.6177    91.1603     2.5768     0.0535     0.1813
  467.5000   -31.5291     6.1943     6.4271     7.5488    91.2740     2.5927     0.0590     0.1662
  468.0000   -32.0288     6.1831     6.5115     7.5487    88.6787     2.5771     0.0671     0.1439
  468.5000   -32.5365     6.1720     6.6153     7.5614    85.9690     2.5744     0.0644     0.1214
  469.0000   -32.6167     6.1610     6.7207     7.5735    85.8762     2.5714     0.0623     0.0989
  469.5000   -32.6814     6.1497     6.8278     7.5858    89.3169     2.5611     0.0751     0.0765
  470.0000   -32.4622     6.1384     6.9176     7.5763    90.7462     2.5480     0.0838     0.0540
  470.5000   -32.2382     5.9929     6.5897     7.5642    90.5176     2.5349     0.0925     0.0378
  471.0000   -32.0165     5.8129     6.3227     7.5521    90.4571     2.5217     0.1012     0.0264
  471.5000   -31.8021     5.6384     6.0666     7.5579    93.0422     2.5152     0.1030     0.0184
  472.0000   -31.5275     5.4690     5.8209     7.6328    96.4005     2.5144     0.1012     0.0178
  472.5000   -29.6423     5.3022     5.5851     7.7047    97.4789     2.5138     0.1030     0.0176
  473.0000   -27.7755     5.1512     5.3589     7.7149    97.0179     2.5054     0.1066     0.0173
  473.5000   -27.3689     5.1570     5.1418     7.7223    94.1899     2.4938     0.1106     0.0171
  474.0000   -27.0138     5.1517     4.9687     7.7301    89.6338     2.4820     0.1230     0.0168
  474.5000   -26.6535     5.2504     4.9687     7.7379    85.0892     2.4702     0.1316     0.0166
  475.0000   -26.2917     5.6510     5.1105     7.7457    82.9545     2.4584     0.1363     0.0163
  475.5000   -25.9300     6.2116     5.6302     7.7536    86.2347     2.4450     0.1487     0.0159
  476.0000   -25.5682     6.8317     6.2026     7.7614    90.8470     2.4289     0.1660     0.0261
  476.5000   -25.2065     7.5122     6.8333     7.7692    96.4996     2.4128     0.1754     0.0493
  477.0000   -24.8447     8.2588     7.5282     7.7771   102.9984     2.4006     0.1436     0.0837
