~VERSION INFORMATION
 VERS.                2.0:   CWLS LOG ASCII STANDARD - VERSION 2.0
 WRAP.                 NO:   ONE LINE PER DEPTH STEP
~WELL INFORMATION
#MNEM.UNIT      DATA TYPE    INFORMATION
#----------   ------------   ------------------------------
 STRT.F         1050.0000:   START DEPTH
 STOP.F         2592.5000:   STOP DEPTH
 STEP.F            0.5000:   STEP LENGTH
 NULL.          -999.2500:   NO VALUE
 COMP. LAWRENCE/ALLISON INC:   COMPANY
 WELL. NAVAL PETROLEUM RESERVE 3 X15 #34-15:   WELL
 FLD .            WILDCAT:   FIELD
 LOC .      S15 T38N R78W:   LOCATION
 CNTY.            NATRONA:   COUNTY
 STAT.            WYOMING:   STATE
 CTRY. UNITED STATES OF AMERICA:   COUNTRY
 SRVC.            Unknown:   SERVICE COMPANY
 DATE.        07-AUG-1988:   LOGDATE
 API .       490251125500:   API NUMBER
~CURVE INFORMATION
#MNEM.UNIT       API CODE    CURVE DESCRIPTION
#----------   ------------   ------------------------------
 DEPT.F                  :   
 ROP .MIN/FT 91 810 01 00:   RATE OF DRILLING PENETRATION
 TGAS.UNITS  91 830 01 00:   TOTAL GAS FROM HOTWIRE
~PARAMETER INFORMATION
#MNEM.UNIT          VALUE    DESCRIPTION
#----------   ------------   ------------------------------
 EKB .F              5286:   KELLING BUSHING
 EGL .F              5276:   GROUND LEVEL
 DATE.           9-7-1988:   RUN DATE
 RUN .                  1:   RUN NUMBER
 DD  .F              2592:   DEPTH DRILLER
 CBD .F              1044:   CASING BOTTOM DRILLER
 ENGI.               HUSK:   RECORDING ENGINEER
 CLNT.            A2DTECH:   CLIENT CODE
 ORIG.           5" PRINT:   ORIGIN OF DATA
 UWI .       490251125500:   UNIQUE WELL ID
 DICO. A2D Technologies, Inc.:   DIGITIZING COMPANY
~OTHER INFORMATION
~A  DEPT         ROP     TGAS   
# ...
 2143.5000     0.4204  -999.2500
 2144.0000     0.4367  -999.2500
 2144.5000     0.4413  -999.2500
 2145.0000     0.4415  -999.2500
 2145.5000     0.4376  -999.2500
 2146.0000     0.4316  -999.2500
 2146.5000     0.4257  -999.2500
 2147.0000     0.4197  -999.2500
 2147.5000     0.4151  -999.2500
 2148.0000     0.4508  -999.2500
 2148.5000     0.4921  -999.2500
 2149.0000     0.5339  -999.2500
 2149.5000     0.5756  -999.2500
 2150.0000     0.6173  -999.2500
 2150.5000     0.6413  -999.2500
 2151.0000     0.5928  -999.2500
 2151.5000     0.5423  -999.2500
 2152.0000     0.4931  -999.2500
 2152.5000     0.4913  -999.2500
 2153.0000     0.4915  -999.2500
 2153.5000     0.4916  -999.2500
 2154.0000     0.4840  -999.2500
 2154.5000     0.4706  -999.2500
 2155.0000     0.4570  -999.2500
 2155.5000     0.4543  -999.2500
 2156.0000     0.4629  -999.2500
 2156.5000     0.4937  -999.2500
 2157.0000     0.5233  -999.2500
 2157.5000     0.5529  -999.2500
 2158.0000     0.5665  -999.2500
 2158.5000     0.5369  -999.2500
 2159.0000     0.5043  -999.2500
 2159.5000     0.4714  -999.2500
 2160.0000     0.4374  -999.2500
 2160.5000     0.4304  -999.2500
 2161.0000     0.4627  -999.2500
 2161.5000     0.4943  -999.2500
 2162.0000     0.5252  -999.2500
 2162.5000     0.5038  -999.2500
 2163.0000     0.4503  -999.2500
 2163.5000     0.3947  -999.2500
 2164.0000     0.3791  -999.2500
 2164.5000     0.3785  -999.2500
 2165.0000     0.3786  -999.2500
 2165.5000     0.3787  -999.2500
 2166.0000     0.3787  -999.2500
 2166.5000     0.3787  -999.2500
 2167.0000     0.3787  -999.2500
 2167.5000     0.3788  -999.2500
 2168.0000     0.3784  -999.2500
 2168.5000     0.3762  -999.2500
 2169.0000     0.4194  -999.2500
 2169.5000     0.4576  -999.2500
 2170.0000     0.4968  -999.2500
 2170.5000     0.4863  -999.2500
 2171.0000     0.4577  -999.2500
 2171.5000     0.4284  -999.2500
 2172.0000     0.4164  -999.2500
 2172.5000     0.4165  -999.2500
 2173.0000     0.4302  -999.2500
 2173.5000     0.4691  -999.2500
 2174.0000     0.5092  -999.2500
 2174.5000     0.4848  -999.2500
 2175.0000     0.4439  -999.2500
 2175.5000     0.4140  -999.2500
 2176.0000     0.4079  -999.2500
 2176.5000     0.4016  -999.2500
 2177.0000     0.3954  -999.2500
 2177.5000     0.3911  -999.2500
 2178.0000     0.3912  -999.2500
 2178.5000     0.3912  -999.2500
 2179.0000     0.3912  -999.2500
 2179.5000     0.3913  -999.2500
 2180.0000     0.3955  -999.2500
 2180.5000     0.4039  -999.2500
 2181.0000     0.4203  -999.2500
 2181.5000     0.4518  -999.2500
 2182.0000     0.4841  -999.2500
 2182.5000     0.4786  -999.2500
 2183.0000     0.4556  -999.2500
 2183.5000     0.4322  -999.2500
 2184.0000     0.4086  -999.2500
 2184.5000     0.3995  -999.2500
 2185.0000     0.3939  -999.2500
 2185.5000     0.3884  -999.2500
 2186.0000     0.3829  -999.2500
 2186.5000     0.3785  -999.2500
 2187.0000     0.3787  -999.2500
 2187.5000     0.3786  -999.2500
 2188.0000     0.3786  -999.2500
 2188.5000     0.3788  -999.2500
 2189.0000     0.3856  -999.2500
 2189.5000     0.4142  -999.2500
 2190.0000     0.4419  -999.2500
 2190.5000     0.4635  -999.2500
 2191.0000     0.4386  -999.2500
 2191.5000     0.4164  -999.2500
 2192.0000     0.4162  -999.2500
 2192.5000     0.4163     8.3346
 2193.0000     0.4163     8.3073
 2193.5000     0.4163     8.2947
 2194.0000     0.4163     8.2961
 2194.5000     0.4163     8.2961
 2195.0000     0.4163     8.2961
 2195.5000     0.4162     8.2961
 2196.0000     0.4164     8.2961
 2196.5000     0.4235     8.2961
 2197.0000     0.4581     8.2961
 2197.5000     0.4936     8.2961
 2198.0000     0.4861     8.2961
 2198.5000     0.4471     8.2961
 2199.0000     0.4078     8.2961
 2199.5000     0.3688     8.2961
 2200.0000     0.3407     8.2961
 2200.5000     0.3429     8.2961
 2201.0000     0.3444     8.2961
 2201.5000     0.3458     8.2961
 2202.0000     0.3473     8.2961
 2202.5000     0.3488     8.2961
 2203.0000     0.3502     8.2961
 2203.5000     0.3517     8.2961
 2204.0000     0.3535     8.2961
 2204.5000     0.3431     8.2961
 2205.0000     0.3291     8.2962
 2205.5000     0.3152     8.3115
 2206.0000     0.3027     8.3421
 2206.5000     0.3113     8.3727
 2207.0000     0.3218     8.4034
 2207.5000     0.3334     8.4340
 2208.0000     0.3623     8.4647
 2208.5000     0.3913     8.4954
 2209.0000     0.4202     8.5260
 2209.5000     0.4490     8.5567
 2210.0000     0.4673     8.5873
 2210.5000     0.4495     8.6180
 2211.0000     0.4286     8.6487
 2211.5000     0.4083     8.6793
 2212.0000     0.4009     8.7100
 2212.5000     0.4041     8.7408
 2213.0000     0.4039     8.7717
 2213.5000     0.4038     8.7971
 2214.0000     0.4038     8.7600
 2214.5000     0.4038     8.7236
 2215.0000     0.4038     8.6877
 2215.5000     0.4038     8.6518
 2216.0000     0.4041     8.6160
 2216.5000     0.3839     8.5801
 2217.0000     0.3541     8.5442
 2217.5000     0.3240     8.5084
 2218.0000     0.2939     8.4725
 2218.5000     0.2934     8.4366
 2219.0000     0.3589     8.4008
 2219.5000     0.4223     8.3647
 2220.0000     0.4265     8.3285
 2220.5000     0.4096     8.2981
 2221.0000     0.3795     8.3392
 2221.5000     0.3494     8.3801
 2222.0000     0.3424     8.4206
 2222.5000     0.3804     8.4609
 2223.0000     0.4159     8.5013
 2223.5000     0.4505     8.5417
 2224.0000     0.4759     8.5821
 2224.5000     0.4507     8.6225
 2225.0000     0.4266     8.6629
 2225.5000     0.4026     8.7033
 2226.0000     0.3913     8.7436
 2226.5000     0.3913     8.7855
 2227.0000     0.3911     8.7290
 2227.5000     0.3908     8.6202
 2228.0000     0.3935     8.5108
 2228.5000     0.4268     8.4011
 2229.0000     0.4550     8.2916
 2229.5000     0.4826     8.1821
 2230.0000     0.5033     8.0725
 2230.5000     0.4704     7.9633
 2231.0000     0.4428     7.8545
 2231.5000     0.4156     7.7754
 2232.0000     0.3884     7.7340
 2232.5000     0.3604     7.6926
 2233.0000     0.3537     7.6516
 2233.5000     0.3535     7.6106
 2234.0000     0.3575     7.5696
 2234.5000     0.3658     7.5285
 2235.0000     0.3741     7.4874
 2235.5000     0.3939     7.4464
 2236.0000     0.4290     7.4054
 2236.5000     0.4635     7.3644
 2237.0000     0.4926     7.3231
 2237.5000     0.4867     7.2659
 2238.0000     0.4568     7.1419
 2238.5000     0.4272     7.0173
 2239.0000     0.3977     6.8944
 2239.5000     0.3683     6.8778
 2240.0000     0.3536     7.5880
 2240.5000     0.3411     8.3016
 2241.0000     0.3270     8.8100
 2241.5000     0.3136     8.7989
 2242.0000     0.3158     8.7988
 2242.5000     0.3675     8.7991
 2243.0000     0.4176     8.7989
 2243.5000     0.4666     8.7989
 2244.0000     0.4952     8.7989
 2244.5000     0.4914     8.7989
 2245.0000     0.4586     8.7989
 2245.5000     0.4206     8.7989
 2246.0000     0.3904     8.7989
 2246.5000     0.3912     8.7989
 2247.0000     0.3912     8.7989
 2247.5000     0.3912     8.7989
 2248.0000     0.3912     8.7989
 2248.5000     0.3912     8.7989
 2249.0000     0.3912     8.7989
 2249.5000     0.3911     8.7989
 2250.0000     0.3964     8.7989
 2250.5000     0.4049     8.7989
 2251.0000     0.4397     8.7989
 2251.5000     0.4764     8.7989
 2252.0000     0.4807     8.7989
 2252.5000     0.4515     8.7989
 2253.0000     0.4226     8.7989
 2253.5000     0.3936     8.7989
 2254.0000     0.3645     8.7989
 2254.5000     0.3349     8.7989
 2255.0000     0.3144     8.7989
 2255.5000     0.2893     8.7989
 2256.0000     0.2790     8.7989
 2256.5000     0.3026     8.7989
 2257.0000     0.3866     8.7989
 2257.5000     0.4435     8.7989
 2258.0000     0.4072     8.7989
 2258.5000     0.3610     8.7989
 2259.0000     0.3278     8.7989
 2259.5000     0.3270     8.7989
 2260.0000     0.3254     8.7989
 2260.5000     0.3237     8.7989
 2261.0000     0.3221     8.7989
 2261.5000     0.3205     8.7989
 2262.0000     0.3189     8.7989
 2262.5000     0.3173     8.7989
 2263.0000     0.3166     8.7989
 2263.5000     0.3216     8.7989
 2264.0000     0.3268     8.7989
 2264.5000     0.3319     8.7989
