~VERSION INFORMATION
 VERS.                2.0:   CWLS LOG ASCII STANDARD - VERSION 2.0
 WRAP.                 NO:   ONE LINE PER DEPTH STEP
~WELL INFORMATION
#MNEM.UNIT      DATA TYPE    INFORMATION
#----------   ------------   ------------------------------
 STRT.F           19.5000:   START DEPTH
 STOP.F          635.0000:   STOP DEPTH
 STEP.F            0.5000:   STEP LENGTH
 NULL.          -999.2500:   NO VALUE
 COMP. FENIX & SCISSON INC:   COMPANY
 WELL. NPR-3 68-S-34 #3-34:   WELL
 FLD .  TEAPOT DOME NPR-3:   FIELD
 LOC .      S34 T39N R78W:   LOCATION
 CNTY.            NATRONA:   COUNTY
 STAT.            WYOMING:   STATE
 CTRY. UNITED STATES OF AMERICA:   COUNTRY
 SRVC.           BIRDWELL:   SERVICE COMPANY
 DATE.        01-AUG-1978:   LOGDATE
 API .       490251070600:   API NUMBER
~CURVE INFORMATION
#MNEM.UNIT       API CODE    CURVE DESCRIPTION
#----------   ------------   ------------------------------
 DEPT.F                  :   
 SPR .MV     05 010 01 00:   SPONTANEOUS POTENTIAL
 SN  .OHMM   05 040 16 00:   SHORT NORMAL 16'
 ILD .OHMM   05 120 46 00:   INDUCTION LOG DEEP RESISTIVITY
 GRD .GAPI   45 310 01 00:   GAMMA RAY FROM DENSITY LOG
 CALD.IN     45 280 60 00:   CALIPER
 RHOB.G/C3   45 350 01 00:   BULK DENSITY
 DPHI.DEC    45 890 12 00:   DENSITY POROSITY SANDSTONE
 CORR.G/C3   45 356 01 00:   DENSITY CORRECTION
~PARAMETER INFORMATION
#MNEM.UNIT          VALUE    DESCRIPTION
#----------   ------------   ------------------------------
 PD  .                 GL:   PERMANENT DATUM
 EPD .F              5100:   ELEVATION PERMANENT DATUM
 LMF .                 KB:   LOG MEASURED FROM
 DAPD.F                 4:   FEET ABOVE PERMANENT DATUM
 DMF .                 KB:   DRILLING MEASURED FROM
 EKB .F              5104:   KELLING BUSHING
 EGL .F              5100:   GROUND LEVEL
 DATE.           9-1-1978:   RUN DATE
 RUN .                  1:   RUN NUMBER
 DD  .F               635:   DEPTH DRILLER
 DL  .F               635:   DEPTH LOGGER
 BLI .F               629:   BOTTOM LOG INTERVAL
 TLI .F                40:   TOP LOG INTERVAL
 CS  .IN            8.625:   CASING SIZE
 CBD .F                40:   CASING BOTTOM DRILLER
 CBL .F                40:   CASING BOTTOM LOGGER
 BS  .IN            7.875:   BIT SIZE
 BSD .F               635:   BIT SIZE AT DEPTH
 DFT .                KCL:   DRILLING FLUID TYPE
 DFD .                8.6:   DRILLING FLUID DENSITY
 DFV .                 32:   DRILLING FLUID VISCOSITY
 DFPH.                  9:   DRILLING FLUID PH
 DFL .                  7:   DRILLING FLUID LOSS
 MSS .          FLOW LINE:   MUD SAMPLE SOURCE
 RMS .OHMM             .4:   RESISTIVITY MUD SAMPLE
 MST .F                76:   MUD SAMPLE TEMPERATURE
 RMF .OHMM             .3:   RESISTIVITY MUD FILTRATE SAMPLE
 MFST.F                80:   MUD FILTRATE SAMPLE TEMPERATURE
 RMC .OHMM             .4:   RESISTIVITY MUD CAKE
 MCST.F                80:   MUD CAKE SAMPLE TEMPERATURE
 MFSS.               MEAS:   MUD FILTRATE SAMPLE SOURCE
 MCSS.               MEAS:   MUD CAKE SAMPLE SOURCE
 RMB .OHMM            .43:   RESISTIVITY MUD AT BHT
 BHT .F                70:   BOTTOM HOLE TEMPERATURE
 TCS .HRS               3:   TIME CURCULATED STOPPED
 MRT .F                70:   MAXIMUM RECORDED TEMPERATURE
 LUN .               2958:   LOGGING UNIT NUMBER
 LUL .               CASP:   LOGGING UNIT LOCATION
 ENGI.            POINTER:   RECORDING ENGINEER
 WITN.           MCGINLEY:   WITNESSED BY
 CLNT.            A2DTECH:   CLIENT CODE
 ORIG.           5" PRINT:   ORIGIN OF DATA
 UWI .       490251070600:   UNIQUE WELL ID
 DICO. A2D Technologies, Inc.:   DIGITIZING COMPANY
~OTHER INFORMATION
~A   DEPT      SPR         SN        ILD         GRD      CALD       RHOB       DPHI       CORR   
# ...
  141.0000   -20.6587     8.6653     8.3904   115.0765     7.4500     2.5167     0.1031     0.0247
  141.5000   -20.6587     8.7057     8.2990   111.7627     7.4500     2.5138     0.1054     0.0281
  142.0000   -20.6587     8.5470     8.2172   107.7450     7.4500     2.5108     0.1077     0.0336
  142.5000   -20.6587     8.4297     8.1359   107.3478     7.4500     2.5065     0.1097     0.0365
  143.0000   -20.6587     8.3122     8.0555   109.7044     7.4500     2.5023     0.1116     0.0331
  143.5000   -20.6587     8.1927     7.9759   111.7058     7.4500     2.4982     0.1134     0.0298
  144.0000   -20.6587     8.0758     7.8647   113.6900     7.4500     2.4947     0.1152     0.0265
  144.5000   -20.6588     7.9604     7.7286   118.0976     7.4500     2.4938     0.1172     0.0231
  145.0000   -20.6588     7.9245     7.5949   122.8936     7.4501     2.4922     0.1192     0.0212
  145.5000   -20.6605     7.9056     7.4625   123.7425     7.4498     2.4860     0.1211     0.0202
  146.0000   -20.5613     7.8866     7.3759   122.0296     7.4390     2.4819     0.1225     0.0193
  146.5000   -20.4226     7.8676     7.4223   118.2227     7.4274     2.4813     0.1234     0.0183
  147.0000   -20.2785     7.9051     7.4620   118.4135     7.4159     2.4807     0.1243     0.0175
  147.5000   -20.1026     7.9431     7.5019   118.2343     7.4100     2.4801     0.1252     0.0169
  148.0000   -19.7531     7.9813     7.5420   115.7772     7.4100     2.4771     0.1261     0.0161
  148.5000   -19.4529     8.0197     7.5823   113.3843     7.4100     2.4732     0.1229     0.0156
  149.0000   -19.4603     8.0583     7.6228   113.6753     7.4100     2.4766     0.1184     0.0199
  149.5000   -19.4610     8.1155     7.6536   114.1757     7.4100     2.4847     0.1139     0.0243
  150.0000   -19.4611     8.2305     7.8131   116.3665     7.4100     2.4925     0.1124     0.0275
  150.5000   -19.4611     8.3471     7.9675   117.0173     7.4100     2.4969     0.1168     0.0275
  151.0000   -19.4610     8.4654     8.1251   117.9179     7.4100     2.4929     0.1155     0.0275
  151.5000   -19.4610     8.5854     8.1994   119.6403     7.4100     2.4888     0.1126     0.0275
  152.0000   -19.4616     8.7047     8.2480   117.4009     7.4100     2.4946     0.1098     0.0275
  152.5000   -19.4929     8.7047     8.2973   114.6694     7.4100     2.5023     0.1070     0.0275
  153.0000   -19.5666     8.7047     8.3462   112.6879     7.4100     2.5048     0.1056     0.0275
  153.5000   -19.6425     8.7047     8.3905   116.8907     7.4100     2.5070     0.1133     0.0265
  154.0000   -19.6797     8.6250     8.1902   118.2717     7.4100     2.5002     0.1202     0.0251
  154.5000   -19.7062     8.4349     8.0130   118.3017     7.4100     2.4851     0.1268     0.0238
  155.0000   -19.7323     8.2376     7.8398   118.4858     7.4100     2.4768     0.1265     0.0224
  155.5000   -19.7587     8.0449     7.6704   116.5064     7.4100     2.4764     0.1253     0.0216
  156.0000   -19.7851     7.9402     7.5142   114.7704     7.4100     2.4764     0.1237     0.0221
  156.5000   -19.8119     7.9599     7.5411   119.3082     7.4100     2.4795     0.1221     0.0225
  157.0000   -19.8385     7.9756     7.5666   123.1914     7.4074     2.4808     0.1205     0.0230
  157.5000   -19.8344     7.9913     7.5917   119.8494     7.4004     2.4817     0.1190     0.0234
  158.0000   -19.6404     8.0131     7.6157   115.9033     7.3935     2.4844     0.1176     0.0228
  158.5000   -19.4490     7.9965     7.6398   115.7543     7.3866     2.4879     0.1168     0.0221
  159.0000   -19.2493     7.9673     7.7111   115.8429     7.3797     2.4883     0.1168     0.0214
  159.5000   -18.8189     7.9405     7.8475   115.9402     7.3729     2.4886     0.1173     0.0207
  160.0000   -18.3713     7.9974     7.9863   116.1642     7.3553     2.4889     0.1186     0.0201
  160.5000   -18.1991     8.0520     8.1276   118.1999     7.3308     2.4877     0.1200     0.0194
  161.0000   -18.1072     8.1067     8.2713   120.3206     7.3071     2.4859     0.1197     0.0179
  161.5000   -18.0177     8.1617     8.3980   120.3099     7.3129     2.4856     0.1187     0.0165
  162.0000   -17.9271     8.2376     8.4388   119.4227     7.3894     2.4865     0.1177     0.0151
  162.5000   -17.8361     8.2318     8.4799   121.7469     7.4516     2.4875     0.1184     0.0137
  163.0000   -17.7447     8.2218     8.5212   121.6368     7.4501     2.4889     0.1213     0.0131
  163.5000   -17.6627     8.2120     8.5626   120.0495     7.4500     2.4854     0.1210     0.0125
  164.0000   -17.7493     8.2023     8.6044   118.4547     7.4500     2.4816     0.1203     0.0119
  164.5000   -17.8433     8.1926     8.6463   117.0270     7.4500     2.4862     0.1196     0.0131
  165.0000   -17.9369     8.1829     8.6883   117.2589     7.4500     2.4859     0.1178     0.0174
  165.5000   -18.0306     8.1732     8.7047   119.1437     7.4500     2.4902     0.1146     0.0217
  166.0000   -18.1025     8.1635     8.7047   119.0636     7.4500     2.5015     0.1114     0.0256
  166.5000   -18.1622     8.1539     8.7048   121.7542     7.4500     2.5037     0.1082     0.0255
  167.0000   -18.2248     8.1442     8.6665   124.9815     7.4500     2.5054     0.1065     0.0255
  167.5000   -18.4341     8.1346     8.6119   124.5536     7.4500     2.5068     0.1076     0.0255
  168.0000   -18.9644     8.1250     8.5576   125.7568     7.4500     2.5035     0.1105     0.0255
  168.5000   -19.0628     8.1154     8.5038   127.2789     7.4500     2.5000     0.1133     0.0235
  169.0000   -19.0638     8.1057     8.4503   126.1859     7.4500     2.4957     0.1164     0.0212
  169.5000   -19.0592     8.0961     8.3971   120.5548     7.4500     2.4866     0.1235     0.0189
  170.0000   -18.9081     8.0877     8.3904   115.0870     7.4500     2.4773     0.1276     0.0175
  170.5000   -18.5896     8.1072     8.3904   112.5808     7.4500     2.4741     0.1268     0.0175
  171.0000   -18.2739     8.1289     8.3924   115.5321     7.4500     2.4740     0.1260     0.0175
  171.5000   -18.1791     8.1507     8.4059   119.4218     7.4500     2.4740     0.1241     0.0176
  172.0000   -18.0958     8.1726     8.4193   123.3648     7.4500     2.4762     0.1220     0.0224
  172.5000   -17.9545     8.1945     8.4328   124.4155     7.4500     2.4801     0.1200     0.0235
  173.0000   -17.7849     8.2165     8.4462   122.4823     7.4500     2.4839     0.1182     0.0235
  173.5000   -17.6565     8.2385     8.4597   120.0270     7.4500     2.4879     0.1168     0.0235
  174.0000   -17.6378     8.2606     8.4733   119.0361     7.4500     2.4905     0.1155     0.0235
  174.5000   -17.6173     8.2828     8.4868   122.7210     7.4500     2.4927     0.1142     0.0235
  175.0000   -17.5968     8.3049     8.5003   126.1186     7.4500     2.4949     0.1132     0.0235
  175.5000   -17.5763     8.3173     8.5139   122.9846     7.4417     2.4970     0.1135     0.0234
  176.0000   -17.5557     8.3232     8.5275   118.5796     7.4258     2.4958     0.1165     0.0206
  176.5000   -17.5351     8.3292     8.5411   115.7748     7.4099     2.4904     0.1210     0.0178
  177.0000   -17.5145     8.3352     8.5548   116.4480     7.3939     2.4851     0.1255     0.0150
  177.5000   -17.4941     8.3412     8.5684   114.2710     7.3780     2.4773     0.1292     0.0122
  178.0000   -17.4730     8.3472     8.5821   111.7670     7.3712     2.4708     0.1259     0.0097
  178.5000   -17.5213     8.3532     8.5958   113.9891     7.3736     2.4729     0.1217     0.0136
  179.0000   -17.6128     8.3592     8.6095   118.9314     7.3759     2.4772     0.1176     0.0177
  179.5000   -17.6259     8.3652     8.6226   122.2615     7.3783     2.4860     0.1134     0.0218
  180.0000   -17.5398     8.3712     8.6607   123.0701     7.3807     2.4946     0.1100     0.0259
  180.5000   -17.4544     8.3772     8.7019   123.8139     7.3831     2.4975     0.1130     0.0249
  181.0000   -17.3685     8.3832     8.7432   121.4708     7.3855     2.4949     0.1161     0.0206
