~VERSION INFORMATION
 VERS.                2.0:   CWLS LOG ASCII STANDARD - VERSION 2.0
 WRAP.                 NO:   ONE LINE PER DEPTH STEP
~WELL INFORMATION
#MNEM.UNIT      DATA TYPE    INFORMATION
#----------   ------------   ------------------------------
 STRT.F            0.0000:   START DEPTH
 STOP.F          533.0000:   STOP DEPTH
 STEP.F            0.1000:   STEP LENGTH
 NULL.          -999.2500:   NO VALUE
 COMP.   FLUOR DANIEL INC:   COMPANY
 WELL.   84-4 X 10 #81-10:   WELL
 FLD .             TEAPOT:   FIELD
 LOC .      S10 T38N R78W:   LOCATION
 CNTY.            NATRONA:   COUNTY
 STAT.            WYOMING:   STATE
 CTRY. UNITED STATES OF AMERICA:   COUNTRY
 SRVC.     Atlas Wireline:   SERVICE COMPANY
 DATE.        25-SEP-1994:   LOGDATE
 API .       490252264000:   API NUMBER
~CURVE INFORMATION
#MNEM.UNIT       API CODE    CURVE DESCRIPTION
#----------   ------------   ------------------------------
 DEPT.F                  :   
 GRR .GAPI   07 310 01 00:   GAMMA RAY
 RILD.OHMM   07 120 46 00:   INDUCTION LOG DEEP RESISTIVITY
 RILM.OHMM   07 120 44 00:   INDUCTION LOG MEDIUM RESISTIVITY
~PARAMETER INFORMATION
#MNEM.UNIT          VALUE    DESCRIPTION
#----------   ------------   ------------------------------
 PD  .                 GL:   PERMANENT DATUM
 EPD .F              5150:   ELEVATION PERMANENT DATUM
 LMF .                 KB:   LOG MEASURED FROM
 DAPD.F                10:   FEET ABOVE PERMANENT DATUM
 DMF .                 KB:   DRILLING MEASURED FROM
 EKB .F              5160:   KELLING BUSHING
 EDF .F              5159:   DRILLING FLOOR
 EGL .F              5150:   GROUND LEVEL
 DATE.        25-SEP-1994:   RUN DATE
 RUN .                  1:   RUN NUMBER
 DD  .F               545:   DEPTH DRILLER
 DL  .F               541:   DEPTH LOGGER
 BLI .F               533:   BOTTOM LOG INTERVAL
 CS  .IN            9.625:   CASING SIZE
 CBD .F                76:   CASING BOTTOM DRILLER
 CBL .F                76:   CASING BOTTOM LOGGER
 BS  .IN             8.75:   BIT SIZE
 BSD .F               545:   BIT SIZE AT DEPTH
 DFT .                AIR:   DRILLING FLUID TYPE
 MRT .F                85:   MAXIMUM RECORDED TEMPERATURE
 LUN .            HL 6401:   LOGGING UNIT NUMBER
 LUL .         FT. MORGAN:   LOGGING UNIT LOCATION
 ENGI.    DAVE FREDERICKS:   RECORDING ENGINEER
 WITN.        GARY STRONG:   WITNESSED BY
 CLNT.            A2DTECH:   CLIENT CODE
 ORIG.           5' PRINT:   ORIGIN OF DATA
 UWI .       490252264000:   UNIQUE WELL ID
 DICO. A2D Technologies, Inc.:   DIGITIZING COMPANY
~OTHER INFORMATION
~A    DEPT      GRR      RILD       RILM   
# ...
  127.4000   147.4102     8.7669     8.7811
  127.5000   147.8449     8.7667     8.7812
  127.6000   148.1386     8.7371     8.7813
  127.7000   148.6732     8.7057     8.7815
  127.8000   149.1690     8.7054     8.7816
  127.9000   149.2798     8.7052     8.7817
  128.0000   149.2810     8.7049     8.7818
  128.1000   149.1702     8.7047     8.7819
  128.2000   148.8475     8.6686     8.7821
  128.3000   148.3565     8.6442     8.7822
  128.4000   148.0775     8.6260     8.7823
  128.5000   147.6113     8.5840     8.7824
  128.6000   146.9101     8.5838     8.7825
  128.7000   146.2836     8.5835     8.7827
  128.8000   145.7708     8.5413     8.7828
  128.9000   145.1516     8.5239     8.7829
  129.0000   144.1086     8.5236     8.7830
  129.1000   142.3458     8.5234     8.7832
  129.2000   141.2470     8.5162     8.7833
  129.3000   140.1381     8.4641     8.7834
  129.4000   139.2411     8.4639     8.7835
  129.5000   138.3021     8.4636     8.7837
  129.6000   137.0973     8.4327     8.7838
  129.7000   136.3106     8.4047     8.7484
  129.8000   136.3120     8.3912     8.7234
  129.9000   136.7255     8.3463     8.7236
  130.0000   137.2407     8.3460     8.7157
  130.1000   137.8719     8.3458     8.6636
  130.2000   138.7149     8.3089     8.6638
  130.3000   139.6926     8.2878     8.6639
  130.4000   140.2466     8.2875     8.6640
  130.5000   140.9607     8.2873     8.6641
  130.6000   141.7330     8.2871     8.6642
  130.7000   142.5052     8.2868     8.6644
  130.8000   143.2774     8.2866     8.6645
  130.9000   144.0496     8.2520     8.6181
  131.0000   144.8338     8.2290     8.6050
  131.1000   145.9953     8.2287     8.6051
  131.2000   146.6683     8.2285     8.6052
  131.3000   147.4405     8.2278     8.6053
  131.4000   147.9452     8.1712     8.6054
  131.5000   148.2034     8.1711     8.6056
  131.6000   148.5052     8.1708     8.6057
  131.7000   149.0236     8.1706     8.6058
  131.8000   149.0250     8.1704     8.6059
  131.9000   149.0260     8.1701     8.6060
  132.0000   148.8620     8.1699     8.6062
  132.1000   148.7263     8.2165     8.6063
  132.2000   148.6526     8.2262     8.6553
  132.3000   148.4265     8.2260     8.6663
  132.4000   148.4279     8.2476     8.6664
  132.5000   148.6707     8.2827     8.6665
  132.6000   148.9289     8.2825     8.6666
  132.7000   149.0357     8.2822     8.6668
  132.8000   149.2496     8.3275     8.6669
  132.9000   149.7648     8.3394     8.6670
  133.0000   150.2638     8.3677     8.6671
  133.1000   150.5512     8.3968     8.6951
  133.2000   151.0083     8.4081     8.7275
  133.3000   151.5235     8.4547     8.7277
  133.4000   152.0387     8.4545     8.7278
  133.5000   152.5538     8.4985     8.7279
  133.6000   153.0690     8.5128     8.7710
  133.7000   153.5843     8.5125     8.7887
  133.8000   154.1851     8.5306     8.7889
  133.9000   154.4004     8.5808     8.7890
  134.0000   154.4894     8.6305     8.7956
  134.1000   154.4906     8.6303     8.8503
  134.2000   154.4918     8.6731     8.8504
  134.3000   154.4254     8.7242     8.8907
  134.4000   153.8901     8.7499     8.9121
  134.5000   153.3998     8.7497     8.9341
  134.6000   152.6864     8.7571     8.9742
  134.7000   151.7611     8.8100     8.9776
  134.8000   150.6239     8.8605     9.0368
  134.9000   149.2749     8.8707     9.0369
  135.0000   147.7744     8.9034     9.0747
  135.1000   146.6479     8.9558     9.1283
  135.2000   145.0249     8.9937     9.1822
  135.3000   143.6009     8.9990     9.2365
  135.4000   142.4589     9.0557     9.2912
  135.5000   141.3354     9.1054     9.2913
  135.6000   140.2578     9.1590     9.3364
  135.7000   140.0084     9.1812     9.3915
  135.8000   140.3120     9.2033     9.4470
  135.9000   140.5313     9.2445     9.5028
  136.0000   140.6163     9.2443     9.5589
  136.1000   140.7456     9.2440     9.6192
  136.2000   140.9209     9.2924     9.6723
  136.3000   140.8842     9.3077     9.7294
  136.4000   140.6212     9.3373     9.7537
  136.5000   140.3726     9.3719     9.7768
  136.6000   140.1168     9.3824     9.8217
  136.7000   139.7015     9.4365     9.8218
  136.8000   139.1888     9.4362     9.8220
  136.9000   138.6760     9.4833     9.8724
  137.0000   138.1149     9.5013     9.9307
  137.1000   137.0043     9.5291     9.9592
  137.2000   136.5334     9.5852     9.9791
  137.3000   136.0206     9.6330    10.0287
  137.4000   135.6536     9.6327    10.0288
  137.5000   135.4985     9.6993    10.0986
  137.6000   135.5553     9.7453    10.0987
  137.7000   135.8240     9.7662    10.1362
  137.8000   136.4086     9.7660    10.1691
  137.9000   137.0768     9.7821    10.1856
  138.0000   137.6717     9.8397    10.2457
  138.1000   138.1870     9.9013    10.3113
  138.2000   138.7022     9.9559    10.3114
  138.3000   139.1754     9.9696    10.3565
  138.4000   139.4369    10.0041    10.3833
  138.5000   139.7404    10.0383    10.3835
  138.6000   139.9500    10.0524    10.3963
  138.7000   140.2083    10.1116    10.4577
  138.8000   140.3480    10.1775    10.5286
  138.9000   140.4225    10.2310    10.5287
  139.0000   140.6526    10.2476    10.5708
  139.1000   140.6539    10.2805    10.6021
  139.2000   140.6550    10.3410    10.6223
  139.3000   140.8511    10.4019    10.6761
  139.4000   140.9595    10.4632    10.6762
  139.5000   140.9607    10.5340    10.6764
  139.6000   140.9619    10.5868    10.6765
  139.7000   140.9631    10.6492    10.6766
  139.8000   140.9645    10.7119    10.7041
  139.9000   140.7392    10.7750    10.7511
  140.0000   140.6647    10.8284    10.7562
  140.1000   140.3936    10.8281    10.8261
  140.2000   139.9718    10.9030    10.8262
  140.3000   139.7160    10.9550    10.8725
  140.4000   139.4594    11.0195    10.9368
  140.5000   138.8582    11.0542    10.9775
  140.6000   138.6465    11.0727    10.9901
  140.7000   138.2232    11.1379    11.0550
  140.8000   137.7104    11.2074    11.1310
  140.9000   137.2749    11.2071    11.1860
  141.0000   137.0192    11.2577    11.2086
  141.1000   136.7505    11.2844    11.2406
  141.2000   136.5075    11.3121    11.3070
  141.3000   136.2517    11.3787    11.3738
  141.4000   135.9959    11.4457    11.4443
  141.5000   135.7402    11.5199    11.5086
  141.6000   135.4207    11.5196    11.5766
  141.7000   134.9080    11.5687    11.6043
  141.8000   134.3421    11.6369    11.6330
  141.9000   133.6520    11.7054    11.7017
  142.0000   132.6969    11.7602    11.7708
  142.1000   131.6701    11.7619    11.8484
  142.2000   130.6433    11.8412    11.9104
  142.3000   129.6165    11.8409    11.9310
  142.4000   128.5945    11.8406    11.9685
  142.5000   127.7041    11.8759    12.0392
  142.6000   126.6217    11.9458    12.1103
  142.7000   126.0242    12.0048    12.1819
  142.8000   125.7684    12.0044    12.2667
  142.9000   125.6753    12.0874    12.2668
  143.0000   126.0061    12.1454    12.3136
  143.1000   126.8049    12.1708    12.3863
  143.2000   127.5505    12.1705    12.4595
  143.3000   128.3227    12.1912    12.5248
  143.4000   129.4106    12.2630    12.5250
  143.5000   130.6969    12.3391    12.5252
  143.6000   131.9831    12.3388    12.5813
  143.7000   133.2242    12.3948    12.6125
  143.8000   134.0641    12.4239    12.6127
  143.9000   135.0031    12.4235    12.6129
  144.0000   136.0323    12.4232    12.6130
  144.1000   137.0615    12.4228    12.6132
  144.2000   137.9915    12.4225    12.6781
  144.3000   138.6558    12.4222    12.7011
  144.4000   138.9228    12.4218    12.7013
  144.5000   139.5107    12.4215    12.7015
  144.6000   139.5118    12.4211    12.7017
  144.7000   139.3373    12.4208    12.7019
  144.8000   139.0815    12.4204    12.7021
  144.9000   138.8257    12.4200    12.7022
  145.0000   138.5700    12.4197    12.7024
  145.1000   138.3094    12.4194    12.7026
  145.2000   138.0087    12.4191    12.6824
  145.3000   137.5956    12.3939    12.6153
  145.4000   137.0828    12.3327    12.6155
  145.5000   136.5700    12.3323    12.6157
