~VERSION INFORMATION
 VERS.                2.0:   CWLS LOG ASCII STANDARD - VERSION 2.0
 WRAP.                 NO:   ONE LINE PER DEPTH STEP
~WELL INFORMATION
#MNEM.UNIT      DATA TYPE    INFORMATION
#----------   ------------   ------------------------------
 STRT.F           40.0000:   START DEPTH
 STOP.F         3444.0000:   STOP DEPTH
 STEP.F            0.5000:   STEP LENGTH
 NULL.          -999.2500:   NO VALUE
 COMP.    FENIX & SCISSON:   COMPANY
 WELL.     13-A-10 #13-10:   WELL
 FLD .            WILDCAT:   FIELD
 LOC .      S10 T38N R78W:   LOCATION
 CNTY.            NATRONA:   COUNTY
 STAT.            WYOMING:   STATE
 CTRY. UNITED STATES OF AMERICA:   COUNTRY
 SRVC.       Schlumberger:   SERVICE COMPANY
 DATE.        08-JUL-1970:   LOGDATE
 API .       490251090300:   API NUMBER
~CURVE INFORMATION
#MNEM.UNIT       API CODE    CURVE DESCRIPTION
#----------   ------------   ------------------------------
 DEPT.F                  :   
 ASN .OHMM   05 041 16 00:   AMPLIFIED SHORT NORMAL 16"
 CILD.MMHO   05 110 46 00:   CONDUCTIVITY INDUCTION LOG DEEP
 ILD .OHMM   05 120 46 00:   INDUCTION LOG DEEP
 SPR .MV     05 010 01 00:   SPONTANEOUS POTENTIAL FROM RES.
 CALD.IN     45 280 60 00:   CALIPER FROM DENSITY
 CORR.G/C3   45 356 01 00:   DENSITY CORRECTION
 DPHI.DEC    45 890 12 00:   DENSITY POROSITY SANDSTONE
 RHOB.G/C3   45 350 01 00:   BULK DENSITY
~PARAMETER INFORMATION
#MNEM.UNIT          VALUE    DESCRIPTION
#----------   ------------   ------------------------------
 PD  .                 GL:   PERMANENT DATUM
 EPD .F              5295:   ELEVATION PERMANENT DATUM
 LMF .                 KB:   LOG MEASURED FROM
 DAPD.F                10:   FEET ABOVE PERMANENT DATUM
 DMF .                 KB:   DRILLING MEASURED FROM
 EKB .F              5305:   KELLING BUSHING
 EGL .F              5295:   GROUND LEVEL
 DATE.        08-JUL-1970:   RUN DATE
 RUN .                  3:   RUN NUMBER
 DD  .F              3450:   DEPTH DRILLER
 DL  .F              3444:   DEPTH LOGGER
 BLI .F              3443:   BOTTOM LOG INTERVAL
 TLI .F              2950:   TOP LOG INTERVAL
 CS  .IN            10.75:   CASING SIZE
 CBD .F               842:   CASING BOTTOM DRILLER
 BS  .IN                9:   BIT SIZE
 BSD .F              3450:   BIT SIZE AT DEPTH
 DFT .      FRESH GEL MUD:   DRILLING FLUID TYPE
 DFD .               10.4:   DRILLING FLUID DENSITY
 DFV .                 43:   DRILLING FLUID VISCOSITY
 DFPH.                7.6:   DRILLING FLUID PH
 DFL .                  8:   DRILLING FLUID LOSS
 MSS .           FLOWLINE:   MUD SAMPLE SOURCE
 RMS .OHMM              2:   RESISTIVITY MUD SAMPLE
 MST .F                85:   MUD SAMPLE TEMPERATURE
 RMF .OHMM            1.6:   RESISTIVITY MUD FILTRATE SAMPLE
 MFST.F                85:   MUD FILTRATE SAMPLE TEMPERATURE
 MFSS.               MEAS:   MUD FILTRATE SAMPLE SOURCE
 RMB .OHMM           1.49:   RESISTIVITY MUD AT BHT
 BHT .F               114:   BOTTOM HOLE TEMPERATURE
 TCS .HRS               3:   TIME CURCULATED STOPPED
 MRT .F               114:   MAXIMUM RECORDED TEMPERATURE
 LUN .               4507:   LOGGING UNIT NUMBER
 LUL .               CSPR:   LOGGING UNIT LOCATION
 ENGI.             TURNER:   RECORDING ENGINEER
 WITN.                MAY:   WITNESSED BY
 CLNT.            A2DTECH:   CLIENT CODE
 ORIG.     2.5", 5" PRINT:   ORIGIN OF DATA
 UWI .       490251090300:   UNIQUE WELL ID
 DICO. A2D Technologies, Inc.:   DIGITIZING COMPANY
~OTHER INFORMATION
~A   DEPT        ASN      CILD         ILD      SPR       CALD       CORR       DPHI       RHOB   
# ...
  283.0000    12.5373    62.3952    17.0627   -36.0653  -999.2500  -999.2500  -999.2500  -999.2500
  283.5000    12.5373    62.3652    16.5813   -36.4382  -999.2500  -999.2500  -999.2500  -999.2500
  284.0000    12.5373    63.8364    16.1497   -36.8906  -999.2500  -999.2500  -999.2500  -999.2500
  284.5000    12.5373    64.2863    15.9990   -36.8872  -999.2500  -999.2500  -999.2500  -999.2500
  285.0000    12.5373    65.2748    15.8827   -36.4886  -999.2500  -999.2500  -999.2500  -999.2500
  285.5000    12.3881    65.2395    15.8877   -36.1791  -999.2500  -999.2500  -999.2500  -999.2500
  286.0000    12.3881    65.2096    15.8922   -35.5727  -999.2500  -999.2500  -999.2500  -999.2500
  286.5000    12.3881    65.1796    15.8967   -35.2631  -999.2500  -999.2500  -999.2500  -999.2500
  287.0000    12.2388    64.3412    15.9012   -35.0920  -999.2500  -999.2500  -999.2500  -999.2500
  287.5000    12.2388    63.6227    15.9057   -34.9407  -999.2500  -999.2500  -999.2500  -999.2500
  288.0000    12.0896    65.0899    15.9102   -34.7893  -999.2500  -999.2500  -999.2500  -999.2500
  288.5000    12.0851    63.5580    15.9147   -34.7864  -999.2500  -999.2500  -999.2500  -999.2500
  289.0000    11.9273    65.0299    15.9900   -34.7828  -999.2500  -999.2500  -999.2500  -999.2500
  289.5000    11.7696    67.9904    15.9236   -34.7799  -999.2500  -999.2500  -999.2500  -999.2500
  290.0000    11.4627    70.9552    15.9290   -35.0742  -999.2500  -999.2500  -999.2500  -999.2500
  290.5000    11.1557    75.4169    15.7829   -34.7740  -999.2500  -999.2500  -999.2500  -999.2500
  291.0000    10.7552    79.8786    14.8899   -34.7711  -999.2500  -999.2500  -999.2500  -999.2500
  291.5000    10.1152    87.3343    12.6488   -34.4715  -999.2500  -999.2500  -999.2500  -999.2500
  292.0000    10.0156    94.7900    11.1562   -33.8751  -999.2500  -999.2500  -999.2500  -999.2500
  292.5000     9.9403   105.2646    10.2625   -33.2787  -999.2500  -999.2500  -999.2500  -999.2500
  293.0000     9.4030   109.9706     9.5184   -32.3856  -999.2500  -999.2500  -999.2500  -999.2500
  293.5000     8.8060   117.7748     8.7743   -31.4924  -999.2500  -999.2500  -999.2500  -999.2500
  294.0000     8.2388   129.5410     8.0302   -30.5993  -999.2500  -999.2500  -999.2500  -999.2500
  294.5000     7.7313   137.4104     7.2861   -30.0029  -999.2500  -999.2500  -999.2500  -999.2500
  295.0000     7.3433   144.7106     6.6917   -29.4065  -999.2500  -999.2500  -999.2500  -999.2500
  295.5000     7.0448   150.7983     6.2470   -28.8001  -999.2500  -999.2500  -999.2500  -999.2500
  296.0000     6.8955   153.4131     6.2515   -28.5104  -999.2500  -999.2500  -999.2500  -999.2500
  296.5000     6.8657   155.9035     6.4057   -28.2107  -999.2500  -999.2500  -999.2500  -999.2500
  297.0000     6.8955   153.7626     6.4101   -28.1681  -999.2500  -999.2500  -999.2500  -999.2500
  297.5000     6.8657   152.8443     6.4371   -27.9081  -999.2500  -999.2500  -999.2500  -999.2500
  298.0000     6.8657   150.5789     6.5689   -27.9050  -999.2500  -999.2500  -999.2500  -999.2500
  298.5000     6.8657   149.7904     6.6068   -27.9021  -999.2500  -999.2500  -999.2500  -999.2500
  299.0000     6.8060   148.8924     6.7276   -28.1962  -999.2500  -999.2500  -999.2500  -999.2500
  299.5000     6.7761   148.2329     6.7321   -28.1929  -999.2500  -999.2500  -999.2500  -999.2500
  300.0000     6.7215   146.7066     6.5861   -28.1050  -999.2500  -999.2500  -999.2500  -999.2500
  300.5000     6.6718   148.4184     6.5888   -27.9725  -999.2500  -999.2500  -999.2500  -999.2500
  301.0000     6.6561   150.1302     6.5911   -27.8869  -999.2500  -999.2500  -999.2500  -999.2500
  301.5000     6.5832   151.1752     6.5934   -28.1807  -999.2500  -999.2500  -999.2500  -999.2500
  302.0000     6.5083   155.6581     6.5957   -28.4745  -999.2500  -999.2500  -999.2500  -999.2500
  302.5000     6.4313   157.1482     6.5980   -28.4716  -999.2500  -999.2500  -999.2500  -999.2500
  303.0000     6.3703   160.1344     6.6003   -28.7654  -999.2500  -999.2500  -999.2500  -999.2500
  303.5000     6.3561   160.1271     6.6025   -28.7625  -999.2500  -999.2500  -999.2500  -999.2500
  304.0000     6.4155   160.1198     6.7549   -29.0563  -999.2500  -999.2500  -999.2500  -999.2500
  304.5000     6.5346   158.5529     6.7571   -29.0534  -999.2500  -999.2500  -999.2500  -999.2500
  305.0000     6.6238   156.9862     6.9090   -29.0355  -999.2500  -999.2500  -999.2500  -999.2500
  305.5000     6.6832   154.1093     6.9112   -28.7508  -999.2500  -999.2500  -999.2500  -999.2500
  306.0000     6.7128   152.3554     7.0631   -28.7102  -999.2500  -999.2500  -999.2500  -999.2500
  306.5000     6.7722   149.2915     7.0654   -28.4481  -999.2500  -999.2500  -999.2500  -999.2500
  307.0000     6.7719   147.7247     7.0676   -28.1484  -999.2500  -999.2500  -999.2500  -999.2500
  307.5000     6.7716   146.1578     7.0698   -28.0737  -999.2500  -999.2500  -999.2500  -999.2500
  308.0000     6.8012   145.0898     7.2217   -27.8457  -999.2500  -999.2500  -999.2500  -999.2500
  308.5000     6.8307   143.5853     7.2239   -27.8427  -999.2500  -999.2500  -999.2500  -999.2500
  309.0000     6.8901   142.0809     7.2261   -27.8398  -999.2500  -999.2500  -999.2500  -999.2500
  309.5000     6.9495   139.8902     7.3780   -27.8368  -999.2500  -999.2500  -999.2500  -999.2500
  310.0000     7.0090   139.0719     7.5299   -27.8338  -999.2500  -999.2500  -999.2500  -999.2500
  310.5000     7.0704   137.5674     7.6921   -27.8308  -999.2500  -999.2500  -999.2500  -999.2500
  311.0000     7.1596   135.1897     7.8338   -28.1246  -999.2500  -999.2500  -999.2500  -999.2500
  311.5000     7.2200   133.0600     7.9858   -28.2843  -999.2500  -999.2500  -999.2500  -999.2500
  312.0000     7.2466   131.5557     7.9880   -28.5895  -999.2500  -999.2500  -999.2500  -999.2500
  312.5000     7.2463   131.5483     7.9902   -29.0054  -999.2500  -999.2500  -999.2500  -999.2500
  313.0000     7.2460   134.5350     7.8425   -29.0025  -999.2500  -999.2500  -999.2500  -999.2500
  313.5000     7.2089   137.5217     7.6537   -29.2967  -999.2500  -999.2500  -999.2500  -999.2500
  314.0000     7.1558   139.0114     7.5010   -29.5905  -999.2500  -999.2500  -999.2500  -999.2500
  314.5000     7.1167   141.9980     7.2504   -29.8839  -999.2500  -999.2500  -999.2500  -999.2500
  315.0000     7.0657   143.4877     7.2530   -29.8810  -999.2500  -999.2500  -999.2500  -999.2500
  315.5000     7.0246   146.4744     7.2553   -29.8781  -999.2500  -999.2500  -999.2500  -999.2500
  316.0000     6.9636   147.9641     7.1896   -29.8752  -999.2500  -999.2500  -999.2500  -999.2500
  316.5000     6.9324   146.4595     7.0369   -29.5756  -999.2500  -999.2500  -999.2500  -999.2500
  317.0000     6.9152   144.9551     6.9626   -29.2759  -999.2500  -999.2500  -999.2500  -999.2500
  317.5000     6.9895   143.2635     6.9648   -28.9763  -999.2500  -999.2500  -999.2500  -999.2500
  318.0000     7.0957   141.9461     6.9675   -28.6627  -999.2500  -999.2500  -999.2500  -999.2500
  318.5000     7.2168   140.1299     7.1194   -28.3516  -999.2500  -999.2500  -999.2500  -999.2500
  319.0000     7.3020   138.5630     7.1216   -28.0771  -999.2500  -999.2500  -999.2500  -999.2500
  319.5000     7.2719   137.4326     7.2735   -28.0742  -999.2500  -999.2500  -999.2500  -999.2500
  320.0000     7.2119   137.9240     7.2757   -28.0119  -999.2500  -999.2500  -999.2500  -999.2500
  320.5000     7.1220   138.9160     7.2780   -27.7715  -999.2500  -999.2500  -999.2500  -999.2500
  321.0000     7.0322   138.9072     7.2802   -27.7685  -999.2500  -999.2500  -999.2500  -999.2500
  321.5000     6.9424   141.0826     7.2824   -27.8591  -999.2500  -999.2500  -999.2500  -999.2500
  322.0000     6.8227   145.6290     7.2846   -28.0599  -999.2500  -999.2500  -999.2500  -999.2500
  322.5000     6.8522   148.6779     7.2868   -28.0564  -999.2500  -999.2500  -999.2500  -999.2500
  323.0000     6.9116   148.4832     7.1392   -28.0534  -999.2500  -999.2500  -999.2500  -999.2500
