~VERSION INFORMATION
 VERS.                2.0:   CWLS LOG ASCII STANDARD - VERSION 2.0
 WRAP.                 NO:   ONE LINE PER DEPTH STEP
~WELL INFORMATION
#MNEM.UNIT      DATA TYPE    INFORMATION
#----------   ------------   ------------------------------
 STRT.F           19.5000:   START DEPTH
 STOP.F          635.0000:   STOP DEPTH
 STEP.F            0.5000:   STEP LENGTH
 NULL.          -999.2500:   NO VALUE
 COMP. FENIX & SCISSON INC:   COMPANY
 WELL. NPR-3 68-S-34 #3-34:   WELL
 FLD .  TEAPOT DOME NPR-3:   FIELD
 LOC .      S34 T39N R78W:   LOCATION
 CNTY.            NATRONA:   COUNTY
 STAT.            WYOMING:   STATE
 CTRY. UNITED STATES OF AMERICA:   COUNTRY
 SRVC.           BIRDWELL:   SERVICE COMPANY
 DATE.        01-AUG-1978:   LOGDATE
 API .       490251070600:   API NUMBER
~CURVE INFORMATION
#MNEM.UNIT       API CODE    CURVE DESCRIPTION
#----------   ------------   ------------------------------
 DEPT.F                  :   
 SPR .MV     05 010 01 00:   SPONTANEOUS POTENTIAL
 SN  .OHMM   05 040 16 00:   SHORT NORMAL 16'
 ILD .OHMM   05 120 46 00:   INDUCTION LOG DEEP RESISTIVITY
 GRD .GAPI   45 310 01 00:   GAMMA RAY FROM DENSITY LOG
 CALD.IN     45 280 60 00:   CALIPER
 RHOB.G/C3   45 350 01 00:   BULK DENSITY
 DPHI.DEC    45 890 12 00:   DENSITY POROSITY SANDSTONE
 CORR.G/C3   45 356 01 00:   DENSITY CORRECTION
~PARAMETER INFORMATION
#MNEM.UNIT          VALUE    DESCRIPTION
#----------   ------------   ------------------------------
 PD  .                 GL:   PERMANENT DATUM
 EPD .F              5100:   ELEVATION PERMANENT DATUM
 LMF .                 KB:   LOG MEASURED FROM
 DAPD.F                 4:   FEET ABOVE PERMANENT DATUM
 DMF .                 KB:   DRILLING MEASURED FROM
 EKB .F              5104:   KELLING BUSHING
 EGL .F              5100:   GROUND LEVEL
 DATE.           9-1-1978:   RUN DATE
 RUN .                  1:   RUN NUMBER
 DD  .F               635:   DEPTH DRILLER
 DL  .F               635:   DEPTH LOGGER
 BLI .F               629:   BOTTOM LOG INTERVAL
 TLI .F                40:   TOP LOG INTERVAL
 CS  .IN            8.625:   CASING SIZE
 CBD .F                40:   CASING BOTTOM DRILLER
 CBL .F                40:   CASING BOTTOM LOGGER
 BS  .IN            7.875:   BIT SIZE
 BSD .F               635:   BIT SIZE AT DEPTH
 DFT .                KCL:   DRILLING FLUID TYPE
 DFD .                8.6:   DRILLING FLUID DENSITY
 DFV .                 32:   DRILLING FLUID VISCOSITY
 DFPH.                  9:   DRILLING FLUID PH
 DFL .                  7:   DRILLING FLUID LOSS
 MSS .          FLOW LINE:   MUD SAMPLE SOURCE
 RMS .OHMM             .4:   RESISTIVITY MUD SAMPLE
 MST .F                76:   MUD SAMPLE TEMPERATURE
 RMF .OHMM             .3:   RESISTIVITY MUD FILTRATE SAMPLE
 MFST.F                80:   MUD FILTRATE SAMPLE TEMPERATURE
 RMC .OHMM             .4:   RESISTIVITY MUD CAKE
 MCST.F                80:   MUD CAKE SAMPLE TEMPERATURE
 MFSS.               MEAS:   MUD FILTRATE SAMPLE SOURCE
 MCSS.               MEAS:   MUD CAKE SAMPLE SOURCE
 RMB .OHMM            .43:   RESISTIVITY MUD AT BHT
 BHT .F                70:   BOTTOM HOLE TEMPERATURE
 TCS .HRS               3:   TIME CURCULATED STOPPED
 MRT .F                70:   MAXIMUM RECORDED TEMPERATURE
 LUN .               2958:   LOGGING UNIT NUMBER
 LUL .               CASP:   LOGGING UNIT LOCATION
 ENGI.            POINTER:   RECORDING ENGINEER
 WITN.           MCGINLEY:   WITNESSED BY
 CLNT.            A2DTECH:   CLIENT CODE
 ORIG.           5" PRINT:   ORIGIN OF DATA
 UWI .       490251070600:   UNIQUE WELL ID
 DICO. A2D Technologies, Inc.:   DIGITIZING COMPANY
~OTHER INFORMATION
~A   DEPT      SPR         SN        ILD         GRD      CALD       RHOB       DPHI       CORR   
# ...
  343.5000   -22.7527     7.2504     6.6678   100.3972     7.2653     2.4621     0.1419     0.0335
  344.0000   -23.0877     7.0386     6.6111   107.8764     7.3112     2.4469     0.1344     0.0335
  344.5000   -23.1766     6.9132     6.5590   116.0655     7.3118     2.4431     0.1273     0.0335
  345.0000   -23.1821     6.8542     6.5074   124.3960     7.3132     2.4703     0.1211     0.0303
  345.5000   -22.7194     6.9344     6.4561   126.0519     7.3145     2.4811     0.1203     0.0261
  346.0000   -22.4792     7.0171     6.4271   118.0384     7.3159     2.4831     0.1246     0.0218
  346.5000   -22.5420     7.1732     6.7074   111.7313     7.3173     2.4776     0.1296     0.0190
  347.0000   -22.6021     7.4570     6.9888   105.9882     7.3187     2.4693     0.1312     0.0181
  347.5000   -22.6632     7.6536     7.2449   105.6634     7.3200     2.4630     0.1326     0.0171
  348.0000   -22.7239     7.6260     7.2413   107.3027     7.3214     2.4630     0.1341     0.0161
  348.5000   -22.7845     7.6053     7.2265   109.8929     7.3228     2.4602     0.1348     0.0152
  349.0000   -22.8452     7.5847     7.2189   112.4586     7.3242     2.4594     0.1340     0.0142
  349.5000   -22.9057     7.5641     7.2112   114.6894     7.3256     2.4599     0.1321     0.0135
  350.0000   -22.9665     7.5436     7.2036   116.8260     7.3270     2.4629     0.1302     0.0140
  350.5000   -23.0261     7.5231     7.1961   119.0337     7.3283     2.4663     0.1283     0.0187
  351.0000   -23.2491     7.4833     7.1884   119.5085     7.3299     2.4697     0.1264     0.0235
  351.5000   -23.5946     7.4009     7.1808   119.4746     7.3245     2.4729     0.1265     0.0254
  352.0000   -23.9454     7.3194     7.1358   118.4461     7.3174     2.4734     0.1278     0.0255
  352.5000   -24.0511     7.2388     7.0473   117.9957     7.3103     2.4700     0.1283     0.0255
  353.0000   -24.0524     7.1591     6.9595   117.8312     7.3032     2.4690     0.1288     0.0255
  353.5000   -24.0501     7.0802     6.8735   117.7153     7.2961     2.4691     0.1319     0.0238
  354.0000   -24.0611     7.0023     6.7915   117.8486     7.2891     2.4688     0.1363     0.0206
  354.5000   -24.3189     6.9252     6.6075   118.1597     7.2822     2.4572     0.1407     0.0176
  355.0000   -24.5894     6.7333     6.4271   118.5870     7.2748     2.4492     0.1450     0.0175
  355.5000   -24.7150     6.5344     6.0179   118.2926     7.2432     2.4470     0.1494     0.0175
  356.0000   -24.7989     6.3403     5.6123   115.4508     7.1490     2.4384     0.1502     0.0174
  356.5000   -24.7127     6.3100     5.4849   111.8389     7.1194     2.4231     0.1505     0.0185
  357.0000   -24.3852     6.3100     5.4470   109.0575     7.1059     2.4118     0.1495     0.0265
  357.5000   -24.0641     6.3100     5.4470   107.6053     7.0979     2.4181     0.1418     0.0344
  358.0000   -23.8371     6.4816     5.4470   103.7633     6.8795     2.4366     0.1316     0.0426
  358.5000   -23.8040     6.6660     5.4470    98.9945     6.6354     2.4612     0.1348     0.0326
  359.0000   -23.7675     6.8553     5.5598    96.6968     6.5396     2.4598     0.1396     0.0196
  359.5000   -23.7319     7.0500     5.9822   102.1490     6.5757     2.4537     0.1448     0.0114
  360.0000   -23.6962     7.2347     6.4368   107.1520     6.8309     2.4475     0.1579     0.0071
  360.5000   -23.6616     7.3967     6.9259   111.8598     7.0999     2.4336     0.1778     0.0075
  361.0000   -23.5662     7.5623     7.1442   116.3269     7.1863     2.4078     0.2019     0.0110
  361.5000   -23.4556     7.5835     7.1917   116.5159     7.1088     2.3700     0.2055     0.0143
  362.0000   -23.3453     7.5835     7.2408   115.3312     7.0325     2.3357     0.1762     0.0598
  362.5000   -23.3118     7.5824     7.2906   117.2334     7.0362     2.3744     0.1452     0.1129
  363.0000   -23.7620     7.7087     7.3459   117.8988     7.0433     2.4164     0.1054     0.1654
  363.5000   -24.2088     7.8657     7.4050   118.0837     7.0672     2.4583     0.0656     0.1839
  364.0000   -24.4995     8.0263     7.4905   117.8836     7.2091     2.5388     0.0509     0.2588
  364.5000   -24.6033     8.1622     7.6363   117.6599     7.3462     2.6118     0.1057     0.3331
  365.0000   -24.5660     8.1857     7.7841   119.3082     7.3542     2.5674     0.1191     0.2454
  365.5000   -24.4112     8.2099     7.8785   121.1524     7.3566     2.5178     0.1326     0.1305
  366.0000   -24.2551     8.2339     7.9032   123.0546     7.3597     2.4683     0.1436     0.0679
  366.5000   -24.0989     8.2581     7.9280   123.2668     7.3630     2.4471     0.1333     0.0705
  367.0000   -23.9429     8.2824     7.9528   119.4946     7.3662     2.4600     0.1230     0.0773
  367.5000   -23.7868     8.3068     7.9777   118.9399     7.3695     2.4760     0.1121     0.0776
  368.0000   -23.6304     8.3312     8.0028   116.8397     7.3727     2.4923     0.1153     0.0672
  368.5000   -23.4739     8.3558     8.0279   114.1069     7.3760     2.4925     0.1205     0.0526
  369.0000   -23.4526     8.3904     8.0532   118.7556     7.3792     2.4845     0.1225     0.0381
  369.5000   -23.4528     8.3631     8.0874   122.4604     7.3825     2.4781     0.1219     0.0294
  370.0000   -23.4531     8.3169     8.0656   125.2202     7.3857     2.4795     0.1232     0.0295
  370.5000   -23.4531     8.2710     8.0304   119.3736     7.3890     2.4772     0.1269     0.0295
  371.0000   -23.4531     8.2253     8.0139   111.8239     7.3900     2.4726     0.1278     0.0319
  371.5000   -23.4531     8.1799     7.9169   106.1092     7.3900     2.4723     0.1219     0.0399
  372.0000   -23.4531     8.1214     7.7914   101.3998     7.3900     2.4760     0.1170     0.0478
  372.5000   -23.4527     8.0246     7.6677   101.5167     7.3900     2.4841     0.1132     0.0554
  373.0000   -23.4539     7.9289     7.5460   105.1733     7.3900     2.4922     0.1182     0.0473
  373.5000   -23.4478     7.8380     7.4263   109.7329     7.3900     2.4873     0.1224     0.0348
  374.0000   -23.7918     7.7549     7.3170   114.3042     7.3900     2.4805     0.1222     0.0220
  374.5000   -24.2713     7.6727     7.2153   114.5195     7.3900     2.4800     0.1211     0.0225
  375.0000   -24.7651     7.5835     7.1150   114.9605     7.3900     2.4813     0.1200     0.0238
  375.5000   -24.8863     7.3617     7.0162   117.4597     7.3900     2.4825     0.1202     0.0251
  376.0000   -24.9297     7.1240     6.9176   119.7274     7.3900     2.4839     0.1207     0.0249
  376.5000   -24.9709     6.8939     6.6720   121.5399     7.3900     2.4808     0.1243     0.0239
  377.0000   -25.0144     6.6784     6.4325   120.9661     7.3900     2.4762     0.1283     0.0230
  377.5000   -25.1367     6.4889     6.2016   119.3098     7.3900     2.4704     0.1324     0.0221
  378.0000   -25.6218     6.2192     5.9714   117.6823     7.3900     2.4638     0.1364     0.0211
  378.5000   -26.0996     5.8105     5.5742   117.2859     7.3900     2.4506     0.1454     0.0202
  379.0000   -26.5754     5.4470     5.2989   118.2796     7.3900     2.4372     0.1575     0.0196
  379.5000   -27.0558     4.9964     4.7113   119.3686     7.3900     2.4239     0.1700     0.0205
  380.0000   -27.1771     4.6019     4.1521   122.0802     7.3900     2.4102     0.1860     0.0213
  380.5000   -27.0721     4.2385     3.6572   123.5825     7.3900     2.3887     0.2021     0.0226
  381.0000   -26.9622     3.9037     3.2448   121.8893     7.3900     2.3551     0.2181     0.0242
  381.5000   -26.8473     3.5955     2.8790   120.6170     7.3900     2.3206     0.2428     0.0257
  382.0000   -26.6323     3.3093     2.6453   118.1039     7.3900     2.2860     0.2695     0.0273
  382.5000   -26.4061     3.1389     2.5479   115.8437     7.3900     2.2514     0.2854     0.0288
  383.0000   -26.1798     3.1718     2.4482   112.4758     7.3900     2.2164     0.2780     0.0304
  383.5000   -25.9537     3.1973     2.4964   106.2168     7.3900     2.2110     0.2586     0.0320
