~VERSION INFORMATION
 VERS.                2.0:   CWLS LOG ASCII STANDARD - VERSION 2.0
 WRAP.                 NO:   ONE LINE PER DEPTH STEP
~WELL INFORMATION
#MNEM.UNIT      DATA TYPE    INFORMATION
#----------   ------------   ------------------------------
 STRT.F           32.0000:   START DEPTH
 STOP.F          688.5000:   STOP DEPTH
 STEP.F            0.5000:   STEP LENGTH
 NULL.          -999.2500:   NO VALUE
 COMP. FENIX & SCISSON INC:   COMPANY
 WELL.       NPR 3 #78-34:   WELL
 FLD .  TEAPOT DOME NPR-3:   FIELD
 LOC .      S34 T39N R78W:   LOCATION
 CNTY.            NATRONA:   COUNTY
 STAT.            WYOMING:   STATE
 CTRY. UNITED STATES OF AMERICA:   COUNTRY
 SRVC.           BIRDWELL:   SERVICE COMPANY
 DATE.        16-AUG-1978:   LOGDATE
 API .       490251070700:   API NUMBER
~CURVE INFORMATION
#MNEM.UNIT       API CODE    CURVE DESCRIPTION
#----------   ------------   ------------------------------
 DEPT.F                  :   
 SPR .MV     05 010 01 00:   SPONTANEOUS POTENTIAL
 SN  .OHMM   05 040 16 00:   SHORT NORMAL 16'
 ILD .OHMM   05 120 46 00:   INDUCTION LOG DEEP RESISTIVITY
 CALD.IN     45 280 60 00:   CALIPER
 GRD .GAPI   45 310 01 00:   GAMMA RAY FROM DENSITY LOG
 RHOB.G/C3   45 350 01 00:   BULK DENSITY
 DPHI.DEC    45 890 12 00:   DENSITY POROSITY SANDSTONE
 CORR.G/C3   45 356 01 00:   DENSITY CORRECTION
~PARAMETER INFORMATION
#MNEM.UNIT          VALUE    DESCRIPTION
#----------   ------------   ------------------------------
 PD  .                 GL:   PERMANENT DATUM
 EPD .F              5085:   ELEVATION PERMANENT DATUM
 LMF .                 KB:   LOG MEASURED FROM
 DAPD.F                 4:   FEET ABOVE PERMANENT DATUM
 DMF .                 KB:   DRILLING MEASURED FROM
 EKB .F              5089:   KELLING BUSHING
 EGL .F              5085:   GROUND LEVEL
 DATE.          8-16-1978:   RUN DATE
 RUN .                  1:   RUN NUMBER
 DD  .F               680:   DEPTH DRILLER
 DL  .F               688:   DEPTH LOGGER
 BLI .F               682:   BOTTOM LOG INTERVAL
 TLI .F                50:   TOP LOG INTERVAL
 CS  .IN            8.625:   CASING SIZE
 CBD .F                40:   CASING BOTTOM DRILLER
 BS  .IN            7.875:   BIT SIZE
 BSD .F               680:   BIT SIZE AT DEPTH
 DFT .                KCL:   DRILLING FLUID TYPE
 RMS .OHMM            .32:   RESISTIVITY MUD SAMPLE
 MST .F                64:   MUD SAMPLE TEMPERATURE
 RMF .OHMM             .3:   RESISTIVITY MUD FILTRATE SAMPLE
 MFST.F                76:   MUD FILTRATE SAMPLE TEMPERATURE
 RMC .OHMM            .16:   RESISTIVITY MUD CAKE
 MCST.F                64:   MUD CAKE SAMPLE TEMPERATURE
 MFSS.               MEAS:   MUD FILTRATE SAMPLE SOURCE
 MCSS.               MEAS:   MUD CAKE SAMPLE SOURCE
 TCS .HRS               1:   TIME CURCULATED STOPPED
 LUN .               3006:   LOGGING UNIT NUMBER
 LUL .               CASP:   LOGGING UNIT LOCATION
 ENGI.             MILLER:   RECORDING ENGINEER
 WITN.           MCGINLEY:   WITNESSED BY
 CLNT.            A2DTECH:   CLIENT CODE
 ORIG.           5" PRINT:   ORIGIN OF DATA
 UWI .       490251070700:   UNIQUE WELL ID
 DICO. A2D Technologies, Inc.:   DIGITIZING COMPANY
~OTHER INFORMATION
~A   DEPT      SPR         SN        ILD       CALD         GRD      RHOB       DPHI       CORR   
   32.0000  -999.2500  -999.2500  -999.2500  -999.2500    45.6487  -999.2500  -999.2500  -999.2500
   32.5000  -999.2500  -999.2500  -999.2500  -999.2500    45.6487  -999.2500  -999.2500  -999.2500
   33.0000  -999.2500  -999.2500  -999.2500  -999.2500    45.4434  -999.2500  -999.2500  -999.2500
   33.5000  -999.2500  -999.2500  -999.2500  -999.2500    45.4050  -999.2500  -999.2500  -999.2500
   34.0000  -999.2500  -999.2500  -999.2500  -999.2500    45.3668  -999.2500  -999.2500  -999.2500
   34.5000  -999.2500  -999.2500  -999.2500  -999.2500    45.3237  -999.2500  -999.2500  -999.2500
   35.0000  -999.2500  -999.2500  -999.2500  -999.2500    45.2751  -999.2500  -999.2500  -999.2500
   35.5000  -999.2500  -999.2500  -999.2500  -999.2500    45.2521  -999.2500  -999.2500  -999.2500
   36.0000  -999.2500  -999.2500  -999.2500  -999.2500    47.1022  -999.2500  -999.2500  -999.2500
   36.5000  -999.2500  -999.2500  -999.2500  -999.2500    48.3859  -999.2500  -999.2500  -999.2500
   37.0000  -999.2500  -999.2500  -999.2500  -999.2500    48.6649  -999.2500  -999.2500  -999.2500
   37.5000  -999.2500  -999.2500  -999.2500  -999.2500    48.9615  -999.2500  -999.2500  -999.2500
   38.0000  -999.2500  -999.2500  -999.2500  -999.2500    49.6575  -999.2500  -999.2500  -999.2500
   38.5000  -999.2500  -999.2500  -999.2500  -999.2500    50.0058  -999.2500  -999.2500  -999.2500
   39.0000  -999.2500  -999.2500  -999.2500  -999.2500    49.7908  -999.2500  -999.2500  -999.2500
   39.5000  -999.2500  -999.2500  -999.2500  -999.2500    49.5642  -999.2500  -999.2500  -999.2500
   40.0000  -999.2500  -999.2500  -999.2500  -999.2500    49.3367  -999.2500  -999.2500  -999.2500
   40.5000  -999.2500  -999.2500  -999.2500     8.0858    49.2431  -999.2500  -999.2500  -999.2500
   41.0000  -999.2500  -999.2500  -999.2500     8.0659    49.2418  -999.2500  -999.2500  -999.2500
   41.5000  -999.2500  -999.2500  -999.2500     8.0659    49.2489  -999.2500  -999.2500  -999.2500
   42.0000  -999.2500  -999.2500  -999.2500     8.0695    48.9645  -999.2500  -999.2500  -999.2500
   42.5000  -999.2500  -999.2500  -999.2500     8.1060    48.6252  -999.2500  -999.2500  -999.2500
   43.0000  -999.2500  -999.2500  -999.2500     8.1415    48.2840  -999.2500  -999.2500  -999.2500
   43.5000  -999.2500  -999.2500  -999.2500     8.1949    48.5082  -999.2500  -999.2500  -999.2500
   44.0000  -999.2500  -999.2500  -999.2500     8.2489    49.7280  -999.2500  -999.2500  -999.2500
   44.5000  -999.2500  -999.2500  -999.2500     8.3029    50.4938  -999.2500  -999.2500  -999.2500
   45.0000  -999.2500  -999.2500  -999.2500     8.3568    50.6699  -999.2500  -999.2500  -999.2500
   45.5000  -999.2500  -999.2500  -999.2500     8.4103    50.7643  -999.2500  -999.2500  -999.2500
   46.0000  -999.2500  -999.2500  -999.2500     8.4531    50.8023  -999.2500  -999.2500  -999.2500
   46.5000  -999.2500  -999.2500  -999.2500     8.4741    50.5338  -999.2500  -999.2500  -999.2500
   47.0000  -999.2500  -999.2500  -999.2500     8.4958    50.2624  -999.2500  -999.2500  -999.2500
   47.5000  -999.2500  -999.2500  -999.2500     8.5175    50.8268  -999.2500  -999.2500  -999.2500
   48.0000  -999.2500  -999.2500  -999.2500     8.5232    57.7907  -999.2500  -999.2500     0.1018
   48.5000  -999.2500  -999.2500  -999.2500     8.4219    67.9070     2.4103     0.1693     0.1058
   49.0000  -999.2500  -999.2500  -999.2500     8.1864    75.9662     2.4473     0.1333     0.1078
   49.5000  -999.2500  -999.2500  -999.2500     7.9566    77.7017     2.4641     0.1321     0.1073
   50.0000   -36.7715     5.3972     4.7063     7.8126    78.9783     2.4629     0.1388     0.0960
   50.5000   -36.8289     5.3478     4.7190     7.6848    78.7882     2.4449     0.1421     0.0848
   51.0000   -36.8877     5.0720     3.8988     7.5567    78.6545     2.4501     0.1361     0.0707
   51.5000   -36.9433     4.6191     3.4660     7.4280    76.0245     2.4476     0.1537     0.0541
   52.0000   -36.8518     4.2066     3.0814     7.3103    72.7067     2.4127     0.1752     0.0434
   52.5000   -36.3076     3.8309     2.7392     7.2851    73.2835     2.3821     0.1864     0.0360
   53.0000   -35.7829     3.4887     2.4350     7.2921    76.4789     2.3597     0.1972     0.0287
   53.5000   -35.2570     3.1772     2.1650     7.3671    75.8832     2.3349     0.2084     0.0213
   54.0000   -34.7744     2.8928     2.0371     7.4773    72.5076     2.2964     0.2360     0.0139
   54.5000   -34.7385     2.7581     2.0185     7.5889    70.3733     2.2576     0.2649     0.0067
   55.0000   -34.7137     2.7590     2.1725     7.7426    71.1533     2.2188     0.2922     0.0022
   55.5000   -34.6872     2.7578     2.4051     7.9504    75.1797     2.1800     0.3103     0.0156
   56.0000   -34.6603     2.9132     2.6734     8.1562    80.5133     2.1415     0.3273     0.0325
   56.5000   -34.6330     3.0751     2.9703     8.3223    88.6420     2.1149     0.3449     0.0496
   57.0000   -34.6069     3.2554     3.3426     8.3607    96.6859     2.1201     0.3442     0.0667
   57.5000   -34.5763     3.7528     4.0400     8.3813   101.3878     2.1247     0.3338     0.0880
   58.0000   -34.8771     4.3612     4.8877     8.3671    99.8898     2.1370     0.3194     0.1272
   58.5000   -35.3743     5.0681     5.9111     8.3448    95.4798     2.2243     0.2655     0.1656
   59.0000   -35.8772     5.8897     7.2429     8.3135    91.0995     2.3368     0.1934     0.1857
   59.5000   -36.3784     6.6903     7.4454     8.8513    86.8280     2.4316     0.1472     0.1467
   60.0000   -36.7934     7.1110     7.7242     9.2915    79.7211     2.4304     0.1513     0.1123
   60.5000   -36.8377     7.1766     7.7956     7.7331    72.1011     2.4307     0.1540     0.0867
   61.0000   -36.8895     7.1480     7.2922     7.5902    65.6745     2.4300     0.1494     0.0660
   61.5000   -36.9418     6.8866     6.7547     7.4509    64.5158     2.4186     0.1635     0.0519
   62.0000   -36.9942     6.6348     6.2569     7.3719    63.7262     2.4010     0.1772     0.0499
   62.5000   -37.0475     6.3921     5.7957     7.4327    62.0276     2.3914     0.1687     0.0516
   63.0000   -37.1015     6.1584     5.3685     7.5401    60.8182     2.4104     0.1597     0.0539
   63.5000   -37.1459     5.9331     5.1076     7.6465    61.9469     2.4199     0.1581     0.0561
   64.0000   -36.7093     5.7159     5.0609     7.7531    66.2988     2.4193     0.1597     0.0584
   64.5000   -35.4181     5.5070     5.0609     7.8596    70.1482     2.4059     0.1679     0.0651
   65.0000   -34.1299     5.3972     5.1076     7.9668    70.8583     2.3925     0.1761     0.0815
   65.5000   -32.7850     5.4973     5.2024     8.0721    70.9045     2.3790     0.1842     0.0977
   66.0000   -32.3488     5.6510     5.3478     8.1740    70.7197     2.3656     0.1920     0.1192
   66.5000   -32.4433     5.9168     5.8086     8.1816    70.8119     2.3521     0.2059     0.1437
   67.0000   -32.5292     6.5158     6.6668     8.1722    71.9885     2.3381     0.2124     0.1690
   67.5000   -32.5339     7.3228     7.6463     8.1649    79.9240     2.3547     0.1985     0.1702
   68.0000   -31.5631     8.2376     8.3204     8.2708    89.6887     2.3862     0.1805     0.1348
   68.5000   -30.4463     8.3904     8.3135     8.4111    85.9096     2.4174     0.1481     0.0816
   69.0000   -29.3279     8.5461     8.6250     7.8120    78.3240     2.4342     0.1576     0.0322
   69.5000   -28.5970     8.6250     8.9480     7.7063    70.6357     2.4036     0.1701     0.0278
   70.0000   -28.5655     8.8868     9.1318     7.6842    68.5302     2.4024     0.1696     0.0279
   70.5000   -28.5871     9.0938     9.2655     7.6866    68.0270     2.4054     0.1677     0.0279
   71.0000   -28.6069     9.3059     9.4012     7.7050    67.6122     2.4085     0.1663     0.0279
   71.5000   -28.6253     9.5226     9.5388     7.7317    68.4753     2.4087     0.1651     0.0279
   72.0000   -28.6437     9.7445     9.6784     7.7586    70.5576     2.4087     0.1652     0.0280
