~VERSION INFORMATION
 VERS.                2.0:   CWLS LOG ASCII STANDARD - VERSION 2.0
 WRAP.                 NO:   ONE LINE PER DEPTH STEP
~WELL INFORMATION
#MNEM.UNIT      DATA TYPE    INFORMATION
#----------   ------------   ------------------------------
 STRT.F           20.0000:   START DEPTH
 STOP.F          599.0000:   STOP DEPTH
 STEP.F            0.5000:   STEP LENGTH
 NULL.          -999.2500:   NO VALUE
 COMP. FENIX & SCISSON INC:   COMPANY
 WELL.    47 SX 34 #47-34:   WELL
 FLD .             TEAPOT:   FIELD
 LOC .      S34 T39N R78W:   LOCATION
 CNTY.            NATRONA:   COUNTY
 STAT.            WYOMING:   STATE
 CTRY. UNITED STATES OF AMERICA:   COUNTRY
 SRVC.       Schlumberger:   SERVICE COMPANY
 DATE.        24-JAN-1979:   LOGDATE
 API .       490251077000:   API NUMBER
~CURVE INFORMATION
#MNEM.UNIT       API CODE    CURVE DESCRIPTION
#----------   ------------   ------------------------------
 DEPT.F                  :   
 SN  .OHMM   05 040 16 00:   SHORT NORMAL 16"
 ILD .OHMM   05 120 46 00:   INDUCTION LOG DEEP
 SPR .MV     05 010 01 00:   SPONTANEOUS POTENTIAL FROM RES.
 CALD.IN     45 280 60 00:   CALIPER
 GRD .GAPI   45 310 01 00:   GAMMA RAY FROM DENSITY LOG
 DPHI.DEC    45 890 12 00:   DENSITY POROSITY SANDSTONE
 CORR.G/C3   45 356 01 00:   DENSITY CORRECTION
 RHOB.G/C3   45 350 01 00:   BULK DENSITY
~PARAMETER INFORMATION
#MNEM.UNIT          VALUE    DESCRIPTION
#----------   ------------   ------------------------------
 PD  .                 GL:   PERMANENT DATUM
 EPD .F              5132:   ELEVATION PERMANENT DATUM
 LMF .                 KB:   LOG MEASURED FROM
 DAPD.F                 4:   FEET ABOVE PERMANENT DATUM
 DMF .                 KB:   DRILLING MEASURED FROM
 EKB .F              5136:   KELLING BUSHING
 EGL .F              5132:   GROUND LEVEL
 DATE.            1-24-79:   RUN DATE
 RUN .                  1:   RUN NUMBER
 DD  .F               600:   DEPTH DRILLER
 DL  .F               600:   DEPTH LOGGER
 BLI .F               594:   BOTTOM LOG INTERVAL
 TLI .F                28:   TOP LOG INTERVAL
 CS  .IN            8.625:   CASING SIZE
 CBD .F                40:   CASING BOTTOM DRILLER
 BS  .IN            7.875:   BIT SIZE
 BSD .F               600:   BIT SIZE AT DEPTH
 DFT .                KCL:   DRILLING FLUID TYPE
 DFD .                8.8:   DRILLING FLUID DENSITY
 DFV .                 60:   DRILLING FLUID VISCOSITY
 DFPH.                9.5:   DRILLING FLUID PH
 DFL .               10.8:   DRILLING FLUID LOSS
 MSS .           FLOWLINE:   MUD SAMPLE SOURCE
 RMS .OHMM            .22:   RESISTIVITY MUD SAMPLE
 MST .F                60:   MUD SAMPLE TEMPERATURE
 RMF .OHMM             .2:   RESISTIVITY MUD FILTRATE SAMPLE
 MFST.F                61:   MUD FILTRATE SAMPLE TEMPERATURE
 RMC .OHMM             .3:   RESISTIVITY MUD CAKE
 MCST.F                61:   MUD CAKE SAMPLE TEMPERATURE
 MFSS.           MEASURED:   MUD FILTRATE SAMPLE SOURCE
 MCSS.           MEASURED:   MUD CAKE SAMPLE SOURCE
 RMB .OHMM            .23:   RESISTIVITY MUD AT BHT
 BHT .F                58:   BOTTOM HOLE TEMPERATURE
 TCS .HRS               4:   TIME CURCULATED STOPPED
 MRT .F                58:   MAXIMUM RECORDED TEMPERATURE
 LUN .               3029:   LOGGING UNIT NUMBER
 LUL .             CASPER:   LOGGING UNIT LOCATION
 ENGI.         B. ROLLINS:   RECORDING ENGINEER
 WITN.         RICHARDSON:   WITNESSED BY
 CLNT.            A2DTECH:   CLIENT CODE
 ORIG.           5" PRINT:   ORIGIN OF DATA
 UWI .       490251077000:   UNIQUE WELL ID
 DICO. A2D Technologies, Inc.:   DIGITIZING COMPANY
~OTHER INFORMATION
~A   DEPT       SN        ILD        SPR         CALD       GRD        DPHI       CORR       RHOB 
# ...
  303.5000     6.6497     8.0585   -25.3857     8.1886   104.9478     0.1268     0.0113     2.4635
  304.0000     6.6424     8.0448   -25.5105     8.2491   103.5947     0.1256     0.0160     2.4701
  304.5000     6.6352     8.0311   -25.6353     8.2410   102.2371     0.1194     0.0216     2.4811
  305.0000     6.6299     8.0175   -25.7585     8.2022   100.8119     0.1214     0.0195     2.4781
  305.5000     6.5320     8.0039   -25.8722     8.2252   101.9753     0.1237     0.0167     2.4705
  306.0000     6.4427     7.9906   -26.3371     8.2562   102.5079     0.1245     0.0139     2.4668
  306.5000     6.3545     7.9717   -26.8357     8.2522   101.0904     0.1277     0.0111     2.4612
  307.0000     6.2676     7.9745   -27.3359     8.2163    99.7885     0.1365     0.0084     2.4527
  307.5000     6.1819     7.6756   -27.8350     8.1803    98.8567     0.1359     0.0060     2.4563
  308.0000     6.0973     7.4541   -28.3340     8.1632    97.9448     0.1304     0.0019     2.4611
  308.5000     6.0139     7.2253   -28.8330     8.1971    98.2070     0.1321     0.0020     2.4612
  309.0000     5.9369     7.0037   -29.3333     8.2424   101.1096     0.1339     0.0036     2.4535
  309.5000     5.7795     6.7887   -29.8296     8.2879   104.0695     0.1357     0.0086     2.4547
  310.0000     5.6353     6.5807   -30.2768     8.3328   104.2450     0.1393     0.0099     2.4502
  310.5000     5.4948     6.3904   -30.3448     8.3561   102.5185     0.1441     0.0109     2.4296
  311.0000     5.3654     6.3665   -30.0127     8.3322   102.0823     0.1357     0.0173     2.4389
  311.5000     5.3162     6.3441   -29.6825     8.3084   104.0856     0.1357     0.0237     2.4559
  312.0000     5.4097     6.3281   -29.3493     8.3218   102.1037     0.1285     0.0191     2.4624
  312.5000     5.5212     6.4143   -29.0169     8.3560   100.1014     0.1311     0.0099     2.4551
  313.0000     5.6350     6.5306   -28.6844     8.3612   100.0758     0.1309     0.0081     2.4570
  313.5000     5.7512     6.6478   -28.3458     8.3475   101.4217     0.1293     0.0107     2.4614
  314.0000     5.8698     6.7710   -27.9427     8.3336   106.4929     0.1294     0.0120     2.4594
  314.5000     5.9435     6.8965   -27.9905     8.3198   113.1234     0.1309     0.0104     2.4571
  315.0000     5.9711     7.0243   -28.1372     8.3060   111.9056     0.1299     0.0104     2.4596
  315.5000     5.9984     7.1545   -28.2836     8.2924   110.8348     0.1249     0.0129     2.4684
  316.0000     6.0259     7.2023   -28.4289     8.2869   109.7834     0.1202     0.0155     2.4758
  316.5000     6.0538     7.1982   -28.5740     8.2974   108.3820     0.1250     0.0140     2.4728
  317.0000     6.0814     7.1803   -28.7192     8.3077   103.7555     0.1305     0.0104     2.4542
  317.5000     6.1027     7.1625   -28.8644     8.3179    99.0239     0.1347     0.0069     2.4534
  318.0000     6.0257     7.1448   -29.0095     8.3282    98.3568     0.1348     0.0040     2.4565
  318.5000     5.9635     7.1270   -29.1554     8.3385   100.7239     0.1344     0.0072     2.4495
  319.0000     5.9020     7.1092   -29.3017     8.3487   100.6628     0.1372     0.0101     2.4494
  319.5000     5.8411     7.0917   -29.4294     8.3591   102.3593     0.1401     0.0079     2.4513
  320.0000     5.7809     7.0755   -29.4907     8.3473   104.4882     0.1397     0.0051     2.4440
  320.5000     5.7223     6.9548   -28.9415     8.3204   106.6337     0.1357     0.0080     2.4459
  321.0000     5.5777     6.8155   -28.4144     8.3032   108.7638     0.1310     0.0148     2.4611
  321.5000     5.3511     6.4090   -28.3411     8.3034   110.5363     0.1309     0.0113     2.4583
  322.0000     5.1338     6.0326   -29.2511     8.3034   108.8313     0.1519     0.0053     2.4292
  322.5000     4.9252     5.6783   -30.1914     8.3033   104.9455     0.1640     0.0038     2.3988
  323.0000     4.7249     5.3449   -31.1380     8.3034   101.0665     0.1725     0.0139     2.3872
  323.5000     4.5324     5.1330   -31.3296     8.3078    97.0487     0.1694     0.0243     2.3900
  324.0000     4.4216     5.0772   -30.4250     8.3333    97.2766     0.1585     0.0170     2.4095
  324.5000     4.4624     5.1481   -29.5292     8.3588   103.6484     0.1476     0.0063     2.4296
  325.0000     4.7306     5.3285   -28.6386     8.3610   104.0797     0.1366     0.0074     2.4495
  325.5000     4.9711     5.4650   -28.1116     8.3483   103.9169     0.1324     0.0093     2.4631
  326.0000     5.2242     5.7752   -28.7128     8.3356   108.6005     0.1298     0.0078     2.4639
  326.5000     5.4894     6.1149   -29.3269     8.3231   105.2408     0.1361     0.0042     2.4480
  327.0000     5.7710     6.4947   -29.9244     8.3484   103.4071     0.1364     0.0007     2.4455
  327.5000     5.8575     7.0724   -29.1979     8.3786   106.6366     0.1336    -0.0018     2.4503
  328.0000     5.9065     7.1388   -28.0342     8.3843   110.6704     0.1287     0.0081     2.4622
  328.5000     5.9561     7.1355   -27.4175     8.2865   107.7564     0.1231     0.0110     2.4753
  329.0000     6.0060     7.1364   -27.7630     8.2894   103.8771     0.1210     0.0089     2.4771
  329.5000     6.0564     7.1364   -28.0941     8.3060   100.2083     0.1217     0.0068     2.4745
  330.0000     6.1071     7.1364   -28.4351     8.3221   104.1991     0.1227     0.0067     2.4720
  330.5000     6.1582     7.2605   -28.4998     8.3381   109.0003     0.1236     0.0079     2.4694
  331.0000     6.2093     7.3906   -28.5008     8.3540   108.6420     0.1245     0.0043     2.4689
  331.5000     6.2645     7.5096   -28.5002     8.3634   106.9914     0.1162     0.0067     2.4804
  332.0000     6.3590     7.6112   -28.5001     8.3633   105.3525     0.0925     0.0181     2.5149
  332.5000     6.4324     7.7138   -28.4992     8.3633   103.4604     0.0694     0.0235     2.5491
  333.0000     6.5066     7.8178   -28.4448     8.3633   100.4218     0.0659     0.0108     2.5624
  333.5000     6.5818     7.9232   -28.2898     8.3633    98.6278     0.0784     0.0089     2.5622
  334.0000     6.6578     7.9695   -28.1363     8.3633   102.0772     0.0905     0.0231     2.5487
  334.5000     6.7346     7.9695   -27.9820     8.3633   106.9391     0.1026     0.0251     2.5192
  335.0000     6.8124     7.9695   -27.8288     8.3632   110.7709     0.1056     0.0214     2.4968
  335.5000     6.8785     7.9695   -27.7229     8.3633   110.4161     0.1046     0.0201     2.4971
  336.0000     6.8785     7.9695   -27.9053     8.3670   105.4407     0.1051     0.0201     2.5046
  336.5000     6.8252     7.9690   -28.0846     8.3852   101.9424     0.1071     0.0137     2.5116
  337.0000     6.7554     7.9284   -28.2629     8.4030    98.8258     0.1095     0.0074     2.5024
  337.5000     6.6862     7.8857   -28.4411     8.4214    96.9124     0.1124     0.0059     2.4916
  338.0000     6.6177     7.8433   -28.6193     8.3914    95.3811     0.1128     0.0096     2.4824
  338.5000     6.5500     7.8242   -28.7975     8.3652    98.5764     0.1062     0.0120     2.4933
  339.0000     6.4829     7.7397   -28.9757     8.3771   102.2001     0.1033     0.0116     2.5094
  339.5000     6.4165     7.6513   -29.1539     8.3883   105.8204     0.1014     0.0113     2.5217
  340.0000     6.3509     7.5640   -29.3320     8.3995   108.5467     0.1047     0.0110     2.5172
  340.5000     6.2858     7.4777   -29.5101     8.4031   107.5405     0.1118     0.0107     2.4974
  341.0000     6.2215     7.3923   -29.6964     8.4049   104.1222     0.1154     0.0103     2.4792
  341.5000     6.1578     7.2768   -30.0112     8.4068   100.7760     0.1173     0.0100     2.4813
  342.0000     6.0790     7.1002   -30.3438     8.4088    99.9258     0.1191     0.0116     2.4841
  342.5000     5.9002     6.9285   -30.6766     8.4108   103.9439     0.1211     0.0135     2.4752
  343.0000     5.7268     6.7609   -31.0093     8.4127   106.6968     0.1232     0.0154     2.4682
  343.5000     5.5584     6.5973   -31.3420     8.4147   109.4656     0.1253     0.0174     2.4677
