~VERSION INFORMATION
 VERS.                2.0:   CWLS LOG ASCII STANDARD - VERSION 2.0
 WRAP.                 NO:   ONE LINE PER DEPTH STEP
~WELL INFORMATION
#MNEM.UNIT      DATA TYPE    INFORMATION
#----------   ------------   ------------------------------
 STRT.F            2.0000:   START DEPTH
 STOP.F          560.0000:   STOP DEPTH
 STEP.F            0.1000:   STEP LENGTH
 NULL.          -999.2500:   NO VALUE
 COMP.       F D SERV INC:   COMPANY
 WELL. NAVAL PETROLEUM RESERVE 3 SX-3 #88-3:   WELL
 FLD .             NPR #3:   FIELD
 LOC .       S3 T38N R78W:   LOCATION
 CNTY.            NATRONA:   COUNTY
 STAT.            WYOMING:   STATE
 CTRY. UNITED STATES OF AMERICA:   COUNTRY
 SRVC.      Western Atlas:   SERVICE COMPANY
 DATE.        30-OCT-1992:   LOGDATE
 API .       490252254900:   API NUMBER
~CURVE INFORMATION
#MNEM.UNIT       API CODE    CURVE DESCRIPTION
#----------   ------------   ------------------------------
 DEPT.F                  :   
 GRR .GAPI   07 310 01 00:   GAMMA RAY
 RILD.OHMM   07 120 46 00:   INDUCTION LOG DEEP RESISTIVITY
 RILM.OHMM   07 120 44 00:   INDUCTION LOG MEDIUM RESISTIVITY
~PARAMETER INFORMATION
#MNEM.UNIT          VALUE    DESCRIPTION
#----------   ------------   ------------------------------
 PD  .                 GL:   PERMANENT DATUM
 EPD .F              5131:   ELEVATION PERMANENT DATUM
 LMF .                 KB:   LOG MEASURED FROM
 DAPD.F                10:   FEET ABOVE PERMANENT DATUM
 DMF .                 KB:   DRILLING MEASURED FROM
 EKB .F              5141:   KELLING BUSHING
 EDF .F              5140:   DRILLING FLOOR
 EGL .F              5131:   GROUND LEVEL
 DATE.        30-OCT-1992:   RUN DATE
 RUN .                  1:   RUN NUMBER
 DD  .F               568:   DEPTH DRILLER
 DL  .F               568:   DEPTH LOGGER
 BLI .F               560:   BOTTOM LOG INTERVAL
 CS  .IN            8.625:   CASING SIZE
 CBD .F                73:   CASING BOTTOM DRILLER
 CBL .F                73:   CASING BOTTOM LOGGER
 BS  .IN            7.875:   BIT SIZE
 BSD .F               568:   BIT SIZE AT DEPTH
 DFT .           AIR FOAM:   DRILLING FLUID TYPE
 BHT .F                63:   BOTTOM HOLE TEMPERATURE
 TCS .HRS               2:   TIME CURCULATED STOPPED
 MRT .F                63:   MAXIMUM RECORDED TEMPERATURE
 LUN .            HL-6274:   LOGGING UNIT NUMBER
 LUL .             CASPER:   LOGGING UNIT LOCATION
 ENGI.             RAUTIO:   RECORDING ENGINEER
 WITN.          BOB SYLAR:   WITNESSED BY
 CLNT.            A2DTECH:   CLIENT CODE
 ORIG.           5" PRINT:   ORIGIN OF DATA
 UWI .       490252254900:   UNIQUE WELL ID
 DICO. A2D Technologies, Inc.:   DIGITIZING COMPANY
~OTHER INFORMATION
~A    DEPT      GRR      RILD       RILM   
# ...
   74.8000   133.5226     1.8804    12.9785
   74.9000   134.0295     1.8695    12.7119
   75.0000   134.5363     1.8588    12.7553
   75.1000   135.0432     1.8503    12.8592
   75.2000   135.6417     1.8504    13.2658
   75.3000   135.8498     1.8505    14.6124
   75.4000   135.9447     1.8594    15.5324
   75.5000   135.9459     1.8773    15.9904
   75.6000   135.9471     1.9721    16.6199
   75.7000   135.9328     2.1776    17.4016
   75.8000   135.6489     2.4393    18.3321
   75.9000   135.4296     2.7082    19.3103
   76.0000   135.1779     2.9103    20.4788
   76.1000   134.9263     3.0938    21.2225
   76.2000   134.6747     3.3811    21.8380
   76.3000   134.4231     3.8953    22.2216
   76.4000   134.1523     4.5883    23.0157
   76.5000   134.1534     4.9458    25.0441
   76.6000   133.9689     5.3644    27.0005
   76.7000   133.9928     6.4995    28.0291
   76.8000   134.1570     7.6440    29.4447
   76.9000   134.1582     8.6724    31.4267
   77.0000   134.1594     9.7909    33.6014
   77.1000   134.1606    10.5177    35.3961
   77.2000   134.1618    11.3234    37.3660
   77.3000   134.1630    12.1033    40.1939
   77.4000   134.0611    12.5913    41.0615
   77.5000   133.8095    12.2184    38.8304
   77.6000   133.5579    11.0403    35.2552
   77.7000   133.2657    10.6537    32.0397
   77.8000   133.0546     9.6825    27.1661
   77.9000   132.8030     9.2774    24.1531
   78.0000   132.6677     8.9335    20.9812
   78.1000   132.7373     8.6999    18.4272
   78.2000   132.9708     8.5001    16.9459
   78.3000   132.9722     8.3107    15.8616
   78.4000   133.1986     8.2029    15.0494
   78.5000   133.4526     8.2032    14.1718
   78.6000   133.7067     8.1711    13.4927
   78.7000   133.9607     8.1241    12.8275
   78.8000   134.2147     8.0773    12.4423
   78.9000   134.4831     8.0308    12.3575
   79.0000   134.7228     7.9809    12.4288
   79.1000   134.7862     7.9387    12.5080
   79.2000   134.7874     7.8930    12.6384
   79.3000   134.7886     7.8231    12.8914
   79.4000   134.7428     7.7486    13.1539
   79.5000   134.4902     7.7040    13.3338
   79.6000   134.1909     7.6582    13.4006
   79.7000   133.5802     7.6156    13.3073
   79.8000   132.9789     7.5718    13.0912
   79.9000   132.4744     7.5027    12.8392
   80.0000   131.9699     7.4163    12.5799
   80.1000   131.4777     7.3395    12.3112
   80.2000   131.1906     7.2973    12.0274
   80.3000   131.1916     7.2480    11.7450
   80.4000   131.5312     7.2831    11.4153
   80.5000   131.9168     7.3259    11.1897
   80.6000   132.3176     7.4074    10.9207
   80.7000   133.1027     7.5493    10.6320
   80.8000   134.2052     7.7297    10.3870
   80.9000   134.8975     7.9872    10.1474
   81.0000   135.6571     8.1519     9.8753
   81.1000   136.2823     8.3778     9.5940
   81.2000   136.7892     8.6505     9.2992
   81.3000   137.3347     8.9253     9.0556
   81.4000   138.1221     9.1413     8.8600
   81.5000   138.3669     9.4326     8.7096
   81.6000   138.4253     9.6377     8.5961
   81.7000   138.2787     9.8229     8.5521
   81.8000   138.1269     9.9961     8.4685
   81.9000   138.0762    10.1933     8.3941
   82.0000   137.8205    10.4039     8.3450
   82.1000   137.2285    10.4669     8.2962
   82.2000   136.8116    10.4086     8.2438
   82.3000   136.1461    10.3487     8.1995
   82.4000   135.6150    10.2891     8.1861
   82.5000   135.2982    10.2065     8.1856
   82.6000   134.8110    10.0770     8.1688
   82.7000   134.5289     9.9038     8.1283
   82.8000   134.3078     9.7700     8.1278
   82.9000   134.2304     9.6311     8.1274
   83.0000   134.2316     9.4306     8.1269
   83.1000   134.2328     9.1677     8.1265
   83.2000   134.2340     8.8408     8.1260
   83.3000   134.2353     8.5027     8.1256
   83.4000   134.7072     8.3924     8.1251
   83.5000   135.0266     8.2662     8.1246
   83.6000   135.2806     8.1881     8.1242
   83.7000   135.5347     8.1178     8.1238
   83.8000   135.7887     8.0383     8.1031
   83.9000   136.0469     7.9920     8.0557
   84.0000   136.0481     7.9424     8.0108
   84.1000   136.4507     7.9003     8.0103
   84.2000   136.8048     7.8882     7.9702
   84.3000   136.9540     7.8639     7.9542
   84.4000   137.0121     7.8186     7.9320
   84.5000   137.2662     7.7736     7.8985
   84.6000   137.5593     7.7274     7.8939
   84.7000   137.7742     7.6844     7.8431
   84.8000   138.0283     7.6748     7.8427
   84.9000   138.1642     7.6490     7.8102
   85.0000   138.2356     7.6225     7.7645
   85.1000   138.4674     7.6228     7.7336
   85.2000   138.4687     7.6224     7.7272
   85.3000   138.4698     7.5709     7.6794
   85.4000   138.4710     7.5712     7.6790
   85.5000   138.4722     7.5715     7.6452
   85.6000   138.4734     7.5718     7.6006
   85.7000   138.4391     7.5610     7.5401
   85.8000   138.1751     7.5202     7.4601
   85.9000   137.9358     7.5206     7.4158
   86.0000   137.4917     7.5208     7.3732
   86.1000   137.2764     7.5212     7.2965
   86.2000   137.2776     7.5000     7.2623
   86.3000   137.3762     7.4569     7.2275
   86.4000   137.8823     7.4139     7.1617
   86.5000   138.1837     7.3679     7.1601
   86.6000   138.8018     7.3289     7.1114
   86.7000   139.7193     7.3177     7.0767
   86.8000   140.6219     7.2724     7.0617
   86.9000   141.6295     7.1886     7.0243
   87.0000   143.3584     7.1122     6.9638
   87.1000   144.5066     7.0700     6.9634
   87.2000   145.3835     6.9912     6.9630
   87.3000   145.7119     6.9420     6.9272
   87.4000   145.7131     6.9256     6.9143
   87.5000   145.7143     6.9099     6.8940
   87.6000   145.7155     6.8784     6.8658
   87.7000   145.7168     6.8780     6.8565
   87.8000   145.9501     6.8316     6.7707
   87.9000   146.0199     6.8318     6.7703
   88.0000   146.1574     6.8321     6.7413
   88.1000   146.4114     6.8324     6.7019
   88.2000   146.6250     6.8226     6.6762
   88.3000   146.6262     6.7858     6.6698
   88.4000   146.8728     6.7861     6.6294
   88.5000   147.3243     6.7864     6.6290
   88.6000   147.6816     6.7867     6.5990
   88.7000   147.9356     6.7869     6.5826
   88.8000   148.0822     6.7872     6.5822
   88.9000   147.8248     6.7875     6.5743
   89.0000   147.2363     6.7878     6.5361
   89.1000   146.8159     6.7881     6.5357
   89.2000   145.9858     6.7884     6.5354
   89.3000   145.0905     6.7886     6.5350
   89.4000   144.2663     6.7889     6.5347
   89.5000   143.2370     6.7892     6.5343
   89.6000   141.8299     6.7895     6.5339
   89.7000   141.3831     6.7898     6.5335
   89.8000   141.2307     6.7900     6.5332
   89.9000   141.3600     6.7903     6.5329
   90.0000   141.5338     6.8063     6.5506
   90.1000   141.5673     6.8463     6.5775
   90.2000   141.8371     6.8865     6.5843
   90.3000   141.8382     6.9340     6.6684
   90.4000   142.0287     6.9676     6.7031
   90.5000   142.1413     7.0345     6.7418
   90.6000   141.9557     7.0986     6.8013
   90.7000   141.4512     7.1361     6.8936
   90.8000   140.9420     7.1613     7.0086
   90.9000   140.0411     7.1911     7.0946
   91.0000   138.8271     7.2367     7.1333
   91.1000   137.3113     7.3311     7.1744
   91.2000   136.0089     7.3313     7.2158
   91.3000   134.9400     7.3615     7.2574
   91.4000   133.6769     7.4047     7.2993
   91.5000   132.2287     7.4482     7.3419
   91.6000   130.7196     7.4864     7.3415
   91.7000   129.1188     7.4867     7.3752
   91.8000   127.4832     7.5279     7.4177
   91.9000   125.9305     7.5721     7.4605
   92.0000   124.9925     7.6166     7.5035
   92.1000   124.7171     7.6450     7.5468
   92.2000   124.7182     7.6531     7.5974
   92.3000   124.5383     7.6987     7.6342
   92.4000   124.2867     7.6990     7.6493
   92.5000   124.1203     7.7350     7.6693
   92.6000   124.0842     7.7531     7.7016
   92.7000   123.8220     7.7721     7.7012
   92.8000   123.8232     7.8076     7.7007
   92.9000   123.8244     7.8080     7.7399
