~VERSION INFORMATION
 VERS.                2.0:   CWLS LOG ASCII STANDARD - VERSION 2.0
 WRAP.                 NO:   ONE LINE PER DEPTH STEP
~WELL INFORMATION
#MNEM.UNIT      DATA TYPE    INFORMATION
#----------   ------------   ------------------------------
 STRT.F           93.0000:   START DEPTH
 STOP.F         1921.0000:   STOP DEPTH
 STEP.F            0.5000:   STEP LENGTH
 NULL.          -999.2500:   NO VALUE
 COMP. LAWRENCE-ALLISON &AS:   COMPANY
 WELL.  NPR 3 #15-1SHX2/T:   WELL
 FLD .             NPR #3:   :   FIELD
 LOC .       S2 T38N R78W:   LOCATION
 CNTY.            NATRONA:   COUNTY
 STAT.            WYOMING:   STATE
 CTRY. UNITED STATES OF AMERICA:   COUNTRY
 SRVC.       Schlumberger:   SERVICE COMPANY
 DATE.        10-JUN-1982:   LOGDATE
 API .       490251077600:   API NUMBER
~CURVE INFORMATION
#MNEM.UNIT       API CODE    CURVE DESCRIPTION
#----------   ------------   ------------------------------
 DEPT.F                  :   
 GR  .GAPI   70 310 01 00:   GAMMA RAY
 CALI.IN     70 280 01 00:   CALIPER
~PARAMETER INFORMATION
#MNEM.UNIT          VALUE    DESCRIPTION
#----------   ------------   ------------------------------
 PD  .                 GL:   PERMANENT DATUM
 EPD .F              5116:   ELEVATION PERMANENT DATUM
 LMF .                 KB:   LOG MEASURED FROM
 DAPD.F                10:   FEET ABOVE PERMANENT DATUM
 DMF .                 KB:   DRILLING MEASURED FROM
 EKB .F              5126:   KELLING BUSHING
 EGL .F              5116:   GROUND LEVEL
 DATE.        10-JUN-1982:   RUN DATE
 RUN .                  1:   RUN NUMBER
 DD  .F              2100:   DEPTH DRILLER
 DL  .F              1924:   DEPTH LOGGER
 BLI .F              1921:   BOTTOM LOG INTERVAL
 TLI .F               100:   TOP LOG INTERVAL
 CS  .IN            10.75:   CASING SIZE
 BS  .IN             8.75:   BIT SIZE
 BSD .F              2100:   BIT SIZE AT DEPTH
 DFT .                AIR:   DRILLING FLUID TYPE
 ENGI.        C. MARRINER:   RECORDING ENGINEER
 WITN.             SCOTTY:   WITNESSED BY
 CLNT.            A2DTECH:   CLIENT CODE
 ORIG.           5" PRINT:   ORIGIN OF DATA
 UWI .       490251077600:   UNIQUE WELL ID
 DICO. A2D Technologies, Inc.:   DIGITIZING COMPANY
~OTHER INFORMATION
~A   DEPT       GR       CALI   
# ...
  579.0000    61.8579    10.2970
  579.5000    65.4602    10.2977
  580.0000    69.2857    10.2985
  580.5000    77.8771    10.2842
  581.0000    85.4189    10.2851
  581.5000    83.7878    10.2859
  582.0000    76.7830    10.2866
  582.5000    72.7882    10.2873
  583.0000    75.0590    10.2881
  583.5000    76.8755    10.2888
  584.0000    78.4612    10.2895
  584.5000    76.2599    10.2903
  585.0000    76.2985    10.2910
  585.5000    78.3383    10.2917
  586.0000    79.4852    10.2899
  586.5000    78.8465    10.2784
  587.0000    76.1987    10.2793
  587.5000    76.4528    10.2800
  588.0000    77.5998    10.2808
  588.5000    79.4163    10.2815
  589.0000    81.2329    10.2822
  589.5000    82.8263    10.2829
  590.0000    85.9821    10.2837
  590.5000    85.3103    10.2844
  591.0000    82.4063    10.2851
  591.5000    80.1385    10.2859
  592.0000    77.1847    10.2866
  592.5000    76.9847    10.2873
  593.0000    79.4786    10.2880
  593.5000    80.3946    10.2888
  594.0000    79.5403    10.2896
  594.5000    80.0176    10.2903
  595.0000    81.6110    10.2910
  595.5000    83.8740    10.2917
  596.0000    83.2352    10.3074
  596.5000    79.4951    10.3081
  597.0000    75.0572    10.3088
  597.5000    71.3747    10.2935
  598.0000    71.1688    10.2936
  598.5000    71.8549    10.2938
  599.0000    73.4185    10.2940
  599.5000    76.9674    10.2942
  600.0000    82.2810    10.2944
  600.5000    84.5064    10.2946
  601.0000    83.8642    10.2948
  601.5000    80.7954    10.2950
  602.0000    79.2706    10.2952
  602.5000    79.2904    10.2954
  603.0000    78.1369    10.2956
  603.5000    76.2022    10.2958
  604.0000    75.5988    10.2954
  604.5000    79.8143    10.2939
  605.0000    84.4662    10.2924
  605.5000    90.0004    10.2908
  606.0000    96.1963    10.2893
  606.5000    99.7452    10.2878
  607.0000   100.8677    10.2863
  607.5000    98.6813    10.2847
  608.0000    92.7705    10.2832
  608.5000    88.3526    10.2817
  609.0000    84.4015    10.2801
  609.5000    79.7226    10.2658
  610.0000    75.0883    10.2533
  610.5000    73.4306    10.2549
  611.0000    79.6315    10.2562
  611.5000    87.3715    10.3606
  612.0000    97.3175    11.0394
  612.5000   109.0282    11.8949
  613.0000   122.0624    13.0155
  613.5000   129.3613    13.3702
  614.0000   132.6896    13.2832
  614.5000   134.0278    12.9163
  615.0000   130.0815    12.3727
  615.5000   128.5569    11.6376
  616.0000   128.1294    11.2845
  616.5000   123.1877    11.0486
  617.0000   120.4536    10.9323
  617.5000   123.1251    10.8625
  618.0000   124.9093    10.8638
  618.5000   125.5856    10.8651
  619.0000   119.4335    10.8665
  619.5000   113.7178    10.8678
  620.0000   111.7519    10.8691
  620.5000   112.8744    10.8704
  621.0000   116.2027    10.8566
  621.5000   118.4281    10.8582
  622.0000   120.2123    10.8595
  622.5000   120.6730    10.8608
  623.0000   120.4632    10.8769
  623.5000   120.2708    10.8782
  624.0000   122.5010    10.8798
  624.5000   125.6088    10.8958
  625.0000   126.9469    10.8971
  625.5000   125.2066    10.8984
  626.0000   123.6819    10.8997
  626.5000   123.0348    10.9010
  627.0000   123.2798    10.9023
  627.5000   123.0787    10.9036
  628.0000   121.5540    10.9049
  628.5000   119.8088    10.9062
  629.0000   120.9313    10.9370
  629.5000   123.1566    10.9530
  630.0000   125.6473    10.9543
  630.5000   127.6074    10.9704
  631.0000   123.6612    11.0014
  631.5000   121.9111    11.0175
  632.0000   123.7002    11.0335
  632.5000   126.1461    11.0688
  633.0000   127.2686    11.0803
  633.5000   123.9792    11.1110
  634.0000   122.6752    11.1418
  634.5000   122.2487    11.1431
  635.0000   122.9348    11.1591
  635.5000   123.3955    11.1752
  636.0000   124.0767    11.1912
  636.5000   128.3182    11.1925
  637.0000   133.9452    11.2085
  637.5000   137.1507    11.2099
  638.0000   132.1008    11.2114
  638.5000   130.5713    11.2127
  639.0000   131.9192    11.2140
  639.5000   133.4828    11.2153
  640.0000   134.1592    11.2310
  640.5000   133.2963    11.2176
  641.0000   136.8501    11.2192
  641.5000   139.7372    11.2206
  642.0000   139.3156    11.2219
  642.5000   135.1439    11.1790
  643.0000   132.5163    11.1508
  643.5000   134.3214    11.1227
  644.0000   136.6323    11.1387
  644.5000   138.5356    11.1550
  645.0000   140.0992    11.1269
  645.5000   141.4422    11.0693
  646.0000   141.2362    10.9380
  646.5000   141.9224    10.7184
  647.0000   142.8242    10.5283
  647.5000   143.5006    10.4851
  648.0000   137.7897    10.4867
  648.5000   135.8239    10.4880
  649.0000   134.5198    10.4745
  649.5000   134.0978    10.4759
  650.0000   133.4559    10.4183
  650.5000   129.4699    10.3133
  651.0000   125.9690     9.9787
  651.5000   126.5163     9.5972
  652.0000   127.7947     9.1995
  652.5000   128.0327     9.3182
  653.0000   129.3736     9.6136
  653.5000   130.9352     9.7912
  654.0000   132.2761     9.8805
  654.5000   130.7495     9.9402
  655.0000   127.2375     9.9558
  655.5000   124.6078     9.9273
  656.0000   122.1988     9.8838
  656.5000   123.0986     9.8396
  657.0000   127.3072     9.7826
  657.5000   131.7364     9.7246
  658.0000   136.1656     9.6960
  658.5000   132.2124     9.7265
  659.0000   123.8475     9.7863
  659.5000   120.3355     9.8314
  660.0000   123.0000     9.8469
  660.5000   129.5028     9.8478
  661.0000   133.8882     9.8337
  661.5000   134.9641     9.8348
  662.0000   132.7800     9.8357
  662.5000   133.9003     9.8955
  663.0000   134.5795     9.9700
  663.5000   131.5087    10.0887
  664.0000   128.4379    10.3252
  664.5000   128.4553    10.4292
  665.0000   127.5904    10.2808
  665.5000   124.0784    10.0909
  666.0000   120.1253    10.0489
  666.5000   124.1133    10.0352
  667.0000   130.5278     9.8594
  667.5000   138.4864     9.6835
  668.0000   134.7538     9.5224
  668.5000   125.9477     9.4054
  669.0000   120.6710     9.2885
  669.5000   118.0414     9.3777
  670.0000   118.0588     9.5111
  670.5000   116.4773     9.5856
  671.0000   111.7849     9.5865
  671.5000   106.8504     9.5874
  672.0000   101.8094     9.5735
  672.5000   100.2827     9.5302
  673.0000    99.1972     9.6342
  673.5000    98.7691    10.2978
  674.0000   101.4379    10.8770
  674.5000   108.2936    10.7890
  675.0000   118.5451    10.3250
  675.5000   127.9622    10.0362
  676.0000   131.2885    10.0223
  676.5000   130.4236     9.9792
  677.0000   129.7749     9.9504
  677.5000   128.9143     9.9957
  678.0000   127.1670    10.0408
  678.5000   124.7580    10.0711
  679.0000   124.1093    10.1161
  679.5000   126.9987    10.1759
  680.0000   129.8838    10.1915
  680.5000   131.6660    10.2071
  681.0000   132.3408    10.2080
  681.5000   129.9361    10.1499
  682.0000   129.7323     9.8857
  682.5000   130.8533     9.7536
  683.0000   130.8707     9.7107
  683.5000   130.6676     9.6950
  684.0000   132.7295     9.6803
  684.5000   136.5669     9.6692
  685.0000   139.6176     9.6703
  685.5000   141.3299     9.7153
  686.0000   142.2253     9.7309
  686.5000   138.0559     9.7760
  687.0000   135.8675     9.7768
  687.5000   133.8996     9.7777
  688.0000   130.8288     9.7786
  688.5000   124.4492     9.7942
  689.0000   118.5107     9.8687
  689.5000   114.3370     9.9579
  690.0000   112.8103    10.0324
  690.5000   120.5483    10.1069
  691.0000   127.1834    10.1373
  691.5000   129.1861    10.1529
  692.0000   127.2182    10.1363
  692.5000   125.6915    10.0177
  693.0000   126.1501     9.8022
  693.5000   129.9284     9.6706
  694.0000   132.8324     9.5389
  694.5000   133.2613     9.4661
  695.0000   129.1618     9.4373
  695.5000   126.0211     9.4531
  696.0000   125.5930     9.5129
  696.5000   132.6736     9.6021
  697.0000   141.7351     9.6914
  697.5000   144.6202     9.7364
  698.0000   145.5156     9.7962
  698.5000   135.6966    10.0475
  699.0000   129.4214    10.4018
  699.5000   126.5633    10.2848
  700.0000   128.1336     9.9912
