~VERSION INFORMATION
 VERS.                2.0:   CWLS LOG ASCII STANDARD - VERSION 2.0
 WRAP.                 NO:   ONE LINE PER DEPTH STEP
~WELL INFORMATION
#MNEM.UNIT      DATA TYPE    INFORMATION
#----------   ------------   ------------------------------
 STRT.F            4.0000:   START DEPTH
 STOP.F          584.0000:   STOP DEPTH
 STEP.F            0.1000:   STEP LENGTH
 NULL.          -999.2500:   NO VALUE
 COMP.       F D SERV INC:   COMPANY
 WELL. N P R 3 SX-3 #62-3:   WELL
 FLD .             TEAPOT:   FIELD
 LOC .       S3 T38N R78W:   LOCATION
 CNTY.            NATRONA:   COUNTY
 STAT.            WYOMING:   STATE
 CTRY. UNITED STATES OF AMERICA:   COUNTRY
 SRVC.     Atlas Wireline:   SERVICE COMPANY
 DATE.        17-APR-1992:   LOGDATE
 API .       490252251600:   API NUMBER
~CURVE INFORMATION
#MNEM.UNIT       API CODE    CURVE DESCRIPTION
#----------   ------------   ------------------------------
 DEPT.F                  :   
 GRR .GAPI   07 310 01 00:   GAMMA RAY
 RILD.OHMM   07 120 46 00:   INDUCTION LOG DEEP RESISTIVITY
 RILM.OHMM   07 120 44 00:   INDUCTION LOG MEDIUM RESISTIVITY
~PARAMETER INFORMATION
#MNEM.UNIT          VALUE    DESCRIPTION
#----------   ------------   ------------------------------
 PD  .                 GL:   PERMANENT DATUM
 EPD .F              5135:   ELEVATION PERMANENT DATUM
 LMF .                 KB:   LOG MEASURED FROM
 DAPD.F                 5:   FEET ABOVE PERMANENT DATUM
 DMF .                 KB:   DRILLING MEASURED FROM
 EKB .F              5140:   KELLING BUSHING
 EDF .F              5139:   DRILLING FLOOR
 EGL .F              5135:   GROUND LEVEL
 DATE.        17-APR-1992:   RUN DATE
 RUN .                  1:   RUN NUMBER
 DD  .F               589:   DEPTH DRILLER
 DL  .F               590:   DEPTH LOGGER
 BLI .F               584:   BOTTOM LOG INTERVAL
 TLI .F                48:   TOP LOG INTERVAL
 CS  .IN            8.625:   CASING SIZE
 CBD .F                48:   CASING BOTTOM DRILLER
 CBL .F                48:   CASING BOTTOM LOGGER
 BS  .IN            7.875:   BIT SIZE
 BSD .F               589:   BIT SIZE AT DEPTH
 DFT .                AIR:   DRILLING FLUID TYPE
 TCS .HRS               2:   TIME CURCULATED STOPPED
 MRT .F                85:   MAXIMUM RECORDED TEMPERATURE
 LUN .            HL-6274:   LOGGING UNIT NUMBER
 LUL .             CASPER:   LOGGING UNIT LOCATION
 ENGI.             RAUTIO:   RECORDING ENGINEER
 WITN.        GARY STRONG:   WITNESSED BY
 CLNT.            A2DTECH:   CLIENT CODE
 ORIG.           5" PRINT:   ORIGIN OF DATA
 UWI .       490252251600:   UNIQUE WELL ID
 DICO. A2D Technologies, Inc.:   DIGITIZING COMPANY
~OTHER INFORMATION
~A    DEPT      GRR      RILD       RILM   
# ...
   40.4000    80.2310  -999.2500  -999.2500
   40.5000    80.2279  -999.2500  -999.2500
   40.6000    80.2249  -999.2500  -999.2500
   40.7000    80.2216  -999.2500  -999.2500
   40.8000    80.2188  -999.2500  -999.2500
   40.9000    80.2158  -999.2500  -999.2500
   41.0000    80.2128  -999.2500  -999.2500
   41.1000    80.2097  -999.2500  -999.2500
   41.2000    80.2067  -999.2500  -999.2500
   41.3000    80.4572  -999.2500  -999.2500
   41.4000    80.9011  -999.2500  -999.2500
   41.5000    81.3953  -999.2500  -999.2500
   41.6000    82.0645  -999.2500  -999.2500
   41.7000    83.0562  -999.2500  -999.2500
   41.8000    84.1395  -999.2500  -999.2500
   41.9000    84.8136  -999.2500  -999.2500
   42.0000    85.7266  -999.2500  -999.2500
   42.1000    86.6031  -999.2500  -999.2500
   42.2000    87.2865  -999.2500  -999.2500
   42.3000    87.7805  -999.2500  -999.2500
   42.4000    88.2749  -999.2500  -999.2500
   42.5000    87.9787  -999.2500  -999.2500
   42.6000    87.4784  -999.2500  -999.2500
   42.7000    86.8910  -999.2500  -999.2500
   42.8000    86.2055  -999.2500  -999.2500
   42.9000    85.9298  -999.2500  -999.2500
   43.0000    85.7021  -999.2500  -999.2500
   43.1000    85.6200  -999.2500  -999.2500
   43.2000    85.6170  -999.2500  -999.2500
   43.3000    85.6140  -999.2500  -999.2500
   43.4000    85.6110  -999.2500  -999.2500
   43.5000    85.8601  -999.2500  -999.2500
   43.6000    85.9088  -999.2500  -999.2500
   43.7000    86.0474  -999.2500  -999.2500
   43.8000    86.2066  -999.2500  -999.2500
   43.9000    86.2347  -999.2500  -999.2500
   44.0000    86.5043  -999.2500  -999.2500
   44.1000    86.7259  -999.2500  -999.2500
   44.2000    87.1404  -999.2500  -999.2500
   44.3000    87.5210  -999.2500  -999.2500
   44.4000    87.7666  -999.2500  -999.2500
   44.5000    88.0151  -999.2500  -999.2500
   44.6000    88.5095  -999.2500  -999.2500
   44.7000    88.6109  -999.2500  -999.2500
   44.8000    88.8899  -999.2500  -999.2500
   44.9000    89.3842  -999.2500  -999.2500
   45.0000    89.8480  -999.2500  -999.2500
   45.1000    90.1182  -999.2500  -999.2500
   45.2000    90.5628  -999.2500  -999.2500
   45.3000    90.8888  -999.2500  -999.2500
   45.4000    91.2474  -999.2500  -999.2500
   45.5000    91.7415  -999.2500  -999.2500
   45.6000    92.2335  -999.2500  -999.2500
   45.7000    92.4790  -999.2500  -999.2500
   45.8000    93.1162  -999.2500  -999.2500
   45.9000    93.5781  -999.2500  -999.2500
   46.0000    93.9938  -999.2500  -999.2500
   46.1000    94.7071  -999.2500  -999.2500
   46.2000    95.2520  -999.2500  -999.2500
   46.3000    95.9186  -999.2500  -999.2500
   46.4000    96.6613  -999.2500  -999.2500
   46.5000    97.5165  -999.2500  -999.2500
   46.6000    98.5083  -999.2500  -999.2500
   46.7000    99.4994  -999.2500  -999.2500
   46.8000   100.4912  -999.2500  -999.2500
   46.9000   101.8727  -999.2500  -999.2500
   47.0000   103.5013  -999.2500  -999.2500
   47.1000   105.2389  -999.2500  -999.2500
   47.2000   107.0630  -999.2500  -999.2500
   47.3000   109.8082  -999.2500  -999.2500
   47.4000   111.8073  -999.2500  -999.2500
   47.5000   114.2094  -999.2500  -999.2500
   47.6000   116.5810  -999.2500  -999.2500
   47.7000   118.7022  -999.2500  -999.2500
   47.8000   120.4366  -999.2500  -999.2500
   47.9000   121.4277  -999.2500  -999.2500
   48.0000   122.2249     0.9647  -999.2500
   48.1000   122.1327     0.9700     4.2910
   48.2000   121.5514     0.9877     3.2744
   48.3000   121.2425     1.0284     2.8169
   48.4000   120.4130     1.0980     2.7523
   48.5000   120.1885     1.1964     2.6442
   48.6000   119.6038     1.3401     2.5740
   48.7000   119.0772     1.4774     2.5315
   48.8000   118.8255     1.7980     2.5176
   48.9000   118.5735     2.1560     2.5380
   49.0000   118.0730     2.4155     2.6014
   49.1000   117.7666     2.6729     2.7147
   49.2000   117.5149     2.9030     2.8308
   49.3000   117.2632     3.2926     2.9730
   49.4000   117.0399     3.7902     3.1535
   49.5000   117.3401     4.4198     3.3553
   49.6000   117.5586     5.3084     3.5608
   49.7000   117.9701     7.2605     3.6851
   49.8000   118.4643     8.1813     3.7939
   49.9000   118.9032     9.2482     3.8818
   50.0000   119.1489    11.8396     3.9576
   50.1000   119.6433    16.5905     3.9804
   50.2000   119.9441    21.1499     4.0256
   50.3000   120.1897    24.7663     4.0718
   50.4000   120.6009    27.9512     4.1454
   50.5000   121.3435    30.1930     4.2415
   50.6000   122.1699    31.6136     4.3397
   50.7000   122.6086    32.7153     4.4491
   50.8000   123.2683    34.0159     4.6407
   50.9000   124.0111    34.5253     4.7806
   51.0000   124.6991    32.8029     4.9192
   51.1000   125.1945    28.9710     5.1157
   51.2000   125.9356    24.1862     5.3805
   51.3000   126.2931    20.0000     5.6001
   51.4000   126.8135    15.3408     5.7091
   51.5000   127.3100    12.2816     5.7787
   51.6000   127.3338    10.5690     5.8115
   51.7000   127.6076     9.6666     5.8381
   51.8000   127.6048     9.0400     5.8376
   51.9000   127.4370     8.5863     5.8700
   52.0000   126.9665     8.2916     5.8775
   52.1000   126.1632     8.0550     5.8955
   52.2000   125.1611     7.9312     5.9290
   52.3000   123.9206     7.9253     5.9588
   52.4000   120.5956     8.0629     5.8755
   52.5000   120.3546     8.1555     5.8146
   52.6000   120.1029     8.3237     5.7477
   52.7000   119.8512     8.4892     5.7122
   52.8000   119.6717     8.6194     5.7117
   52.9000   119.6518     8.7186     5.7098
   53.0000   119.3612     8.8297     5.6709
   53.1000   119.1485     8.8750     5.6436
   53.2000   119.0517     8.9606     5.5912
   53.3000   119.1482     9.0402     5.5519
   53.4000   119.3938     9.0921     5.5514
   53.5000   119.6503     9.1437     5.5509
   53.6000   119.8850     9.1437     5.5505
   53.7000   119.9483     9.1852     5.5741
   53.8000   120.5800     9.2380     5.6406
   53.9000   120.8158     9.2724     5.8842
   54.0000   120.8120     9.2724     6.4292
   54.1000   120.5900     9.2724     6.9385
   54.2000   120.1663     9.2244     7.0456
   54.3000   119.6494     9.1717     7.0569
   54.4000   119.0278     9.1193     7.0344
   54.5000   117.9843     9.0800     7.0338
   54.6000   117.2201     9.0760     7.0332
   54.7000   116.4462     8.8916     7.0325
   54.8000   115.6724     8.8508     7.0320
   54.9000   115.1593     8.7710     7.0315
   55.0000   115.1562     8.6711     7.0309
   55.1000   115.1528     8.5792     7.0372
   55.2000   115.3826     8.5265     7.0790
   55.3000   115.4594     8.3928     7.0784
   55.4000   115.4562     8.2829     7.1080
   55.5000   115.5846     8.1886     7.1268
   55.6000   116.0751     8.0835     7.1389
   55.7000   116.0713     7.9491     7.1835
   55.8000   116.2800     7.8957     7.2759
   55.9000   116.2225     7.7855     7.3123
   56.0000   115.9625     7.7054     7.3821
   56.1000   115.7024     7.6614     7.4475
   56.2000   115.4311     7.6107     7.4797
   56.3000   115.4281     7.5187     7.4783
   56.4000   115.4250     7.4785     7.4263
   56.5000   115.6907     7.4055     7.4258
   56.6000   116.1226     7.3419     7.4504
   56.7000   116.4225     7.3000     7.4927
   56.8000   117.2871     7.2582     7.5353
   56.9000   118.1821     7.2100     7.5805
   57.0000   118.8687     7.1756     7.7047
   57.1000   119.3793     7.1347     7.7398
   57.2000   119.8325     7.0939     7.7392
   57.3000   120.0862     7.0604     7.7385
   57.4000   120.3400     7.0604     7.7379
   57.5000   120.5937     7.0220     7.7372
   57.6000   120.8475     7.0112     7.7366
   57.7000   121.0094     6.9907     7.7360
   57.8000   121.0063     6.9508     7.7353
   57.9000   121.0029     6.9139     7.7347
   58.0000   121.0000     6.9139     7.7340
   58.1000   120.9969     6.9139     7.7333
   58.2000   120.8676     6.9389     7.6976
   58.3000   120.6075     6.9953     7.6782
   58.4000   120.3327     7.0681     7.6776
   58.5000   119.7339     7.1099     7.6769
