~VERSION INFORMATION
 VERS.                2.0:   CWLS LOG ASCII STANDARD - VERSION 2.0
 WRAP.                 NO:   ONE LINE PER DEPTH STEP
~WELL INFORMATION
#MNEM.UNIT      DATA TYPE    INFORMATION
#----------   ------------   ------------------------------
 STRT.F            0.0000:   START DEPTH
 STOP.F         2258.0000:   STOP DEPTH
 STEP.F            0.5000:   STEP LENGTH
 NULL.          -999.2500:   NO VALUE
 COMP. BROWN JOHN E&C INC:   COMPANY
 WELL. NPR-3-STX-6-SX-10 #73-10:   WELL
 FLD .             TEAPOT:   FIELD
 LOC .      S10 T38N R78W:   LOCATION
 CNTY.            NATRONA:   COUNTY
 STAT.            WYOMING:   STATE
 CTRY. UNITED STATES OF AMERICA:   COUNTRY
 SRVC.            Unknown:   SERVICE COMPANY
 DATE.        09-APR-1993:   LOGDATE
 API .       490251091200:   API NUMBER
~CURVE INFORMATION
#MNEM.UNIT       API CODE    CURVE DESCRIPTION
#----------   ------------   ------------------------------
 DEPT.F                  :   
 GR  .GAPI   81 310 01 00:   GAMMA RAY
 DT  .US/F   81 520 00 00:   DELTA SONIC
 ROP .MIN/FT 91 810 01 00:   RATE OF DRILLING PENETRATION
 TGAS.UNITS  91 830 01 00:   TOTAL GAS FROM HOTWIRE
~PARAMETER INFORMATION
#MNEM.UNIT          VALUE    DESCRIPTION
#----------   ------------   ------------------------------
 PD  .                 GL:   PERMANENT DATUM
 LMF .                 GL:   LOG MEASURED FROM
 DMF .                 GL:   DRILLING MEASURED FROM
 DATE.             4-9-93:   RUN DATE
 RUN .                  1:   RUN NUMBER
 DD  .F               442:   DEPTH DRILLER
 TCS .HRS            1000:   TIME CURCULATED STOPPED
 TLAB.HRS            1100:   TIME LOGGER AT BOTTOM
 LUN .                509:   LOGGING UNIT NUMBER
 LUL .           GILLETTE:   LOGGING UNIT LOCATION
 ENGI.            METCALF:   RECORDING ENGINEER
 WITN.              SYLAR:   WITNESSED BY
 CLNT.            A2DTECH:   CLIENT CODE
 ORIG.           5" PRINT:   ORIGIN OF DATA
 UWI .       490251091200:   UNIQUE WELL ID
 DICO. A2D Technologies, Inc.:   DIGITIZING COMPANY
~OTHER INFORMATION
~A    DEPT       GR        DT        ROP       TGAS   
# ...
 1825.0000  -999.2500  -999.2500     0.5506   582.1142
 1825.5000  -999.2500  -999.2500     0.5552   581.5878
 1826.0000  -999.2500  -999.2500     0.5564   581.0615
 1826.5000  -999.2500  -999.2500     0.5382   580.5351
 1827.0000  -999.2500  -999.2500     0.5201   580.0087
 1827.5000  -999.2500  -999.2500     0.5020   579.4824
 1828.0000  -999.2500  -999.2500     0.4841   578.9560
 1828.5000  -999.2500  -999.2500     0.4779   578.4296
 1829.0000  -999.2500  -999.2500     0.4723   577.9033
 1829.5000  -999.2500  -999.2500     0.4666   577.3769
 1830.0000  -999.2500  -999.2500     0.4609   576.8412
 1830.5000  -999.2500  -999.2500     0.4652   576.3218
 1831.0000  -999.2500  -999.2500     0.4822   575.9097
 1831.5000  -999.2500  -999.2500     0.4990   575.2832
 1832.0000  -999.2500  -999.2500     0.5158   582.1691
 1832.5000  -999.2500  -999.2500     0.5326   582.3724
 1833.0000  -999.2500  -999.2500     0.5493   583.0685
 1833.5000  -999.2500  -999.2500     0.5595   583.8948
 1834.0000  -999.2500  -999.2500     0.5608   584.6857
 1834.5000  -999.2500  -999.2500     0.5622   585.4753
 1835.0000  -999.2500  -999.2500     0.5634   586.2648
 1835.5000  -999.2500  -999.2500     0.5647   587.0544
 1836.0000  -999.2500  -999.2500     0.5660   587.8439
 1836.5000  -999.2500  -999.2500     0.5673   588.6335
 1837.0000  -999.2500  -999.2500     0.5686   589.4230
 1837.5000  -999.2500  -999.2500     0.5699   590.2125
 1838.0000  -999.2500  -999.2500     0.5711   591.0021
 1838.5000  -999.2500  -999.2500     0.5724   591.7934
 1839.0000  -999.2500  -999.2500     0.5737   592.5856
 1839.5000  -999.2500  -999.2500     0.5750   593.3628
 1840.0000  -999.2500  -999.2500     0.5763   593.6954
 1840.5000  -999.2500  -999.2500     0.5775   592.7470
 1841.0000  -999.2500  -999.2500     0.5788   591.8401
 1841.5000  -999.2500  -999.2500     0.5801   590.9351
 1842.0000  -999.2500  -999.2500     0.5814   590.0280
 1842.5000  -999.2500  -999.2500     0.5827   589.1215
 1843.0000  -999.2500  -999.2500     0.5834   588.2150
 1843.5000  -999.2500  -999.2500     0.5987   587.3085
 1844.0000  -999.2500  -999.2500     0.6159   586.4020
 1844.5000  -999.2500  -999.2500     0.6331   585.4955
 1845.0000  -999.2500  -999.2500     0.6467   584.5886
 1845.5000  -999.2500  -999.2500     0.6425   583.6589
 1846.0000  -999.2500  -999.2500     0.6387   582.7408
 1846.5000  -999.2500  -999.2500     0.6349   582.1439
 1847.0000  -999.2500  -999.2500     0.6312   586.4453
 1847.5000  -999.2500  -999.2500     0.6273   588.6092
 1848.0000  -999.2500  -999.2500     0.6235   589.7625
 1848.5000  -999.2500  -999.2500     0.6115   590.9861
 1849.0000  -999.2500  -999.2500     0.5923   592.2698
 1849.5000  -999.2500  -999.2500     0.5724   593.5462
 1850.0000  -999.2500  -999.2500     0.5671   594.8224
 1850.5000  -999.2500  -999.2500     0.5627   596.0993
 1851.0000  -999.2500  -999.2500     0.5580   597.3739
 1851.5000  -999.2500  -999.2500     0.5338   598.6536
 1852.0000  -999.2500  -999.2500     0.5100   599.9725
 1852.5000  -999.2500  -999.2500     0.4863   599.4421
 1853.0000  -999.2500  -999.2500     0.4627   598.4780
 1853.5000  -999.2500  -999.2500     0.4393   597.4962
 1854.0000  -999.2500  -999.2500     0.4233   596.5171
 1854.5000  -999.2500  -999.2500     0.4389   595.5400
 1855.0000  -999.2500  -999.2500     0.4538   594.5629
 1855.5000  -999.2500  -999.2500     0.4687   593.5858
 1856.0000  -999.2500  -999.2500     0.4833   592.6087
 1856.5000  -999.2500  -999.2500     0.4865   591.6316
 1857.0000  -999.2500  -999.2500     0.4893   590.6547
 1857.5000  -999.2500  -999.2500     0.4920   589.6765
 1858.0000  -999.2500  -999.2500     0.4948   588.6899
 1858.5000  -999.2500  -999.2500     0.4850   587.6802
 1859.0000  -999.2500  -999.2500     0.4643   587.6307
 1859.5000  -999.2500  -999.2500     0.4437   587.6377
 1860.0000  -999.2500  -999.2500     0.4230   587.6396
 1860.5000  -999.2500  -999.2500     0.4014   587.6396
 1861.0000  -999.2500  -999.2500     0.4014   587.6396
 1861.5000  -999.2500  -999.2500     0.4092   587.6396
 1862.0000  -999.2500  -999.2500     0.4173   587.6396
 1862.5000  -999.2500  -999.2500     0.4253   587.6396
 1863.0000  -999.2500  -999.2500     0.4333   587.6396
 1863.5000  -999.2500  -999.2500     0.4412   587.6396
 1864.0000  -999.2500  -999.2500     0.4435   587.6396
 1864.5000  -999.2500  -999.2500     0.4375   587.6396
 1865.0000  -999.2500  -999.2500     0.4316   587.6396
 1865.5000  -999.2500  -999.2500     0.4257   587.6396
 1866.0000  -999.2500  -999.2500     0.4239   587.6396
 1866.5000  -999.2500  -999.2500     0.4429   587.6396
 1867.0000  -999.2500  -999.2500     0.4617   587.6396
 1867.5000  -999.2500  -999.2500     0.4803   587.6396
 1868.0000  -999.2500  -999.2500     0.4935   587.6396
 1868.5000  -999.2500  -999.2500     0.4737   587.6396
 1869.0000  -999.2500  -999.2500     0.4536   587.6396
 1869.5000  -999.2500  -999.2500     0.4337   587.6396
 1870.0000  -999.2500  -999.2500     0.4137   587.6396
 1870.5000  -999.2500  -999.2500     0.3956   587.6396
 1871.0000  -999.2500  -999.2500     0.3971   587.6396
 1871.5000  -999.2500  -999.2500     0.4315   587.6396
 1872.0000  -999.2500  -999.2500     0.4650   587.6396
 1872.5000  -999.2500  -999.2500     0.4725   587.6396
 1873.0000  -999.2500  -999.2500     0.4482   587.6396
 1873.5000  -999.2500  -999.2500     0.4240   587.6396
 1874.0000  -999.2500  -999.2500     0.3996   587.6396
 1874.5000  -999.2500  -999.2500     0.3750   587.6396
 1875.0000  -999.2500  -999.2500     0.3719   587.6396
 1875.5000  -999.2500  -999.2500     0.3739   587.6396
 1876.0000  -999.2500  -999.2500     0.3760   587.6396
 1876.5000  -999.2500  -999.2500     0.3781   587.6396
 1877.0000  -999.2500  -999.2500     0.3802   587.6407
 1877.5000  -999.2500  -999.2500     0.3823   587.6782
 1878.0000  -999.2500  -999.2500     0.3941   587.5852
 1878.5000  -999.2500  -999.2500     0.4138   586.9834
 1879.0000  -999.2500  -999.2500     0.4336   593.7280
 1879.5000  -999.2500  -999.2500     0.4534   592.9709
 1880.0000  -999.2500  -999.2500     0.4682   592.4520
 1880.5000  -999.2500  -999.2500     0.4427   591.8263
 1881.0000  -999.2500  -999.2500     0.4166   591.1826
 1881.5000  -999.2500  -999.2500     0.3907   590.5484
 1882.0000  -999.2500  -999.2500     0.3637   589.9126
 1882.5000  -999.2500  -999.2500     0.3734   589.2735
 1883.0000  -999.2500  -999.2500     0.3934   588.6479
 1883.5000  -999.2500  -999.2500     0.4139   588.0412
 1884.0000  -999.2500  -999.2500     0.4344   589.8914
 1884.5000  -999.2500  -999.2500     0.4547   595.4216
 1885.0000  -999.2500  -999.2500     0.4717   600.9136
 1885.5000  -999.2500  -999.2500     0.4712   606.4440
 1886.0000  -999.2500  -999.2500     0.4706   611.8520
 1886.5000  -999.2500  -999.2500     0.4543   616.9322
 1887.0000  -999.2500  -999.2500     0.4377   625.3038
 1887.5000  -999.2500  -999.2500     0.4212   625.2528
 1888.0000  -999.2500  -999.2500     0.4048   625.3569
 1888.5000  -999.2500  -999.2500     0.4056   625.3583
 1889.0000  -999.2500  -999.2500     0.4268   625.3492
 1889.5000  -999.2500  -999.2500     0.4480   625.3492
 1890.0000  -999.2500  -999.2500     0.4688   625.3492
 1890.5000  -999.2500  -999.2500     0.4768   625.3492
 1891.0000  -999.2500  -999.2500     0.4495   625.3492
 1891.5000  -999.2500  -999.2500     0.4231   625.3492
 1892.0000  -999.2500  -999.2500     0.3967   625.3492
 1892.5000  -999.2500  -999.2500     0.3941   625.3492
 1893.0000  -999.2500  -999.2500     0.3927   625.3492
 1893.5000  -999.2500  -999.2500     0.3912   625.3492
 1894.0000  -999.2500  -999.2500     0.3896   625.3492
 1894.5000  -999.2500  -999.2500     0.3881   625.3492
 1895.0000  -999.2500  -999.2500     0.3866   625.3492
 1895.5000  -999.2500  -999.2500     0.3850   625.3492
 1896.0000  -999.2500  -999.2500     0.3829   625.3492
 1896.5000  -999.2500  -999.2500     0.3995   625.3492
 1897.0000  -999.2500  -999.2500     0.4191   625.3492
 1897.5000  -999.2500  -999.2500     0.4398   625.3492
