~VERSION INFORMATION
 VERS.                2.0:   CWLS LOG ASCII STANDARD - VERSION 2.0
 WRAP.                 NO:   ONE LINE PER DEPTH STEP
~WELL INFORMATION
#MNEM.UNIT      DATA TYPE    INFORMATION
#----------   ------------   ------------------------------
 STRT.F           14.5000:   START DEPTH
 STOP.F          750.0000:   STOP DEPTH
 STEP.F            0.5000:   STEP LENGTH
 NULL.          -999.2500:   NO VALUE
 COMP. FENIX & SCISSON INC:   COMPANY
 WELL.       NPR 3 #24-14:   WELL
 FLD .             TEAPOT:   FIELD
 LOC .      S14 T38N R78W:   LOCATION
 CNTY.            NATRONA:   COUNTY
 STAT.            WYOMING:   STATE
 CTRY. UNITED STATES OF AMERICA:   COUNTRY
 SRVC.           BIRDWELL:   SERVICE COMPANY
 DATE.        27-DEC-1978:   LOGDATE
 API .       490251075900:   API NUMBER
~CURVE INFORMATION
#MNEM.UNIT       API CODE    CURVE DESCRIPTION
#----------   ------------   ------------------------------
 DEPT.F                  :   
 SPR .MV     05 010 01 00:   SPONTANEOUS POTENTIAL FROM RES.
 SN  .OHMM   05 040 16 00:   SHORT NORMAL 16"
 IL  .OHMM   05 120 00 00:   INDUCTION LOG
 GRD .GAPI   45 310 01 00:   GAMMA RAY FROM DENSITY LOG
 CALD.IN     45 280 60 00:   CALIPER
 RHOB.G/C3   45 350 01 00:   BULK DENSITY
 DPHI.DEC    45 890 12 00:   DENSITY POROSITY SANDSTONE
 CORR.G/C3   45 356 01 00:   DENSITY CORRECTION
~PARAMETER INFORMATION
#MNEM.UNIT          VALUE    DESCRIPTION
#----------   ------------   ------------------------------
 PD  .                 GL:   PERMANENT DATUM
 EPD .F              5209:   ELEVATION PERMANENT DATUM
 LMF .                 KB:   LOG MEASURED FROM
 DAPD.F                 4:   FEET ABOVE PERMANENT DATUM
 DMF .                 KB:   DRILLING MEASURED FROM
 EKB .F              5212:   KELLING BUSHING
 EGL .F              5209:   GROUND LEVEL
 DATE.           12-27-78:   RUN DATE
 RUN .                  1:   RUN NUMBER
 DD  .F               750:   DEPTH DRILLER
 DL  .F               742:   DEPTH LOGGER
 BLI .F               735:   BOTTOM LOG INTERVAL
 TLI .F                35:   TOP LOG INTERVAL
 CS  .IN            8.625:   CASING SIZE
 CBD .F                40:   CASING BOTTOM DRILLER
 CBL .F                32:   CASING BOTTOM LOGGER
 BS  .IN            7.875:   BIT SIZE
 BSD .F               750:   BIT SIZE AT DEPTH
 DFT .                KCL:   DRILLING FLUID TYPE
 DFD .                8.6:   DRILLING FLUID DENSITY
 DFV .                 35:   DRILLING FLUID VISCOSITY
 DFPH.                9.4:   DRILLING FLUID PH
 DFL .               12.4:   DRILLING FLUID LOSS
 MSS .           FLOWLINE:   MUD SAMPLE SOURCE
 RMS .OHMM            .38:   RESISTIVITY MUD SAMPLE
 MST .F                58:   MUD SAMPLE TEMPERATURE
 RMF .OHMM            .38:   RESISTIVITY MUD FILTRATE SAMPLE
 MFST.F                58:   MUD FILTRATE SAMPLE TEMPERATURE
 RMC .OHMM            .36:   RESISTIVITY MUD CAKE
 MCST.F                60:   MUD CAKE SAMPLE TEMPERATURE
 MFSS.           MEASURED:   MUD FILTRATE SAMPLE SOURCE
 MCSS.           MEASURED:   MUD CAKE SAMPLE SOURCE
 RMB .OHMM            .37:   RESISTIVITY MUD AT BHT
 BHT .F                59:   BOTTOM HOLE TEMPERATURE
 TCS .HRS               2:   TIME CURCULATED STOPPED
 MRT .F                59:   MAXIMUM RECORDED TEMPERATURE
 LUN .               2958:   LOGGING UNIT NUMBER
 LUL .             CASPER:   LOGGING UNIT LOCATION
 ENGI.         B. ROLLINS:   RECORDING ENGINEER
 WITN.           DINSMORE:   WITNESSED BY
 CLNT.            A2DTECH:   CLIENT CODE
 ORIG.           5" PRINT:   ORIGIN OF DATA
 UWI .       490251075900:   UNIQUE WELL ID
 DICO. A2D Technologies, Inc.:   DIGITIZING COMPANY
~OTHER INFORMATION
~A   DEPT      SPR         SN         IL         GRD      CALD       RHOB       DPHI       CORR   
   14.5000  -999.2500  -999.2500  -999.2500    84.1030  -999.2500  -999.2500  -999.2500  -999.2500
   15.0000  -999.2500  -999.2500  -999.2500    83.3400  -999.2500  -999.2500  -999.2500  -999.2500
   15.5000  -999.2500  -999.2500  -999.2500    83.2300  -999.2500  -999.2500  -999.2500  -999.2500
   16.0000  -999.2500  -999.2500  -999.2500    82.6770  -999.2500  -999.2500  -999.2500  -999.2500
   16.5000  -999.2500  -999.2500  -999.2500    81.5350  -999.2500  -999.2500  -999.2500  -999.2500
   17.0000  -999.2500  -999.2500  -999.2500    80.0060  -999.2500  -999.2500  -999.2500  -999.2500
   17.5000  -999.2500  -999.2500  -999.2500    79.7740  -999.2500  -999.2500  -999.2500  -999.2500
   18.0000  -999.2500  -999.2500  -999.2500    79.5240  -999.2500  -999.2500  -999.2500  -999.2500
   18.5000  -999.2500  -999.2500  -999.2500    78.1280  -999.2500  -999.2500  -999.2500  -999.2500
   19.0000  -999.2500  -999.2500  -999.2500    75.6660  -999.2500  -999.2500  -999.2500  -999.2500
   19.5000  -999.2500  -999.2500  -999.2500    72.5800  -999.2500  -999.2500  -999.2500  -999.2500
   20.0000  -999.2500  -999.2500  -999.2500    71.2320  -999.2500     2.4970     0.0990  -999.2500
   20.5000  -999.2500  -999.2500  -999.2500    70.4360  -999.2500     2.4970     0.0990  -999.2500
   21.0000  -999.2500  -999.2500  -999.2500    69.4400  -999.2500     2.4970     0.0990  -999.2500
   21.5000  -999.2500  -999.2500  -999.2500    69.1090  -999.2500     2.4970     0.0990  -999.2500
   22.0000  -999.2500  -999.2500  -999.2500    69.6740  -999.2500     2.4970     0.0990  -999.2500
   22.5000  -999.2500  -999.2500  -999.2500    69.6160  -999.2500  -999.2500  -999.2500  -999.2500
   23.0000  -999.2500  -999.2500  -999.2500    69.2370  -999.2500  -999.2500  -999.2500  -999.2500
   23.5000  -999.2500  -999.2500  -999.2500    68.8800  -999.2500  -999.2500  -999.2500  -999.2500
   24.0000  -999.2500  -999.2500  -999.2500    68.8710  -999.2500  -999.2500  -999.2500  -999.2500
   24.5000  -999.2500  -999.2500  -999.2500    68.8790  -999.2500     2.4970     0.0990  -999.2500
   25.0000  -999.2500  -999.2500  -999.2500    69.0330  -999.2500     2.5050     0.0960  -999.2500
   25.5000  -999.2500  -999.2500  -999.2500    69.8140  -999.2500     2.5150     0.0920  -999.2500
   26.0000  -999.2500  -999.2500  -999.2500    71.1920  -999.2500     2.5210     0.0880  -999.2500
   26.5000  -999.2500  -999.2500  -999.2500    73.3770  -999.2500     2.5330     0.0790  -999.2500
   27.0000  -999.2500  -999.2500  -999.2500    73.7990  -999.2500     2.5440     0.0670    -0.1390
   27.5000  -999.2500  -999.2500  -999.2500    74.1270  -999.2500     2.5600     0.0550    -0.1400
   28.0000  -999.2500  -999.2500  -999.2500    75.3400  -999.2500     2.5840     0.0510    -0.1400
   28.5000  -999.2500  -999.2500  -999.2500    76.6820  -999.2500     2.6060     0.0570    -0.1400
   29.0000  -999.2500  -999.2500  -999.2500    77.9400  -999.2500     2.5950     0.0650    -0.1400
   29.5000  -999.2500  -999.2500  -999.2500    78.1880  -999.2500     2.5810     0.0850    -0.1410
   30.0000  -999.2500  -999.2500  -999.2500    76.3280  -999.2500     2.5560     0.1060    -0.1380
   30.5000  -999.2500  -999.2500  -999.2500    73.7350  -999.2500     2.5070     0.1450    -0.1330
   31.0000  -999.2500  -999.2500  -999.2500    73.8550  -999.2500     2.4230     0.2040    -0.1190
   31.5000  -999.2500  -999.2500  -999.2500    72.3650  -999.2500     2.3350     0.2640    -0.0920
   32.0000  -999.2500  -999.2500  -999.2500    71.1390  -999.2500     2.2470     0.3110    -0.0610
   32.5000  -999.2500  -999.2500  -999.2500    70.1110  -999.2500     2.1190     0.3310     0.0410
   33.0000  -999.2500  -999.2500  -999.2500    67.5340  -999.2500     2.1420     0.2610     0.1990
   33.5000  -999.2500  -999.2500  -999.2500    63.4210  -999.2500     2.2490     0.2190     0.2750
   34.0000  -999.2500  -999.2500  -999.2500    60.8810  -999.2500     2.3140     0.2240     0.2620
   34.5000  -999.2500  -999.2500  -999.2500    60.2600     8.1100     2.3050     0.2320     0.2240
   35.0000  -999.2500  -999.2500  -999.2500    76.4040     8.0790     2.2900     0.2460     0.1720
   35.5000  -999.2500  -999.2500  -999.2500    90.5690     8.1380     2.2670     0.2590     0.1370
   36.0000  -999.2500  -999.2500  -999.2500    91.7370     8.1680     2.2430     0.2660     0.1220
   36.5000  -999.2500  -999.2500  -999.2500    90.1290     8.1100     2.2360     0.2500     0.1190
   37.0000  -999.2500  -999.2500  -999.2500    86.1190     8.0210     2.2570     0.2430     0.1140
   37.5000  -999.2500  -999.2500  -999.2500    82.9370     7.8820     2.2730     0.2350     0.1160
   38.0000  -999.2500  -999.2500  -999.2500    81.5550     7.7400     2.2860     0.2240     0.1260
   38.5000  -999.2500  -999.2500  -999.2500    81.8680     7.7190     2.2970     0.2280     0.1310
   39.0000  -999.2500  -999.2500  -999.2500    84.6620     7.7250     2.3060     0.2370     0.1120
   39.5000  -999.2500  -999.2500  -999.2500    88.7430     7.6010     2.2830     0.2570     0.1030
   40.0000  -999.2500    11.8370  -999.2500    91.2920     7.5280     2.2380     0.2900     0.1050
   40.5000  -999.2500    11.8370  -999.2500    93.4510     7.5890     2.1930     0.2980     0.1080
   41.0000  -999.2500    12.7420  -999.2500    95.2850     7.5720     2.1760     0.2520     0.1060
   41.5000  -999.2500    12.5920  -999.2500    96.6550     7.6170     2.2360     0.2180     0.0690
   42.0000  -999.2500    12.7420  -999.2500    97.8750     7.6870     2.3080     0.2030     0.0470
   42.5000  -999.2500    12.1690  -999.2500    97.3660     7.8190     2.3320     0.1900     0.0600
   43.0000   -41.2500    11.3790  -999.2500    92.5900     7.9500     2.3550     0.1810     0.0690
   43.5000   -43.2900    10.5900  -999.2500    87.3990     8.0650     2.3750     0.1750     0.0680
   44.0000   -44.3000    10.3110  -999.2500    87.5820     8.0660     2.3910     0.1740     0.0670
   44.5000   -44.3000    10.3110     3.7300    90.7090     8.0650     2.3910     0.1730     0.0660
   45.0000   -44.9940    10.1180     3.7210    94.2850     8.0640     2.3910     0.1730     0.0650
   45.5000   -45.6740     9.8350     3.7130    93.9460     8.1140     2.3930     0.1780     0.0640
   46.0000   -45.5170     9.6680     3.9630    92.8940     8.1790     2.3910     0.1860     0.0690
   46.5000   -45.3780    10.1230     4.4640    90.8930     8.2450     2.3770     0.1810     0.0880
   47.0000   -45.2360    10.3030     4.9390    89.4200     8.3020     2.3700     0.1710     0.1260
   47.5000   -45.0930    10.4900     4.9270    88.5710     8.2980     2.3880     0.1580     0.1680
   48.0000   -45.1960    10.8960     4.9120    88.3220     8.2920     2.4310     0.1450     0.1830
   48.5000   -47.8390    11.7290     4.8970    88.3500     8.2860     2.4480     0.1410     0.1720
   49.0000   -48.1720    11.5330     4.8820    88.9660     8.2610     2.4500     0.1550     0.1390
   49.5000   -48.5490    10.9690     4.8660    89.4950     8.1750     2.4320     0.1630     0.1010
   50.0000   -48.8920    10.1230     4.8510    89.5050     8.0920     2.3920     0.1930     0.0800
   50.5000   -48.9000    10.1690     4.8360    89.5040     8.0130     2.3480     0.2290     0.1070
   51.0000   -48.9000    10.2100     4.8210    89.5040     7.9340     2.3030     0.2460     0.1530
   51.5000   -48.9000    10.2510     4.8050    89.5100     7.5610     2.2740     0.2500     0.1980
   52.0000   -48.9000    10.3110     4.5880    89.5260     7.3510     2.2570     0.2210     0.2360
   52.5000   -48.9000     9.5240     4.3550    89.6380     7.3280     2.2860     0.1950     0.2370
   53.0000   -48.8990     8.6580     4.1090    90.3430     7.6440     2.3430     0.1690     0.1950
   53.5000   -48.8900    10.0310     3.8090    95.8980     7.8460     2.4000     0.1430     0.1540
   54.0000   -48.6060     9.6510     3.3560   100.0200     7.8200     2.4570     0.1380     0.1130
   54.5000   -48.1060     8.5990     3.3740    96.4920     7.7980     2.4510     0.1430     0.1000
