~VERSION INFORMATION
 VERS.                2.0:   CWLS LOG ASCII STANDARD - VERSION 2.0
 WRAP.                 NO:   ONE LINE PER DEPTH STEP
~WELL INFORMATION
#MNEM.UNIT      DATA TYPE    INFORMATION
#----------   ------------   ------------------------------
 STRT.F           14.0000:   START DEPTH
 STOP.F          449.0000:   STOP DEPTH
 STEP.F            0.5000:   STEP LENGTH
 NULL.          -999.2500:   NO VALUE
 COMP.   LAWRENCE-ALLISON:   COMPANY
 WELL. NPR 3 #51-65SX10OB2:   WELL
 FLD .             TEAPOT:   FIELD
 LOC .      S10 T38N R78W:   LOCATION
 CNTY.            NATRONA:   COUNTY
 STAT.            WYOMING:   STATE
 CTRY. UNITED STATES OF AMERICA:   COUNTRY
 SRVC.      Dresser Atlas:   SERVICE COMPANY
 DATE.        18-DEC-1984:   LOGDATE
 API .       490251100900:   API NUMBER
~CURVE INFORMATION
#MNEM.UNIT       API CODE    CURVE DESCRIPTION
#----------   ------------   ------------------------------
 DEPT.F                  :   
 PORD.DEC    45 890 12 00:   POROSITY DENSITY SANDSTONE
 CNC .DEC    42 890 03 00:   NEUTRON POROSITY SANDSTONE
 CALD.IN     45 280 60 00:   CALIPER FROM DENSITY
 CORR.G/C3   45 356 01 00:   DENSITY CORRECTION
 DEN .G/C3   45 350 01 00:   COMPENSATED BULK DENSTIY
 GRD .GAPI   45 310 01 00:   GAMMA RAY FROM DENSITY LOG
 AC  .US/F   60 520 00 00:   ACCOUSTIC
~PARAMETER INFORMATION
#MNEM.UNIT          VALUE    DESCRIPTION
#----------   ------------   ------------------------------
 PD  .                 GL:   PERMANENT DATUM
 EPD .F              5156:   ELEVATION PERMANENT DATUM
 LMF .                 GL:   LOG MEASURED FROM
 DMF .                 GL:   DRILLING MEASURED FROM
 EGL .F              5156:   GROUND LEVEL
 DATE.        18-DEC-1984:   RUN DATE
 RUN .                  1:   RUN NUMBER
 DD  .F               448:   DEPTH DRILLER
 DL  .F               451:   DEPTH LOGGER
 BLI .F               449:   BOTTOM LOG INTERVAL
 TLI .F                20:   TOP LOG INTERVAL
 CS  .IN            8.625:   CASING SIZE
 CBD .F                20:   CASING BOTTOM DRILLER
 CBL .F                20:   CASING BOTTOM LOGGER
 BS  .IN             6.25:   BIT SIZE
 BSD .F               448:   BIT SIZE AT DEPTH
 DFT .          KCL WATER:   DRILLING FLUID TYPE
 MSS .             MUDPIT:   MUD SAMPLE SOURCE
 RMS .OHMM          0.132:   RESISTIVITY MUD SAMPLE
 MST .F                95:   MUD SAMPLE TEMPERATURE
 RMF .OHMM          0.099:   RESISTIVITY MUD FILTRATE SAMPLE
 MFST.F                95:   MUD FILTRATE SAMPLE TEMPERATURE
 RMC .OHMM          0.165:   RESISTIVITY MUD CAKE
 MCST.F                95:   MUD CAKE SAMPLE TEMPERATURE
 MFSS.               CALC:   MUD FILTRATE SAMPLE SOURCE
 MCSS.               CALC:   MUD CAKE SAMPLE SOURCE
 TCS .HRS               5:   TIME CURCULATED STOPPED
 MRT .F               100:   MAXIMUM RECORDED TEMPERATURE
 LUN .               6270:   LOGGING UNIT NUMBER
 ENGI.        TOM GAUGHAN:   RECORDING ENGINEER
 WITN.             GROOMS:   WITNESSED BY
 CLNT.            A2DTECH:   CLIENT CODE
 ORIG.           5" PRINT:   ORIGIN OF DATA
 UWI .       490251100900:   UNIQUE WELL ID
 DICO. A2D Technologies, Inc.:   DIGITIZING COMPANY
~OTHER INFORMATION
~A   DEPT     PORD        CNC       CALD       CORR        DEN        GRD         AC   
# ...
   59.5000     0.0994     0.2643     6.3850     0.1050     2.5111    98.7389    98.1287
   60.0000     0.1025     0.2811     6.3716     0.0670     2.5044    98.7537    98.6613
   60.5000     0.1077     0.2821     6.3581     0.0257     2.4939    97.7300    98.8930
   61.0000     0.1146     0.2753     6.3595     0.0228     2.4842    96.4096    99.1247
   61.5000     0.1215     0.2768     6.3609     0.0260     2.4760    95.0892    99.5068
   62.0000     0.1224     0.2743     6.3624     0.0366     2.4730    94.3623    99.5865
   62.5000     0.1193     0.2598     6.3638     0.0443     2.4829    93.4870    99.3682
   63.0000     0.1151     0.2521     6.3652     0.0490     2.4890    92.7596    99.6751
   63.5000     0.1135     0.2590     6.3666     0.0596     2.4906    93.2200   100.7345
   64.0000     0.1141     0.2722     6.3680     0.0763     2.4899    99.4664   101.6453
   64.5000     0.1162     0.2857     6.3694     0.0749     2.4839   103.4872   102.7835
   65.0000     0.1228     0.2838     6.3708     0.0526     2.4765   102.4635   102.9445
   65.5000     0.1260     0.2646     6.3722     0.0107     2.4675   100.1045   102.8665
   66.0000     0.1284     0.2673     6.3736    -0.0027     2.4646    96.4102   102.3457
   66.5000     0.1269     0.2756     6.3750    -0.0010     2.4669    93.6061   101.6745
   67.0000     0.1250     0.2729     6.3764     0.0091     2.4692    92.5787   101.3779
   67.5000     0.1241     0.2578     6.3778     0.0278     2.4716    93.6359   101.6848
   68.0000     0.1229     0.2404     6.3792     0.0414     2.4746    93.3541    98.6825
   68.5000     0.1195     0.2428     6.3806     0.0491     2.4830    90.1049    88.0789
   69.0000     0.1102     0.2493     6.3820     0.0493     2.4988    84.6302    81.5386
   69.5000     0.0954     0.2490     6.3834     0.0494     2.5252    83.7512    80.7906
   70.0000     0.0885     0.2454     6.3697     0.0496     2.5313    87.7757    84.6355
   70.5000     0.0992     0.2526     6.3863     0.0467     2.5020    92.6868    89.0808
   71.0000     0.1134     0.2734     6.4025     0.0408     2.4848    96.5592    92.9995
   71.5000     0.1182     0.2879     6.3891     0.0335     2.4819    96.7225    99.1002
   72.0000     0.1206     0.3021     6.3905     0.0231     2.4774    95.9956   103.4703
   72.5000     0.1226     0.2979     6.3767     0.0263     2.4760    96.9007   104.1561
   73.0000     0.1215     0.2876     6.3784     0.0339     2.4768    97.0639   104.3100
   73.5000     0.1189     0.2729     6.3798     0.0401     2.4791    96.0403   103.9167
   74.0000     0.1168     0.2641     6.3813     0.0523     2.4830    95.0166   103.4203
   74.5000     0.1161     0.2632     6.3975     0.0809     2.4838    95.1798   103.8024
   75.0000     0.1167     0.2647     6.3989     0.0961     2.4831    95.4877   104.4103
   75.5000     0.1200     0.2806     6.4003     0.0767     2.4771    94.0227   105.1687
   76.0000     0.1250     0.2965     6.3869     0.0565     2.4682    93.2920   105.5508
   76.5000     0.1280     0.2910     6.3883     0.0320     2.4652    95.6845   105.4815
   77.0000     0.1274     0.2782     6.3897     0.0412     2.4661   100.8923   104.8103
   77.5000     0.1252     0.2678     6.3911     0.0428     2.4722   101.6491   104.0638
   78.0000     0.1204     0.2683     6.3925     0.0339     2.4782   100.8817   103.2420
   78.5000     0.1210     0.2783     6.3939     0.0131     2.4768    96.3056   103.1712
   79.0000     0.1239     0.2870     6.3953     0.0087     2.4709    95.6082   104.0063
   79.5000     0.1260     0.2918     6.3819     0.0494     2.4664    96.6766   102.8836
   80.0000     0.1245     0.2866     6.3833     0.0841     2.4725   102.7596   102.3628
   80.5000     0.1223     0.2836     6.3847     0.0888     2.4748   102.9229   103.3469
   81.0000     0.1232     0.2833     6.3861     0.0799     2.4734   101.4541   104.7153
   81.5000     0.1259     0.2818     6.3875     0.0620     2.4652    99.3919   105.1648
   82.0000     0.1316     0.2775     6.3737     0.0276     2.4555    93.0270   104.7555
   82.5000     0.1325     0.2793     6.3755     0.0188     2.4578    91.8546   103.8236
   83.0000     0.1300     0.2874     6.3617     0.0189     2.4609    92.9084   103.6023
   83.5000     0.1306     0.2901     6.3635     0.0191     2.4579    96.7808   103.7602
   84.0000     0.1342     0.2867     6.3649     0.0207     2.4535   101.8403   104.2176
   84.5000     0.1356     0.2876     6.3663     0.0209     2.4513   102.3220   104.7502
   85.0000     0.1353     0.2870     6.3677     0.0255     2.4521   101.7217   105.2829
   85.5000     0.1356     0.2809     6.3691     0.0302     2.4520   101.2908   105.7403
   86.0000     0.1364     0.2791     6.3705     0.0384     2.4513   102.4933   106.1977
   86.5000     0.1391     0.2879     6.3719     0.0470     2.4490   105.0305   106.4293
   87.0000     0.1400     0.2986     6.3733     0.0562     2.4446   106.5291   106.6610
   87.5000     0.1411     0.2916     6.3747     0.0638     2.4403   105.5054   107.3441
   88.0000     0.1435     0.2868     6.3761     0.0654     2.4350   103.4431   107.6237
   88.5000     0.1504     0.2898     6.3775     0.0341     2.4278   100.9358   106.5283
   89.0000     0.1497     0.2958     6.3789     0.0192     2.4319    99.0219   105.6294
   89.5000     0.1446     0.2924     6.3803     0.0178     2.4358    98.4396   105.0941
   90.0000     0.1442     0.2813     6.3817     0.0270     2.4378   102.1674   104.3640
   90.5000     0.1457     0.2819     6.3831     0.0347     2.4370   103.8144   105.5001
   91.0000     0.1460     0.2933     6.3845     0.0288     2.4349   102.9391   105.6565
   91.5000     0.1439     0.2996     6.3859     0.0080     2.4381   102.6535   105.5119
   92.0000     0.1381     0.2992     6.3874    -0.0039     2.4504   103.1172   105.1416
   92.5000     0.1311     0.2968     6.3885     0.0278     2.4653   103.7256   104.5456
   93.0000     0.1263     0.2989     6.4048     0.0264     2.4690   104.1856   104.1738
   93.5000     0.1279     0.3094     6.4062     0.0326     2.4675   104.2005   104.4070
   94.0000     0.1311     0.3081     6.4224     0.0433     2.4630   102.8801   105.0149
   94.5000     0.1310     0.2994     6.4259     0.0434     2.4586   101.5597   105.7732
   95.0000     0.1334     0.2826     6.4548     0.0406     2.4556   100.9774   106.0049
   95.5000     0.1361     0.2750     6.4562     0.0482     2.4528   100.2542   105.7099
   96.0000     0.1339     0.2762     6.4576     0.0544     2.4528    99.6756   104.9633
   96.5000     0.1315     0.2785     6.4590     0.0515     2.4582    99.9872   104.2168
   97.0000     0.1312     0.2806     6.4604     0.0442     2.4590   102.6727   103.6208
   97.5000     0.1326     0.2809     6.4618     0.0008     2.4575   105.8034   103.3233
   98.0000     0.1341     0.2797     6.4632     0.0039     2.4538   108.0438   103.2564
   98.5000     0.1344     0.2805     6.4646     0.0221     2.4532   106.1299   103.7256
   99.0000     0.1316     0.2862     6.4660     0.0433     2.4593   101.6938   104.3232
   99.5000     0.1253     0.2973     6.4674     0.0569     2.4706   100.3733   104.8559
  100.0000     0.1179     0.3123     6.4688     0.0548     2.4805    99.7910   105.1992
  100.5000     0.1174     0.3099     6.4649     0.0452     2.4820   100.2641   105.6937
  101.0000     0.1186     0.2994     6.4610     0.0409     2.4784   103.9110   105.9239
  101.5000     0.1215     0.2921     6.4578     0.0411     2.4747   106.8101   105.9284
  102.0000     0.1260     0.2974     6.4742     0.0472     2.4695   106.0890   105.3309
  102.5000     0.1347     0.3049     6.4756     0.0324     2.4545   100.3145   104.2819
  103.0000     0.1416     0.2898     6.4769    -0.0080     2.4426    99.1386   103.2330
  103.5000     0.1394     0.2754     6.4782     0.0012     2.4441    99.7504   102.7096
  104.0000     0.1367     0.2687     6.4795     0.0058     2.4502   102.7325   103.0162
  104.5000     0.1385     0.2765     6.4809    -0.0045     2.4450   108.5335   103.6978
