~VERSION INFORMATION
 VERS.                2.0:   CWLS LOG ASCII STANDARD - VERSION 2.0
 WRAP.                 NO:   ONE LINE PER DEPTH STEP
~WELL INFORMATION
#MNEM.UNIT      DATA TYPE    INFORMATION
#----------   ------------   ------------------------------
 STRT.F          630.0000:   START DEPTH
 STOP.F         1708.0000:   STOP DEPTH
 STEP.F            0.5000:   STEP LENGTH
 NULL.          -999.2500:   NO VALUE
 COMP. FENIX & SCISSON INC:   COMPANY
 WELL.      SHX 34 #58-34:   WELL
 FLD .             TEAPOT:   FIELD
 LOC .      S34 T39N R78W:   LOCATION
 CNTY.            NATRONA:   COUNTY
 STAT.            WYOMING:   STATE
 CTRY. UNITED STATES OF AMERICA:   COUNTRY
 SRVC.           BIRDWELL:   SERVICE COMPANY
 DATE.        28-MAR-1979:   LOGDATE
 API .       490251077400:   API NUMBER
~CURVE INFORMATION
#MNEM.UNIT       API CODE    CURVE DESCRIPTION
#----------   ------------   ------------------------------
 DEPT.F                  :   
 CORR.G/C3   45 356 01 00:   DENSITY CORRECTION
 DPHI.DEC    45 890 12 00:   DENSITY POROSITY SANDSTONE
 RHOB.G/C3   45 350 01 00:   BULK DENSITY
 CALD.IN     45 280 60 00:   CALIPER
 GRD .GAPI   45 310 01 00:   GAMMA RAY FROM DENSITY LOG
~PARAMETER INFORMATION
#MNEM.UNIT          VALUE    DESCRIPTION
#----------   ------------   ------------------------------
 PD  .                 GL:   PERMANENT DATUM
 EPD .F              5120:   ELEVATION PERMANENT DATUM
 LMF .                 KB:   LOG MEASURED FROM
 DAPD.F                10:   FEET ABOVE PERMANENT DATUM
 DMF .                 KB:   DRILLING MEASURED FROM
 EKB .F              5130:   KELLING BUSHING
 EGL .F              5120:   GROUND LEVEL
 DATE.            3-28-79:   RUN DATE
 RUN .                  2:   RUN NUMBER
 DD  .F              1720:   DEPTH DRILLER
 DL  .F              1708:   DEPTH LOGGER
 BLI .F              1708:   BOTTOM LOG INTERVAL
 TLI .F               649:   TOP LOG INTERVAL
 CS  .IN            9.625:   CASING SIZE
 CBD .F               639:   CASING BOTTOM DRILLER
 CBL .F               646:   CASING BOTTOM LOGGER
 BS  .IN             8.75:   BIT SIZE
 BSD .F              1720:   BIT SIZE AT DEPTH
 DFT .                OIL:   DRILLING FLUID TYPE
 TCS .HRS               3:   TIME CURCULATED STOPPED
 MRT .F               150:   MAXIMUM RECORDED TEMPERATURE
 LUN .               2959:   LOGGING UNIT NUMBER
 LUL .             CASPER:   LOGGING UNIT LOCATION
 ENGI.         B. ROLLINS:   RECORDING ENGINEER
 WITN.              AMEND:   WITNESSED BY
 CLNT.            A2DTECH:   CLIENT CODE
 ORIG.           5" PRINT:   ORIGIN OF DATA
 UWI .       490251077400:   UNIQUE WELL ID
 DICO. A2D Technologies, Inc.:   DIGITIZING COMPANY
~OTHER INFORMATION
~A   DEPT     CORR       DPHI       RHOB       CALD         GRD  
# ...
 1667.0000    -0.0169     0.0300     2.5018     8.9850   131.0881
 1667.5000    -0.0073     0.0283     2.5028     8.9836   124.6825
 1668.0000     0.0019     0.0228     2.5150     8.9822   117.4475
 1668.5000     0.0109     0.0104     2.5307     8.9807   114.2236
 1669.0000     0.0203     0.0088     2.5411     8.9804   119.0905
 1669.5000     0.0130     0.0088     2.5385     8.9819   121.7947
 1670.0000     0.0046     0.0179     2.5234     8.9832   118.0080
 1670.5000    -0.0047     0.0244     2.5117     8.9846   126.3632
 1671.0000    -0.0072     0.0210     2.5178     8.9860   133.2014
 1671.5000    -0.0049     0.0159     2.5287     8.9873   128.4236
 1672.0000    -0.0030     0.0120     2.5285     8.9887   130.7853
 1672.5000    -0.0012     0.0147     2.5273     8.9900   134.9536
 1673.0000     0.0008     0.0183     2.5228     8.9914   134.0620
 1673.5000     0.0026     0.0183     2.5182     8.9927   133.1594
 1674.0000     0.0039     0.0183     2.5197     8.9941   127.3990
 1674.5000    -0.0031     0.0147     2.5337     8.9955   128.3142
 1675.0000    -0.0105     0.0167     2.5276     8.9968   131.5547
 1675.5000    -0.0111     0.0215     2.5212     8.9981   128.3101
 1676.0000     0.0093     0.0112     2.5284     8.9995   124.0791
 1676.5000     0.0295     0.0212     2.5156     9.0009   122.0439
 1677.0000     0.0499     0.0098     2.5328     9.0022   118.0235
 1677.5000     0.0549     0.0013     2.5490     9.0036   118.8726
 1678.0000     0.0328     0.0036     2.5383     9.0049   121.5571
 1678.5000     0.0094     0.0129     2.5229     9.0063   123.3053
 1679.0000     0.0091     0.0298     2.5068     9.0076   122.5948
 1679.5000     0.0189     0.0306     2.5113     9.0090   126.7308
 1680.0000     0.0370     0.0194     2.5188     9.0104   130.0135
 1680.5000     0.0532     0.0131     2.5282     9.0117   132.4852
 1681.0000     0.0706     0.0111     2.5388     9.0131   127.3444
 1681.5000     0.0720     0.0095     2.5378     9.0144   122.7325
 1682.0000     0.0665     0.0119     2.5345     9.0158   119.5480
 1682.5000     0.0543     0.0150     2.5283     9.0172   124.4518
 1683.0000     0.0455     0.0180     2.5218     9.0184   129.4804
 1683.5000     0.0363     0.0204     2.5155     9.0198   132.1284
 1684.0000     0.0292     0.0223     2.5145     9.0171   128.8842
 1684.5000     0.0243     0.0141     2.5317     9.0139   125.0872
 1685.0000     0.0188     0.0088     2.5362     9.0106   121.8933
 1685.5000     0.0148     0.0111     2.5362     9.0073   120.7491
 1686.0000     0.0122     0.0132     2.5280     9.0040   122.1558
 1686.5000     0.0179     0.0151     2.5289     9.0007   120.7904
 1687.0000     0.0170     0.0167     2.5250     8.9975   118.7010
 1687.5000     0.0115     0.0191     2.5166     8.9942   120.4421
 1688.0000     0.0061     0.0207     2.5215     8.9909   126.8013
 1688.5000     0.0039     0.0202     2.5165     8.9876   125.0691
 1689.0000     0.0037     0.0191     2.5215     8.9844   122.0631
 1689.5000     0.0068     0.0176     2.5190     8.9810   120.0598
 1690.0000     0.0124     0.0151     2.5306     8.9799   118.7499
 1690.5000     0.0137     0.0183     2.5266     8.9800   120.2379
 1691.0000     0.0055     0.0245     2.5113     8.9800   125.2927
 1691.5000    -0.0025     0.0263     2.5114     8.9800   129.2718
 1692.0000    -0.0113     0.0265     2.5090     8.9800   127.3727
 1692.5000    -0.0164     0.0266     2.5063     8.9800   126.2103
 1693.0000    -0.0157     0.0268     2.5041     8.9800   124.8814
 1693.5000    -0.0163     0.0269     2.5018     8.9800   123.6893
 1694.0000    -0.0131     0.0271     2.5010     8.9800   124.2924
 1694.5000    -0.0071     0.0271     2.5070     8.9800   127.2390
 1695.0000    -0.0039     0.0247     2.5113     8.9800   129.1057
 1695.5000    -0.0053     0.0254     2.5096     8.9800   131.0769
 1696.0000    -0.0061     0.0263     2.5095     8.9800   132.7369
 1696.5000    -0.0070     0.0251     2.5110     8.9800   131.2843
 1697.0000    -0.0079     0.0239     2.5089     8.9800   132.4848
 1697.5000    -0.0080     0.0239     2.5115     8.9800   129.5356
 1698.0000    -0.0080     0.0207     2.5222     8.9800   127.4811
 1698.5000    -0.0080     0.0215     2.5208     8.9800   124.4496
 1699.0000    -0.0085     0.0255     2.5084     8.9800   122.7431
 1699.5000    -0.0118     0.0330     2.4944     8.9800   124.0919
 1700.0000    -0.0148     0.0390     2.4894     8.9799   126.8327
 1700.5000    -0.0046     0.0255     2.4997     8.9812   125.6831
 1701.0000     0.0037     0.0232     2.5073     8.9847  -999.2500
 1701.5000     0.0130     0.0206     2.5162     8.9880  -999.2500
 1702.0000     0.0217     0.0183     2.5090     8.9913  -999.2500
 1702.5000     0.0314     0.0239     2.5104     8.9947  -999.2500
 1703.0000     0.0403     0.0226     2.5171     8.9979  -999.2500
 1703.5000     0.0501     0.0215     2.5129     9.0014  -999.2500
 1704.0000     0.0599     0.0223     2.5030     9.0046  -999.2500
 1704.5000     0.0698     0.0206     2.5132     9.0079  -999.2500
 1705.0000     0.0788     0.0177     2.5386     9.0119  -999.2500
 1705.5000     0.0841     0.0148     2.5482     9.0136  -999.2500
 1706.0000     0.0760     0.0119     2.5365     9.0189  -999.2500
 1706.5000     0.0763     0.0089     2.5474     9.0263  -999.2500
 1707.0000     0.0769     0.0072     2.5177     9.0649  -999.2500
 1707.5000     0.0618     0.0215     2.5138     9.0193  -999.2500
 1708.0000     0.0499     0.0247     2.5127     9.0377  -999.2500
