~VERSION INFORMATION
 VERS.                2.0:   CWLS LOG ASCII STANDARD - VERSION 2.0
 WRAP.                 NO:   ONE LINE PER DEPTH STEP
~WELL INFORMATION
#MNEM.UNIT      DATA TYPE    INFORMATION
#----------   ------------   ------------------------------
 STRT.F            0.0000:   START DEPTH
 STOP.F         2258.0000:   STOP DEPTH
 STEP.F            0.5000:   STEP LENGTH
 NULL.          -999.2500:   NO VALUE
 COMP. BROWN JOHN E&C INC:   COMPANY
 WELL. NPR-3-STX-6-SX-10 #73-10:   WELL
 FLD .             TEAPOT:   FIELD
 LOC .      S10 T38N R78W:   LOCATION
 CNTY.            NATRONA:   COUNTY
 STAT.            WYOMING:   STATE
 CTRY. UNITED STATES OF AMERICA:   COUNTRY
 SRVC.            Unknown:   SERVICE COMPANY
 DATE.        09-APR-1993:   LOGDATE
 API .       490251091200:   API NUMBER
~CURVE INFORMATION
#MNEM.UNIT       API CODE    CURVE DESCRIPTION
#----------   ------------   ------------------------------
 DEPT.F                  :   
 GR  .GAPI   81 310 01 00:   GAMMA RAY
 DT  .US/F   81 520 00 00:   DELTA SONIC
 ROP .MIN/FT 91 810 01 00:   RATE OF DRILLING PENETRATION
 TGAS.UNITS  91 830 01 00:   TOTAL GAS FROM HOTWIRE
~PARAMETER INFORMATION
#MNEM.UNIT          VALUE    DESCRIPTION
#----------   ------------   ------------------------------
 PD  .                 GL:   PERMANENT DATUM
 LMF .                 GL:   LOG MEASURED FROM
 DMF .                 GL:   DRILLING MEASURED FROM
 DATE.             4-9-93:   RUN DATE
 RUN .                  1:   RUN NUMBER
 DD  .F               442:   DEPTH DRILLER
 TCS .HRS            1000:   TIME CURCULATED STOPPED
 TLAB.HRS            1100:   TIME LOGGER AT BOTTOM
 LUN .                509:   LOGGING UNIT NUMBER
 LUL .           GILLETTE:   LOGGING UNIT LOCATION
 ENGI.            METCALF:   RECORDING ENGINEER
 WITN.              SYLAR:   WITNESSED BY
 CLNT.            A2DTECH:   CLIENT CODE
 ORIG.           5" PRINT:   ORIGIN OF DATA
 UWI .       490251091200:   UNIQUE WELL ID
 DICO. A2D Technologies, Inc.:   DIGITIZING COMPANY
~OTHER INFORMATION
~A    DEPT       GR        DT        ROP       TGAS   
# ...
 1533.0000  -999.2500  -999.2500     0.3542  1123.7902
 1533.5000  -999.2500  -999.2500     0.3574  1115.1318
 1534.0000  -999.2500  -999.2500     0.3564  1106.4747
 1534.5000  -999.2500  -999.2500     0.3552  1097.8031
 1535.0000  -999.2500  -999.2500     0.3541  1089.1327
 1535.5000  -999.2500  -999.2500     0.3530  1080.4637
 1536.0000  -999.2500  -999.2500     0.3519  1071.7949
 1536.5000  -999.2500  -999.2500     0.3508  1063.1261
 1537.0000  -999.2500  -999.2500     0.3497  1054.4565
 1537.5000  -999.2500  -999.2500     0.3486  1045.7765
 1538.0000  -999.2500  -999.2500     0.3475  1037.1218
 1538.5000  -999.2500  -999.2500     0.3464  1027.9540
 1539.0000  -999.2500  -999.2500     0.3460  1021.2888
 1539.5000  -999.2500  -999.2500     0.3497  1016.4341
 1540.0000  -999.2500  -999.2500     0.3535  1010.9167
 1540.5000  -999.2500  -999.2500     0.3606  1005.4466
 1541.0000  -999.2500  -999.2500     0.3562   999.9848
 1541.5000  -999.2500  -999.2500     0.3370   994.5197
 1542.0000  -999.2500  -999.2500     0.3169   989.0545
 1542.5000  -999.2500  -999.2500     0.2961   983.5894
 1543.0000  -999.2500  -999.2500     0.2953   978.1243
 1543.5000  -999.2500  -999.2500     0.2967   972.6591
 1544.0000  -999.2500  -999.2500     0.2979   967.1940
 1544.5000  -999.2500  -999.2500     0.2991   961.7264
 1545.0000  -999.2500  -999.2500     0.3002   956.2529
 1545.5000  -999.2500  -999.2500     0.3014   950.7850
 1546.0000  -999.2500  -999.2500     0.3025   945.9225
 1546.5000  -999.2500  -999.2500     0.3037   945.8225
 1547.0000  -999.2500  -999.2500     0.3049   945.0552
 1547.5000  -999.2500  -999.2500     0.3061   944.2957
 1548.0000  -999.2500  -999.2500     0.3073   943.5417
 1548.5000  -999.2500  -999.2500     0.3151   942.7877
 1549.0000  -999.2500  -999.2500     0.3296   942.0335
 1549.5000  -999.2500  -999.2500     0.3440   941.2794
 1550.0000  -999.2500  -999.2500     0.3586   940.5251
 1550.5000  -999.2500  -999.2500     0.3730   939.7709
 1551.0000  -999.2500  -999.2500     0.3834   939.0168
 1551.5000  -999.2500  -999.2500     0.3832   938.2626
 1552.0000  -999.2500  -999.2500     0.3832   937.5084
 1552.5000  -999.2500  -999.2500     0.3832   936.7542
 1553.0000  -999.2500  -999.2500     0.3832   936.0000
 1553.5000  -999.2500  -999.2500     0.3832   935.2458
 1554.0000  -999.2500  -999.2500     0.3832   934.4916
 1554.5000  -999.2500  -999.2500     0.3832   933.7374
 1555.0000  -999.2500  -999.2500     0.3832   932.9832
 1555.5000  -999.2500  -999.2500     0.3832   932.2291
 1556.0000  -999.2500  -999.2500     0.3832   931.4749
 1556.5000  -999.2500  -999.2500     0.3832   930.7206
 1557.0000  -999.2500  -999.2500     0.3832   929.9665
 1557.5000  -999.2500  -999.2500     0.3832   929.2120
 1558.0000  -999.2500  -999.2500     0.3832   928.4566
 1558.5000  -999.2500  -999.2500     0.3832   927.7018
 1559.0000  -999.2500  -999.2500     0.3832   927.0300
 1559.5000  -999.2500  -999.2500     0.3830   927.0218
 1560.0000  -999.2500  -999.2500     0.3917   927.0247
 1560.5000  -999.2500  -999.2500     0.4037   927.0250
 1561.0000  -999.2500  -999.2500     0.4157   927.0251
 1561.5000  -999.2500  -999.2500     0.4278   927.0251
 1562.0000  -999.2500  -999.2500     0.4325   927.0251
 1562.5000  -999.2500  -999.2500     0.4310   927.0251
 1563.0000  -999.2500  -999.2500     0.4294   927.0251
 1563.5000  -999.2500  -999.2500     0.4278   927.0251
 1564.0000  -999.2500  -999.2500     0.4262   927.0251
 1564.5000  -999.2500  -999.2500     0.4246   927.0251
 1565.0000  -999.2500  -999.2500     0.4230   927.0251
 1565.5000  -999.2500  -999.2500     0.4215   927.0251
 1566.0000  -999.2500  -999.2500     0.4199   927.0251
 1566.5000  -999.2500  -999.2500     0.4183   927.0251
 1567.0000  -999.2500  -999.2500     0.4167   927.0251
 1567.5000  -999.2500  -999.2500     0.4151   927.0251
 1568.0000  -999.2500  -999.2500     0.4135   927.0251
 1568.5000  -999.2500  -999.2500     0.4120   927.0251
 1569.0000  -999.2500  -999.2500     0.4104   927.0251
 1569.5000  -999.2500  -999.2500     0.4083   927.0251
 1570.0000  -999.2500  -999.2500     0.4274   927.0251
 1570.5000  -999.2500  -999.2500     0.4547   927.0251
 1571.0000  -999.2500  -999.2500     0.4821   927.0251
 1571.5000  -999.2500  -999.2500     0.5096   927.0251
 1572.0000  -999.2500  -999.2500     0.5371   927.0251
 1572.5000  -999.2500  -999.2500     0.5645   927.0251
 1573.0000  -999.2500  -999.2500     0.5918   927.0251
 1573.5000  -999.2500  -999.2500     0.6102   927.0251
 1574.0000  -999.2500  -999.2500     0.6118   927.0251
 1574.5000  -999.2500  -999.2500     0.6137   927.0251
 1575.0000  -999.2500  -999.2500     0.6155   927.0251
 1575.5000  -999.2500  -999.2500     0.6173   927.0251
 1576.0000  -999.2500  -999.2500     0.6192   927.0251
 1576.5000  -999.2500  -999.2500     0.6210   927.0251
 1577.0000  -999.2500  -999.2500     0.6228   927.0251
 1577.5000  -999.2500  -999.2500     0.6247   927.0251
 1578.0000  -999.2500  -999.2500     0.6265   927.0251
 1578.5000  -999.2500  -999.2500     0.6284   927.0251
 1579.0000  -999.2500  -999.2500     0.6302   927.0261
 1579.5000  -999.2500  -999.2500     0.6320   927.0292
 1580.0000  -999.2500  -999.2500     0.6344   927.0060
 1580.5000  -999.2500  -999.2500     0.6161   926.5527
 1581.0000  -999.2500  -999.2500     0.5902   926.1138
 1581.5000  -999.2500  -999.2500     0.5642   925.6791
 1582.0000  -999.2500  -999.2500     0.5380   925.2449
 1582.5000  -999.2500  -999.2500     0.5121   924.8105
 1583.0000  -999.2500  -999.2500     0.5004   924.3762
 1583.5000  -999.2500  -999.2500     0.4906   923.9420
 1584.0000  -999.2500  -999.2500     0.4757   923.5076
 1584.5000  -999.2500  -999.2500     0.4427   923.0733
 1585.0000  -999.2500  -999.2500     0.4101   922.6390
 1585.5000  -999.2500  -999.2500     0.3776   922.2045
 1586.0000  -999.2500  -999.2500     0.3453   921.7265
 1586.5000  -999.2500  -999.2500     0.3196   921.2623
 1587.0000  -999.2500  -999.2500     0.3214   921.4250
 1587.5000  -999.2500  -999.2500     0.3228   930.9386
 1588.0000  -999.2500  -999.2500     0.3241   933.6306
 1588.5000  -999.2500  -999.2500     0.3255   933.4030
 1589.0000  -999.2500  -999.2500     0.3268   933.2981
 1589.5000  -999.2500  -999.2500     0.3282   933.3101
 1590.0000  -999.2500  -999.2500     0.3295   933.3101
 1590.5000  -999.2500  -999.2500     0.3308   933.3101
 1591.0000  -999.2500  -999.2500     0.3322   933.3101
 1591.5000  -999.2500  -999.2500     0.3335   933.3101
 1592.0000  -999.2500  -999.2500     0.3349   933.3101
 1592.5000  -999.2500  -999.2500     0.3362   933.3101
 1593.0000  -999.2500  -999.2500     0.3375   933.3101
 1593.5000  -999.2500  -999.2500     0.3389   933.3101
 1594.0000  -999.2500  -999.2500     0.3402   933.3101
 1594.5000  -999.2500  -999.2500     0.3415   933.3101
 1595.0000  -999.2500  -999.2500     0.3429   933.3101
 1595.5000  -999.2500  -999.2500     0.3442   933.3101
 1596.0000  -999.2500  -999.2500     0.3456   933.3101
 1596.5000  -999.2500  -999.2500     0.3469   933.3101
 1597.0000  -999.2500  -999.2500     0.3482   933.3101
 1597.5000  -999.2500  -999.2500     0.3496   933.3101
 1598.0000  -999.2500  -999.2500     0.3509   933.3101
 1598.5000  -999.2500  -999.2500     0.3523   933.3101
 1599.0000  -999.2500  -999.2500     0.3536   933.3101
 1599.5000  -999.2500  -999.2500     0.3549   933.3101
 1600.0000  -999.2500  -999.2500     0.3563   933.3101
 1600.5000  -999.2500  -999.2500     0.3575   933.3101
 1601.0000  -999.2500  -999.2500     0.3648   933.3101
 1601.5000  -999.2500  -999.2500     0.3747   933.3101
 1602.0000  -999.2500  -999.2500     0.3846   933.3101
 1602.5000  -999.2500  -999.2500     0.3945   933.3101
 1603.0000  -999.2500  -999.2500     0.4044   933.3101
 1603.5000  -999.2500  -999.2500     0.4104   933.3101
 1604.0000  -999.2500  -999.2500     0.4141   933.3101
 1604.5000  -999.2500  -999.2500     0.4176   933.3101
 1605.0000  -999.2500  -999.2500     0.4212   933.3101
 1605.5000  -999.2500  -999.2500     0.4248   933.3101
