~VERSION INFORMATION
 VERS.                2.0:   CWLS LOG ASCII STANDARD - VERSION 2.0
 WRAP.                 NO:   ONE LINE PER DEPTH STEP
~WELL INFORMATION
#MNEM.UNIT      DATA TYPE    INFORMATION
#----------   ------------   ------------------------------
 STRT.F          630.0000:   START DEPTH
 STOP.F         1708.0000:   STOP DEPTH
 STEP.F            0.5000:   STEP LENGTH
 NULL.          -999.2500:   NO VALUE
 COMP. FENIX & SCISSON INC:   COMPANY
 WELL.      SHX 34 #58-34:   WELL
 FLD .             TEAPOT:   FIELD
 LOC .      S34 T39N R78W:   LOCATION
 CNTY.            NATRONA:   COUNTY
 STAT.            WYOMING:   STATE
 CTRY. UNITED STATES OF AMERICA:   COUNTRY
 SRVC.           BIRDWELL:   SERVICE COMPANY
 DATE.        28-MAR-1979:   LOGDATE
 API .       490251077400:   API NUMBER
~CURVE INFORMATION
#MNEM.UNIT       API CODE    CURVE DESCRIPTION
#----------   ------------   ------------------------------
 DEPT.F                  :   
 CORR.G/C3   45 356 01 00:   DENSITY CORRECTION
 DPHI.DEC    45 890 12 00:   DENSITY POROSITY SANDSTONE
 RHOB.G/C3   45 350 01 00:   BULK DENSITY
 CALD.IN     45 280 60 00:   CALIPER
 GRD .GAPI   45 310 01 00:   GAMMA RAY FROM DENSITY LOG
~PARAMETER INFORMATION
#MNEM.UNIT          VALUE    DESCRIPTION
#----------   ------------   ------------------------------
 PD  .                 GL:   PERMANENT DATUM
 EPD .F              5120:   ELEVATION PERMANENT DATUM
 LMF .                 KB:   LOG MEASURED FROM
 DAPD.F                10:   FEET ABOVE PERMANENT DATUM
 DMF .                 KB:   DRILLING MEASURED FROM
 EKB .F              5130:   KELLING BUSHING
 EGL .F              5120:   GROUND LEVEL
 DATE.            3-28-79:   RUN DATE
 RUN .                  2:   RUN NUMBER
 DD  .F              1720:   DEPTH DRILLER
 DL  .F              1708:   DEPTH LOGGER
 BLI .F              1708:   BOTTOM LOG INTERVAL
 TLI .F               649:   TOP LOG INTERVAL
 CS  .IN            9.625:   CASING SIZE
 CBD .F               639:   CASING BOTTOM DRILLER
 CBL .F               646:   CASING BOTTOM LOGGER
 BS  .IN             8.75:   BIT SIZE
 BSD .F              1720:   BIT SIZE AT DEPTH
 DFT .                OIL:   DRILLING FLUID TYPE
 TCS .HRS               3:   TIME CURCULATED STOPPED
 MRT .F               150:   MAXIMUM RECORDED TEMPERATURE
 LUN .               2959:   LOGGING UNIT NUMBER
 LUL .             CASPER:   LOGGING UNIT LOCATION
 ENGI.         B. ROLLINS:   RECORDING ENGINEER
 WITN.              AMEND:   WITNESSED BY
 CLNT.            A2DTECH:   CLIENT CODE
 ORIG.           5" PRINT:   ORIGIN OF DATA
 UWI .       490251077400:   UNIQUE WELL ID
 DICO. A2D Technologies, Inc.:   DIGITIZING COMPANY
~OTHER INFORMATION
~A   DEPT     CORR       DPHI       RHOB       CALD         GRD  
# ...
 1545.0000     0.0373     0.0105     2.5124     9.0865   122.4264
 1545.5000     0.0365     0.0139     2.5184     9.0849   124.1883
 1546.0000     0.0428     0.0159     2.5336     9.0582   123.0868
 1546.5000     0.0484     0.0170     2.5348     9.0843   121.2275
 1547.0000     0.0581     0.0183     2.5258     9.0980   117.4587
 1547.5000     0.0746     0.0087     2.5477     9.0939   112.5970
 1548.0000     0.0702     0.0040     2.5418     8.9893   115.6581
 1548.5000     0.0729     0.0180     2.5222     8.8631   123.4246
 1549.0000     0.0914     0.0193     2.5194     8.7793   125.3469
 1549.5000     0.1005     0.0223     2.5137     8.7407   122.5576
 1550.0000     0.1339     0.0349     2.5014     8.8417   120.3984
 1550.5000     0.1511     0.0243     2.5136     8.9406   118.1994
 1551.0000     0.1433     0.0494     2.4745     9.0425   115.7310
 1551.5000     0.1598     0.0417     2.4867     9.1375   114.4916
 1552.0000     0.2079     0.0275     2.5094     9.1059   115.0155
 1552.5000     0.2434    -0.0057     2.4949     8.9808   116.6032
 1553.0000     0.2727    -0.0355     2.5784     8.8428   118.9801
 1553.5000     0.3041    -0.0566     2.6498     8.7545   123.0813
 1554.0000     0.2955    -0.0134     2.6060     8.7352   129.3353
 1554.5000     0.2520     0.0916     2.4913     8.5292   127.6340
 1555.0000     0.1150     0.0924     2.4042     8.3712   122.0861
 1555.5000     0.0209     0.0765     2.4126     8.5707   117.7909
 1556.0000     0.0343     0.0481     2.4638     8.5632   115.4486
 1556.5000     0.0554     0.0351     2.5028     8.3855   118.1870
 1557.0000     0.0661     0.0414     2.4985     8.3484   122.5432
 1557.5000     0.0291     0.0693     2.4568     8.6338   120.4224
 1558.0000     0.0016     0.0600     2.4351     8.7587   113.4921
 1558.5000     0.0004     0.0486     2.4564     8.8370   116.0086
 1559.0000    -0.0043     0.0606     2.4713     8.9098   109.6553
 1559.5000    -0.0133     0.0446     2.4788     8.9650   107.8808
 1560.0000    -0.0231     0.0307     2.4898     9.0062   113.3393
 1560.5000    -0.0143     0.0209     2.5092     9.0461   115.5627
 1561.0000    -0.0047     0.0143     2.5282     9.0875   116.0112
 1561.5000    -0.0002     0.0155     2.5385     9.1012   117.8366
 1562.0000    -0.0123     0.0168     2.5285     9.1002   120.4232
 1562.5000    -0.0158     0.0175     2.5236     9.1001   118.8613
 1563.0000    -0.0103     0.0173     2.5236     9.1003   118.3138
 1563.5000    -0.0058     0.0169     2.5293     9.1001   120.9156
 1564.0000    -0.0004     0.0163     2.5354     9.1001   121.4362
 1564.5000    -0.0001     0.0158     2.5384     9.1000   120.5298
 1565.0000     0.0000     0.0153     2.5347     9.1000   119.8254
 1565.5000    -0.0001     0.0148     2.5312     9.1000   121.8938
 1566.0000     0.0004     0.0143     2.5324     9.1000   123.1980
 1566.5000     0.0025     0.0146     2.5349     9.0999   123.2563
 1567.0000     0.0042     0.0153     2.5304     9.0987   122.5997
 1567.5000     0.0065     0.0159     2.5171     9.0974   119.2289
 1568.0000     0.0085     0.0160     2.5225     9.0961   118.4460
 1568.5000     0.0165     0.0089     2.5429     9.0948   116.6730
 1569.0000     0.0234     0.0064     2.5338     9.0934   113.8493
 1569.5000     0.0306     0.0036     2.5646     9.0921   117.9433
 1570.0000     0.0379    -0.0023     2.5598     9.0908   123.8012
 1570.5000     0.0377     0.0118     2.5417     9.0895   122.6271
 1571.0000     0.0340     0.0145     2.5277     9.0882   120.0733
 1571.5000     0.0342     0.0092     2.5364     9.0869   115.2980
 1572.0000     0.0423    -0.0009     2.5522     9.0856   108.9574
 1572.5000     0.0474    -0.0056     2.5603     9.0842   111.5182
 1573.0000     0.0368     0.0016     2.5497     9.0829   118.3552
 1573.5000     0.0302     0.0024     2.5471     9.0816   120.7591
 1574.0000     0.0260     0.0058     2.5520     9.0803   123.7355
 1574.5000     0.0081     0.0136     2.5354     9.0790   121.5983
 1575.0000     0.0005     0.0183     2.5250     9.0777   115.9711
 1575.5000     0.0047     0.0151     2.5301     9.0764   117.9812
 1576.0000     0.0075     0.0096     2.5402     9.0750   122.1115
 1576.5000     0.0030     0.0098     2.5386     9.0737   124.0570
 1577.0000    -0.0018     0.0104     2.5338     9.0724   120.1552
 1577.5000    -0.0043     0.0148     2.5253     9.0711   118.6476
 1578.0000    -0.0036     0.0199     2.5212     9.0698   117.8352
 1578.5000    -0.0023     0.0184     2.5271     9.0685   120.3997
 1579.0000    -0.0012     0.0168     2.5286     9.0672   123.3574
 1579.5000    -0.0002     0.0182     2.5216     9.0658   121.3893
 1580.0000    -0.0032     0.0226     2.5145     9.0645   115.3248
 1580.5000    -0.0059     0.0247     2.5131     9.0632   119.5854
 1581.0000    -0.0075     0.0191     2.5212     9.0619   120.6827
 1581.5000    -0.0059     0.0219     2.5164     9.0606   118.9710
 1582.0000    -0.0041     0.0263     2.5113     9.0593   125.7506
 1582.5000    -0.0020     0.0231     2.5134     9.0579   124.4607
 1583.0000     0.0004     0.0156     2.5253     9.0565   122.6492
 1583.5000     0.0031     0.0112     2.5362     9.0551   126.9332
 1584.0000     0.0028     0.0112     2.5350     9.0538   129.6926
 1584.5000    -0.0002     0.0175     2.5286     9.0524   129.6220
 1585.0000     0.0037     0.0182     2.5241     9.0510   126.6578
 1585.5000     0.0117     0.0188     2.5235     9.0497   123.6947
 1586.0000     0.0162     0.0195     2.5235     9.0483   120.5898
 1586.5000     0.0207     0.0199     2.5255     9.0469   117.5236
 1587.0000     0.0251     0.0090     2.5339     9.0456   114.6470
 1587.5000     0.0301     0.0045     2.5440     9.0442   111.7685
 1588.0000     0.0289     0.0040     2.5498     9.0428   113.6970
 1588.5000     0.0213     0.0065     2.5434     9.0414   119.0891
 1589.0000     0.0144     0.0102     2.5339     9.0401   120.8291
 1589.5000     0.0100     0.0139     2.5286     9.0387   115.6435
 1590.0000     0.0067     0.0167     2.5247     9.0373   117.9554
 1590.5000     0.0036     0.0143     2.5210     9.0360   121.2300
 1591.0000     0.0005     0.0183     2.5193     9.0346   119.6174
 1591.5000    -0.0027     0.0199     2.5245     9.0332   118.5278
 1592.0000    -0.0058     0.0210     2.5197     9.0319   117.4454
 1592.5000    -0.0090     0.0215     2.5166     9.0305   117.2525
 1593.0000    -0.0119     0.0183     2.5232     9.0291   117.8562
 1593.5000    -0.0152     0.0211     2.5162     9.0278   114.0767
 1594.0000    -0.0124     0.0263     2.5099     9.0264   115.0717
 1594.5000    -0.0070     0.0175     2.5207     9.0250   120.4067
 1595.0000    -0.0041     0.0104     2.5376     9.0237   118.3492
 1595.5000    -0.0057     0.0119     2.5322     9.0223   121.1348
 1596.0000    -0.0069     0.0220     2.5139     9.0208   124.2418
 1596.5000    -0.0079     0.0287     2.5077     9.0201   120.7527
 1597.0000    -0.0080     0.0207     2.5152     9.0210   117.9970
 1597.5000    -0.0080     0.0159     2.5258     9.0216   116.9278
 1598.0000    -0.0080     0.0123     2.5299     9.0223   115.6919
 1598.5000    -0.0079     0.0088     2.5397     9.0231   121.4558
 1599.0000    -0.0079     0.0048     2.5502     9.0238   118.8594
 1599.5000    -0.0044     0.0055     2.5541     9.0245   115.6420
 1600.0000    -0.0002     0.0070     2.5497     9.0252   120.9394
 1600.5000     0.0037     0.0088     2.5397     9.0259   126.8679
 1601.0000     0.0022     0.0136     2.5295     9.0266   130.2661
 1601.5000     0.0008     0.0143     2.5273     9.0274   123.7771
 1602.0000    -0.0010     0.0143     2.5276     9.0281   124.7822
 1602.5000    -0.0026     0.0143     2.5287     9.0288   126.7329
 1603.0000    -0.0042     0.0186     2.5234     9.0295   124.9604
 1603.5000    -0.0058     0.0247     2.5165     9.0302   120.1926
 1604.0000    -0.0075     0.0236     2.5113     9.0309   118.2217
 1604.5000    -0.0080     0.0212     2.5169     9.0316   120.7065
 1605.0000    -0.0080     0.0191     2.5206     9.0323   122.4717
 1605.5000    -0.0080     0.0189     2.5224     9.0330   124.1081
