~VERSION INFORMATION
 VERS.                2.0:   CWLS LOG ASCII STANDARD - VERSION 2.0
 WRAP.                 NO:   ONE LINE PER DEPTH STEP
~WELL INFORMATION
#MNEM.UNIT      DATA TYPE    INFORMATION
#----------   ------------   ------------------------------
 STRT.F           46.0000:   START DEPTH
 STOP.F          472.0000:   STOP DEPTH
 STEP.F            0.5000:   STEP LENGTH
 NULL.          -999.2500:   NO VALUE
 COMP. BROWN JOHN E&C INC:   COMPANY
 WELL. NPR 3 SX10 1 #63-10:   WELL
 FLD .             TEAPOT:   FIELD
 LOC .      S10 T38N R78W:   LOCATION
 CNTY.            NATRONA:   COUNTY
 STAT.            WYOMING:   STATE
 CTRY. UNITED STATES OF AMERICA:   COUNTRY
 SRVC.       Schlumberger:   SERVICE COMPANY
 DATE.        01-OCT-1990:   LOGDATE
 API .       490251132000:   API NUMBER
~CURVE INFORMATION
#MNEM.UNIT       API CODE    CURVE DESCRIPTION
#----------   ------------   ------------------------------
 DEPT.F                  :   
 GRR .GAPI   07 310 01 00:   GAMMA RAY
 ILD .OHMM   07 120 46 00:   INDUCTION LOG DEEP
 ILM .OHMM   07 120 44 00:   INDUCTION LOG MEDIUM
~PARAMETER INFORMATION
#MNEM.UNIT          VALUE    DESCRIPTION
#----------   ------------   ------------------------------
 PD  .                 GL:   PERMANENT DATUM
 EPD .F            5182.0:   ELEVATION PERMANENT DATUM
 LMF .                 KB:   LOG MEASURED FROM
 DAPD.F              10.0:   FEET ABOVE PERMANENT DATUM
 DMF .                 KB:   DRILLING MEASURED FROM
 EKB .F            5192.0:   KELLING BUSHING
 EDF .F            5191.0:   DRILLING FLOOR
 EGL .F            5182.0:   GROUND LEVEL
 DATE.        01-OCT-1990:   RUN DATE
 RUN .                  1:   RUN NUMBER
 DD  .F               477:   DEPTH DRILLER
 DL  .F               478:   DEPTH LOGGER
 BLI .F               472:   BOTTOM LOG INTERVAL
 TLI .F                50:   TOP LOG INTERVAL
 CS  .IN            8.625:   CASING SIZE
 CBL .F                53:   CASING BOTTOM LOGGER
 BS  .IN            7.875:   BIT SIZE
 BSD .F               477:   BIT SIZE AT DEPTH
 DFT .                AIR:   DRILLING FLUID TYPE
 TLAB.HRS            1758:   TIME LOGGER AT BOTTOM
 LUN .               5882:   LOGGING UNIT NUMBER
 LUL .               CODY:   LOGGING UNIT LOCATION
 ENGI.        MIKE FISHER:   RECORDING ENGINEER
 WITN.       GARRY STRONG:   WITNESSED BY
 CLNT.            A2DTECH:   CLIENT CODE
 ORIG.           5" PRINT:   ORIGIN OF DATA
 UWI .       490251132000:   UNIQUE WELL ID
 DICO. A2D Technologies, Inc.:   DIGITIZING COMPANY
~OTHER INFORMATION
~A   DEPT      GRR        ILD        ILM   
# ...
  410.0000   130.4368     9.0217     9.4458
  410.5000   133.7462     9.8046    10.0551
  411.0000   134.1156    10.3637    10.5561
  411.5000   132.2201    10.5810    10.5561
  412.0000   129.1784    10.5803    10.5561
  412.5000   127.6774    10.5795    10.5561
  413.0000   129.2690    10.6523    10.7038
  413.5000   131.2773    10.9515    11.0053
  414.0000   133.3093    11.1813    11.2371
  414.5000   139.4073    11.4951    11.3943
  415.0000   140.9044    11.7362    11.6342
  415.5000   141.8009    12.0657    11.8792
  416.0000   141.1883    12.2336    12.1293
  416.5000   139.9728    12.4901    12.3847
  417.0000   138.4132    12.6638    12.5579
  417.5000   136.3348    12.8402    12.6455
  418.0000   139.3428    13.0186    12.7478
  418.5000   138.4267    13.2916    13.0017
  419.0000   136.3062    13.4765    13.1836
  419.5000   135.6940    13.5694    13.2755
  420.0000   135.0818    13.6693    13.4612
  420.5000   133.2629    13.7572    13.5550
  421.0000   130.5391    13.7562    13.6495
  421.5000   129.6252    13.7551    13.6495
  422.0000   131.7279    13.7541    13.6495
  422.5000   130.8141    13.7532    13.7447
  423.0000   128.3919    13.7522    13.8405
  423.5000   123.8581    13.6562    13.8405
  424.0000   120.5310    13.5608    13.9369
  424.5000   122.0885    13.5599    13.9369
  425.0000   123.2780    13.5589    13.8405
  425.5000   123.5209    13.4642    13.7447
  426.0000   123.5098    13.4633    13.6495
  426.5000   123.5009    13.4624    13.5550
  427.0000   123.7959    13.4615    13.4612
  427.5000   121.6731    13.4606    13.5550
  428.0000   119.8543    13.4596    13.4612
  428.5000   118.6388    13.3576    13.4612
  429.0000   117.7249    13.0893    13.4612
  429.5000   117.4143    12.8185    13.4612
  430.0000   117.1038    12.6409    13.1836
  430.5000   116.7932    12.4658    12.8224
  431.0000   116.7843    12.3787    12.5579
  431.5000   117.1001    12.1228    12.2138
  432.0000   119.6470    12.0381    12.0453
  432.5000   125.5043    11.7893    11.8792
  433.0000   128.5120    11.7069    11.7153
  433.5000   128.8070    11.4649    11.5537
  434.0000   128.1925    11.3848    11.4737
  434.5000   125.4687    11.1494    11.3044
  435.0000   122.7449    10.9950    11.1593
  435.5000   122.1327    10.8427    10.9292
  436.0000   121.5204    10.7669    10.8535
  436.5000   122.4165    10.6917    10.7784
  437.0000   123.3665    10.6170    10.7038
  437.5000   124.2760    10.5429    10.6297
  438.0000   125.4057    10.5420    10.5561
  438.5000   127.5084    10.3960    10.2669
  439.0000   127.8012    10.1810     9.9855
  439.5000   125.9801     9.9706     9.9164
  440.0000   127.1779    10.0393    10.0551
  440.5000   132.2972    10.2499    10.1958
  441.0000   133.7966    10.3926    10.3384
  441.5000   132.8827    10.4643    10.4105
  442.0000   129.2539    10.2477    10.3356
  442.5000   127.7367    10.0359    10.1182
  443.0000   128.3311     9.8969     9.9855
  443.5000   129.5289     9.8277     9.8478
  444.0000   130.7266     9.8271     9.7796
  444.5000   132.2260     9.6909     9.7119
  445.0000   132.8306     9.5567     9.4458
  445.5000   132.8115     9.3591     9.3155
  446.0000   133.1362     9.1656     9.1870
  446.5000   134.3549     9.0385     9.1234
  447.0000   136.1009     8.9754     9.1234
  447.5000   137.2986     8.9747     9.1234
  448.0000   137.8931     8.9121     8.9975
  448.5000   137.2808     8.8498     8.8734
  449.0000   136.0653     8.7272     8.7510
  449.5000   135.1514     8.5468     8.5112
  450.0000   135.1427     8.3701     8.3357
  450.5000   136.9457     8.3123     8.2112
  451.0000   137.2498     8.3701     8.1072
  451.5000  -999.2500     8.4871     8.2780
  452.0000  -999.2500     8.6058     8.5112
  452.5000  -999.2500     8.7261     8.7510
  453.0000  -999.2500     8.9097     8.9352
  453.5000  -999.2500     9.0971     8.9975
  454.0000  -999.2500     9.2929     9.1870
  454.5000  -999.2500     9.6166     9.5116
  455.0000  -999.2500     9.9561     9.9164
  455.5000  -999.2500    10.2364    10.1958
  456.0000  -999.2500    10.4518    10.4105
  456.5000  -999.2500    10.5979    10.6420
  457.0000  -999.2500    10.8209    10.8535
  457.5000  -999.2500    10.8963    10.9292
  458.0000  -999.2500    10.8963    10.8535
  458.5000  -999.2500    10.8963    10.8535
  459.0000  -999.2500    10.8963    10.8535
  459.5000  -999.2500    10.7460    10.8535
  460.0000  -999.2500    10.5979    10.6297
  460.5000  -999.2500    10.4518     9.9164
  461.0000  -999.2500    10.3077     9.8478
  461.5000  -999.2500    10.1656    10.0551
  462.0000  -999.2500    10.0255    10.2669
  462.5000  -999.2500     9.9561    10.3504
  463.0000  -999.2500     9.8873    10.5561
  463.5000  -999.2500     9.7510    10.4830
  464.0000  -999.2500     9.7510    10.3384
  464.5000  -999.2500     9.5500    10.1958
  465.0000  -999.2500     9.2885     9.9855
  465.5000  -999.2500     9.0914     9.6225
  466.0000  -999.2500     8.7869     8.9352
  466.5000  -999.2500     8.4284     8.6302
  467.0000  -999.2500     8.1977     8.4523
  467.5000  -999.2500     8.0847     8.2780
  468.0000  -999.2500     8.0828     8.1072
  468.5000  -999.2500     8.0847     7.9218
  469.0000  -999.2500     8.1410     7.0069
  469.5000  -999.2500     8.2548     6.2265
  470.0000  -999.2500     8.2548     5.2704
  470.5000  -999.2500     8.1977     4.2902
  471.0000  -999.2500     8.0847     3.9643
  471.5000  -999.2500     8.1410     3.9096
  472.0000  -999.2500     8.1977     3.8825
