~VERSION INFORMATION
 VERS.                2.0:   CWLS LOG ASCII STANDARD - VERSION 2.0
 WRAP.                 NO:   ONE LINE PER DEPTH STEP
~WELL INFORMATION
#MNEM.UNIT      DATA TYPE    INFORMATION
#----------   ------------   ------------------------------
 STRT.F            0.0000:   START DEPTH
 STOP.F         4535.0000:   STOP DEPTH
 STEP.F            0.5000:   STEP LENGTH
 NULL.          -999.2500:   NO VALUE
 COMP.   FLUOR DANIEL INC:   COMPANY
 WELL.     56 X 15 #56-15:   WELL
 FLD .             TEAPOT:   FIELD
 LOC .      S15 T38N R78W:   LOCATION
 CNTY.            NATRONA:   COUNTY
 STAT.            WYOMING:   STATE
 CTRY. UNITED STATES OF AMERICA:   COUNTRY
 SRVC.      Dresser Atlas:   SERVICE COMPANY
 DATE.        03-MAY-1984:   LOGDATE
 API .       490252268500:   API NUMBER
~CURVE INFORMATION
#MNEM.UNIT       API CODE    CURVE DESCRIPTION
#----------   ------------   ------------------------------
 DEPT.F                  :   
 CNC .DEC    42 890 03 00:   NEUTRON POROSITY SANDSTONE
 PORD.DEC    45 890 12 00:   POROSITY DENSITY SANDSTONE
 RHOB.G/C3   45 350 01 00:   BULK DENSITY
 CORR.G/C3   45 356 01 00:   DENSITY CORRECTION
 DT  .US/F   60 520 00 00:   INTERVAL TRANSIT TIME
 RILD.OHMM   07 120 46 00:   INDUCTION LOG DEEP RESISTIVITY
 RILM.OHMM   07 120 44 00:   INDUCTION LOG MEDIUM RESISTIVITY
 CALR.IN     07 280 01 00:   CALIPER FROM RESISTIVITY
 GRR .GAPI   07 310 01 00:   GAMMA RAY FROM RESISTIVITY LOG
 SPR .MV     07 010 01 00:   SPONTANEOUS POTENTIAL
 RFOC.OHMM   07 220 04 00:   RESISTIVITY FOCUSED LOG
~PARAMETER INFORMATION
#MNEM.UNIT          VALUE    DESCRIPTION
#----------   ------------   ------------------------------
 PD  .                 GL:   PERMANENT DATUM
 EPD .F              5326:   ELEVATION PERMANENT DATUM
 LMF .                 KB:   LOG MEASURED FROM
 DAPD.F                12:   FEET ABOVE PERMANENT DATUM
 DMF .                 KB:   DRILLING MEASURED FROM
 EKB .F              5338:   KELLING BUSHING
 EDF .F              5337:   DRILLING FLOOR
 EGL .F              5326:   GROUND LEVEL
 DATE.        03-MAY-1984:   RUN DATE
 RUN .                  1:   RUN NUMBER
 DD  .F              4547:   DEPTH DRILLER
 DL  .F              4539:   DEPTH LOGGER
 BLI .F              4536:   BOTTOM LOG INTERVAL
 TLI .F              1021:   TOP LOG INTERVAL
 CS  .IN            8.625:   CASING SIZE
 CBD .F              1027:   CASING BOTTOM DRILLER
 CBL .F              1021:   CASING BOTTOM LOGGER
 BS  .IN            7.875:   BIT SIZE
 BSD .F              4547:   BIT SIZE AT DEPTH
 DFT .            KCL GEL:   DRILLING FLUID TYPE
 DFD .                9.1:   DRILLING FLUID DENSITY
 DFV .                 44:   DRILLING FLUID VISCOSITY
 DFPH.                  8:   DRILLING FLUID PH
 DFL .               14.5:   DRILLING FLUID LOSS
 MSS .            MUDTANK:   MUD SAMPLE SOURCE
 RMS .OHMM           0.56:   RESISTIVITY MUD SAMPLE
 MST .F                73:   MUD SAMPLE TEMPERATURE
 RMF .OHMM           0.42:   RESISTIVITY MUD FILTRATE SAMPLE
 MFST.F                73:   MUD FILTRATE SAMPLE TEMPERATURE
 RMC .OHMM           0.71:   RESISTIVITY MUD CAKE
 MCST.F                73:   MUD CAKE SAMPLE TEMPERATURE
 MFSS.               MEAS:   MUD FILTRATE SAMPLE SOURCE
 MCSS.               CALC:   MUD CAKE SAMPLE SOURCE
 RMB .OHMM           0.29:   RESISTIVITY MUD AT BHT
 BHT .F               141:   BOTTOM HOLE TEMPERATURE
 TCS .HRS             3.5:   TIME CURCULATED STOPPED
 MRT .F               125:   MAXIMUM RECORDED TEMPERATURE
 LUN .               6302:   LOGGING UNIT NUMBER
 LUL .               CODY:   LOGGING UNIT LOCATION
 ENGI.              GETTY:   RECORDING ENGINEER
 WITN.           JENNINGS:   WITNESSED BY
 CLNT.            A2DTECH:   CLIENT CODE
 ORIG.           5" PRINT:   ORIGIN OF DATA
 UWI .       490252268500:   UNIQUE WELL ID
 DICO. A2D Technologies, Inc.:   DIGITIZING COMPANY
~OTHER INFORMATION
~A    DEPT     CNC       PORD       RHOB       CORR         DT       RILD       RILM       CALR         GRR       SPR       RFOC   
# ...
 2196.0000  -999.2500  -999.2500  -999.2500  -999.2500  -999.2500     7.0256     7.0294     8.5973   107.5790   -23.2148     7.1273
 2196.5000  -999.2500  -999.2500  -999.2500  -999.2500  -999.2500     7.0247     7.0280     8.5968   104.5672   -23.2177     7.1282
 2197.0000  -999.2500  -999.2500  -999.2500  -999.2500  -999.2500     7.0237     7.0266     8.5964   104.2480   -23.0700     7.1292
 2197.5000  -999.2500  -999.2500  -999.2500  -999.2500  -999.2500     7.0228     7.0252     8.5960   106.0764   -22.9230     7.1302
 2198.0000  -999.2500  -999.2500  -999.2500  -999.2500  -999.2500     7.0218     7.0238     8.5954   105.1394   -22.9266     7.1810
 2198.5000  -999.2500  -999.2500  -999.2500  -999.2500  -999.2500     7.1189     7.0223     8.5800   102.7282   -22.7796     7.1820
 2199.0000  -999.2500  -999.2500  -999.2500  -999.2500  -999.2500     7.1180     7.1190     8.5646   100.0168   -22.6326     7.1830
 2199.5000  -999.2500  -999.2500  -999.2500  -999.2500  -999.2500     7.1168     7.2166     8.5564    99.4096   -22.6362     7.2340
 2200.0000  -999.2500  -999.2500  -999.2500  -999.2500  -999.2500     7.1302     7.2226     8.5564   103.2732   -22.9385     7.2854
 2200.5000  -999.2500  -999.2500  -999.2500  -999.2500  -999.2500     7.2139     7.2641     8.5714   106.3015   -22.7886     7.3371
 2201.0000  -999.2500  -999.2500  -999.2500  -999.2500  -999.2500     7.2121     7.3132     8.5714   105.9939   -22.6387     7.3388
 2201.5000  -999.2500  -999.2500  -999.2500  -999.2500  -999.2500     7.1608     7.3114     8.5564   105.3874   -22.4888     7.4426
 2202.0000  -999.2500  -999.2500  -999.2500  -999.2500  -999.2500     6.9635     6.9153     8.5564   106.2811   -22.4888     7.5480
 2202.5000  -999.2500  -999.2500  -999.2500  -999.2500  -999.2500     6.6783     6.4061     8.5564   107.4779   -22.3388     7.4967
 2203.0000  -999.2500  -999.2500  -999.2500  -999.2500  -999.2500     6.4048     5.9757     8.5414   107.7724   -22.3388     7.4464
 2203.5000  -999.2500  -999.2500  -999.2500  -999.2500  -999.2500     6.1853     5.6913     8.5113   106.5639   -21.8891     7.1439
 2204.0000  -999.2500  -999.2500  -999.2500  -999.2500  -999.2500     6.0567     5.6897     8.4962   102.6542   -21.1394     6.3059
 2204.5000  -999.2500  -999.2500  -999.2500  -999.2500  -999.2500     6.0613     5.8987     8.4812    99.3451   -20.2278     5.9251
 2205.0000  -999.2500  -999.2500  -999.2500  -999.2500  -999.2500     6.2676     6.2675     8.4361   102.0420   -19.6402     6.1356
 2205.5000  -999.2500  -999.2500  -999.2500  -999.2500  -999.2500     6.4874     6.5780     8.3759   105.6687   -20.0900     6.3976
 2206.0000  -999.2500  -999.2500  -999.2500  -999.2500  -999.2500     6.7150     6.8087     8.3292   106.8352   -20.8396     6.9544
 2206.5000  -999.2500  -999.2500  -999.2500  -999.2500  -999.2500     6.8548     7.0966     8.3008   106.2273   -21.5892     7.5597
 2207.0000  -999.2500  -999.2500  -999.2500  -999.2500  -999.2500     6.9975     7.3455     8.2707   104.1194   -22.3388     7.7739
 2207.5000  -999.2500  -999.2500  -999.2500  -999.2500  -999.2500     7.1929     7.6032     8.2707   103.8133   -22.6387     7.7752
 2208.0000  -999.2500  -999.2500  -999.2500  -999.2500  -999.2500     7.3426     7.6546     8.2556   105.6092   -22.9385     7.8306
 2208.5000  -999.2500  -999.2500  -999.2500  -999.2500  -999.2500     7.3922     7.6001     8.2556   113.1109   -23.2384     7.8320
 2209.0000  -999.2500  -999.2500  -999.2500  -999.2500  -999.2500     7.3393     7.2885     8.2556   112.7975   -23.5382     7.8879
 2209.5000  -999.2500  -999.2500  -999.2500  -999.2500  -999.2500     7.2871     6.8937     8.2406   107.5704   -23.6882     7.9444
 2210.0000  -999.2500  -999.2500  -999.2500  -999.2500  -999.2500     7.0863     6.6114     8.2406   103.7827   -23.9880     7.8908
 2210.5000  -999.2500  -999.2500  -999.2500  -999.2500  -999.2500     6.8910     6.3407     8.2406   102.5757   -24.1379     7.8372
 2211.0000  -999.2500  -999.2500  -999.2500  -999.2500  -999.2500     6.6548     6.1659     8.2406   102.5699   -23.9880     7.6243
 2211.5000  -999.2500  -999.2500  -999.2500  -999.2500  -999.2500     6.4714     6.0798     8.2256   103.7653   -22.9385     7.1142
 2212.0000  -999.2500  -999.2500  -999.2500  -999.2500  -999.2500     6.3351     6.0769     8.2256   107.3631   -21.7391     6.1932
 2212.5000  -999.2500  -999.2500  -999.2500  -999.2500  -999.2500     6.2917     6.2087     8.2256   108.9085   -21.1394     5.4289
 2213.0000  -999.2500  -999.2500  -999.2500  -999.2500  -999.2500     6.3781     6.4671     8.2256   105.8498   -20.9895     5.4758
 2213.5000  -999.2500  -999.2500  -999.2500  -999.2500  -999.2500     6.6018     6.6940     8.2256   105.5438   -21.4393     6.1112
 2214.0000  -999.2500  -999.2500  -999.2500  -999.2500  -999.2500     6.8334     6.9288     8.1955   106.7392   -21.8891     6.9255
 2214.5000  -999.2500  -999.2500  -999.2500  -999.2500  -999.2500     7.0242     7.1718     8.1955   107.3325   -22.4888     7.6336
 2215.0000  -999.2500  -999.2500  -999.2500  -999.2500  -999.2500     7.2706     7.4234     8.1805   107.6284   -22.7886     7.7955
 2215.5000  -999.2500  -999.2500  -999.2500  -999.2500  -999.2500     7.4736     7.5783     8.1805   107.9229   -23.0885     7.7968
 2216.0000  -999.2500  -999.2500  -999.2500  -999.2500  -999.2500     7.5792     7.7357     8.1805   103.4112   -23.3883     7.7981
 2216.5000  -999.2500  -999.2500  -999.2500  -999.2500  -999.2500     7.6276     7.7879     8.1805    95.8978   -23.8381     7.7994
 2217.0000  -999.2500  -999.2500  -999.2500  -999.2500  -999.2500     7.6257     7.7860     8.1805    94.0902   -24.4378     7.8008
 2217.5000  -999.2500  -999.2500  -999.2500  -999.2500  -999.2500     7.5191     7.7306     8.1805    95.8848   -25.1874     7.8024
 2218.0000  -999.2500  -999.2500  -999.2500  -999.2500  -999.2500     7.4657     7.6226     8.1805    96.1807   -25.7871     7.8037
 2218.5000  -999.2500  -999.2500  -999.2500  -999.2500  -999.2500     7.3613     7.5684     8.1805    97.9752   -26.0870     7.6974
 2219.0000  -999.2500  -999.2500  -999.2500  -999.2500  -999.2500     7.2585     7.4626     8.1805   102.1736   -25.9370     7.5923
 2219.5000  -999.2500  -999.2500  -999.2500  -999.2500  -999.2500     7.1570     7.3583     8.1955   108.4741   -25.4873     7.4374
 2220.0000  -999.2500  -999.2500  -999.2500  -999.2500  -999.2500     7.1029     7.2555     8.1955   111.7716   -25.1874     7.3869
 2220.5000  -999.2500  -999.2500  -999.2500  -999.2500  -999.2500     7.0552     7.2540     8.1955   112.6679   -24.8876     7.3884
 2221.0000  -999.2500  -999.2500  -999.2500  -999.2500  -999.2500     7.1029     7.2522     8.2008   110.1830   -24.7376     7.3386
 2221.5000  -999.2500  -999.2500  -999.2500  -999.2500  -999.2500     7.2007     7.3092     8.2105   108.7497   -24.8876     7.2386
 2222.0000  -999.2500  -999.2500  -999.2500  -999.2500  -999.2500     7.2497     7.3509     8.2105   110.2454   -24.7376     7.2401
 2222.5000  -999.2500  -999.2500  -999.2500  -999.2500  -999.2500     7.4002     7.4517     8.2256   111.4422   -24.4378     7.2918
 2223.0000  -999.2500  -999.2500  -999.2500  -999.2500  -999.2500     7.5022     7.5546     8.2406   110.8343   -24.1379     7.3950
 2223.5000  -999.2500  -999.2500  -999.2500  -999.2500  -999.2500     7.6583     7.7656     8.2406   109.0267   -23.8381     7.4477
 2224.0000  -999.2500  -999.2500  -999.2500  -999.2500  -999.2500     7.8177     8.0376     8.2406   107.5194   -23.6882     7.5918
 2224.5000  -999.2500  -999.2500  -999.2500  -999.2500  -999.2500     7.9801     8.2074     8.2406   105.9902   -23.6882     7.7439
 2225.0000  -999.2500  -999.2500  -999.2500  -999.2500  -999.2500     8.1462     8.3853     8.2406   103.5031   -23.8381     7.9318
 2225.5000  -999.2500  -999.2500  -999.2500  -999.2500  -999.2500     8.2587     8.4323     8.2406   101.1942   -23.9880     8.0663
 2226.0000  -999.2500  -999.2500  -999.2500  -999.2500  -999.2500     8.2567     8.4302     8.2406   101.4887   -24.2879     8.2722
