~VERSION INFORMATION
 VERS.                2.0:   CWLS LOG ASCII STANDARD - VERSION 2.0
 WRAP.                 NO:   ONE LINE PER DEPTH STEP
~WELL INFORMATION
#MNEM.UNIT      DATA TYPE    INFORMATION
#----------   ------------   ------------------------------
 STRT.F           27.0000:   START DEPTH
 STOP.F          538.0000:   STOP DEPTH
 STEP.F            0.5000:   STEP LENGTH
 NULL.          -999.2500:   NO VALUE
 COMP. FENIX & SCISSON INC:   COMPANY
 WELL.        NPR 3 #24-3:   WELL
 FLD .             TEAPOT:   FIELD
 LOC .       S3 T38N R78W:   LOCATION
 CNTY.            NATRONA:   COUNTY
 STAT.            WYOMING:   STATE
 CTRY. UNITED STATES OF AMERICA:   COUNTRY
 SRVC.            Unknown:   SERVICE COMPANY
 DATE.        26-SEP-1978:   LOGDATE
 API .       490251068800:   API NUMBER
~CURVE INFORMATION
#MNEM.UNIT       API CODE    CURVE DESCRIPTION
#----------   ------------   ------------------------------
 DEPT.F                  :   
 SPR .MV     05 010 01 00:   SPONTANEOUS POTENTIAL FROM RES.
 ILD .OHMM   05 120 46 00:   INDUCTION LOG DEEP
 SN  .OHMM   05 040 16 00:   SHORT NORMAL 16"
 CALD.IN     45 280 60 00:   CALIPER
 GRD .GAPI   45 310 01 00:   GAMMA RAY FROM DENSITY LOG
 DEN .G/C3   45 350 01 00:   COMPENSATED BULK DENSTIY
 DPHI.DEC    45 890 12 00:   DENSITY POROSITY SANDSTONE
 CORR.G/C3   45 356 01 00:   DENSITY CORRECTION
~PARAMETER INFORMATION
#MNEM.UNIT          VALUE    DESCRIPTION
#----------   ------------   ------------------------------
 PD  .                 GL:   PERMANENT DATUM
 EPD .F              5200:   ELEVATION PERMANENT DATUM
 LMF .                 KB:   LOG MEASURED FROM
 DAPD.F                 4:   FEET ABOVE PERMANENT DATUM
 DMF .                 KB:   DRILLING MEASURED FROM
 EKB .F              5204:   KELLING BUSHING
 EGL .F              5200:   GROUND LEVEL
 DATE.            9-26-78:   RUN DATE
 RUN .                  1:   RUN NUMBER
 DD  .F               537:   DEPTH DRILLER
 DL  .F               538:   DEPTH LOGGER
 BLI .F               532:   BOTTOM LOG INTERVAL
 TLI .F                40:   TOP LOG INTERVAL
 CS  .IN            8.625:   CASING SIZE
 CBD .F                40:   CASING BOTTOM DRILLER
 CBL .F                46:   CASING BOTTOM LOGGER
 BS  .IN            7.875:   BIT SIZE
 BSD .F               537:   BIT SIZE AT DEPTH
 DFT .                KCL:   DRILLING FLUID TYPE
 DFD .                8.7:   DRILLING FLUID DENSITY
 DFV .                 37:   DRILLING FLUID VISCOSITY
 DFPH.                  9:   DRILLING FLUID PH
 DFL .                 10:   DRILLING FLUID LOSS
 MSS .          FLOW LINE:   MUD SAMPLE SOURCE
 RMS .OHMM            .18:   RESISTIVITY MUD SAMPLE
 MST .F                72:   MUD SAMPLE TEMPERATURE
 RMF .OHMM            .16:   RESISTIVITY MUD FILTRATE SAMPLE
 MFST.F                76:   MUD FILTRATE SAMPLE TEMPERATURE
 RMC .OHMM            .26:   RESISTIVITY MUD CAKE
 MCST.F                76:   MUD CAKE SAMPLE TEMPERATURE
 MFSS.               MEAS:   MUD FILTRATE SAMPLE SOURCE
 RMB .OHMM            .18:   RESISTIVITY MUD AT BHT
 BHT .F                71:   BOTTOM HOLE TEMPERATURE
 TCS .HRS               3:   TIME CURCULATED STOPPED
 MRT .F                71:   MAXIMUM RECORDED TEMPERATURE
 LUN .               2958:   LOGGING UNIT NUMBER
 LUL .               CASP:   LOGGING UNIT LOCATION
 ENGI.           REYNOLDS:   RECORDING ENGINEER
 WITN.              AMEND:   WITNESSED BY
 CLNT.            A2DTECH:   CLIENT CODE
 ORIG.           5" PRINT:   ORIGIN OF DATA
 UWI .       490251068800:   UNIQUE WELL ID
 DICO. A2D Technologies, Inc.:   DIGITIZING COMPANY
~OTHER INFORMATION
~A   DEPT      SPR        ILD         SN       CALD         GRD       DEN       DPHI       CORR   
# ...
  270.0000   -63.7142     7.4924     7.6468     7.9738   143.6222     2.5225     0.0923     0.0224
  270.5000   -63.5247     7.3975     7.5586     7.9715   142.5741     2.5224     0.0918     0.0207
  271.0000   -63.5875     7.3037     7.4715     7.9731   141.6848     2.5201     0.0937     0.0190
  271.5000   -63.6531     7.2112     7.3854     7.9813   140.8524     2.5175     0.0961     0.0173
  272.0000   -63.7368     7.1198     7.3002     7.9895   140.6727     2.5136     0.0985     0.0157
  272.5000   -64.1452     7.0296     7.2161     7.9977   142.2991     2.5085     0.1010     0.0140
  273.0000   -64.5114     6.9405     7.1329     8.0058   144.6542     2.5036     0.1031     0.0136
  273.5000   -64.5596     6.8516     6.9949     8.0140   146.5288     2.5005     0.1052     0.0153
  274.0000   -64.5997     6.6466     6.8346     8.0222   147.5836     2.5003     0.1073     0.0170
  274.5000   -64.6405     6.3113     6.6779     8.0303   148.9600     2.4930     0.1143     0.0183
  275.0000   -64.6837     5.8830     6.5184     8.0386   150.2186     2.4856     0.1285     0.0195
  275.5000   -64.8284     5.4796     6.3060     8.0463   148.5398     2.4667     0.1428     0.0218
  276.0000   -65.2271     5.1435     6.1006     8.1055   145.9099     2.4409     0.1572     0.0483
  276.5000   -65.5136     5.1435     5.9628     8.1943   139.4577     2.4150     0.1717     0.0605
  277.0000   -65.5032     5.1436     5.9824     8.1872   133.0028     2.3986     0.1767     0.0441
  277.5000   -65.1803     5.1409     6.0014     8.0897   131.4756     2.4272     0.1358     0.0176
  278.0000   -64.8229     5.2276     6.0502     8.0938   131.7035     2.4612     0.1230     0.0110
  278.5000   -64.5351     5.3529     6.3227     8.0960   134.3615     2.4838     0.1147     0.0107
  279.0000   -64.7922     5.6829     6.6067     8.0985   138.7283     2.4861     0.1128     0.0135
  279.5000   -65.0527     6.1159     6.9034     8.1010   143.1640     2.4871     0.1109     0.0162
  280.0000   -65.1107     6.6043     7.1402     8.1035   143.9644     2.4898     0.1084     0.0190
  280.5000   -65.1113     7.0046     7.2393     8.1060   145.4120     2.4934     0.1059     0.0218
  281.0000   -65.0003     7.0863     7.3398     8.1086   146.3389     2.4967     0.1034     0.0245
  281.5000   -64.2265     7.1694     7.4417     8.1111   141.1144     2.5027     0.1009     0.0257
  282.0000   -63.5671     7.2525     7.5450     8.1136   135.7424     2.5087     0.0984     0.0265
  282.5000   -63.1554     7.3372     7.6498     8.1161   134.8925     2.5146     0.0959     0.0261
  283.0000   -62.7379     7.4231     7.7565     8.1186   134.8906     2.5205     0.0934     0.0239
  283.5000   -62.3240     7.5120     7.8671     8.1211   135.0129     2.5236     0.0910     0.0217
  284.0000   -61.9026     7.5234     7.9234     8.1236   135.2259     2.5222     0.0950     0.0195
  284.5000   -62.0172     7.5382     7.9972     8.1261   135.8419     2.5161     0.0998     0.0173
  285.0000   -62.3295     7.5531     8.0717     8.1286   136.4440     2.5099     0.1046     0.0170
  285.5000   -62.3241     7.5681     8.1470     8.1291   137.0455     2.5037     0.1046     0.0170
  286.0000   -62.3261     7.5830     8.2390     8.1271   137.6478     2.5027     0.1023     0.0170
  286.5000   -62.3731     7.5980     8.1682     8.1250   138.2482     2.5053     0.1000     0.0170
  287.0000   -62.6501     7.6130     8.0799     8.1230   138.7098     2.5079     0.0978     0.0170
  287.5000   -62.9222     7.6280     7.9920     8.1209   138.6041     2.5105     0.0955     0.0170
  288.0000   -63.1688     7.6433     7.9140     8.1189   138.1416     2.5131     0.0934     0.0170
  288.5000   -63.1969     7.6517     7.8495     8.1168   137.6371     2.5135     0.0963     0.0170
  289.0000   -62.8797     7.6271     7.7855     8.1148   136.0041     2.5115     0.0990     0.0170
  289.5000   -62.5699     7.6095     7.7231     8.1127   134.3745     2.5085     0.1018     0.0154
  290.0000   -62.3569     7.5922     7.6909     8.1107   133.4574     2.5054     0.1045     0.0157
  290.5000   -62.5567     7.5546     7.6596     8.1067   134.3868     2.5024     0.1054     0.0168
  291.0000   -62.7483     7.4913     7.6283     8.1017   136.7145     2.4993     0.1042     0.0180
  291.5000   -62.9402     7.4284     7.5972     8.0967   139.0226     2.4965     0.1029     0.0190
  292.0000   -63.1111     7.3660     7.5662     8.0915   141.3178     2.4980     0.1018     0.0190
  292.5000   -62.9510     7.3067     7.5353     8.0959   143.5970     2.5003     0.1051     0.0190
  293.0000   -62.7827     7.1988     7.4846     8.1045   144.1067     2.4963     0.1089     0.0193
  293.5000   -62.6193     7.0338     7.3728     8.1128   144.2698     2.4903     0.1128     0.0266
  294.0000   -62.6339     6.8726     7.2628     8.1203   146.4141     2.4841     0.1166     0.0338
  294.5000   -63.0240     6.7861     7.1544     8.1361   149.1810     2.4786     0.1186     0.0392
  295.0000   -63.4723     6.7861     7.0476     8.5402   152.0138     2.4800     0.1146     0.0394
  295.5000   -63.7195     6.7861     6.9423     8.2904   154.7467     2.4866     0.1105     0.0397
  296.0000   -63.7219     6.6782     6.8387     8.0577   155.3324     2.4929     0.1064     0.0400
  296.5000   -63.5677     6.5554     6.7366     8.0912   142.7619     2.4993     0.1022     0.0403
  297.0000   -63.3938     6.4350     6.7237     8.1221   140.0686     2.5026     0.1032     0.0406
  297.5000   -63.2195     6.3167     6.7237     8.1546   142.9964     2.5035     0.1058     0.0408
  298.0000   -63.0467     6.2004     6.6944     8.1983   146.0163     2.4973     0.1170     0.0445
  298.5000   -62.9208     6.0866     6.5917     8.2261   147.4978     2.4797     0.1289     0.0495
  299.0000   -62.9239     5.9635     6.4905     8.2443   147.1750     2.4628     0.1375     0.0544
  299.5000   -62.8710     6.0699     6.3905     8.1670   145.3619     2.4461     0.1426     0.0560
  300.0000   -62.5241     6.1454     6.2447     8.2308   142.2341     2.4382     0.1355     0.0568
  300.5000   -61.7157     6.1753     6.2828     8.2584   139.0505     2.4557     0.1253     0.0550
  301.0000   -60.9376     6.2057     6.3592     8.1676   138.5037     2.4677     0.1150     0.0489
  301.5000   -60.1317     6.2330     6.4366     8.2686   139.2009     2.4798     0.1089     0.0423
  302.0000   -60.0660     6.5158     6.5156     8.3083   139.9799     2.4858     0.1150     0.0380
  302.5000   -60.4785     6.9490     6.6030     8.2717   140.7606     2.4841     0.1191     0.0370
  303.0000   -60.8952     7.4402     6.6041     8.2338   140.8478     2.4767     0.1207     0.0370
  303.5000   -61.3113     7.1306     6.4345     8.1872   140.4135     2.4703     0.1223     0.0370
  304.0000   -61.2118     6.8075     6.2386     8.1890   139.9737     2.4700     0.1239     0.0391
  304.5000   -61.0734     6.4798     6.0740     8.2160   139.5954     2.4697     0.1273     0.0451
  305.0000   -60.9454     6.0928     6.0108     8.3762   139.3332     2.4641     0.1321     0.0511
  305.5000   -61.2675     5.3371     5.8328     8.2835   139.0581     2.4549     0.1370     0.0565
  306.0000   -61.6262     5.4188     5.6889     8.2541   138.4170     2.4457     0.1418     0.0458
  306.5000   -61.9643     5.6413     5.5486     8.2586   135.8658     2.4367     0.1344     0.0339
  307.0000   -62.1119     5.5551     5.4871     8.2641   133.3708     2.4514     0.1250     0.0223
  307.5000   -61.7058     5.4026     5.5278     8.2696   131.3252     2.4732     0.1157     0.0143
  308.0000   -61.3227     5.2544     5.7894     8.2750   132.3667     2.4814     0.1105     0.0145
  308.5000   -61.3306     5.1913     6.0506     8.2804   134.7658     2.4891     0.1077     0.0140
  309.0000   -61.3319     6.0650     6.2396     8.2858   137.1441     2.4968     0.1050     0.0135
  309.5000   -61.3320     6.7098     6.4278     8.2912   139.3120     2.5028     0.1022     0.0130
  310.0000   -61.3320     6.9901     6.6092     8.2966   139.0150     2.5079     0.1014     0.0141
