~VERSION INFORMATION
 VERS.                2.0:   CWLS LOG ASCII STANDARD - VERSION 2.0
 WRAP.                 NO:   ONE LINE PER DEPTH STEP
~WELL INFORMATION
#MNEM.UNIT      DATA TYPE    INFORMATION
#----------   ------------   ------------------------------
 STRT.F           27.0000:   START DEPTH
 STOP.F          538.0000:   STOP DEPTH
 STEP.F            0.5000:   STEP LENGTH
 NULL.          -999.2500:   NO VALUE
 COMP. FENIX & SCISSON INC:   COMPANY
 WELL.        NPR 3 #24-3:   WELL
 FLD .             TEAPOT:   FIELD
 LOC .       S3 T38N R78W:   LOCATION
 CNTY.            NATRONA:   COUNTY
 STAT.            WYOMING:   STATE
 CTRY. UNITED STATES OF AMERICA:   COUNTRY
 SRVC.            Unknown:   SERVICE COMPANY
 DATE.        26-SEP-1978:   LOGDATE
 API .       490251068800:   API NUMBER
~CURVE INFORMATION
#MNEM.UNIT       API CODE    CURVE DESCRIPTION
#----------   ------------   ------------------------------
 DEPT.F                  :   
 SPR .MV     05 010 01 00:   SPONTANEOUS POTENTIAL FROM RES.
 ILD .OHMM   05 120 46 00:   INDUCTION LOG DEEP
 SN  .OHMM   05 040 16 00:   SHORT NORMAL 16"
 CALD.IN     45 280 60 00:   CALIPER
 GRD .GAPI   45 310 01 00:   GAMMA RAY FROM DENSITY LOG
 DEN .G/C3   45 350 01 00:   COMPENSATED BULK DENSTIY
 DPHI.DEC    45 890 12 00:   DENSITY POROSITY SANDSTONE
 CORR.G/C3   45 356 01 00:   DENSITY CORRECTION
~PARAMETER INFORMATION
#MNEM.UNIT          VALUE    DESCRIPTION
#----------   ------------   ------------------------------
 PD  .                 GL:   PERMANENT DATUM
 EPD .F              5200:   ELEVATION PERMANENT DATUM
 LMF .                 KB:   LOG MEASURED FROM
 DAPD.F                 4:   FEET ABOVE PERMANENT DATUM
 DMF .                 KB:   DRILLING MEASURED FROM
 EKB .F              5204:   KELLING BUSHING
 EGL .F              5200:   GROUND LEVEL
 DATE.            9-26-78:   RUN DATE
 RUN .                  1:   RUN NUMBER
 DD  .F               537:   DEPTH DRILLER
 DL  .F               538:   DEPTH LOGGER
 BLI .F               532:   BOTTOM LOG INTERVAL
 TLI .F                40:   TOP LOG INTERVAL
 CS  .IN            8.625:   CASING SIZE
 CBD .F                40:   CASING BOTTOM DRILLER
 CBL .F                46:   CASING BOTTOM LOGGER
 BS  .IN            7.875:   BIT SIZE
 BSD .F               537:   BIT SIZE AT DEPTH
 DFT .                KCL:   DRILLING FLUID TYPE
 DFD .                8.7:   DRILLING FLUID DENSITY
 DFV .                 37:   DRILLING FLUID VISCOSITY
 DFPH.                  9:   DRILLING FLUID PH
 DFL .                 10:   DRILLING FLUID LOSS
 MSS .          FLOW LINE:   MUD SAMPLE SOURCE
 RMS .OHMM            .18:   RESISTIVITY MUD SAMPLE
 MST .F                72:   MUD SAMPLE TEMPERATURE
 RMF .OHMM            .16:   RESISTIVITY MUD FILTRATE SAMPLE
 MFST.F                76:   MUD FILTRATE SAMPLE TEMPERATURE
 RMC .OHMM            .26:   RESISTIVITY MUD CAKE
 MCST.F                76:   MUD CAKE SAMPLE TEMPERATURE
 MFSS.               MEAS:   MUD FILTRATE SAMPLE SOURCE
 RMB .OHMM            .18:   RESISTIVITY MUD AT BHT
 BHT .F                71:   BOTTOM HOLE TEMPERATURE
 TCS .HRS               3:   TIME CURCULATED STOPPED
 MRT .F                71:   MAXIMUM RECORDED TEMPERATURE
 LUN .               2958:   LOGGING UNIT NUMBER
 LUL .               CASP:   LOGGING UNIT LOCATION
 ENGI.           REYNOLDS:   RECORDING ENGINEER
 WITN.              AMEND:   WITNESSED BY
 CLNT.            A2DTECH:   CLIENT CODE
 ORIG.           5" PRINT:   ORIGIN OF DATA
 UWI .       490251068800:   UNIQUE WELL ID
 DICO. A2D Technologies, Inc.:   DIGITIZING COMPANY
~OTHER INFORMATION
~A   DEPT      SPR        ILD         SN       CALD         GRD       DEN       DPHI       CORR   
# ...
  108.0000   -64.3182     8.8756     8.1115     7.5937   133.0518     2.4834     0.1136     0.0210
  108.5000   -64.3410     8.7894     8.0944     7.6301   132.9277     2.4844     0.1099     0.0214
  109.0000   -64.3604     8.6059     8.0772     7.6551   132.6846     2.4892     0.1062     0.0226
  109.5000   -64.3805     8.4324     8.0602     7.6788   132.4151     2.4938     0.1026     0.0230
  110.0000   -64.4004     8.2623     8.0432     7.7026   132.1429     2.4969     0.1054     0.0230
  110.5000   -64.4203     8.1675     8.0259     7.7264   132.1067     2.4954     0.1098     0.0230
  111.0000   -64.4402     8.0852     8.0144     7.7502   132.5175     2.4903     0.1142     0.0230
  111.5000   -64.4601     8.0038     8.1201     7.7741   133.5401     2.4853     0.1161     0.0228
  112.0000   -64.4799     7.9232     8.2046     7.7979   134.5375     2.4802     0.1179     0.0293
  112.5000   -64.5006     7.8308     8.3155     7.8220   134.9315     2.4757     0.1182     0.0369
  113.0000   -64.5778     7.7107     8.3028     7.8299   134.5244     2.4787     0.1169     0.0448
  113.5000   -64.7693     7.6449     8.2849     7.8299   135.4234     2.4818     0.1154     0.0550
  114.0000   -64.9595     7.6341     8.2669     7.8309   136.5126     2.4807     0.1192     0.0726
  114.5000   -65.1491     7.6223     8.2491     7.7811   137.5579     2.4747     0.1238     0.0913
  115.0000   -65.3126     7.6105     8.2312     7.7103   135.1040     2.4688     0.1267     0.1448
  115.5000   -65.3089     7.5987     8.2134     7.6414   132.3412     2.4644     0.1265     0.1975
  116.0000   -65.3091     7.5863     8.1957     7.5252   129.5763     2.4649     0.1079     0.2500
  116.5000   -65.3049     7.5785     8.1779     7.4072   127.1137     2.5016     0.0813     0.2967
  117.0000   -65.1593     7.9219     8.1641     7.2883   127.3517     2.5456     0.0522     0.2915
  117.5000   -65.0038     8.1638     8.2004     7.1892   130.5150     2.5898     0.0301     0.2376
  118.0000   -64.8486     8.4118     8.2323     7.1069   132.4036     2.6333     0.0182     0.1706
  118.5000   -64.6937     8.6674     8.2643     7.0487   130.7438     2.6552     0.0541     0.1014
  119.0000   -64.5387     8.9307     8.2964     7.0632   128.0376     2.5940     0.0812     0.0615
  119.5000   -64.3838     9.2021     8.3268     7.0811   127.9147     2.5478     0.1026     0.0371
  120.0000   -64.2285     9.4817     8.3545     7.0992   126.3317     2.5042     0.1185     0.0332
  120.5000   -64.0719     9.7698     8.3823     7.1172   124.1499     2.4804     0.1221     0.0297
  121.0000   -63.9254     9.8198     8.4103     7.1353   124.5542     2.4735     0.1258     0.0294
  121.5000   -64.0616     9.8198     8.4383     7.1533   125.7226     2.4672     0.1289     0.0299
  122.0000   -64.2127     9.7723     8.4705     7.1714   126.5105     2.4608     0.1312     0.0304
  122.5000   -64.3633     9.5845     8.4390     7.1903   126.4918     2.4545     0.1351     0.0309
  123.0000   -64.5083     9.4004     8.3910     7.2310   127.1671     2.4481     0.1390     0.0314
  123.5000   -64.5139     9.2198     8.3433     7.3018   128.4068     2.4455     0.1327     0.0320
  124.0000   -64.5131     9.0427     8.2959     7.3899   129.6535     2.4548     0.1256     0.0325
  124.5000   -64.5128     8.8642     8.2487     7.4783   130.8796     2.4705     0.1198     0.0329
  125.0000   -64.5127     8.6845     8.2018     7.5668   131.5091     2.4771     0.1178     0.0319
  125.5000   -64.5144     8.5084     8.1552     7.6558   132.0789     2.4816     0.1122     0.0308
  126.0000   -64.6004     8.3358     8.1088     7.7035   131.9364     2.4886     0.1081     0.0297
  126.5000   -64.8259     8.1682     8.0627     7.7266   131.7648     2.4961     0.1030     0.0284
  127.0000   -64.8670     8.0436     8.0138     7.7493   131.5935     2.5038     0.0970     0.0270
  127.5000   -64.8005     7.9150     7.9964     7.7720   131.3031     2.5065     0.1002     0.0255
  128.0000   -64.7317     7.7870     7.9778     7.7947   130.8367     2.5053     0.1053     0.0261
  128.5000   -64.6627     7.6610     7.9593     7.8173   130.3727     2.4991     0.1094     0.0279
  129.0000   -64.5932     7.5636     7.9408     7.8299   129.9065     2.4930     0.1123     0.0296
  129.5000   -64.5195     7.4532     7.9223     7.8196   129.4456     2.4871     0.1158     0.0312
  130.0000   -64.7019     7.3444     7.9039     7.7963   129.1843     2.4811     0.1202     0.0337
  130.5000   -64.9300     7.2372     7.8855     7.7739   129.6166     2.4754     0.1246     0.0518
  131.0000   -65.0644     7.1712     7.8671     7.7393   130.0296     2.4692     0.1282     0.0784
  131.5000   -64.8043     7.1707     7.8797     7.7038   130.4427     2.4632     0.1290     0.1034
  132.0000   -64.5485     7.4861     7.8924     7.6673   130.8523     2.4623     0.1290     0.1414
  132.5000   -64.7003     7.8124     7.9050     7.5992   130.9001     2.4671     0.1228     0.2802
  133.0000   -64.8860     7.9689     7.9177     7.4944   130.8976     2.4726     0.1093     0.3418
  133.5000   -64.4015     8.0138     7.9305     7.3902   130.9062     2.4844     0.0794     0.3733
  134.0000   -63.8953     8.4090     7.9469     7.2856   131.4907     2.5481     0.0383     0.3786
  134.5000   -63.6797     8.9369     7.9760     7.1823   133.5250     2.6115     0.0171     0.2819
  135.0000   -63.6152     9.4655     8.0051     7.0933   135.5466     2.6620     0.0022     0.1931
  135.5000   -63.5546     9.7484     8.0343     7.0440   136.2923     2.6728     0.0180     0.1344
  136.0000   -63.5849    10.0029     8.0636     6.9930   134.8049     2.6226     0.0545     0.0919
  136.5000   -63.7370    10.0324     8.0930     7.0077   133.4655     2.5682     0.0913     0.0435
  137.0000   -63.8875    10.0599     8.1224     7.0767   133.4945     2.5136     0.1297     0.0348
  137.5000   -64.0385    10.0875     8.1521     7.1491   133.4998     2.4594     0.1598     0.0357
  138.0000   -64.1895    10.0958     8.1818     7.2694   133.5023     2.4256     0.1542     0.0368
  138.5000   -64.3409     9.4628     8.2116     7.3952   133.4969     2.4124     0.1442     0.0364
  139.0000   -64.4923     9.0031     8.2415     7.5216   133.5224     2.4395     0.1341     0.0346
  139.5000   -64.5148     8.6716     8.2715     7.6465   130.9821     2.4640     0.1241     0.0329
  140.0000   -64.5237     8.4615     8.3155     7.6937   126.6132     2.4888     0.1140     0.0312
  140.5000   -64.1459     8.1632     8.3105     7.7375   122.2376     2.4957     0.1058     0.0294
  141.0000   -63.7175     8.1940     8.3015     7.7817   118.7325     2.4962     0.1070     0.0277
  141.5000   -63.3314     8.2500     8.2926     7.8262   120.5836     2.4940     0.1085     0.0272
  142.0000   -63.4344     8.3064     8.2836     7.8687   122.9781     2.4918     0.1100     0.0274
  142.5000   -63.4739     8.3632     8.2747     7.8688   125.3855     2.4896     0.1115     0.0277
  143.0000   -63.2660     8.4204     8.2657     7.8670   127.0814     2.4873     0.1130     0.0279
  143.5000   -63.0672     8.4779     8.2568     7.8654   127.1061     2.4865     0.1142     0.0282
  144.0000   -62.9194     8.5359     8.2478     7.8639   126.7922     2.4865     0.1129     0.0284
  144.5000   -62.9222     8.5937     8.2400     7.8624   126.5067     2.4875     0.1117     0.0287
  145.0000   -62.9224     8.6901     8.3257     7.8608   126.4983     2.4891     0.1104     0.0289
  145.5000   -62.9225     8.8379     8.4123     7.8593   126.4995     2.4907     0.1091     0.0303
  146.0000   -62.9225     8.9533     8.4998     7.8578   126.4989     2.4922     0.1075     0.0323
  146.5000   -62.9225     8.9520     8.6006     7.8563   126.4848     2.4962     0.1043     0.0343
  147.0000   -62.9241     9.0203     8.7185     7.8548   126.9145     2.5006     0.1014     0.0366
  147.5000   -62.9328     9.1684     8.8380     7.8532   128.0459     2.5050     0.0969     0.0388
  148.0000   -62.5672     9.3207     8.9592     7.8518   129.1180     2.5093     0.0938     0.0412
