~VERSION INFORMATION
 VERS.                2.0:   CWLS LOG ASCII STANDARD - VERSION 2.0
 WRAP.                 NO:   ONE LINE PER DEPTH STEP
~WELL INFORMATION
#MNEM.UNIT      DATA TYPE    INFORMATION
#----------   ------------   ------------------------------
 STRT.F           20.0000:   START DEPTH
 STOP.F          565.0000:   STOP DEPTH
 STEP.F            0.5000:   STEP LENGTH
 NULL.          -999.2500:   NO VALUE
 COMP. FENIX & SCISSON INC:   COMPANY
 WELL.     NPR-3 #12-SX-3:   WELL
 FLD .        TEAPOT DOME:   FIELD
 LOC .       S3 T38N R78W:   LOCATION
 CNTY.            NATRONA:   COUNTY
 STAT.            WYOMING:   STATE
 CTRY. UNITED STATES OF AMERICA:   COUNTRY
 SRVC.           BIRDWELL:   SERVICE COMPANY
 DATE.        29-JUL-1978:   LOGDATE
 API .       490251067000:   API NUMBER
~CURVE INFORMATION
#MNEM.UNIT       API CODE    CURVE DESCRIPTION
#----------   ------------   ------------------------------
 DEPT.F                  :   
 SPR .MV     05 010 01 00:   SPONTANEOUS POTENTIAL FROM RES.
 SN  .OHMM   05 040 16 00:   SHORT NORMAL 16"
 IL  .OHMM   05 120 00 00:   INDUCTION LOG
 GRD .GAPI   45 310 01 00:   GAMMA RAY FROM DENSITY LOG
 CALD.IN     45 280 60 00:   CALIPER
 CORR.G/C3   45 356 01 00:   DENSITY CORRECTION
 RHOB.G/C3   45 350 01 00:   BULK DENSITY
 DPHI.DEC    45 890 12 00:   DENSITY POROSITY SANDSTONE
~PARAMETER INFORMATION
#MNEM.UNIT          VALUE    DESCRIPTION
#----------   ------------   ------------------------------
 PD  .                 GL:   PERMANENT DATUM
 EPD .F              5191:   ELEVATION PERMANENT DATUM
 LMF .                 KB:   LOG MEASURED FROM
 DAPD.F                 4:   FEET ABOVE PERMANENT DATUM
 DMF .                 KB:   DRILLING MEASURED FROM
 EKB .F              5195:   KELLING BUSHING
 EGL .F              5191:   GROUND LEVEL
 DATE.            7-29-78:   RUN DATE
 RUN .                  1:   RUN NUMBER
 DD  .F               565:   DEPTH DRILLER
 DL  .F               571:   DEPTH LOGGER
 BLI .F               565:   BOTTOM LOG INTERVAL
 TLI .F                40:   TOP LOG INTERVAL
 CS  .IN            8.625:   CASING SIZE
 CBD .F                40:   CASING BOTTOM DRILLER
 CBL .F                40:   CASING BOTTOM LOGGER
 BS  .IN            7.875:   BIT SIZE
 BSD .F               565:   BIT SIZE AT DEPTH
 DFT .                KCL:   DRILLING FLUID TYPE
 DFD .                8.6:   DRILLING FLUID DENSITY
 DFV .                 31:   DRILLING FLUID VISCOSITY
 DFPH.                  9:   DRILLING FLUID PH
 RMS .OHMM            .32:   RESISTIVITY MUD SAMPLE
 MST .F                70:   MUD SAMPLE TEMPERATURE
 TCS .HRS               1:   TIME CURCULATED STOPPED
 LUN .               2958:   LOGGING UNIT NUMBER
 LUL .               CASP:   LOGGING UNIT LOCATION
 ENGI.              HONEA:   RECORDING ENGINEER
 WITN.              AMEND:   WITNESSED BY
 CLNT.            A2DTECH:   CLIENT CODE
 ORIG.           5" PRINT:   ORIGIN OF DATA
 UWI .       490251067000:   UNIQUE WELL ID
 DICO. A2D Technologies, Inc.:   DIGITIZING COMPANY
~OTHER INFORMATION
~A   DEPT      SPR         SN         IL         GRD      CALD       CORR       RHOB       DPHI   
# ...
  506.0000   -23.7475    10.1747     8.9731    73.1877     7.6507     0.0379     2.4414     0.1424
  506.5000   -23.7475    10.1670     8.9258    73.2655     7.6496     0.0380     2.4441     0.1426
  507.0000   -23.7475    10.1594     8.8785    73.4072     7.6484     0.0381     2.4456     0.1431
  507.5000   -23.7475    10.1517     8.8314    72.9389     7.6472     0.0382     2.4402     0.1431
  508.0000   -23.7475    10.1440     8.7846    71.3575     7.6460     0.0384     2.4393     0.1429
  508.5000   -23.7475    10.1364     8.7706    69.4716     7.6449     0.0385     2.4408     0.1428
  509.0000   -23.7475    10.1287     8.7707    69.3698     7.6437     0.0386     2.4419     0.1423
  509.5000   -23.7475    10.1211     8.6905    70.2712     7.6425     0.0387     2.4407     0.1416
  510.0000   -23.7475    10.1134     8.7337    71.3562     7.6413     0.0388     2.4387     0.1409
  510.5000   -23.7475    10.1058     8.7746    71.6898     7.6402     0.0389     2.4381     0.1402
  511.0000   -23.7475    10.0982     8.8152    70.1645     7.6390     0.0390     2.4453     0.1407
  511.5000   -23.7475    10.0906     8.8518    68.8361     7.6378     0.0391     2.4499     0.1418
  512.0000   -23.7475    10.0833     8.7176    69.7692     7.6366     0.0393     2.4420     0.1428
  512.5000   -23.7475    10.0726     8.5710    73.1840     7.6355     0.0394     2.4413     0.1441
  513.0000   -23.7475    10.0740     8.4268    73.9306     7.6343     0.0395     2.4435     0.1454
  513.5000   -23.7475     9.8970     8.2991    73.6117     7.6336     0.0396     2.4362     0.1463
  514.0000   -23.7475     9.7659     8.2238    73.3899     7.6317     0.0397     2.4342     0.1463
  514.5000   -23.7475     9.6366     8.1559    74.1112     7.6298     0.0427     2.4343     0.1461
  515.0000   -23.7475     9.5090     8.0885    74.8920     7.6279     0.0533     2.4294     0.1448
  515.5000   -23.7475     9.3831     8.0218    75.8935     7.6259     0.0556     2.4255     0.1418
  516.0000   -23.7475     9.2588     7.9556    77.6737     7.6240     0.0557     2.4435     0.1438
  516.5000   -23.7475     9.1362     7.8899    79.4468     7.6221     0.0556     2.4387     0.1473
  517.0000   -23.7475     9.0998     7.8247    81.2088     7.6202     0.0560     2.4320     0.1522
  517.5000   -23.7474     9.0158     7.7601    82.5462     7.6183     0.0698     2.4214     0.1543
  518.0000   -23.7467     9.0173     7.6961    82.0331     7.6164     0.0753     2.4138     0.1423
  518.5000   -23.7469     8.8673     7.6389    80.9659     7.6147     0.0682     2.4326     0.1284
  519.0000   -23.8017     8.7552     7.4400    79.9089     7.6074     0.0528     2.4536     0.1288
  519.5000   -24.1870     8.6436     7.2252    78.8388     7.5997     0.0416     2.4671     0.1378
  520.0000   -24.5720     8.5316     7.1619    78.1384     7.5944     0.0303     2.4556     0.1412
  520.5000   -24.9568     8.5316     7.1558    77.9791     7.5951     0.0200     2.4475     0.1441
  521.0000   -25.3414     8.5317     7.1503    78.7155     7.5969     0.0229     2.4358     0.1467
  521.5000   -25.7273     8.5315     7.1446    79.7256     7.5988     0.0272     2.4237     0.1449
  522.0000   -25.5390     8.6111     7.1391    80.7583     7.6006     0.0317     2.4275     0.1419
  522.5000   -25.5419     8.5779     7.1335    81.4539     7.6024     0.0338     2.4346     0.1411
  523.0000   -25.3378     8.5483     7.1279    79.9905     7.6043     0.0338     2.4415     0.1406
  523.5000   -25.3430     8.5188     7.1224    78.1094     7.6061     0.0338     2.4370     0.1400
  524.0000   -25.3413     8.4895     7.1168    76.3810     7.6079     0.0338     2.4360     0.1396
  524.5000   -25.3355     8.4602     7.1112    76.3810     7.6098     0.0338     2.4403     0.1404
  525.0000   -25.3299     8.4310     7.1059    76.9561     7.6115     0.0339     2.4441     0.1415
  525.5000   -25.3243     8.4020     7.1011    77.3446     7.6131     0.0309     2.4294     0.1400
  526.0000   -25.3187     8.3755     7.0963    77.1926     7.6150     0.0273     2.4320     0.1394
  526.5000   -25.3130     8.2987     6.9385    77.4033     7.6679     0.0239     2.4372     0.1409
  527.0000   -25.3074     8.2146     6.8451    78.1447     7.7264     0.0248     2.4352     0.1411
  527.5000   -25.3018     8.1309     6.7531    78.7638     7.7896     0.0270     2.4313     0.1386
  528.0000   -25.2962     8.0482     6.6532    78.6932     7.7938     0.0292     2.4269     0.1348
  528.5000   -25.2906     7.9662     6.6532    78.3613     7.7934     0.0298     2.4387     0.1340
  529.0000   -25.2850     7.8851     6.6457    78.0358     7.7932     0.0295     2.4427     0.1342
  529.5000   -25.2794     7.8048     6.6314    77.7109     7.7932     0.0292     2.4402     0.1343
  530.0000   -25.2738     7.7253     6.6170    77.3855     7.7932     0.0289     2.4395     0.1344
  530.5000   -25.2682     7.6467     6.6019    77.0576     7.7932     0.0287     2.4429     0.1344
  531.0000   -25.2626     7.5699     6.5949    76.9226     7.7933     0.0284     2.4416     0.1344
  531.5000   -25.2570     7.4995     6.3988    78.5185     7.7925     0.0281     2.4413     0.1372
  532.0000   -25.2514     7.3885     6.1930    80.4498     7.7914     0.0279     2.4464     0.1402
  532.5000   -25.2458     7.2892     5.9928    79.9576     7.7904     0.0284     2.4357     0.1427
  533.0000   -25.2402     7.1911     5.7961    78.7612     7.7893     0.0300     2.4347     0.1471
  533.5000   -25.2346     7.1619     5.6889    77.5861     7.7882     0.0314     2.4267     0.1524
  534.0000   -25.2290     7.1619     5.7385    77.5395     7.7872     0.0324     2.4144     0.1539
  534.5000   -25.2234     7.2707     5.8101    78.5039     7.7861     0.0295     2.4031     0.1480
  535.0000   -25.2177     7.4320     5.8826    83.8070     7.7851     0.0265     2.4088     0.1420
  535.5000   -25.2121     7.4272     5.9560    84.5663     7.7840     0.0237     2.4224     0.1348
  536.0000   -25.2065     8.1165     6.0303    81.1961     7.7829     0.0283     2.4360     0.1276
  536.5000   -25.2009     8.5316     6.1239    78.3299     7.7819     0.0334     2.4495     0.1236
  537.0000   -25.1953     8.6802     6.4868    77.7524     7.7808     0.0357     2.4607     0.1229
  537.5000   -25.1897     8.8484     6.8353    77.6311     7.7797     0.0344     2.4620     0.1224
  538.0000   -25.1841     8.9972     7.2017    77.7393     7.7787     0.0330     2.4633     0.1212
  538.5000   -25.1785     9.1256     7.7145    79.7083     7.7776     0.0318     2.4648     0.1181
  539.0000   -25.1729     9.2558     7.7070    78.8677     7.7765     0.0333     2.4702     0.1182
  539.5000   -25.1673     9.3879     7.7090    77.9485     7.7755     0.0359     2.4735     0.1183
  540.0000   -25.1617     9.5219     7.7096    77.6478     7.7746     0.0321     2.4730     0.1145
  540.5000   -25.1560     9.6168     7.7096    79.4944     7.7721     0.0275     2.4803     0.1177
  541.0000   -25.1505     9.5938     7.7096    80.9943     7.7945     0.0259     2.4813     0.1229
  541.5000   -25.1503     9.5761     7.7096    79.8304     7.7930     0.0258     2.4657     0.1237
  542.0000   -25.1503     9.5585     7.7096    78.3679     7.7932     0.0258     2.4640     0.1248
  542.5000   -25.1503     9.5409     7.7096    78.2550     7.7932     0.0258     2.4645     0.1268
  543.0000   -25.1503     9.5234     7.7096    77.9244     7.7932     0.0258     2.4635     0.1274
  543.5000   -25.1503     9.5058     7.7096    77.0830     7.7932     0.0258     2.4559     0.1275
  544.0000   -25.1503     9.4883     7.7096    81.4607     7.7932     0.0258     2.4507     0.1260
  544.5000   -25.1502     9.4709     7.7096    80.5364     7.7932     0.0258     2.4525     0.1216
  545.0000   -25.1505     9.4534     7.7096    79.1600     7.7932     0.0258     2.4650     0.1194
  545.5000   -25.1646     9.4360     7.7094    79.4446     7.7932     0.0258     2.4687     0.1205
  546.0000   -25.2091     9.4187     7.7084    81.0621     7.7932     0.0273     2.4681     0.1201
