~VERSION INFORMATION
 VERS.                2.0:   CWLS LOG ASCII STANDARD - VERSION 2.0
 WRAP.                 NO:   ONE LINE PER DEPTH STEP
~WELL INFORMATION
#MNEM.UNIT      DATA TYPE    INFORMATION
#----------   ------------   ------------------------------
 STRT.F            4.0000:   START DEPTH
 STOP.F          614.0000:   STOP DEPTH
 STEP.F            0.1000:   STEP LENGTH
 NULL.          -999.2500:   NO VALUE
 COMP.   FLUOR DANIEL INC:   COMPANY
 WELL.     63-4 X 3 #63-3:   WELL
 FLD .          N.P.R. #3:   FIELD
 LOC .       S3 T38N R78W:   LOCATION
 CNTY.            NATRONA:   COUNTY
 STAT.            WYOMING:   STATE
 CTRY. UNITED STATES OF AMERICA:   COUNTRY
 SRVC.      Western Atlas:   SERVICE COMPANY
 DATE.        01-JUN-1995:   LOGDATE
 API .       490252271300:   API NUMBER
~CURVE INFORMATION
#MNEM.UNIT       API CODE    CURVE DESCRIPTION
#----------   ------------   ------------------------------
 DEPT.F                  :   
 GRR .GAPI   07 310 01 00:   GAMMA RAY
 RILD.OHMM   07 120 46 00:   INDUCTION LOG DEEP RESISTIVITY
 RILM.OHMM   07 120 44 00:   INDUCTION LOG MEDIUM RESISTIVITY
~PARAMETER INFORMATION
#MNEM.UNIT          VALUE    DESCRIPTION
#----------   ------------   ------------------------------
 PD  .                 GL:   PERMANENT DATUM
 EPD .F              5173:   ELEVATION PERMANENT DATUM
 LMF .                 KB:   LOG MEASURED FROM
 DAPD.F                10:   FEET ABOVE PERMANENT DATUM
 DMF .                 KB:   DRILLING MEASURED FROM
 EKB .F              5183:   KELLING BUSHING
 EDF .F              5182:   DRILLING FLOOR
 EGL .F              5173:   GROUND LEVEL
 DATE.        01-JUN-1995:   RUN DATE
 RUN .                  1:   RUN NUMBER
 DD  .F               626:   DEPTH DRILLER
 DL  .F               622:   DEPTH LOGGER
 BLI .F               614:   BOTTOM LOG INTERVAL
 TLI .F                95:   TOP LOG INTERVAL
 CS  .IN            9.625:   CASING SIZE
 CBD .F                95:   CASING BOTTOM DRILLER
 CBL .F                95:   CASING BOTTOM LOGGER
 BS  .IN             8.75:   BIT SIZE
 BSD .F               626:   BIT SIZE AT DEPTH
 DFT .                AIR:   DRILLING FLUID TYPE
 MRT .F               147:   MAXIMUM RECORDED TEMPERATURE
 LUN .            HL 6530:   LOGGING UNIT NUMBER
 LUL .             CASPER:   LOGGING UNIT LOCATION
 ENGI.        VERN RAUTIO:   RECORDING ENGINEER
 WITN.        STEVE HARDY:   WITNESSED BY
 CLNT.            A2DTECH:   CLIENT CODE
 ORIG.           5" PRINT:   ORIGIN OF DATA
 UWI .       490252271300:   UNIQUE WELL ID
 DICO. A2D Technologies, Inc.:   DIGITIZING COMPANY
~OTHER INFORMATION
~A    DEPT       GRR     RILD       RILM   
# ...
  404.4000    62.7186     8.2213     7.7713
  404.5000    62.7179     8.1487     7.7261
  404.6000    62.7173     8.0690     7.6726
  404.7000    62.7167     8.0287     7.5837
  404.8000    62.7161     8.0287     7.5326
  404.9000    62.7155     7.9832     7.4958
  405.0000    62.7149     7.9364     7.4522
  405.1000    62.7143     7.8899     7.4088
  405.2000    62.7218     7.8437     7.3657
  405.3000    63.0147     7.8089     7.3228
  405.4000    63.4485     7.8060     7.2788
  405.5000    64.1297     7.7549     7.2378
  405.6000    64.7707     7.7549     7.1957
  405.7000    65.2809     7.7231     7.1799
  405.8000    65.7911     7.6778     7.1803
  405.9000    66.3294     7.6328     7.1807
  406.0000    66.8115     7.5951     7.1811
  406.1000    67.3217     7.5951     7.1815
  406.2000    67.8319     7.5517     7.1819
  406.3000    68.3422     7.5426     7.1509
  406.4000    68.9087     7.5426     7.1332
  406.5000    69.6742     7.5618     7.1336
  406.6000    70.5483     7.5951     7.1340
  406.7000    71.2053     7.5951     7.1344
  406.8000    71.9709     7.5951     7.1348
  406.9000    72.4832     7.6349     7.1351
  407.0000    72.8185     7.6480     7.1355
  407.1000    73.2604     7.6718     7.1580
  407.2000    73.2597     7.7170     7.1859
  407.3000    73.5024     7.7625     7.1863
  407.4000    73.3631     7.8089     7.1867
  407.5000    72.9563     7.8633     7.2371
  407.6000    72.4448     7.9380     7.2726
  407.7000    71.8751     8.0024     7.3160
  407.8000    71.0964     8.0496     7.3596
  407.9000    69.9372     8.0970     7.4035
  408.0000    68.8306     8.1447     7.4532
  408.1000    67.7278     8.1977     7.5463
  408.2000    66.8343     8.2411     7.5891
  408.3000    65.9850     8.2896     7.7049
  408.4000    64.9630     8.3385     7.8427
  408.5000    63.9004     8.3876     7.9830
  408.6000    63.1638     8.4371     8.1257
  408.7000    62.1978     8.4871     8.2708
  408.8000    61.3284     8.5463     8.4331
  408.9000    60.5616     8.6283     8.5695
  409.0000    59.7949     8.6979     8.7229
  409.1000    59.0280     8.7261     8.8789
  409.2000    58.1646     8.7398     9.0173
  409.3000    57.9409     8.7913     9.1246
  409.4000    57.5079     8.8481     9.2348
  409.5000    56.9965     8.8953     9.4241
  409.6000    56.5695     8.9477     9.4722
  409.7000    56.3136     9.0005     9.5672
  409.8000    56.0495     9.0535     9.6521
  409.9000    56.0489     9.0971     9.7097
  410.0000    56.2494     9.0971     9.7767
  410.1000    56.5042     9.1605     9.8951
  410.2000    56.6504     9.1605     9.8957
  410.3000    56.7744     9.1605     9.8493
  410.4000    57.2846     9.1605     9.7920
  410.5000    57.8551     9.1457     9.7612
  410.6000    58.7556     9.0971     9.7294
  410.7000    59.9557     9.0971     9.6220
  410.8000    61.4975     9.0485     9.5623
  410.9000    63.1116     8.9955     9.4583
  411.0000    64.3077     8.9717     9.3481
  411.1000    65.0914     8.9717     9.2391
  411.2000    65.0908     8.9618     9.1096
  411.3000    65.0902     8.9097     8.9503
  411.4000    65.0896     8.9097     8.8001
  411.5000    65.0890     8.8665     8.7431
  411.6000    65.0884     8.8481     8.6980
  411.7000    65.0878     8.8240     8.6837
  411.8000    65.0871     8.7869     8.6842
  411.9000    65.0866     8.7816     8.6846
  412.0000    65.2669     8.7261     8.6851
  412.1000    65.6564     8.7261     8.6856
  412.2000    66.0782     8.7261     8.6862
  412.3000    66.3330     8.6975     8.6438
  412.4000    66.5918     8.6657     8.6271
  412.5000    67.1945     8.6657     8.6028
  412.6000    67.3991     8.6649     8.5528
  412.7000    68.1305     8.6058     8.5099
  412.8000    69.0388     8.6058     8.5105
  412.9000    69.8045     8.5728     8.4627
  413.0000    70.5500     8.5226     8.3745
  413.1000    71.1125     8.4871     8.3068
  413.2000    71.7998     8.4871     8.2800
  413.3000    72.3823     8.4871     8.2546
  413.4000    72.8925     8.4410     8.1626
  413.5000    73.2217     8.3915     8.1112
  413.6000    73.1769     8.3148     8.0679
  413.7000    72.9189     8.2548     8.0210
  413.8000    72.9181     8.2548     7.9478
  413.9000    72.9176     8.2536     7.8732
  414.0000    72.7562     8.1977     7.8274
  414.1000    72.6148     8.1572     7.7818
  414.2000    72.6142     8.1094     7.7307
  414.3000    72.5914     8.0619     7.6916
  414.4000    72.3113     8.0287     7.6468
  414.5000    72.3107     8.0287     7.6023
  414.6000    72.3101     8.0287     7.5581
  414.7000    72.3095     7.9847     7.5141
  414.8000    72.3089     7.9732     7.4702
  414.9000    72.2621     7.9197     7.4192
  415.0000    72.0060     7.8452     7.3837
  415.1000    72.0053     7.8089     7.3688
  415.2000    71.7957     7.8075     7.3487
  415.3000    71.7026     7.7549     7.3060
  415.4000    71.7020     7.7163     7.2687
  415.5000    71.6310     7.6711     7.2691
  415.6000    71.3991     7.6480     7.2695
  415.7000    71.3984     7.6342     7.3032
  415.8000    71.3979     7.5951     7.3208
  415.9000    71.2103     7.5951     7.3396
  416.0000    71.0950     7.5951     7.3834
  416.1000    71.0944     7.5951     7.4274
  416.2000    71.1421     7.5692     7.4761
  416.3000    71.3969     7.5426     7.5564
  416.4000    71.6958     7.5426     7.6136
  416.5000    71.9065     7.5426     7.6590
  416.6000    72.3262     7.5426     7.7047
  416.7000    72.9551     7.5426     7.7413
  416.8000    73.6484     7.5426     7.7418
  416.9000    74.1586     7.5646     7.7423
  417.0000    74.7088     7.5951     7.7426
  417.1000    74.9435     7.5951     7.7741
  417.2000    75.3873     7.5951     7.7973
  417.3000    75.7548     7.5951     7.7977
  417.4000    75.9131     7.5951     7.7981
  417.5000    75.9125     7.6215     7.7986
  417.6000    75.9160     7.6480     7.7991
  417.7000    76.2129     7.6480     7.7625
  417.8000    76.2124     7.6480     7.7461
  417.9000    76.3787     7.6480     7.7257
  418.0000    76.5128     7.6870     7.7063
  418.1000    76.4378     7.7013     7.7523
  418.2000    76.2100     7.7013     7.8016
  418.3000    76.2093     7.7013     7.8020
  418.4000    75.9715     7.7077     7.8024
  418.5000    75.9065     7.7549     7.8029
  418.6000    75.7611     7.7549     7.8033
  418.7000    75.5050     7.7549     7.8037
  418.8000    75.2490     7.7823     7.8015
  418.9000    74.9931     7.8089     7.7508
  419.0000    74.6967     7.8089     7.7512
  419.1000    74.6962     7.8089     7.7516
  419.2000    74.5267     7.8089     7.7521
  419.3000    74.2706     7.8491     7.7525
  419.4000    74.0146     7.8954     7.7615
  419.5000    73.7587     7.9181     7.8072
  419.6000    73.4865     7.9335     7.8077
  419.7000    73.4860     7.9732     7.8081
  419.8000    73.4854     7.9732     7.8085
  419.9000    73.3380     8.0187     7.8315
  420.0000    73.0820     8.0287     7.8636
  420.1000    72.8802     8.0574     7.8640
  420.2000    72.8716     8.1049     7.8645
  420.3000    72.5773     8.1527     7.9097
  420.4000    72.5768     8.2007     7.9569
  420.5000    72.5762     8.2548     8.0044
  420.6000    72.5756     8.2548     8.0312
  420.7000    72.8103     8.2548     8.0442
  420.8000    73.5436     8.3055     8.0879
  420.9000    74.0820     8.3701     8.0884
  421.0000    74.5641     8.3779     8.1326
  421.1000    75.2694     8.4284     8.1811
  421.2000    76.1839     8.4770     8.2299
  421.3000    77.3075     8.4871     8.2790
  421.4000    78.4711     8.5488     8.3176
  421.5000    79.2067     8.6058     8.3202
  421.6000    79.2059     8.6186     8.3764
  421.7000    79.2054     8.6693     8.4631
  421.8000    79.2048     8.7261     8.5288
  421.9000    79.0775     8.7261     8.6061
  422.0000    78.7411     8.7625     8.7086
  422.1000    78.1954     8.8142     8.8212
  422.2000    77.3924     8.8481     8.9794
  422.3000    76.1752     8.8481     9.1684
  422.4000    74.1093     8.8481     9.2581
  422.5000    72.2627     8.9097     9.2971
