~VERSION INFORMATION
 VERS.                2.0:   CWLS LOG ASCII STANDARD - VERSION 2.0
 WRAP.                 NO:   ONE LINE PER DEPTH STEP
~WELL INFORMATION
#MNEM.UNIT      DATA TYPE    INFORMATION
#----------   ------------   ------------------------------
 STRT.F            0.0000:   START DEPTH
 STOP.F          545.0000:   STOP DEPTH
 STEP.F            0.1000:   STEP LENGTH
 NULL.          -999.2500:   NO VALUE
 COMP.       F D SERV INC:   COMPANY
 WELL. NAVAL PETROLEUM RESERVE 3 SX-3 #88-5-3:   WELL
 FLD .             TEAPOT:   FIELD
 LOC .       S3 T38N R78W:   LOCATION
 CNTY.            NATRONA:   COUNTY
 STAT.            WYOMING:   STATE
 CTRY. UNITED STATES OF AMERICA:   COUNTRY
 SRVC.     Atlas Wireline:   SERVICE COMPANY
 DATE.        14-OCT-1992:   LOGDATE
 API .       490252255700:   API NUMBER
~CURVE INFORMATION
#MNEM.UNIT       API CODE    CURVE DESCRIPTION
#----------   ------------   ------------------------------
 DEPT.F                  :   
 GRR .GAPI   07 310 01 00:   GAMMA RAY
 RILD.OHMM   07 120 46 00:   INDUCTION LOG DEEP RESISTIVITY
 RILM.OHMM   07 120 44 00:   INDUCTION LOG MEDIUM RESISTIVITY
~PARAMETER INFORMATION
#MNEM.UNIT          VALUE    DESCRIPTION
#----------   ------------   ------------------------------
 PD  .                 GL:   PERMANENT DATUM
 EPD .F              5152:   ELEVATION PERMANENT DATUM
 LMF .                 KB:   LOG MEASURED FROM
 DAPD.F                10:   FEET ABOVE PERMANENT DATUM
 DMF .                 KB:   DRILLING MEASURED FROM
 EKB .F              5162:   KELLING BUSHING
 EDF .F              5161:   DRILLING FLOOR
 EGL .F              5152:   GROUND LEVEL
 DATE.        14-OCT-1992:   RUN DATE
 RUN .                  1:   RUN NUMBER
 DD  .F               555:   DEPTH DRILLER
 DL  .F               552:   DEPTH LOGGER
 BLI .F               546:   BOTTOM LOG INTERVAL
 CS  .IN            8.625:   CASING SIZE
 CBD .F                85:   CASING BOTTOM DRILLER
 CBL .F                96:   CASING BOTTOM LOGGER
 BS  .IN            7.875:   BIT SIZE
 BSD .F               555:   BIT SIZE AT DEPTH
 DFT .           AIR FOAM:   DRILLING FLUID TYPE
 BHT .F                72:   BOTTOM HOLE TEMPERATURE
 TCS .HRS               2:   TIME CURCULATED STOPPED
 MRT .F                72:   MAXIMUM RECORDED TEMPERATURE
 LUN .            HL-6274:   LOGGING UNIT NUMBER
 LUL .             CASPER:   LOGGING UNIT LOCATION
 ENGI.             RAUTIO:   RECORDING ENGINEER
 WITN.        GARY STRONG:   WITNESSED BY
 CLNT.            A2DTECH:   CLIENT CODE
 ORIG.           5" PRINT:   ORIGIN OF DATA
 UWI .       490252255700:   UNIQUE WELL ID
 DICO. A2D Technologies, Inc.:   DIGITIZING COMPANY
~OTHER INFORMATION
~A    DEPT      GRR      RILD       RILM   
# ...
  327.6000   123.4961    13.3475    13.6781
  327.7000   120.9170    13.7317    14.1248
  327.8000   117.7334    14.2256    14.7137
  327.9000   112.7418    14.7325    15.3101
  328.0000   108.5044    15.2295    16.1286
  328.1000   103.7780    15.6295    17.0381
  328.2000   100.7455    16.0307    17.7946
  328.3000    98.6610    16.5181    18.4347
  328.4000    96.8623    17.1129    19.0756
  328.5000    94.9157    17.7089    19.6476
  328.6000    92.4823    18.2370    20.6119
  328.7000    88.9723    18.7468    21.3432
  328.8000    85.8057    19.2154    22.1547
  328.9000    82.8668    19.7135    22.9525
  329.0000    80.1984    20.3025    23.7781
  329.1000    77.7426    21.0333    24.5880
  329.2000    75.6371    21.7533    25.1884
  329.3000    74.0449    22.2910    25.8945
  329.4000    71.8425    22.9360    26.3911
  329.5000    66.5993    23.5131    27.0209
  329.6000    62.5077    24.0752    27.8179
  329.7000    59.5166    24.5849    28.7194
  329.8000    56.9485    25.1462    29.4035
  329.9000    54.5078    26.0200    30.1476
  330.0000    52.5124    26.6901    30.4829
  330.1000    51.1091    27.2790    30.8442
  330.2000    50.4085    27.8074    31.2095
  330.3000    49.8260    28.3046    31.5790
  330.4000    49.6024    28.7416    31.8593
  330.5000    49.6006    29.0832    31.8724
  330.6000    49.5988    29.4285    32.0786
  330.7000    49.5970    29.8208    32.0778
  330.8000    49.5950    29.8215    31.9395
  330.9000    50.0491    29.8223    31.8549
  331.0000    50.5605    29.9170    31.7109
  331.1000    51.0721    29.9679    31.3378
  331.2000    51.6806    29.8247    30.9691
  331.3000    52.5553    29.8256    30.5559
  331.4000    53.8652    29.8266    30.3997
  331.5000    56.1889    29.6805    30.2201
  331.6000    59.3044    29.6224    29.9502
  331.7000    63.2534    29.5380    29.7185
  331.8000    66.6811    29.4198    29.6873
  331.9000    69.7778    29.4206    29.5118
  332.0000    73.0333    29.4214    29.3075
  332.1000    74.8281    29.4222    29.3068
  332.2000    76.8970    29.4230    29.1931
  332.3000    78.4172    29.2098    29.0205
  332.4000    79.5172    29.0202    28.8490
  332.5000    80.1552    28.9744    28.6784
  332.6000    80.7531    28.8048    28.5028
  332.7000    81.5213    28.6238    28.5020
  332.8000    82.2919    28.6245    28.2370
  332.9000    82.8904    28.3730    28.1087
  333.0000    83.1011    28.1366    28.0343
  333.1000    83.1874    27.9720    27.8685
  333.2000    83.1856    27.8083    27.7038
  333.3000    83.1838    27.6455    27.5281
  333.4000    83.1068    27.4651    27.3773
  333.5000    82.5795    27.3230    27.3368
  333.6000    81.6765    27.1632    27.2425
  333.7000    81.0540    27.0043    27.1468
  333.8000    80.1190    26.9614    27.1460
  333.9000    79.3299    27.0912    27.1453
  334.0000    78.8147    27.0920    27.1444
  334.1000    78.3322    27.0928    27.1438
  334.2000    78.0624    27.2284    27.2584
  334.3000    77.8152    27.2824    27.3307
  334.4000    77.7586    27.3630    27.3300
  334.5000    77.7568    27.4733    27.3292
  334.6000    77.8695    27.4980    27.3285
  334.7000    78.1243    27.6657    27.3276
  334.8000    78.4065    27.8258    27.3270
  334.9000    78.9506    27.9911    27.5473
  335.0000    79.4294    28.1574    27.7062
  335.1000    79.9409    28.3247    27.8159
  335.2000    80.4524    28.4929    28.1178
  335.3000    80.7453    28.6621    28.2851
  335.4000    80.8092    28.8441    28.6783
  335.5000    81.0422    29.0037    28.8164
  335.6000    81.0401    29.0459    29.0970
  335.7000    80.8034    29.2481    29.4416
  335.8000    80.7363    29.4524    29.7901
  335.9000    80.4391    29.4944    30.1201
  336.0000    79.8198    29.6695    30.3058
  336.1000    78.9876    29.8654    30.4760
  336.2000    77.9088    29.8661    30.7975
  336.3000    75.9223    29.8669    31.0502
  336.4000    74.5418    30.0598    31.3138
  336.5000    73.5586    30.2848    31.6352
  336.6000    72.7868    30.3204    31.8383
  336.7000    72.3117    30.4968    32.2469
  336.8000    72.2546    30.4978    32.5972
  336.9000    72.0078    30.6513    32.8385
  337.0000    72.0058    30.7111    33.0319
  337.1000    72.0042    30.7120    33.3052
  337.2000    72.0024    30.7720    33.6542
  337.3000    72.0006    30.9270    33.8419
  337.4000    71.9988    30.9278    33.8408
  337.5000    71.9970    30.9288    33.8400
  337.6000    71.9952    31.0767    33.6984
  337.7000    71.9931    31.1452    33.2904
  337.8000    71.9916    31.1460    32.7051
  337.9000    71.9898    31.1469    32.1650
  338.0000    72.1201    31.1478    31.7865
  338.1000    72.2865    31.1487    31.3544
  338.2000    72.2847    31.1495    31.1982
  338.3000    72.2829    30.8723    30.8920
  338.4000    72.5811    30.5113    30.6180
  338.5000    72.7938    30.0816    30.4370
  338.6000    73.2192    29.5546    30.2570
  338.7000    73.7307    29.0480    30.0743
  338.8000    74.2421    28.6722    30.0733
  338.9000    74.7538    28.3729    29.9301
  339.0000    75.2732    28.2796    29.7532
  339.1000    76.4723    28.0995    29.6577
  339.2000    77.7250    27.8925    29.6067
  339.3000    79.0978    27.8932    29.4515
  339.4000    80.2575    27.8940    29.4507
  339.5000    81.5165    27.8949    29.4499
  339.6000    83.4141    27.8955    29.4491
  339.7000    86.0714    27.8963    29.5523
  339.8000    87.8019    27.8971    29.6520
  339.9000    88.7813    27.8437    29.6511
  340.0000    89.5495    27.7061    29.6640
  340.1000    90.0847    27.7070    29.8553
  340.2000    90.2667    27.7079    30.0146
  340.3000    90.2649    27.7085    30.0610
  340.4000    90.2630    27.7093    30.0602
  340.5000    90.2613    27.7101    30.0594
  340.6000    90.2595    27.7108    30.0585
  340.7000    90.1027    27.7116    30.0503
  340.8000    89.8443    27.7124    29.8495
  340.9000    89.5858    27.5600    29.6963
  341.0000    89.3033    27.5228    29.6421
  341.1000    88.7488    27.5236    29.6413
  341.2000    87.0878    27.5243    29.6405
  341.3000    85.6762    27.5251    29.6396
  341.4000    84.5408    27.5376    29.6388
  341.5000    83.4064    27.7178    29.6379
  341.6000    82.0591    27.7185    29.6372
  341.7000    80.5546    27.8381    29.6364
  341.8000    79.4269    27.9125    29.6355
  341.9000    79.1934    27.9133    29.6347
  342.0000    78.9349    27.9141    29.6339
  342.1000    78.8210    27.9198    29.6331
  342.2000    78.8192    28.1096    29.8021
  342.3000    78.8174    28.1103    29.8372
  342.4000    78.8428    28.2245    29.9463
  342.5000    79.4142    28.3070    30.0427
  342.6000    80.0926    28.3639    30.0419
  342.7000    80.6776    28.5323    30.0411
  342.8000    81.4678    28.7039    30.0402
  342.9000    82.3971    28.7048    30.0394
  343.0000    83.4256    28.8437    30.1734
  343.1000    85.4514    29.0150    30.3512
  343.2000    86.9091    29.1874    30.4555
  343.3000    87.1290    29.3608    30.4979
  343.4000    87.3838    29.5352    30.6775
  343.5000    87.5045    29.7202    30.8773
  343.6000    87.4122    30.0545    30.8765
  343.7000    87.1068    30.2736    31.0076
  343.8000    86.5917    30.5615    31.1902
  343.9000    85.9955    30.8470    31.3042
  344.0000    85.5616    31.0303    31.3033
  344.1000    85.2190    31.2146    31.3025
  344.2000    84.9605    31.4180    31.3015
  344.3000    84.7021    31.5866    31.3007
  344.4000    84.4853    31.6378    31.2999
  344.5000    84.4835    31.6387    31.2048
  344.6000    84.4814    31.7111    31.0203
  344.7000    84.6909    31.8602    30.8671
  344.8000    84.7784    31.8610    30.8662
  344.9000    84.9003    31.8620    30.6524
  345.0000    85.0751    31.8628    30.5037
  345.1000    85.0369    31.8637    30.4395
  345.2000    84.7711    31.9613    30.4386
  345.3000    84.7690    32.0867    30.4378
  345.4000    84.7676    32.0876    30.4370
  345.5000    84.6036    32.0885    30.4361
  345.6000    84.4637    32.0895    30.6077
  345.7000    84.4619    32.0903    30.7880
