~VERSION INFORMATION
 VERS.                2.0:   CWLS LOG ASCII STANDARD - VERSION 2.0
 WRAP.                 NO:   ONE LINE PER DEPTH STEP
~WELL INFORMATION
#MNEM.UNIT      DATA TYPE    INFORMATION
#----------   ------------   ------------------------------
 STRT.F            0.0000:   START DEPTH
 STOP.F          890.0000:   STOP DEPTH
 STEP.F            0.1000:   STEP LENGTH
 NULL.          -999.2500:   NO VALUE
 COMP.   FLUOR DANIEL INC:   COMPANY
 WELL.   35-1 X 14 #35-14:   WELL
 FLD .             TEAPOT:   FIELD
 LOC .      S14 T38N R78W:   LOCATION
 CNTY.            NATRONA:   COUNTY
 STAT.            WYOMING:   STATE
 CTRY. UNITED STATES OF AMERICA:   COUNTRY
 SRVC.      Western Atlas:   SERVICE COMPANY
 DATE.        23-JUL-1995:   LOGDATE
 API .       490252273300:   API NUMBER
~CURVE INFORMATION
#MNEM.UNIT       API CODE    CURVE DESCRIPTION
#----------   ------------   ------------------------------
 DEPT.F                  :   
 RILM.OHMM   07 120 44 00:   RESITIVITY LONG MEDIUM
 RILD.OHMM   07 120 46 00:   INDUCTION LOG DEEP RESISTIVITY
 GRR .GAPI   07 310 01 00:   GAMMA RAY
~PARAMETER INFORMATION
#MNEM.UNIT          VALUE    DESCRIPTION
#----------   ------------   ------------------------------
 PD  .                 GL:   PERMANENT DATUM
 EPD .F              5238:   ELEVATION PERMANENT DATUM
 LMF .                 KB:   LOG MEASURED FROM
 DAPD.F                10:   FEET ABOVE PERMANENT DATUM
 DMF .                 KB:   DRILLING MEASURED FROM
 EKB .F              5248:   KELLING BUSHING
 EDF .F              5247:   DRILLING FLOOR
 EGL .F              5238:   GROUND LEVEL
 DATE.        23-JUL-1995:   RUN DATE
 RUN .                  1:   RUN NUMBER
 DD  .F               898:   DEPTH DRILLER
 DL  .F               898:   DEPTH LOGGER
 BLI .F               890:   BOTTOM LOG INTERVAL
 CS  .IN            9.625:   CASING SIZE
 CBD .F                78:   CASING BOTTOM DRILLER
 CBL .F                80:   CASING BOTTOM LOGGER
 BS  .IN             8.75:   BIT SIZE
 BSD .F               898:   BIT SIZE AT DEPTH
 DFT .                AIR:   DRILLING FLUID TYPE
 MRT .F                94:   MAXIMUM RECORDED TEMPERATURE
 LUN .            HL 6530:   LOGGING UNIT NUMBER
 LUL .             CASPER:   LOGGING UNIT LOCATION
 ENGI.       VERRN RAUTIO:   RECORDING ENGINEER
 WITN.        GARY STRONG:   WITNESSED BY
 CLNT.            A2DTECH:   CLIENT CODE
 ORIG.           5" PRINT:   ORIGIN OF DATA
 UWI .       490252273300:   UNIQUE WELL ID
 DICO. A2D Technologies, Inc.:   DIGITIZING COMPANY
~OTHER INFORMATION
~A    DEPT    RILM       RILD         GRR  
# ...
  546.0000     4.5366     4.6209   124.3749
  546.1000     4.4156     4.5175   124.3770
  546.2000     4.3078     4.4116   124.5591
  546.3000     4.1839     4.3128   124.8165
  546.4000     4.0731     4.1944   124.9885
  546.5000     3.9726     4.0881   125.0675
  546.6000     3.8580     3.9844   125.5977
  546.7000     3.7572     3.8748   125.6000
  546.8000     3.6700     3.7847   125.8014
  546.9000     3.5823     3.6817   126.0588
  547.0000     3.4730     3.5786   126.2115
  547.1000     3.3971     3.4756   126.2139
  547.2000     3.3018     3.3725   126.2163
  547.3000     3.2017     3.2695   126.2191
  547.4000     3.1017     3.1664   126.0028
  547.5000     3.0082     3.0634   125.7502
  547.6000     2.9379     2.9604   125.2494
  547.7000     2.8406     2.8835   124.4869
  547.8000     2.7846     2.7994   123.6949
  547.9000     2.7096     2.7142   122.6080
  548.0000     2.6372     2.6490   122.1349
  548.1000     2.5724     2.5717   121.8179
  548.2000     2.5077     2.5190   121.5654
  548.3000     2.4586     2.4958   121.4091
  548.4000     2.4081     2.4670   121.4115
  548.5000     2.3523     2.4325   121.4158
  548.6000     2.3002     2.3904   121.7189
  548.7000     2.2601     2.3490   121.9308
  548.8000     2.2292     2.3030   122.0254
  548.9000     2.2186     2.2800   122.1434
  549.0000     2.1976     2.2537   122.3323
  549.1000     2.1837     2.2342   122.3561
  549.2000     2.1804     2.2174   122.6395
  549.3000     2.1678     2.1949   122.4125
  549.4000     2.1541     2.1952   122.1600
  549.5000     2.1543     2.1834   121.6375
  549.6000     2.1545     2.1804   120.8748
  549.7000     2.1477     2.1807   120.0308
  549.8000     2.1399     2.1809   118.7263
  549.9000     2.1401     2.1812   117.4862
  550.0000     2.1402     2.1814   115.2064
  550.1000     2.1405     2.1800   112.9673
  550.2000     2.1406     2.1787   111.1444
  550.3000     2.1488     2.1773   109.6773
  550.4000     2.1559     2.1759   108.4174
  550.5000     2.1595     2.1746   107.2632
  550.6000     2.1724     2.1732   106.6029
  550.7000     2.1866     2.1718   106.0140
  550.8000     2.1985     2.1705   105.7595
  550.9000     2.2117     2.1691   105.7619
  551.0000     2.2321     2.1684   105.7644
  551.1000     2.2587     2.1715   105.7669
  551.2000     2.2831     2.1840   106.2495
  551.3000     2.2968     2.1842   106.7617
  551.4000     2.3454     2.1950   107.5656
  551.5000     2.4028     2.2079   108.6868
  551.6000     2.4654     2.2210   110.0158
  551.7000     2.5243     2.2373   111.5618
  551.8000     2.5846     2.2636   114.2433
  551.9000     2.6476     2.2944   115.7310
  552.0000     2.7343     2.3172   117.8488
  552.1000     2.7936     2.3534   119.9103
  552.2000     2.8604     2.3950   121.7688
  552.3000     2.9382     2.4409   123.7874
  552.4000     3.0261     2.4975   125.7380
  552.5000     3.1130     2.5478   127.5930
  552.6000     3.1863     2.6128   129.7378
  552.7000     3.2596     2.6884   131.6363
  552.8000     3.3329     2.7640   132.3941
  552.9000     3.4062     2.8396   133.4031
  553.0000     3.4795     2.9152   134.4129
  553.1000     3.5528     2.9893   135.1202
  553.2000     3.6260     3.0610   135.5254
  553.3000     3.6993     3.1624   135.7797
  553.4000     3.7726     3.2448   136.0338
  553.5000     3.8544     3.3407   136.0363
  553.6000     3.9555     3.4394   136.0387
  553.7000     4.0563     3.5408   136.0411
  553.8000     4.1642     3.6432   136.0435
  553.9000     4.2724     3.7382   136.0964
  554.0000     4.3454     3.8704   136.3504
  554.1000     4.4019     4.0184   136.6555
  554.2000     4.4720     4.1286   136.6574
  554.3000     4.5513     4.2090   136.6598
  554.4000     4.6181     4.3080   136.7629
  554.5000     4.6726     4.4189   136.9668
  554.6000     4.7247     4.4900   136.9692
  554.7000     4.7553     4.5693   136.9716
  554.8000     4.8108     4.6500   136.9740
  554.9000     4.8716     4.7320   136.8254
  555.0000     4.9287     4.8121   136.5761
  555.1000     4.9603     4.8731   136.2764
  555.2000     5.0143     4.9260   135.7752
  555.3000     5.0736     4.9630   135.0224
  555.4000     5.1177     4.9924   134.2695
  555.5000     5.1481     5.0219   133.8187
  555.6000     5.1787     5.0516   133.4687
  555.7000     5.2115     5.0834   132.9675
  555.8000     5.2121     5.0839   132.4665
  555.9000     5.2127     5.0844   132.4694
  556.0000     5.2134     5.0849   132.2699
  556.1000     5.2140     5.0854   132.0206
  556.2000     5.2147     5.0858   131.8719
  556.3000     5.2154     5.0864   131.9246
  556.4000     5.2160     5.0589   132.1789
  556.5000     5.1939     5.0301   132.4330
  556.6000     5.1812     5.0176   132.4858
  556.7000     5.1710     5.0077   132.4882
  556.8000     5.1369     4.9792   132.4906
  556.9000     5.0762     4.9499   132.5434
  557.0000     5.0202     4.9227   132.7976
  557.1000     4.9629     4.8947   132.8005
  557.2000     4.9062     4.8508   133.0038
  557.3000     4.8607     4.7953   133.1069
  557.4000     4.8331     4.7452   133.2101
  557.5000     4.8052     4.7177   133.4643
  557.6000     4.7515     4.6649   133.7184
  557.7000     4.7186     4.6325   133.7213
  557.8000     4.6918     4.5906   134.1260
  557.9000     4.6548     4.5584   134.7831
  558.0000     4.6067     4.5538   135.5409
  558.1000     4.5804     4.5278   136.3487
  558.2000     4.5546     4.5022   137.3583
  558.3000     4.5288     4.4973   138.3677
  558.4000     4.4876     4.4821   139.3772
  558.5000     4.4466     4.4566   140.3867
  558.6000     4.4214     4.4313   141.2955
  558.7000     4.3964     4.4063   142.0532
  558.8000     4.3668     4.4068   142.8109
  558.9000     4.3467     4.3864   143.4180
  559.0000     4.3221     4.3770   143.8227
  559.1000     4.3080     4.3669   144.1776
  559.2000     4.3031     4.3476   144.4319
  559.3000     4.2792     4.3480   144.6357
  559.4000     4.2799     4.3485   144.6381
  559.5000     4.2803     4.3489   144.6410
  559.6000     4.2808     4.3493   144.4415
  559.7000     4.2814     4.3497   143.7391
  559.8000     4.2819     4.3501   142.4324
  559.9000     4.2834     4.3515   140.7227
  560.0000     4.3130     4.3814   139.2145
  560.1000     4.3134     4.3817   137.7068
  560.2000     4.3139     4.3822   136.9030
  560.3000     4.3145     4.3826   136.0497
  560.4000     4.3213     4.3894   135.2969
  560.5000     4.3457     4.4140   134.5437
  560.6000     4.3463     4.4145   133.7909
  560.7000     4.3684     4.4148   133.1896
  560.8000     4.3944     4.4322   132.7888
  560.9000     4.4205     4.4584   132.5897
  561.0000     4.4468     4.4848   132.5921
  561.1000     4.4750     4.5096   132.5946
  561.2000     4.5348     4.5101   132.5970
  561.3000     4.5582     4.5333   133.5062
  561.4000     4.5854     4.5601   134.1125
  561.5000     4.6255     4.5744   135.0211
  561.6000     4.6725     4.5823   136.1314
  561.7000     4.7025     4.6094   137.3423
  561.8000     4.7645     4.6398   138.3518
  561.9000     4.8142     4.6641   139.1091
  562.0000     4.8711     4.6917   139.6657
  562.1000     4.9286     4.7329   140.1716
  562.2000     4.9868     4.7805   140.4761
  562.3000     5.0484     4.8087   140.5290
  562.4000     5.1469     4.8401   140.7831
  562.5000     5.2015     4.8913   140.5338
  562.6000     5.2846     4.9489   140.0831
  562.7000     5.3782     5.0072   139.2799
  562.8000     5.4733     5.0661   138.0735
  562.9000     5.5664     5.1256   136.5648
  563.0000     5.6379     5.1913   135.0574
  563.1000     5.6987     5.2471   133.8518
  563.2000     5.7660     5.3088   133.6524
  563.3000     5.8341     5.3876   133.1008
  563.4000     5.9030     5.4724   132.4488
  563.5000     5.9726     5.5408   131.9478
  563.6000     6.0483     5.6458   131.4465
  563.7000     6.0816     5.7074   131.4489
  563.8000     6.1178     5.7747   131.4514
  563.9000     6.1542     5.8426   131.4538
  564.0000     6.1908     5.8998   131.4562
  564.1000     6.2327     5.9395   131.4586
