~VERSION INFORMATION
 VERS.                2.0:   CWLS LOG ASCII STANDARD - VERSION 2.0
 WRAP.                 NO:   ONE LINE PER DEPTH STEP
~WELL INFORMATION
#MNEM.UNIT      DATA TYPE    INFORMATION
#----------   ------------   ------------------------------
 STRT.F            0.0000:   START DEPTH
 STOP.F          890.0000:   STOP DEPTH
 STEP.F            0.1000:   STEP LENGTH
 NULL.          -999.2500:   NO VALUE
 COMP.   FLUOR DANIEL INC:   COMPANY
 WELL.   35-1 X 14 #35-14:   WELL
 FLD .             TEAPOT:   FIELD
 LOC .      S14 T38N R78W:   LOCATION
 CNTY.            NATRONA:   COUNTY
 STAT.            WYOMING:   STATE
 CTRY. UNITED STATES OF AMERICA:   COUNTRY
 SRVC.      Western Atlas:   SERVICE COMPANY
 DATE.        23-JUL-1995:   LOGDATE
 API .       490252273300:   API NUMBER
~CURVE INFORMATION
#MNEM.UNIT       API CODE    CURVE DESCRIPTION
#----------   ------------   ------------------------------
 DEPT.F                  :   
 RILM.OHMM   07 120 44 00:   RESITIVITY LONG MEDIUM
 RILD.OHMM   07 120 46 00:   INDUCTION LOG DEEP RESISTIVITY
 GRR .GAPI   07 310 01 00:   GAMMA RAY
~PARAMETER INFORMATION
#MNEM.UNIT          VALUE    DESCRIPTION
#----------   ------------   ------------------------------
 PD  .                 GL:   PERMANENT DATUM
 EPD .F              5238:   ELEVATION PERMANENT DATUM
 LMF .                 KB:   LOG MEASURED FROM
 DAPD.F                10:   FEET ABOVE PERMANENT DATUM
 DMF .                 KB:   DRILLING MEASURED FROM
 EKB .F              5248:   KELLING BUSHING
 EDF .F              5247:   DRILLING FLOOR
 EGL .F              5238:   GROUND LEVEL
 DATE.        23-JUL-1995:   RUN DATE
 RUN .                  1:   RUN NUMBER
 DD  .F               898:   DEPTH DRILLER
 DL  .F               898:   DEPTH LOGGER
 BLI .F               890:   BOTTOM LOG INTERVAL
 CS  .IN            9.625:   CASING SIZE
 CBD .F                78:   CASING BOTTOM DRILLER
 CBL .F                80:   CASING BOTTOM LOGGER
 BS  .IN             8.75:   BIT SIZE
 BSD .F               898:   BIT SIZE AT DEPTH
 DFT .                AIR:   DRILLING FLUID TYPE
 MRT .F                94:   MAXIMUM RECORDED TEMPERATURE
 LUN .            HL 6530:   LOGGING UNIT NUMBER
 LUL .             CASPER:   LOGGING UNIT LOCATION
 ENGI.       VERRN RAUTIO:   RECORDING ENGINEER
 WITN.        GARY STRONG:   WITNESSED BY
 CLNT.            A2DTECH:   CLIENT CODE
 ORIG.           5" PRINT:   ORIGIN OF DATA
 UWI .       490252273300:   UNIQUE WELL ID
 DICO. A2D Technologies, Inc.:   DIGITIZING COMPANY
~OTHER INFORMATION
~A    DEPT    RILM       RILD         GRR  
# ...
  873.6000     8.9176     8.6803  -999.2500
  873.7000     8.9185     8.6810  -999.2500
  873.8000     8.9194     8.6817  -999.2500
  873.9000     8.9202     8.6824  -999.2500
  874.0000     8.9211     8.6831  -999.2500
  874.1000     8.9220     8.6840  -999.2500
  874.2000     8.9002     8.6846  -999.2500
  874.3000     8.8619     8.6853  -999.2500
  874.4000     8.8628     8.6860  -999.2500
  874.5000     8.8637     8.6868  -999.2500
  874.6000     8.8645     8.6875  -999.2500
  874.7000     8.8653     8.6883  -999.2500
  874.8000     8.8662     8.6889  -999.2500
  874.9000     8.8671     8.6897  -999.2500
  875.0000     8.8679     8.6904  -999.2500
  875.1000     8.8688     8.6911  -999.2500
  875.2000     8.8084     8.6798  -999.2500
  875.3000     8.8091     8.6323  -999.2500
  875.4000     8.7754     8.6332  -999.2500
  875.5000     8.7498     8.6338  -999.2500
  875.6000     8.7344     8.6345  -999.2500
  875.7000     8.6907     8.6353  -999.2500
  875.8000     8.6917     8.6181  -999.2500
  875.9000     8.6434     8.5768  -999.2500
  876.0000     8.6332     8.5776  -999.2500
  876.1000     8.6031     8.5785  -999.2500
  876.2000     8.5750     8.5791  -999.2500
  876.3000     8.5630     8.5471  -999.2500
  876.4000     8.5172     8.5211  -999.2500
  876.5000     8.5182     8.5071  -999.2500
  876.6000     8.5189     8.4577  -999.2500
  876.7000     8.4834     8.4057  -999.2500
  876.8000     8.4616     8.4064  -999.2500
  876.9000     8.4438     8.3692  -999.2500
  877.0000     8.4044     8.3496  -999.2500
  877.1000     8.4054     8.3503  -999.2500
  877.2000     8.3481     8.3394  -999.2500
  877.3000     8.3074     8.2938  -999.2500
  877.4000     8.2918     8.2946  -999.2500
  877.5000     8.2687     8.2521  -999.2500
  877.6000     8.2360     8.2385  -999.2500
  877.7000     8.2301     8.2135  -999.2500
  877.8000     8.1805     8.1828  -999.2500
  877.9000     8.1813     8.1835  -999.2500
  878.0000     8.1443     8.1842  -999.2500
  878.1000     8.1262     8.1283  -999.2500
  878.2000     8.1063     8.0895  -999.2500
  878.3000     8.0715     8.0733  -999.2500
  878.4000     8.0723     8.0740  -999.2500
  878.5000     8.0731     8.0607  -999.2500
  878.6000     8.0309     8.0193  -999.2500
  878.7000     8.0187     8.0201  -999.2500
  878.8000     8.0195     8.0208  -999.2500
  878.9000     8.0026     7.9853  -999.2500
  879.0000     7.9653     7.9666  -999.2500
  879.1000     7.9662     7.9672  -999.2500
  879.2000     7.9671     7.9679  -999.2500
  879.3000     7.9678     7.9686  -999.2500
  879.4000     7.9686     7.9693  -999.2500
  879.5000     7.9463     7.9285  -999.2500
  879.6000     7.9149     7.9154  -999.2500
  879.7000     7.9221     7.9160  -999.2500
  879.8000     7.9717     7.9002  -999.2500
  879.9000     7.9724     7.8624  -999.2500
  880.0000     7.9732     7.8632  -999.2500
  880.1000     7.9740     7.8640  -999.2500
  880.2000     7.9748     7.8645  -999.2500
  880.3000     7.9755     7.8652  -999.2500
  880.4000     7.9763     7.8658  -999.2500
  880.5000     7.9772     7.8665  -999.2500
  880.6000     7.9779     7.8671  -999.2500
  880.7000     7.9787     7.8678  -999.2500
  880.8000     7.9794     7.8685  -999.2500
  880.9000     7.9802     7.8691  -999.2500
  881.0000     7.9810     7.8698  -999.2500
  881.1000     7.9818     7.8704  -999.2500
  881.2000     7.9827     7.8821  -999.2500
  881.3000     7.9833     7.9266  -999.2500
  881.4000     7.9841     7.9273  -999.2500
  881.5000     7.9849     7.9279  -999.2500
  881.6000     7.9856     7.9286  -999.2500
  881.7000     7.9864     7.9293  -999.2500
  881.8000     7.9872     7.9299  -999.2500
  881.9000     7.9880     7.9389  -999.2500
  882.0000     7.9888     7.9865  -999.2500
  882.1000     7.9895     7.9873  -999.2500
  882.2000     7.9903     7.9878  -999.2500
  882.3000     7.9911     7.9885  -999.2500
  882.4000     7.9919     7.9892  -999.2500
  882.5000     7.9927     7.9898  -999.2500
  882.6000     7.9934     7.9961  -999.2500
  882.7000     7.9942     8.0469  -999.2500
  882.8000     7.9950     8.0475  -999.2500
  882.9000     7.9958     8.0482  -999.2500
  883.0000     7.9965     8.0769  -999.2500
  883.1000     7.9973     8.1057  -999.2500
  883.2000     7.9982     8.1063  -999.2500
  883.3000     7.9989     8.1070  -999.2500
  883.4000     7.9996     8.1078  -999.2500
  883.5000     8.0004     8.1084  -999.2500
  883.6000     8.0012     8.1090  -999.2500
  883.7000     8.0020     8.1097  -999.2500
  883.8000     8.0028     8.1104  -999.2500
  883.9000     8.0035     8.1111  -999.2500
  884.0000     8.0043     8.1117  -999.2500
  884.1000     8.0051     8.1125  -999.2500
  884.2000     8.0059     8.1131  -999.2500
  884.3000     8.0067     8.1449  -999.2500
  884.4000     8.0074     8.1710  -999.2500
  884.5000     8.0083     8.1717  -999.2500
  884.6000     8.0090     8.1724  -999.2500
  884.7000     8.0098     8.1731  -999.2500
  884.8000     8.0106     8.1737  -999.2500
  884.9000     8.0113     8.1744  -999.2500
  885.0000     8.0121     8.1751  -999.2500
  885.1000     8.0129     8.1758  -999.2500
  885.2000     8.0138     8.1765  -999.2500
  885.3000     8.0145     8.1771  -999.2500
  885.4000     7.9837     8.1779  -999.2500
  885.5000     7.9605     8.1785  -999.2500
  885.6000     7.9613     8.1792  -999.2500
  885.7000     7.9620     8.1799  -999.2500
  885.8000     7.9628     8.1806  -999.2500
  885.9000     7.9636     8.1812  -999.2500
  886.0000     7.9276     8.1819  -999.2500
  886.1000     7.9100     8.1827  -999.2500
  886.2000     7.9107     8.1833  -999.2500
  886.3000     7.8996     8.1840  -999.2500
  886.4000     7.8574     8.1846  -999.2500
  886.5000     7.8583     8.1853  -999.2500
  886.6000     7.8590     8.1860  -999.2500
  886.7000     7.8262     8.1867  -999.2500
  886.8000     7.8061     8.1874  -999.2500
  886.9000     7.8068     8.1881  -999.2500
  887.0000     7.7986     8.2173  -999.2500
  887.1000     7.7534     8.2465  -999.2500
  887.2000     7.7014     8.2472  -999.2500
  887.3000     7.7020     8.2479  -999.2500
  887.4000     7.7028     8.2486  -999.2500
  887.5000     7.6813     8.2493  -999.2500
  887.6000     7.6509     8.2499  -999.2500
  887.7000     7.6517     8.2506  -999.2500
  887.8000     7.6524     8.2513  -999.2500
  887.9000     7.6532     8.2520  -999.2500
  888.0000     7.6186     8.2527  -999.2500
  888.1000     7.6016     8.2535  -999.2500
  888.2000     7.6024     8.2541  -999.2500
  888.3000     7.6031     8.2548  -999.2500
  888.4000     7.6038     8.2554  -999.2500
  888.5000     7.6047     8.2561  -999.2500
  888.6000     7.6053     8.2568  -999.2500
  888.7000     7.5736     8.2575  -999.2500
  888.8000     7.5541     8.2582  -999.2500
  888.9000     7.5548     8.2589  -999.2500
  889.0000     7.5556     8.2596  -999.2500
  889.1000     7.5563     8.2603  -999.2500
  889.2000     7.5572     8.2610  -999.2500
  889.3000     7.5578     8.2616  -999.2500
  889.4000     7.5884     8.2623  -999.2500
  889.5000     7.6120     8.2630  -999.2500
  889.6000     7.6127     8.2637  -999.2500
  889.7000     7.6135     8.2644  -999.2500
  889.8000     7.6142     8.2651  -999.2500
  889.9000     7.6149     8.2658  -999.2500
  890.0000     7.6157     8.2665  -999.2500
