~VERSION INFORMATION
 VERS.                2.0:   CWLS LOG ASCII STANDARD - VERSION 2.0
 WRAP.                 NO:   ONE LINE PER DEPTH STEP
~WELL INFORMATION
#MNEM.UNIT      DATA TYPE    INFORMATION
#----------   ------------   ------------------------------
 STRT.F            0.0000:   START DEPTH
 STOP.F          774.0000:   STOP DEPTH
 STEP.F            0.5000:   STEP LENGTH
 NULL.          -999.2500:   NO VALUE
 COMP. LAWRENCE/ALLISON INC:   COMPANY
 WELL. SX 11 WP #37-53-11:   WELL
 FLD .             TEAPOT:   FIELD
 LOC .      S11 T38N R78W:   LOCATION
 CNTY.            NATRONA:   COUNTY
 STAT.            WYOMING:   STATE
 CTRY. UNITED STATES OF AMERICA:   COUNTRY
 SRVC.            Unknown:   SERVICE COMPANY
 DATE.        19-SEP-1984:   LOGDATE
 API .       490251098900:   API NUMBER
~CURVE INFORMATION
#MNEM.UNIT       API CODE    CURVE DESCRIPTION
#----------   ------------   ------------------------------
 DEPT.F                  :   
 GRR .GAPI   07 310 01 00:   GAMMA RAY FROM RES. LOG.
 SPR .MV     07 010 01 00:   SPONTANEOUS POTENTIAL
 RFOC.OHMM   07 220 04 00:   RESISTIVITY FOCUSED LOG
 ILD .OHMM   07 120 46 00:   INDUCTION LOG DEEP RESISTIVITY
 RILM.OHMM   07 120 44 00:   INDUCTION LOG MEDIUM RESISTIVITY
 CALD.IN     45 280 60 00:   CALIPER
 DEN .G/C3   45 350 01 00:   COMPENSATED BULK DENSTIY
 CORR.G/C3   45 356 01 00:   DENSITY CORRECTION
 PORD.DEC    45 890 12 00:   POROSITY DENSITY SANDSTONE
 AC  .US/F   60 520 00 00:   ACOUSTIC SONIC
 CNC .DEC    42 890 03 00:   NEUTRON POROSITY SANDSTONE
~PARAMETER INFORMATION
#MNEM.UNIT          VALUE    DESCRIPTION
#----------   ------------   ------------------------------
 PD  .                 GL:   PERMANENT DATUM
 EPD .F              5153:   ELEVATION PERMANENT DATUM
 LMF .                 GL:   LOG MEASURED FROM
 DMF .                 GL:   DRILLING MEASURED FROM
 EGL .F              5153:   GROUND LEVEL
 DATE.       19-SEPT-1984:   RUN DATE
 RUN .                  1:   RUN NUMBER
 DD  .F               785:   DEPTH DRILLER
 DL  .F               774:   DEPTH LOGGER
 BLI .F               772:   BOTTOM LOG INTERVAL
 CS  .IN            8.625:   CASING SIZE
 CBD .F                42:   CASING BOTTOM DRILLER
 CBL .F                41:   CASING BOTTOM LOGGER
 BS  .IN            7.875:   BIT SIZE
 BSD .F               785:   BIT SIZE AT DEPTH
 DFT .          KCL WATER:   DRILLING FLUID TYPE
 MSS .           FLOWLINE:   MUD SAMPLE SOURCE
 RMS .OHMM            .27:   RESISTIVITY MUD SAMPLE
 MST .F                82:   MUD SAMPLE TEMPERATURE
 TCS .HRS               2:   TIME CURCULATED STOPPED
 MRT .F               100:   MAXIMUM RECORDED TEMPERATURE
 LUN .               6274:   LOGGING UNIT NUMBER
 LUL .               GLTE:   LOGGING UNIT LOCATION
 ENGI.         HINDS/MACK:   RECORDING ENGINEER
 WITN.             STRONG:   WITNESSED BY
 CLNT.            A2DTECH:   CLIENT CODE
 ORIG.   1", 2", 5" PRINT:   ORIGIN OF DATA
 UWI .       490251098900:   UNIQUE WELL ID
 DICO. A2D Technologies, Inc.:   DIGITIZING COMPANY
~OTHER INFORMATION
~A    DEPT      GRR       SPR       RFOC        ILD       RILM       CALD        DEN       CORR       PORD         AC        CNC   
# ...
  671.0000    94.5636   -41.4550     9.4817     8.1949     8.8262     7.8799     2.4503     0.0031     0.1357    92.6550     0.2557
  671.5000    94.9823   -41.9852     9.3633     7.9960     9.0108     7.8799     2.4429     0.0021     0.1396    92.9984     0.2557
  672.0000    95.3971   -42.5149     9.2327     7.8019     8.9056     7.8799     2.4389     0.0049     0.1420    93.4354     0.2608
  672.5000    95.7155   -43.0457     9.1040     7.3443     8.3689     7.8799     2.4407     0.0078     0.1432    94.0527     0.2693
  673.0000    95.8937   -43.6071     8.9770     6.6904     7.7370     7.8799     2.4431     0.0108     0.1414    94.7773     0.2779
  673.5000    96.2294   -44.3178     8.8534     6.0946     6.8798     7.8799     2.4427     0.0079     0.1403    95.8241     0.2851
  674.0000    98.0504   -45.0250     8.6864     5.5519     6.0178     7.8799     2.4284     0.0014     0.1451    98.5558     0.2923
  674.5000   102.3154   -45.7343     7.6851     5.0123     5.2637     7.8799     2.4107    -0.0041     0.1555   101.3817     0.2983
  675.0000   106.6021   -46.4148     6.5398     4.9665     5.0584     7.8799     2.3925    -0.0025     0.1660   100.8705     0.2967
  675.5000   111.0707   -46.4402     5.5676     4.9665     5.1847     7.8799     2.3909    -0.0006     0.1718    99.1306     0.2910
  676.0000   113.8837   -46.4366     4.6579     5.0021     5.6333     7.8799     2.4129     0.0012     0.1654    95.7293     0.2774
  676.5000   110.4576   -46.4458     5.7148     5.1254     6.0804     7.8799     2.4386     0.0081     0.1525    92.3280     0.2620
  677.0000   106.4761   -46.0616     7.1712     5.2517     6.6873     7.8799     2.4603     0.0180     0.1396    90.9443     0.2537
  677.5000   100.8402   -45.5218     9.0158     5.4532     7.3100     7.8799     2.4742     0.0278     0.1271    91.2250     0.2533
  678.0000    95.9162   -44.9978     9.3427     5.8587     7.9807     7.8799     2.4801     0.0312     0.1209    91.4524     0.2684
  678.5000    92.2896   -44.4728     9.4353     6.7405     8.6179     7.8799     2.4855     0.0244     0.1163    91.6520     0.2704
  679.0000    92.4792   -44.1087     9.5289     7.4458     9.1026     7.8799     2.4864     0.0178     0.1143    91.7055     0.2629
  679.5000    94.5120   -43.8487     9.6234     7.7698     9.1248     7.8799     2.4860     0.0112     0.1142    91.7608     0.2569
  680.0000    97.3040   -43.5913     9.7188     8.1079     9.1493     7.8799     2.4842     0.0054     0.1144    91.8158     0.2509
  680.5000    99.5567   -43.3351     9.8152     8.3995     9.1739     7.8799     2.4820     0.0040     0.1174    91.8709     0.2489
  681.0000    98.3476   -43.0638     9.9118     8.6269     9.2977     7.8799     2.4842     0.0062     0.1170    91.9264     0.2532
  681.5000    96.9061   -42.4638    10.0331     8.8605     9.4333     7.8799     2.4878     0.0096     0.1142    91.9828     0.2566
  682.0000    98.1005   -41.8405    10.1827     9.1004     9.6287     7.8799     2.4904     0.0131     0.1123    92.0371     0.2593
  682.5000   101.2383   -41.2177    10.3345     9.3468     9.8188     7.8799     2.4889     0.0166     0.1120    91.6606     0.2616
  683.0000   103.4976   -40.5965    10.4886     9.5999    10.0128     7.8799     2.4858     0.0162     0.1134    91.2692     0.2606
  683.5000   103.4935   -39.9717    10.6451     9.8598    10.2106     7.8799     2.4823     0.0122     0.1151    90.8795     0.2529
  684.0000   100.9454   -39.5752    10.8038    10.1267    10.4122     7.8799     2.4768     0.0082     0.1191    90.4898     0.2457
  684.5000   101.6781   -39.3389    10.9649    10.3386    10.5622     7.8799     2.4641     0.0048     0.1244    90.1000     0.2449
  685.0000   102.4254   -39.1063    11.1253    10.3386    10.6386     7.8799     2.4652     0.0078     0.1273    89.7913     0.2444
  685.5000   101.3967   -38.8741    11.2554    10.3386    10.7156     7.8799     2.4724     0.0139     0.1244    89.6259     0.2439
  686.0000   100.5543   -38.6417    11.3845    10.3684    10.7930     7.8799     2.4778     0.0085     0.1201    89.3992     0.2425
  686.5000   104.5454   -38.4091    11.5151    10.5096    10.8801     7.8837     2.4769    -0.0019     0.1191    89.1236     0.2408
  687.0000   104.5246   -38.1730    11.6473    10.6527    10.9736     7.8895     2.4732    -0.0048     0.1204    88.8480     0.2390
  687.5000   103.1470   -37.9476    11.7809    10.7977    11.0679     7.8953     2.4695     0.0014     0.1232    88.5724     0.2432
  688.0000    99.5870   -37.7195    11.9161    10.9447    11.1630     7.9011     2.4619    -0.0073     0.1267    88.2969     0.2495
  688.5000    97.0901   -37.4654    12.0528    11.1251    11.2589     7.9069     2.4545    -0.0182     0.1319    88.0616     0.2557
  689.0000    96.4008   -37.0821    12.1912    11.1179    11.3557     7.9127     2.4484    -0.0138     0.1371    88.0991     0.2579
  689.5000    95.6636   -36.6949    12.3310    11.1089    11.4406     7.9185     2.4490    -0.0002     0.1379    88.3589     0.2544
  690.0000    94.9384   -36.3090    12.4184    11.0998    11.4696     7.9170     2.4506     0.0134     0.1367    88.6188     0.2509
  690.5000    94.2299   -35.9210    12.2286    11.0908    11.4987     7.9137     2.4518     0.0139     0.1343    88.8786     0.2484
  691.0000    93.7358   -35.6390    12.0702    11.0817    11.5405     7.9103     2.4474    -0.0043     0.1347    89.1551     0.2502
  691.5000    94.3393   -35.4391    11.9714    11.0727    11.5202     7.9068     2.4378    -0.0219     0.1404    89.1932     0.2509
  692.0000    94.3932   -35.2397    12.2964    11.0637    11.4847     7.9035     2.4282    -0.0397     0.1461    89.2340     0.2502
  692.5000    90.6653   -35.1518    12.5393    11.0547    11.4494     7.9001     2.4212    -0.0362     0.1518    89.2748     0.2494
  693.0000    89.2512   -35.2888    12.6481    11.0457    11.4141     7.8966     2.4235    -0.0297     0.1526    89.3155     0.2485
  693.5000    90.8805   -35.4414    12.4278    11.0379    11.3790     7.8932     2.4270    -0.0232     0.1505    89.3563     0.2477
  694.0000    95.1631   -35.6853    12.2400    11.0171    11.3439     7.8898     2.4312    -0.0167     0.1484    89.3971     0.2486
  694.5000    99.3264   -36.1335    12.0549    11.1342    11.3090     7.8864     2.4355    -0.0153     0.1463    89.4378     0.2494
  695.0000    99.2335   -36.5788    11.8715    11.0734    11.2742     7.8830     2.4397    -0.0147     0.1437    89.4786     0.2497
  695.5000    98.8230   -37.0177    11.7521    11.0189    11.2395     7.8803     2.4440    -0.0141     0.1406    89.5194     0.2486
  696.0000    95.6749   -37.3323    11.8377    10.9647    11.2049     7.8870     2.4483    -0.0095     0.1376    89.5602     0.2474
  696.5000    92.7289   -37.3260    11.9129    10.9107    11.1704     7.8936     2.4567    -0.0002     0.1341    89.6009     0.2493
  697.0000    96.2439   -37.3269    11.9883    10.8570    11.1360     7.8995     2.4650     0.0001     0.1286    89.6417     0.2517
  697.5000    99.6662   -37.3267    12.0640    10.8036    11.1018     7.8989     2.4732     0.0045     0.1232    89.6824     0.2541
  698.0000    99.2059   -37.3267    12.1402    10.7504    11.0677     7.8982     2.4791     0.0236     0.1190    89.7232     0.2565
  698.5000    95.8196   -37.3267    12.1928    10.6930    11.0334     7.8975     2.4792     0.0403     0.1182    90.0418     0.2530
  699.0000    94.0309   -37.3262    12.0419    10.5927    10.9322     7.8968     2.4772     0.0302     0.1194    90.3681     0.2448
  699.5000    92.3041   -37.3257    11.8784    10.4933    10.8049     7.8961     2.4773     0.0167     0.1199    90.7129     0.2366
  700.0000    91.1733   -37.3587    11.7171    10.3949    10.6792     7.8954     2.4795     0.0028     0.1185    91.0609     0.2319
  700.5000    92.1883   -37.6612    11.5581    10.2973    10.5548     7.8947     2.4826    -0.0038     0.1172    91.4414     0.2439
  701.0000    95.6779   -37.9676    11.4012    10.2007    10.4319     7.8940     2.4778    -0.0031     0.1190    91.7435     0.2520
