~VERSION INFORMATION
 VERS.                2.0:   CWLS LOG ASCII STANDARD - VERSION 2.0
 WRAP.                 NO:   ONE LINE PER DEPTH STEP
~WELL INFORMATION
#MNEM.UNIT      DATA TYPE    INFORMATION
#----------   ------------   ------------------------------
 STRT.F           14.5000:   START DEPTH
 STOP.F          750.0000:   STOP DEPTH
 STEP.F            0.5000:   STEP LENGTH
 NULL.          -999.2500:   NO VALUE
 COMP. FENIX & SCISSON INC:   COMPANY
 WELL.       NPR 3 #24-14:   WELL
 FLD .             TEAPOT:   FIELD
 LOC .      S14 T38N R78W:   LOCATION
 CNTY.            NATRONA:   COUNTY
 STAT.            WYOMING:   STATE
 CTRY. UNITED STATES OF AMERICA:   COUNTRY
 SRVC.           BIRDWELL:   SERVICE COMPANY
 DATE.        27-DEC-1978:   LOGDATE
 API .       490251075900:   API NUMBER
~CURVE INFORMATION
#MNEM.UNIT       API CODE    CURVE DESCRIPTION
#----------   ------------   ------------------------------
 DEPT.F                  :   
 SPR .MV     05 010 01 00:   SPONTANEOUS POTENTIAL FROM RES.
 SN  .OHMM   05 040 16 00:   SHORT NORMAL 16"
 IL  .OHMM   05 120 00 00:   INDUCTION LOG
 GRD .GAPI   45 310 01 00:   GAMMA RAY FROM DENSITY LOG
 CALD.IN     45 280 60 00:   CALIPER
 RHOB.G/C3   45 350 01 00:   BULK DENSITY
 DPHI.DEC    45 890 12 00:   DENSITY POROSITY SANDSTONE
 CORR.G/C3   45 356 01 00:   DENSITY CORRECTION
~PARAMETER INFORMATION
#MNEM.UNIT          VALUE    DESCRIPTION
#----------   ------------   ------------------------------
 PD  .                 GL:   PERMANENT DATUM
 EPD .F              5209:   ELEVATION PERMANENT DATUM
 LMF .                 KB:   LOG MEASURED FROM
 DAPD.F                 4:   FEET ABOVE PERMANENT DATUM
 DMF .                 KB:   DRILLING MEASURED FROM
 EKB .F              5212:   KELLING BUSHING
 EGL .F              5209:   GROUND LEVEL
 DATE.           12-27-78:   RUN DATE
 RUN .                  1:   RUN NUMBER
 DD  .F               750:   DEPTH DRILLER
 DL  .F               742:   DEPTH LOGGER
 BLI .F               735:   BOTTOM LOG INTERVAL
 TLI .F                35:   TOP LOG INTERVAL
 CS  .IN            8.625:   CASING SIZE
 CBD .F                40:   CASING BOTTOM DRILLER
 CBL .F                32:   CASING BOTTOM LOGGER
 BS  .IN            7.875:   BIT SIZE
 BSD .F               750:   BIT SIZE AT DEPTH
 DFT .                KCL:   DRILLING FLUID TYPE
 DFD .                8.6:   DRILLING FLUID DENSITY
 DFV .                 35:   DRILLING FLUID VISCOSITY
 DFPH.                9.4:   DRILLING FLUID PH
 DFL .               12.4:   DRILLING FLUID LOSS
 MSS .           FLOWLINE:   MUD SAMPLE SOURCE
 RMS .OHMM            .38:   RESISTIVITY MUD SAMPLE
 MST .F                58:   MUD SAMPLE TEMPERATURE
 RMF .OHMM            .38:   RESISTIVITY MUD FILTRATE SAMPLE
 MFST.F                58:   MUD FILTRATE SAMPLE TEMPERATURE
 RMC .OHMM            .36:   RESISTIVITY MUD CAKE
 MCST.F                60:   MUD CAKE SAMPLE TEMPERATURE
 MFSS.           MEASURED:   MUD FILTRATE SAMPLE SOURCE
 MCSS.           MEASURED:   MUD CAKE SAMPLE SOURCE
 RMB .OHMM            .37:   RESISTIVITY MUD AT BHT
 BHT .F                59:   BOTTOM HOLE TEMPERATURE
 TCS .HRS               2:   TIME CURCULATED STOPPED
 MRT .F                59:   MAXIMUM RECORDED TEMPERATURE
 LUN .               2958:   LOGGING UNIT NUMBER
 LUL .             CASPER:   LOGGING UNIT LOCATION
 ENGI.         B. ROLLINS:   RECORDING ENGINEER
 WITN.           DINSMORE:   WITNESSED BY
 CLNT.            A2DTECH:   CLIENT CODE
 ORIG.           5" PRINT:   ORIGIN OF DATA
 UWI .       490251075900:   UNIQUE WELL ID
 DICO. A2D Technologies, Inc.:   DIGITIZING COMPANY
~OTHER INFORMATION
~A   DEPT      SPR         SN         IL         GRD      CALD       RHOB       DPHI       CORR   
# ...
  703.0000   -78.8910     9.0570     7.1740    93.1040     8.0230     2.5390     0.0930     0.0420
  703.5000   -78.4940     9.7530     7.5180    93.2240     7.9350     2.5320     0.1020     0.0410
  704.0000   -78.0970     9.9870     7.8960    93.1580     7.8450     2.5180     0.1060     0.0490
  704.5000   -78.0340    10.0850     8.5000    93.2940     7.7900     2.5060     0.1060     0.0620
  705.0000   -77.9760    10.1820     8.5000    95.2260     7.8340     2.5040     0.1050     0.0770
  705.5000   -77.9160    10.2790     8.5000    98.5200     7.9080     2.5050     0.1110     0.0910
  706.0000   -77.8390    10.3760     8.5000    99.5770     7.9830     2.5050     0.1230     0.0930
  706.5000   -77.7510    10.4740     8.5000    97.6380     7.9860     2.4930     0.1100     0.1000
  707.0000   -77.5820    10.6590     8.5000    94.2900     7.9860     2.4730     0.0860     0.1310
  707.5000   -77.1700    10.8810     8.6740    91.2920     7.9860     2.5050     0.0760     0.1600
  708.0000   -76.7720    11.1030     8.9240    90.3540     7.9940     2.5670     0.0780     0.1510
  708.5000   -76.5400    11.3260     9.1490    89.9440     8.0280     2.5530     0.0790     0.1920
  709.0000   -76.7070    11.5480     9.6270    90.8640     8.0600     2.5270     0.0710     0.2450
  709.5000   -76.8730    11.7710     9.7920    92.3980     8.0930     2.5520     0.0590     0.2940
  710.0000   -76.4790    11.8930     9.8400    91.4780     8.1210     2.5750     0.0750     0.3000
  710.5000   -75.9230    11.9720     9.8890    90.4850     8.0300     2.5810     0.0970     0.2330
  711.0000   -75.8260    12.0500     9.9380    89.7910     7.8390     2.5430     0.1190     0.1660
  711.5000   -75.7500    12.1690     9.9870    90.1430     7.6380     2.5020     0.1200     0.1460
  712.0000   -75.6940    12.1620    10.0310    90.6660     7.6360     2.4770     0.1040     0.2330
  712.5000   -75.6760    12.1490    10.0140    91.8610     7.8270     2.4900     0.0730     0.3130
  713.0000   -75.6590    12.1360     9.9990    93.5610     7.9330     2.5270     0.0300     0.3930
  713.5000   -75.6410    12.1230     9.9830    95.2520     8.0410     2.5900    -0.0040     0.4360
  714.0000   -75.6240    12.1100     9.9680    96.3940     8.0830     2.6970     0.0280     0.3780
  714.5000   -75.6060    12.0960     9.9530    96.0470     8.0450     2.6910     0.0650     0.2390
  715.0000   -75.5880    12.0830     9.9390    94.0260     7.9990     2.6000     0.1020     0.1340
  715.5000   -75.5710    12.0700    10.0340    91.6680     7.9360     2.5180     0.1240     0.0950
  716.0000   -75.5530    12.0570    10.1210    91.1290     7.8790     2.4760     0.1320     0.1520
  716.5000   -75.5360    12.0440    10.2170    95.2050     7.9040     2.4580     0.0770     0.2380
  717.0000   -75.5180    12.0310    10.1880    97.0360     7.8860     2.4980     0.0750     0.3180
  717.5000   -75.5040    12.0180    10.1560    98.3800     7.8520     2.5490     0.0750     0.3270
  718.0000   -75.5990    12.0040    10.1240    97.8950     7.7810     2.6000     0.0740     0.2730
  718.5000   -75.7000    11.9910    10.0930    97.4010     7.7100     2.5890     0.0780     0.2000
  719.0000   -75.8020    11.9780    10.0610    95.7720     7.6710     2.5400     0.0800     0.1950
  719.5000   -75.9040    11.9650    10.0290    94.0760     7.6880     2.5540     0.0790     0.1990
  720.0000   -76.0050    11.9520     9.9970    92.3850     7.7060     2.5910     0.0780     0.1940
  720.5000   -76.1070    11.9390     9.9650    90.9520     7.6610     2.5740     0.1030     0.1620
  721.0000   -76.2090    11.9260     9.9330    91.2740     7.6220     2.5300     0.1030     0.1460
  721.5000   -76.3100    11.9120     9.9010    91.4930     7.6460     2.5030     0.1050     0.1320
  722.0000   -76.4120    11.8990     9.8690    91.6360     7.8210     2.5090     0.1060     0.1280
  722.5000   -76.5130    11.8860     9.8370    90.6330     7.9160     2.4970     0.1010     0.1380
  723.0000   -76.6150    11.8730     9.8050    89.6030     7.9490     2.5160     0.0960     0.1420
  723.5000   -76.7170    11.8590     9.7740    89.6370     7.9550     2.5320     0.0920     0.1210
  724.0000   -76.8190    11.8470     9.6610    90.4190     7.9600     2.5300     0.0940     0.0950
  724.5000   -76.9450    11.7930     9.4670    93.9550     7.9640     2.5230     0.1000     0.0840
  725.0000   -77.1710    11.6450     9.2730    95.5380     8.0020     2.5160     0.1050     0.0910
  725.5000   -77.3970    11.4980     9.0790    95.8430     8.0420     2.5090     0.1080     0.0990
  726.0000   -77.6230    11.3500     8.9700    96.1280     8.0040     2.5030     0.1050     0.1060
  726.5000   -77.8500    11.2020     8.9460    97.9030     7.9400     2.5050     0.1010     0.1060
  727.0000   -78.0760    11.0950     8.9220    99.1940     7.8820     2.5100     0.0960     0.1040
  727.5000   -78.2940    11.0830     8.9000    99.9100     7.8740     2.5200     0.0890     0.1030
  728.0000   -78.3330    11.0700     8.8440   100.9110     7.8720     2.5360     0.0740     0.1010
  728.5000   -78.3650    11.0570     8.7940   101.7390     7.6920     2.5530     0.0630     0.1030
  729.0000   -78.3970    11.0440     8.7430   100.5730     7.7400     2.5700     0.0640     0.1130
  729.5000   -78.4300    11.0320     8.6930    99.6770     7.7320     2.5760     0.0660     0.1330
  730.0000   -78.4620    11.0190     8.6130    99.8160     7.7160     2.5700     0.0690     0.1350
  730.5000   -78.4940    11.0060     8.4630   100.0170     7.6980     2.5630     0.0740     0.1380
  731.0000   -78.5000    10.9830     8.3120   100.0200     7.6810     2.5560     0.0580     0.1460
  731.5000   -78.5000    10.9350     8.1620   100.2930     7.6640     2.5640     0.0750     0.1520
  732.0000   -78.5000    10.8880     8.1170   100.8950     7.6460     2.5880     0.0760     0.1480
  732.5000   -78.5000    10.8400     8.1170   102.2550     7.6280     2.5540     0.0760     0.1390
  733.0000   -78.4930    10.7970     8.1170   103.5200     7.5790     2.5550     0.0770     0.1230
  733.5000   -78.3550    10.9280     8.1170   103.8980     7.5280     2.5570     0.0770     0.1090
  734.0000   -78.0290    11.0470     8.1170   101.7050     7.4770     2.5580     0.0710     0.1050
  734.5000   -77.6590    11.1660     8.1170    98.4770     7.4260     2.5600     0.0670     0.1060
  735.0000   -77.5230    11.2020     8.1170    98.0190     7.3740     2.5620     0.0660     0.1070
  735.5000  -999.2500    11.2020     8.1170    97.9310     7.3670     2.5670     0.0640     0.1090
  736.0000  -999.2500  -999.2500  -999.2500    97.8680     7.3630     2.5720     0.0630     0.1160
  736.5000  -999.2500  -999.2500  -999.2500    97.6390     7.3590     2.5720     0.0650     0.1280
  737.0000  -999.2500  -999.2500  -999.2500    97.2310     7.3550     2.5660     0.0660     0.1390
  737.5000  -999.2500  -999.2500  -999.2500    96.8560     7.3510     2.5660     0.0670     0.1300
  738.0000  -999.2500  -999.2500  -999.2500    96.8440     7.3470     2.5660     0.0680     0.1030
  738.5000  -999.2500  -999.2500  -999.2500    96.8400     7.3430     2.5650     0.0700     0.0950
  739.0000  -999.2500  -999.2500  -999.2500    97.1230     7.3390     2.5650     0.0710     0.0940
  739.5000  -999.2500  -999.2500  -999.2500    99.3320     7.3350     2.5650     0.0720     0.0920
  740.0000  -999.2500  -999.2500  -999.2500    99.7270     7.3310     2.5640     0.0730     0.0900
  740.5000  -999.2500  -999.2500  -999.2500    97.4260     7.3220     2.5640     0.0740     0.0920
  741.0000  -999.2500  -999.2500  -999.2500    95.3960     7.3130     2.5620     0.0760     0.0940
  741.5000  -999.2500  -999.2500  -999.2500    98.0820     7.3040     2.5590     0.0770     0.0960
  742.0000  -999.2500  -999.2500  -999.2500    99.4100     7.2950     2.5570     0.0780     0.1000
  742.5000  -999.2500  -999.2500  -999.2500   100.6170     7.2690     2.5550     0.0790     0.1220
  743.0000  -999.2500  -999.2500  -999.2500   102.2970     7.2380     2.5530     0.0790     0.1260
