~VERSION INFORMATION
 VERS.                2.0:   CWLS LOG ASCII STANDARD - VERSION 2.0
 WRAP.                 NO:   ONE LINE PER DEPTH STEP
~WELL INFORMATION
#MNEM.UNIT      DATA TYPE    INFORMATION
#----------   ------------   ------------------------------
 STRT.F           33.5000:   START DEPTH
 STOP.F          692.0000:   STOP DEPTH
 STEP.F            0.5000:   STEP LENGTH
 NULL.          -999.2500:   NO VALUE
 COMP. FENIX & SCISSON INC:   COMPANY
 WELL.       NPR-3 #65-34:   WELL
 FLD .  TEAPOT DOME NPR-3:   FIELD
 LOC .      S34 T39N R78W:   LOCATION
 CNTY.            NATRONA:   COUNTY
 STAT.            WYOMING:   STATE
 CTRY. UNITED STATES OF AMERICA:   COUNTRY
 SRVC.           BIRDWELL:   SERVICE COMPANY
 DATE.        14-AUG-1978:   LOGDATE
 API .       490251070400:   API NUMBER
~CURVE INFORMATION
#MNEM.UNIT       API CODE    CURVE DESCRIPTION
#----------   ------------   ------------------------------
 DEPT.F                  :   
 CALD.IN     45 280 60 00:   CALIPER
 GRD .GAPI   45 310 01 00:   GAMMA RAY FROM DENSITY LOG
 RHOB.G/C3   45 350 01 00:   BULK DENSITY
 CORR.G/C3   45 356 01 00:   DENSITY CORRECTION
 DPHI.DEC    45 890 12 00:   DENSITY POROSITY SANDSTONE
 SPR .MV     05 010 01 00:   SPONTANEOUS POTENTIAL
 SN  .OHMM   05 040 16 00:   SHORT NORMAL 16'
 ILD .OHMM   05 120 46 00:   INDUCTION LOG DEEP RESISTIVITY
~PARAMETER INFORMATION
#MNEM.UNIT          VALUE    DESCRIPTION
#----------   ------------   ------------------------------
 PD  .                 GL:   PERMANENT DATUM
 EPD .F              5083:   ELEVATION PERMANENT DATUM
 LMF .                 KB:   LOG MEASURED FROM
 DAPD.F                 4:   FEET ABOVE PERMANENT DATUM
 DMF .                 KB:   DRILLING MEASURED FROM
 EKB .F              5087:   KELLING BUSHING
 EGL .F              5083:   GROUND LEVEL
 DATE.            8-14-78:   RUN DATE
 RUN .                  1:   RUN NUMBER
 DD  .F               675:   DEPTH DRILLER
 DL  .F               682:   DEPTH LOGGER
 BLI .F               676:   BOTTOM LOG INTERVAL
 TLI .F                50:   TOP LOG INTERVAL
 CS  .IN            8.625:   CASING SIZE
 CBD .F                40:   CASING BOTTOM DRILLER
 BS  .IN            7.875:   BIT SIZE
 BSD .F               675:   BIT SIZE AT DEPTH
 DFT .                KCL:   DRILLING FLUID TYPE
 DFD .                8.7:   DRILLING FLUID DENSITY
 DFV .                 31:   DRILLING FLUID VISCOSITY
 DFPH.                  9:   DRILLING FLUID PH
 TCS .HRS               2:   TIME CURCULATED STOPPED
 LUN .               3006:   LOGGING UNIT NUMBER
 LUL .               CASP:   LOGGING UNIT LOCATION
 ENGI.             MILLER:   RECORDING ENGINEER
 WITN.           MCGINLEY:   WITNESSED BY
 CLNT.            A2DTECH:   CLIENT CODE
 ORIG.           5" PRINT:   ORIGIN OF DATA
 UWI .       490251070400:   UNIQUE WELL ID
 DICO. A2D Technologies, Inc.:   DIGITIZING COMPANY
~OTHER INFORMATION
~A   DEPT     CALD         GRD      RHOB       CORR       DPHI        SPR         SN        ILD   
# ...
   74.0000     7.7524    79.5204     2.3562     0.0390     0.1828   -27.7218     3.0339     3.1349
   74.5000     7.8189    79.1728     2.3775     0.0471     0.1822   -27.7218     3.1153     3.2405
   75.0000     7.8913    77.1055     2.3802     0.0554     0.1782   -27.7218     3.2196     3.3834
   75.5000     7.9633    74.9078     2.3863     0.0634     0.1760   -27.7218     3.3702     3.5732
   76.0000     8.0004    73.5463     2.3862     0.0568     0.1786   -27.7218     3.5275     3.7740
   76.5000     8.0310    73.6830     2.3798     0.0492     0.1811   -27.7218     3.7689     3.9838
   77.0000     8.0617    74.5456     2.3733     0.0445     0.1837   -27.7218     3.7591     4.1720
   77.5000     8.0923    75.0867     2.3714     0.0475     0.1848   -27.7218     3.7357     4.0367
   78.0000     8.1146    72.5238     2.3710     0.0503     0.1824   -27.7218     3.7137     3.9152
   78.5000     8.1074    69.8826     2.3692     0.0530     0.1870   -27.7218     3.6919     3.8679
   79.0000     8.0789    69.3583     2.3636     0.0532     0.1927   -27.7218     3.6702     3.8567
   79.5000     8.0380    70.6128     2.3526     0.0519     0.2007   -27.7218     3.6487     3.8454
   80.0000     7.9960    73.1652     2.3416     0.0554     0.2035   -27.7218     3.6274     3.8343
   80.5000     7.9936    75.1752     2.3389     0.0574     0.2031   -27.7218     3.6062     3.8232
   81.0000     7.9939    76.7847     2.3372     0.0564     0.2043   -27.7218     3.5851     3.8123
   81.5000     7.9939    78.4040     2.3319     0.0538     0.2119   -27.7218     3.5514     3.7674
   82.0000     7.9941    77.2289     2.3215     0.0499     0.2282   -27.7218     3.4381     3.6577
   82.5000     8.0202    75.5937     2.3032     0.0460     0.2347   -27.7218     3.3272     3.5512
   83.0000     8.0494    74.9627     2.2851     0.0421     0.2472   -27.7218     3.1089     3.3023
   83.5000     8.0798    75.1601     2.2577     0.0431     0.2654   -27.7218     2.9067     3.0452
   84.0000     8.1467    79.9156     2.2270     0.0444     0.2746   -27.7218     2.7356     2.8081
   84.5000     8.2571    84.0960     2.2193     0.0457     0.2768   -27.7220     2.6767     2.7546
   85.0000     8.3672    83.6615     2.2162     0.0490     0.2778   -27.7217     2.6555     2.7534
   85.5000     8.4788    82.4740     2.2199     0.0537     0.2357   -27.7229     2.7102     2.8049
   86.0000     8.5466    79.3595     2.3233     0.1111     0.1948   -27.5974     2.8241     2.9254
   86.5000     8.5155    76.2449     2.3854     0.0895     0.1749   -27.3878     2.9428     3.0400
   87.0000     9.0476    73.0971     2.3884     0.0538     0.1741   -27.1763     3.0665     3.1590
   87.5000     8.4980    72.5693     2.3901     0.0373     0.1784   -26.9590     3.2129     3.3126
   88.0000     8.5216    72.1334     2.3768     0.0362     0.1868   -26.9374     3.4255     3.5747
   88.5000     8.5497    71.2725     2.3697     0.0395     0.1872   -27.0709     3.6542     3.8569
   89.0000     8.5788    70.5763     2.3708     0.0462     0.1851   -27.2036     3.9003     4.1622
   89.5000     8.5966    72.7952     2.3780     0.0525     0.1789   -27.3354     4.1630     4.4904
   90.0000     8.5503    78.2861     2.3862     0.0590     0.1728   -27.4678     4.3562     4.6174
   90.5000     8.4974    79.5969     2.3948     0.0656     0.1673   -27.5396     4.4502     4.6174
   91.0000     8.4451    77.2637     2.3976     0.0680     0.1689   -27.5739     4.4276     4.6144
   91.5000     8.4292    75.4161     2.3987     0.0702     0.1685   -27.6072     4.4124     4.5934
   92.0000     8.5014    75.0708     2.3972     0.0724     0.1693   -27.6406     4.3486     4.5724
   92.5000     8.5134    74.7170     2.3948     0.0745     0.1734   -27.6741     4.2733     4.5521
   93.0000     8.4482    74.3633     2.3876     0.0766     0.1832   -27.7076     4.0900     4.4987
   93.5000     8.3830    73.9987     2.3720     0.0786     0.1957   -27.7410     3.8210     4.1858
   94.0000     8.3176    74.2356     2.3546     0.0780     0.2115   -27.7745     3.5316     3.8944
   94.5000     8.2524    76.7418     2.3284     0.0737     0.2276   -27.8080     3.3410     3.6332
   95.0000     8.1872    79.3649     2.3012     0.0755     0.2329   -27.8415     3.2616     3.4695
   95.5000     8.1219    82.1658     2.2897     0.0822     0.2331   -27.8750     3.1932     3.3814
   96.0000     8.0567    84.9062     2.2927     0.0970     0.2130   -27.9083     3.1932     3.3429
   96.5000     7.9914    86.0943     2.3316     0.1114     0.1847   -27.9055     3.1932     3.3433
   97.0000     7.9250    82.6438     2.3677     0.1179     0.1573   -27.8552     3.1924     3.3435
   97.5000     7.9137    77.2227     2.4040     0.1155     0.1561   -27.8050     3.1921     3.3688
   98.0000     7.9135    74.0657     2.4161     0.0960     0.1579   -27.7548     3.3269     3.4599
   98.5000     7.9240    73.0257     2.3914     0.0767     0.1870   -27.7046     3.4349     3.5782
   99.0000     7.9384    74.7083     2.3700     0.0572     0.1875   -27.6544     3.5467     3.7214
   99.5000     7.9526    77.0454     2.3699     0.0553     0.1799   -27.6042     3.6621     3.8703
  100.0000     7.9670    79.2874     2.3827     0.0518     0.1757   -27.5547     3.7366     4.0252
  100.5000     7.9453    80.1780     2.3932     0.0460     0.1746   -27.5196     3.7905     4.1349
  101.0000     7.8896    80.0611     2.3893     0.0400     0.1712   -27.5202     3.8371     4.1439
  101.5000     7.8336    78.6601     2.3933     0.0357     0.1709   -27.5199     3.8814     4.1528
  102.0000     7.7779    76.9074     2.3937     0.0314     0.1748   -27.5206     3.9262     4.1618
  102.5000     7.7339    75.1817     2.3845     0.0271     0.1784   -27.5174     3.9716     4.1719
  103.0000     7.7189    74.1276     2.3773     0.0239     0.1812   -27.7089     4.0174     4.1530
  103.5000     7.7297    73.7435     2.3742     0.0240     0.1800   -27.9832     4.0582     4.1312
  104.0000     7.7409    75.8251     2.3647     0.0223     0.1941   -28.2701     3.9868     4.1094
  104.5000     7.7522    79.0091     2.3497     0.0192     0.2021   -28.2852     3.9241     4.0880
  105.0000     7.7635    79.2119     2.3409     0.0161     0.2054   -28.2309     3.8623     4.0661
  105.5000     7.7871    76.5689     2.3312     0.0129     0.2088   -28.1739     3.7262     3.9857
  106.0000     7.8868    74.1373     2.3188     0.0162     0.2177   -28.1136     3.5530     3.8735
  106.5000     7.9868    73.5672     2.3012     0.0224     0.2293   -28.5030     3.3880     3.7004
  107.0000     8.0865    73.6712     2.2836     0.0287     0.2415   -28.9319     3.2306     3.5047
  107.5000     8.1862    77.1007     2.2799     0.0367     0.2428   -29.3643     3.1649     3.3194
  108.0000     8.2860    79.9358     2.2794     0.0533     0.2342   -29.5338     3.1260     3.2708
  108.5000     8.3857    79.5726     2.3027     0.0699     0.2197   -29.5371     3.1038     3.2548
  109.0000     8.4870    78.4084     2.3297     0.0864     0.2036   -29.5366     3.0817     3.2395
  109.5000     8.4988    75.7790     2.3370     0.1029     0.2079   -29.5363     3.0598     3.2242
  110.0000     8.4765    75.6010     2.3291     0.1195     0.2112   -29.5363     3.0380     3.2089
  110.5000     8.4537    75.0826     2.3271     0.1361     0.2112   -29.5363     3.0164     3.1932
  111.0000     8.4357    71.2506     2.3262     0.1530     0.2138   -29.5363     2.9950     3.1762
  111.5000     8.3917    68.8243     2.3123     0.1514     0.2197   -29.5363     2.9737     3.1589
  112.0000     8.3119    71.1830     2.2923     0.1460     0.2376   -29.5363     2.9168     3.1417
  112.5000     8.1633    74.6257     2.2731     0.1405     0.2482   -29.5363     2.8427     3.1244
  113.0000     8.0048    78.2825     2.2543     0.1336     0.2584   -29.5363     2.7673     3.1061
  113.5000     7.8467    80.0676     2.2360     0.1178     0.2687   -29.5367     2.6807     2.9025
  114.0000     7.6879    81.5307     2.2178     0.1019     0.2790   -29.5394     2.5318     2.6992
