~VERSION INFORMATION
 VERS.                2.0:   CWLS LOG ASCII STANDARD - VERSION 2.0
 WRAP.                 NO:   ONE LINE PER DEPTH STEP
~WELL INFORMATION
#MNEM.UNIT      DATA TYPE    INFORMATION
#----------   ------------   ------------------------------
 STRT.F           33.0000:   START DEPTH
 STOP.F          694.0000:   STOP DEPTH
 STEP.F            0.5000:   STEP LENGTH
 NULL.          -999.2500:   NO VALUE
 COMP. FENIX & SCISSON INC:   COMPANY
 WELL.  NPR 3 #64 S 34-34:   WELL
 FLD .             TEAPOT:   FIELD
 LOC .      S34 T39N R78W:   LOCATION
 CNTY.            NATRONA:   COUNTY
 STAT.            WYOMING:   STATE
 CTRY. UNITED STATES OF AMERICA:   COUNTRY
 SRVC.              Welex:   SERVICE COMPANY
 DATE.        28-APR-1977:   LOGDATE
 API .       490251034600:   API NUMBER
~CURVE INFORMATION
#MNEM.UNIT       API CODE    CURVE DESCRIPTION
#----------   ------------   ------------------------------
 DEPT.F                  :   
 CALD.IN     45 280 60 00:   CALIPER FROM DENSITY LOG
 GRD .GAPI   45 310 01 00:   GAMMA RAY FROM DENSITY LOG
 CORR.G/C3   45 356 01 00:   DENSITY CORRECTION
 DPHI.DEC    45 890 12 00:   DENSITY POROSITY SANDSTONE
 RHOB.G/C3   45 350 01 00:   BULK DENSITY
 SPR .MV     07 010 01 00:   SPONTANEOUS POTENTIAL
 ILD .OHMM   07 120 46 00:   INDUCTION LOG DEEP
 ILM .OHMM   07 120 44 00:   INDUCTION LOG MEDIUM
 SGRD.OHMM   07 221 05 00:   SHALLOW SHORT GUARD RESISTIVITY
~PARAMETER INFORMATION
#MNEM.UNIT          VALUE    DESCRIPTION
#----------   ------------   ------------------------------
 PD  .                 GL:   PERMANENT DATUM
 EPD .F              5079:   ELEVATION PERMANENT DATUM
 LMF .                 GL:   LOG MEASURED FROM
 DMF .                 GL:   DRILLING MEASURED FROM
 EGL .F              5079:   GROUND LEVEL
 DATE.        28-APR-1977:   RUN DATE
 RUN .                  1:   RUN NUMBER
 DD  .F               735:   DEPTH DRILLER
 DL  .F               697:   DEPTH LOGGER
 BLI .F               695:   BOTTOM LOG INTERVAL
 TLI .F                32:   TOP LOG INTERVAL
 CS  .IN            8.625:   CASING SIZE
 BS  .IN               12:   BIT SIZE
 BSD .F               735:   BIT SIZE AT DEPTH
 DFT .            KCL MUD:   DRILLING FLUID TYPE
 DFD .                9.0:   DRILLING FLUID DENSITY
 BHT .F                74:   BOTTOM HOLE TEMPERATURE
 TCS .HRS            0100:   TIME CURCULATED STOPPED
 MRT .F                74:   MAXIMUM RECORDED TEMPERATURE
 ENGI.            C. DOAK:   RECORDING ENGINEER
 WITN.           ROB LYON:   WITNESSED BY
 CLNT.            A2DTECH:   CLIENT CODE
 ORIG.           5" PRINT:   ORIGIN OF DATA
 UWI .       490251034600:   UNIQUE WELL ID
 DICO. A2D Technologies, Inc.:   DIGITIZING COMPANY
~OTHER INFORMATION
~A   DEPT     CALD        GRD       CORR       DPHI       RHOB        SPR        ILD        ILM       SGRD   
# ...
  252.0000     7.9416   123.3777     0.0193     0.1306     2.4521   -40.5840     7.8683     8.1119    10.2672
  252.5000     7.9401   124.4372     0.0195     0.1213     2.4732   -40.5838     7.8721     8.1158    10.4155
  253.0000     7.9387   123.8648     0.0211     0.1195     2.4770   -40.5836     7.8759     8.1197    10.4930
  253.5000     7.9372   120.9184     0.0228     0.1192     2.4741   -40.5834     7.8796     8.1800    10.2110
  254.0000     7.9357   118.5655     0.0259     0.1206     2.4719   -40.5832     7.8834     8.4140    10.0740
  254.5000     7.9342   117.9877     0.0275     0.1212     2.4743   -40.5830     7.8872     8.7149    10.3634
  255.0000     7.9325   119.6460     0.0292     0.1158     2.4807   -40.5829     8.0010     9.0265    10.4405
  255.5000     7.9325   120.1068     0.0308     0.1125     2.4897   -40.5827     8.0049     9.1568    10.2306
  256.0000     7.9326   118.0559     0.0325     0.1088     2.4978   -40.5825     8.1204     9.0351    10.0249
  256.5000     7.9326   112.2906     0.0326     0.1051     2.5023   -40.5823     8.2948     8.9770    10.3833
  257.0000     7.9327   109.6409     0.0327     0.1034     2.5039   -40.5821     8.4145     8.9813    10.9098
  257.5000     7.9327   108.4750     0.0329     0.1058     2.5040   -40.5819     8.5973     9.1132    11.4590
  258.0000     7.9328   111.3149     0.0315     0.1078     2.5033   -40.5817     8.8410     9.3770    11.6986
  258.5000     7.9328   113.1163     0.0301     0.1057     2.4997   -40.5815     9.0390     9.7154    11.7043
  259.0000     7.9328   112.8406     0.0272     0.1143     2.4855   -40.5813     9.1724     9.9846    11.8745
  259.5000     7.9329   110.0426     0.0259     0.1214     2.4729   -40.5811     9.3591     9.9904    11.9628
  260.0000     7.9329   108.2493     0.0230     0.1226     2.4692   -40.5809     9.4942     9.9249    11.6399
  260.5000     7.9330   107.2374     0.0231     0.1211     2.4723   -40.5807     9.6982    10.2100    11.6469
  261.0000     7.9330   106.9845     0.0233     0.1177     2.4829   -40.5805     9.7702    10.4295    11.6524
  261.5000     7.9331   107.7834     0.0249     0.1111     2.4920   -40.5803     9.9801    10.6537    11.6580
  262.0000     7.9331   109.5726     0.0266     0.1030     2.4995   -40.5801    10.1242    10.8828    12.3285
  262.5000     7.9332   111.4985     0.0282     0.1006     2.5041   -40.5799    10.1994    11.1167    14.3660
  263.0000     7.9332   113.1515     0.0313     0.1021     2.4997   -40.5797    10.2043    11.1221    14.6730
  263.5000     7.9332   115.1013     0.0330     0.1086     2.4893   -40.5795    10.1375    10.9742    13.7941
  264.0000     7.9333   116.3092     0.0331     0.1145     2.4782   -40.5793    10.2141    10.9795    12.6994
  264.5000     7.9333   117.2204     0.0317     0.1163     2.4813   -40.5791    10.2190    10.9089    11.6916
  265.0000     7.9334   116.3512     0.0304     0.1130     2.4837   -40.5789     9.9446    10.8375    11.4563
  265.5000     7.9334   115.1852     0.0290     0.1138     2.4852   -40.5787     9.4131    10.6947    11.6220
  266.0000     7.9335   113.8709     0.0276     0.1135     2.4845   -40.5785     8.9101    10.4073    11.3096
  266.5000     7.9335   113.2932     0.0263     0.1164     2.4809   -40.5783     8.7233     9.6480    10.9297
  267.0000     7.9336   114.8031     0.0249     0.1194     2.4750   -40.5781     8.9186     9.3238    11.0902
  267.5000     7.9336   116.7528     0.0235     0.1221     2.4691   -40.5779     9.0473     9.4586    11.1700
  268.0000     7.9336   118.1091     0.0207     0.1256     2.4647   -40.5777     9.0517     9.5952    10.7202
  268.5000     7.9337   117.6850     0.0193     0.1211     2.4708   -40.5775     8.7478     9.7379    11.0411
  269.0000     7.9337   115.1837     0.0210     0.1199     2.4731   -40.5773     8.8195     9.8745    11.4224
  269.5000     7.9338   112.0890     0.0226     0.1210     2.4732   -40.5771     8.9497     9.9480    11.2706
  270.0000     7.9338   110.3296     0.0242     0.1223     2.4688   -40.5769     9.1966     9.9537    11.1195
  270.5000     7.9339   109.9002     0.0259     0.1233     2.4756   -40.5767     9.3293     9.9585    11.2814
  271.0000     7.9339   112.7454     0.0290     0.1155     2.4847   -40.5765     9.3338     9.8262    11.2868
  271.5000     7.9340   114.6952     0.0292     0.1070     2.4938   -40.5763     9.2087     9.6286    10.9835
  272.0000     7.9340   115.4528     0.0293     0.1041     2.5036   -40.5761     9.1496     9.4995    10.6145
  272.5000     7.9340   114.5835     0.0279     0.1086     2.4932   -40.5759     9.0919     9.5713    10.6935
  273.0000     7.9341   115.4184     0.0233     0.1166     2.4813   -40.5757     8.9711     9.7095    10.6986
  273.5000     7.9341   117.0178     0.0190     0.1207     2.4739   -40.5755     8.8509     9.9182    10.7781
  274.0000     7.9342   116.4926     0.0163     0.1222     2.4703   -40.5753     9.0421     9.9230    10.5614
  274.5000     7.9342   113.4629     0.0179     0.1216     2.4801   -40.5751     9.2364     9.8580     9.9276
  275.0000     7.9343   111.8694     0.0195     0.1146     2.4832   -40.5749     9.2408     9.6598    10.4260
  275.5000     7.9343   110.4067     0.0242     0.1119     2.4841   -40.5747     9.1170     9.5977    10.8739
  276.0000     7.9344   112.5049     0.0258     0.1101     2.4865   -40.5746     8.9338     9.8734    10.9548
  276.5000     7.9344   115.6194     0.0275     0.1071     2.4954   -40.5744     8.8764    10.2264    10.8843
  277.0000     7.9344   118.9267     0.0306     0.1016     2.4955   -40.5742     8.9434    10.5189    11.2762
  277.5000     7.9345   122.6369     0.0308     0.0947     2.5188   -40.5740     9.0099    10.8198    12.1167
  278.0000     7.9345   126.3888     0.0324     0.0920     2.5249   -40.5738     9.0768    10.9760    13.9312
  278.5000     7.9346   128.7836     0.0325     0.0965     2.5130   -40.5736     9.1443    10.3891    13.0941
  279.0000     7.9346   129.8432     0.0327     0.0994     2.5048   -40.5734     8.8325     9.9653    10.6134
  279.5000     7.9347   130.1609     0.0313     0.1021     2.4989   -40.5732     8.4717     9.5579    10.1848
  280.0000     7.9347   129.1433     0.0299     0.1080     2.4931   -40.5730     8.2465     9.1755    10.3331
  280.5000     7.9348   125.4551     0.0285     0.1125     2.4864   -40.5728     8.2009     8.9261    10.4100
  281.0000     7.9348   122.6351     0.0272     0.1172     2.4805   -40.5726     8.3203     8.8182    10.4874
  281.5000     7.9348   119.3443     0.0273     0.1157     2.4814   -40.5724     8.2668     8.9467    10.6389
  282.0000     7.9349   117.8990     0.0259     0.1129     2.4867   -40.5722     8.0448     9.0121    10.4975
  282.5000     7.9349   118.1157     0.0216     0.1159     2.4845   -40.5720     7.7748     8.4723    10.1448
  283.0000     7.9350   117.2462     0.0202     0.1171     2.4786   -40.5718     7.5660     8.0750     9.8040
  283.5000     7.9350   119.1959     0.0204     0.1182     2.4735   -40.5716     7.3120     7.7498     9.2156
  284.0000     7.9351   122.4810     0.0190     0.1195     2.4691   -40.5714     7.1642     7.5415     8.9060
  284.5000     7.9351   123.3922     0.0191     0.1234     2.4640   -40.5712     6.9727     7.3389     8.9103
  285.0000     7.9352   123.4132     0.0192     0.1265     2.4617   -40.5710     6.8801     7.1904     8.7916
  285.5000     7.9352   124.3243     0.0194     0.1276     2.4628   -40.5708     6.8350     7.6049     8.7960
  286.0000     7.9352   124.0486     0.0210     0.1228     2.4703   -40.5706     6.8391     7.8224     8.8002
  286.5000     7.9353   120.8080     0.0228     0.1192     2.4763   -40.5704     7.0346     7.7175     8.8657
  287.0000     7.9353   116.8205     0.0273     0.1168     2.4816   -40.5702     7.3366     7.9392     9.1870
  287.5000     7.9354   114.3193     0.0289     0.1141     2.4854   -40.5700     7.5987     8.2803     9.7279
  288.0000     7.9354   113.0049     0.0291     0.1125     2.4878   -40.5698     7.8158     8.6360    10.1281
