~VERSION INFORMATION
 VERS.                2.0:   CWLS LOG ASCII STANDARD - VERSION 2.0
 WRAP.                 NO:   ONE LINE PER DEPTH STEP
~WELL INFORMATION
#MNEM.UNIT      DATA TYPE    INFORMATION
#----------   ------------   ------------------------------
 STRT.F            4.0000:   START DEPTH
 STOP.F          693.0000:   STOP DEPTH
 STEP.F            0.5000:   STEP LENGTH
 NULL.          -999.2500:   NO VALUE
 COMP.   FLUOR DANIEL INC:   COMPANY
 WELL. NAVAL PETROLEUM RESERVE 3 SX-3 #1-34:   WELL
 FLD .             TEAPOT:   FIELD
 LOC .      S34 T39N R78W:   LOCATION
 CNTY.            NATRONA:   COUNTY
 STAT.            WYOMING:   STATE
 CTRY. UNITED STATES OF AMERICA:   COUNTRY
 SRVC.      Western Atlas:   SERVICE COMPANY
 DATE.        06-FEB-1994:   LOGDATE
 API .       490252269600:   API NUMBER
~CURVE INFORMATION
#MNEM.UNIT       API CODE    CURVE DESCRIPTION
#----------   ------------   ------------------------------
 DEPT.F                  :   
 GRR .GAPI   07 310 01 00:   GAMMA RAY FROM RES. LOG.
 ILD .OHMM   07 120 46 00:   INDUCTION LOG DEEP
 ILM .OHMM   07 120 44 00:   INDUCTION LOG MEDIUM
~PARAMETER INFORMATION
#MNEM.UNIT          VALUE    DESCRIPTION
#----------   ------------   ------------------------------
 PD  .                 GL:   PERMANENT DATUM
 EPD .F              5097:   ELEVATION PERMANENT DATUM
 LMF .                 KB:   LOG MEASURED FROM
 DAPD.F                10:   FEET ABOVE PERMANENT DATUM
 DMF .                 KB:   DRILLING MEASURED FROM
 EKB .F              5107:   KELLING BUSHING
 EDF .F              5106:   DRILLING FLOOR
 EGL .F              5097:   GROUND LEVEL
 DATE.         6-FEB-1994:   RUN DATE
 RUN .                  1:   RUN NUMBER
 DD  .F               700:   DEPTH DRILLER
 DL  .F               701:   DEPTH LOGGER
 BLI .F               693:   BOTTOM LOG INTERVAL
 CS  .IN            9.625:   CASING SIZE
 CBD .F                56:   CASING BOTTOM DRILLER
 CBL .F                56:   CASING BOTTOM LOGGER
 BS  .IN             8.75:   BIT SIZE
 BSD .F               700:   BIT SIZE AT DEPTH
 DFT .                AIR:   DRILLING FLUID TYPE
 MRT .F                89:   MAXIMUM RECORDED TEMPERATURE
 LUN .            HL-6274:   LOGGING UNIT NUMBER
 LUL .             CASPER:   LOGGING UNIT LOCATION
 ENGI.        VERN RAUTIO:   RECORDING ENGINEER
 WITN.        GARY STRONG:   WITNESSED BY
 CLNT.            A2DTECH:   CLIENT CODE
 ORIG.           5" PRINT:   ORIGIN OF DATA
 UWI .       490252269600:   UNIQUE WELL ID
 DICO. A2D Technologies, Inc.:   DIGITIZING COMPANY
~OTHER INFORMATION
~A    DEPT      GRR       ILD        ILM   
    4.0000    19.3640  -999.2500  -999.2500
    4.5000    13.1890  -999.2500  -999.2500
    5.0000    11.3880  -999.2500  -999.2500
    5.5000    12.4000  -999.2500  -999.2500
    6.0000    14.5660  -999.2500  -999.2500
    6.5000    16.4120  -999.2500  -999.2500
    7.0000    15.6240  -999.2500  -999.2500
    7.5000    14.3280  -999.2500  -999.2500
    8.0000    13.3210  -999.2500  -999.2500
    8.5000    13.9200  -999.2500  -999.2500
    9.0000    15.5570  -999.2500  -999.2500
    9.5000    17.1530  -999.2500  -999.2500
   10.0000    19.4210  -999.2500  -999.2500
   10.5000    22.1260  -999.2500  -999.2500
   11.0000    28.6770  -999.2500  -999.2500
   11.5000    38.2850  -999.2500  -999.2500
   12.0000    48.5880  -999.2500  -999.2500
   12.5000    56.7380  -999.2500  -999.2500
   13.0000    60.4600  -999.2500  -999.2500
   13.5000    60.8260  -999.2500  -999.2500
   14.0000    59.0660  -999.2500  -999.2500
   14.5000    56.7500  -999.2500  -999.2500
   15.0000    55.5690  -999.2500  -999.2500
   15.5000    57.4220  -999.2500  -999.2500
   16.0000    60.1850  -999.2500  -999.2500
   16.5000    62.8720  -999.2500  -999.2500
   17.0000    65.1640  -999.2500  -999.2500
   17.5000    66.0700  -999.2500  -999.2500
   18.0000    65.7580  -999.2500  -999.2500
   18.5000    63.1110  -999.2500  -999.2500
   19.0000    56.0360  -999.2500  -999.2500
   19.5000    52.7010  -999.2500  -999.2500
   20.0000    60.2250  -999.2500  -999.2500
   20.5000    65.4410  -999.2500  -999.2500
   21.0000    65.7520  -999.2500  -999.2500
   21.5000    64.7810  -999.2500  -999.2500
   22.0000    63.7820  -999.2500  -999.2500
   22.5000    63.2450  -999.2500  -999.2500
   23.0000    63.6830  -999.2500  -999.2500
   23.5000    65.1950  -999.2500  -999.2500
   24.0000    66.3640  -999.2500  -999.2500
   24.5000    65.2810  -999.2500  -999.2500
   25.0000    64.2200  -999.2500  -999.2500
   25.5000    63.2280  -999.2500  -999.2500
   26.0000    63.2230  -999.2500  -999.2500
   26.5000    64.3530  -999.2500  -999.2500
   27.0000    67.4700  -999.2500  -999.2500
   27.5000    70.0220  -999.2500  -999.2500
   28.0000    71.7380  -999.2500  -999.2500
   28.5000    71.2620  -999.2500  -999.2500
   29.0000    70.7670  -999.2500  -999.2500
   29.5000    69.9570  -999.2500  -999.2500
   30.0000    69.7190  -999.2500  -999.2500
   30.5000    69.8630  -999.2500  -999.2500
   31.0000    70.3540  -999.2500  -999.2500
   31.5000    70.8490  -999.2500  -999.2500
   32.0000    70.8530  -999.2500  -999.2500
   32.5000    70.7480  -999.2500  -999.2500
   33.0000    70.6350  -999.2500  -999.2500
   33.5000    70.5440  -999.2500  -999.2500
   34.0000    71.7440  -999.2500  -999.2500
   34.5000    73.0960  -999.2500  -999.2500
   35.0000    72.3730  -999.2500  -999.2500
   35.5000    69.7390  -999.2500  -999.2500
   36.0000    67.2470  -999.2500  -999.2500
   36.5000    67.6270  -999.2500  -999.2500
   37.0000    68.7300  -999.2500  -999.2500
   37.5000    69.9010  -999.2500  -999.2500
   38.0000    69.6940  -999.2500  -999.2500
   38.5000    68.0400  -999.2500  -999.2500
   39.0000    66.2850  -999.2500  -999.2500
   39.5000    66.5180  -999.2500  -999.2500
   40.0000    68.0190  -999.2500  -999.2500
   40.5000    69.4030  -999.2500  -999.2500
   41.0000    69.7890  -999.2500  -999.2500
   41.5000    69.9840  -999.2500  -999.2500
   42.0000    67.6370  -999.2500  -999.2500
   42.5000    65.2800  -999.2500  -999.2500
   43.0000    64.4260  -999.2500  -999.2500
   43.5000    64.4320  -999.2500  -999.2500
   44.0000    63.7220  -999.2500  -999.2500
   44.5000    62.3770  -999.2500  -999.2500
   45.0000    60.9950  -999.2500  -999.2500
   45.5000    60.9770  -999.2500  -999.2500
   46.0000    61.7540  -999.2500  -999.2500
   46.5000    64.4700  -999.2500  -999.2500
   47.0000    67.1680  -999.2500  -999.2500
   47.5000    67.1230  -999.2500  -999.2500
   48.0000    66.0760  -999.2500  -999.2500
   48.5000    65.6040  -999.2500  -999.2500
   49.0000    67.7570  -999.2500  -999.2500
   49.5000    69.7370  -999.2500  -999.2500
   50.0000    71.5260  -999.2500  -999.2500
   50.5000    73.3150  -999.2500  -999.2500
   51.0000    74.3940  -999.2500  -999.2500
   51.5000    74.6020  -999.2500  -999.2500
   52.0000    73.9410  -999.2500  -999.2500
   52.5000    72.9010  -999.2500  -999.2500
   53.0000    72.1420  -999.2500  -999.2500
   53.5000    72.1710  -999.2500  -999.2500
   54.0000    71.3630  -999.2500  -999.2500
   54.5000    70.2890  -999.2500  -999.2500
   55.0000    69.8040  -999.2500  -999.2500
   55.5000    74.1580  -999.2500  -999.2500
   56.0000    84.0920  1963.0861  -999.2500
   56.5000    93.4740    63.9160     3.2320
   57.0000    96.2760     3.9170     2.4770
   57.5000    97.8020     4.9800     2.2580
   58.0000   101.7880     2.3840     3.6120
   58.5000   105.9610     4.7100     4.9160
   59.0000   108.7230     6.9420     6.2190
   59.5000   110.8060     9.7210     7.4080
   60.0000   112.2680     8.0970     7.4080
   60.5000   108.8340     5.9450     7.4080
   61.0000   105.4910     4.5650     6.9690
   61.5000   104.2020     4.1960     6.2680
   62.0000   103.8680     3.8280     5.5670
   62.5000   104.4950     3.4590     4.8660
   63.0000   106.4630     3.0900     4.1660
   63.5000   108.4250     2.9300     3.4650
   64.0000   109.0930     2.9030     3.0130
   64.5000   109.1060     2.9540     3.0130
   65.0000   108.0230     3.0140     3.1890
   65.5000   106.6690     3.0420     3.4420
   66.0000   103.7350     3.0420     3.6950
   66.5000   101.2980     3.1280     3.9340
   67.0000   101.0210     3.5440     4.1520
   67.5000   102.5270     3.9510     4.3710
   68.0000   105.3340     4.3570     4.5900
   68.5000   104.9090     4.8590     4.8590
   69.0000   101.9600     4.8100     4.8100
   69.5000    98.7380     4.7460     4.7460
   70.0000   100.9890     4.6820     4.6820
   70.5000   103.4080     4.6180     4.6180
   71.0000   105.5570     4.5530     4.5530
   71.5000   105.3010     4.4890     4.4890
   72.0000   103.4260     4.4250     4.4250
   72.5000   102.1150     4.1340     4.2580
   73.0000   101.6330     3.8360     4.0900
   73.5000   101.1450     3.5190     3.9230
   74.0000   100.6550     3.2020     3.6860
   74.5000   100.1630     2.8850     3.3030
   75.0000    99.6770     2.5680     2.9200
   75.5000    99.5730     2.3620     2.5370
   76.0000   100.2660     2.3400     2.4070
   76.5000   102.0860     2.3400     2.4070
   77.0000   104.1510     2.4170     2.4070
   77.5000   101.8030     2.5240     2.6730
   78.0000    96.9860     2.6310     3.0300
   78.5000    92.2350     2.7380     3.3880
   79.0000    89.3390     3.0230     3.7450
   79.5000    91.1710     3.5220     4.1030
   80.0000    95.2820     4.0210     4.4320
   80.5000   100.3740     4.5190     4.7030
   81.0000   103.1840     4.8660     4.9580
   81.5000   105.1220     5.1060     5.2020
   82.0000   105.0880     5.2380     5.3370
   82.5000   105.0870     5.2380     5.3370
   83.0000   104.3010     5.2050     5.3030
   83.5000   101.7590     5.1690     5.2670
   84.0000    99.8720     5.1000     5.1970
   84.5000   100.8080     4.9050     4.9980
   85.0000   103.1450     4.7250     4.8140
   85.5000   105.8180     4.3050     4.3860
   86.0000   106.4890     3.9150     3.9890
   86.5000   106.7610     3.5260     3.5930
   87.0000   107.0070     3.1880     3.2480
   87.5000   108.4440     3.1530     3.2010
   88.0000   111.2640     3.1340     3.1760
   88.5000   114.3630     3.1150     3.1580
   89.0000   116.0730     3.0990     3.2500
   89.5000   111.6810     3.1870     3.4660
   90.0000   105.5330     3.3040     3.6830
   90.5000   102.3810     3.5660     3.9000
   91.0000   102.0930     3.8280     4.1170
   91.5000   105.0020     4.0900     4.3340
   92.0000   106.6260     4.3520     4.5500
   92.5000   107.3020     4.6150     4.7690
   93.0000   107.9100     4.8140     4.8590
   93.5000   108.1070     4.8140     4.9050
   94.0000   108.3220     4.7300     4.8190
   94.5000   107.9310     4.6710     4.7600
