~VERSION INFORMATION
 VERS.                2.0:   CWLS LOG ASCII STANDARD - VERSION 2.0
 WRAP.                 NO:   ONE LINE PER DEPTH STEP
~WELL INFORMATION
#MNEM.UNIT      DATA TYPE    INFORMATION
#----------   ------------   ------------------------------
 STRT.F           12.0000:   START DEPTH
 STOP.F          563.5000:   STOP DEPTH
 STEP.F            0.5000:   STEP LENGTH
 NULL.          -999.2500:   NO VALUE
 COMP.       F D SERV INC:   COMPANY
 WELL. N P R 3 SX-3 #52-3:   WELL
 FLD .             TEAPOT:   FIELD
 LOC .       S3 T38N R78W:   LOCATION
 CNTY.            NATRONA:   COUNTY
 STAT.            WYOMING:   STATE
 CTRY. UNITED STATES OF AMERICA:   COUNTRY
 SRVC.     Atlas Wireline:   SERVICE COMPANY
 DATE.        27-APR-1992:   LOGDATE
 API .       490252252000:   API NUMBER
~CURVE INFORMATION
#MNEM.UNIT       API CODE    CURVE DESCRIPTION
#----------   ------------   ------------------------------
 DEPT.F                  :   
 PORZ.DEC    45 890 12 00:   DENSITY POROSITY
 CNC .DEC    42 890 03 00:   NEUTRON POROSITY SANDSTONE
 CALD.IN     45 280 60 00:   CALIPER FROM DENSITY
 GRD .GAPI   45 310 01 00:   GAMMA RAY FROM DENSITY LOG
 ZCOR.G/C3   45 356 01 00:   DENSITY CORRECTION
 ZDEN.G/C3   45 350 01 00:   BULK DENSITY
 RILD.OHMM   07 120 46 00:   INDUCTION LOG DEEP RESISTIVITY
 RILM.OHMM   07 120 44 00:   INDUCTION LOG MEDIUM RESISTIVITY
 RFOC.OHMM   07 220 04 00:   RESISTIVITY FOCUSED LOG
~PARAMETER INFORMATION
#MNEM.UNIT          VALUE    DESCRIPTION
#----------   ------------   ------------------------------
 PD  .                 GL:   PERMANENT DATUM
 EPD .F              5145:   ELEVATION PERMANENT DATUM
 LMF .                 KB:   LOG MEASURED FROM
 DAPD.F                 5:   FEET ABOVE PERMANENT DATUM
 DMF .                 KB:   DRILLING MEASURED FROM
 EKB .F              5150:   KELLING BUSHING
 EDF .F              5149:   DRILLING FLOOR
 EGL .F              5145:   GROUND LEVEL
 DATE.        27-APR-1992:   RUN DATE
 RUN .                  1:   RUN NUMBER
 DD  .F               565:   DEPTH DRILLER
 DL  .F               565:   DEPTH LOGGER
 BLI .F               563:   BOTTOM LOG INTERVAL
 CS  .IN            8.625:   CASING SIZE
 CBD .F                48:   CASING BOTTOM DRILLER
 CBL .F                51:   CASING BOTTOM LOGGER
 BS  .IN            7.875:   BIT SIZE
 BSD .F               565:   BIT SIZE AT DEPTH
 DFT .              WATER:   DRILLING FLUID TYPE
 TCS .HRS            0200:   TIME CURCULATED STOPPED
 MRT .F                88:   MAXIMUM RECORDED TEMPERATURE
 LUN .           HL- 6274:   LOGGING UNIT NUMBER
 LUL .             CASPER:   LOGGING UNIT LOCATION
 ENGI.             RAUTIO:   RECORDING ENGINEER
 WITN.        GARY STRONG:   WITNESSED BY
 CLNT.            A2DTECH:   CLIENT CODE
 ORIG.           5" PRINT:   ORIGIN OF DATA
 UWI .       490252252000:   UNIQUE WELL ID
 DICO. A2D Technologies, Inc.:   DIGITIZING COMPANY
~OTHER INFORMATION
~A   DEPT     PORZ        CNC       CALD        GRD       ZCOR       ZDEN       RILD       RILM       RFOC   
# ...
  194.5000     0.1112     0.3438     8.2104   108.9497     0.0200     2.4690     8.6346     8.5112     8.5528
  195.0000     0.1099     0.3420     8.2248   109.2519     0.0231     2.4675     8.8167     8.5112     8.6118
  195.5000     0.1120     0.3408     8.2242   107.4584     0.0246     2.4607     9.0075     8.7510     8.7398
  196.0000     0.1156     0.3405     8.2237   104.4672     0.0246     2.4585     9.1292     9.0602     9.1021
  196.5000     0.1159     0.3408     8.2231   101.7755     0.0262     2.4592     9.1934     9.1962     9.2930
  197.0000     0.1147     0.3411     8.2224   100.5807     0.0262     2.4615     9.2579     9.2510     9.2924
  197.5000     0.1133     0.3356     8.2218   102.0813     0.0262     2.4653     9.2586     9.1870     9.2917
  198.0000     0.1107     0.3300     8.2213   103.8806     0.0263     2.4721     9.2592     9.1870     9.2269
  198.5000     0.1047     0.3280     8.2207   105.3804     0.0263     2.4804     9.1958     9.1870     9.2162
  199.0000     0.0990     0.3268     8.2200   104.4851     0.0263     2.4872     9.1966     9.1870     9.2256
  199.5000     0.0981     0.3265     8.2194   103.2495     0.0264     2.4887     9.1972     9.1870     9.2249
  200.0000     0.1002     0.3274     8.2169   102.9938     0.0267     2.4839     9.1864     9.2510     9.1459
  200.5000     0.1030     0.3314     8.2033   103.2412     0.0300     2.4798     9.1162     9.1710     9.0539
  201.0000     0.1052     0.3326     8.2027   103.6108     0.0325     2.4760     9.0070     9.0589     8.9619
  201.5000     0.1067     0.3320     8.2020   103.9209     0.0326     2.4729     8.6994     8.8715     8.8443
  202.0000     0.1079     0.3323     8.2014   104.2289     0.0356     2.4708     8.5197     8.5681     8.6010
  202.5000     0.1094     0.3350     8.2008   104.5369     0.0387     2.4693     8.7053     8.6343     8.5998
  203.0000     0.1127     0.3348     8.2154   104.8449     0.0418     2.4655     8.8804     8.8083     8.6583
  203.5000     0.1127     0.3327     8.2147   105.4524     0.0463     2.4663     8.8799     8.8691     8.7175
  204.0000     0.1105     0.3333     8.2141   106.0599     0.0479     2.4679     8.8793     8.8684     8.7773
  204.5000     0.1102     0.3357     8.2134   106.0705     0.0479     2.4671     8.8787     8.8678     8.7759
  205.0000     0.1120     0.3399     8.2128   104.5821     0.0480     2.4642     8.8780     8.8671     8.7745
  205.5000     0.1126     0.3397     8.1972   101.8940     0.0390     2.4627     8.8774     8.8051     8.7733
  206.0000     0.1126     0.3376     8.1967   104.2999     0.0330     2.4635     8.8155     8.7436     8.7115
  206.5000     0.1117     0.3294     8.1961   109.3984     0.0315     2.4642     8.7539     8.7430     8.7710
  207.0000     0.1104     0.3294     8.1805   111.2315     0.0316     2.4680     8.7534     8.6744     8.7696
  207.5000     0.1077     0.3298     8.1798   111.5114     0.0316     2.4765     8.6321     8.5615     8.7684
  208.0000     0.1029     0.3298     8.1792   108.8276     0.0286     2.4824     8.5126     8.5609     8.7673
  208.5000     0.1004     0.3313     8.1787   106.4409     0.0272     2.4817     8.4532     8.4423     8.7661
  209.0000     0.1058     0.3352     8.1781   104.6532     0.0242     2.4727     8.3943     8.3833     8.7649
  209.5000     0.1115     0.3419     8.1925   103.4642     0.0167     2.4644     8.3936     8.3246     8.7635
  210.0000     0.1130     0.3564     8.1918   103.5130     0.0107     2.4637     8.3350     8.2664     8.7624
  210.5000     0.1127     0.3549     8.1912   104.0823     0.0123     2.4645     8.2769     8.2086     8.7006
  211.0000     0.1109     0.3483     8.1906   104.3903     0.0183     2.4660     8.1623     8.2081     8.5202
  211.5000     0.1091     0.3459     8.1901   104.9978     0.0199     2.4683     8.0493     8.1507     8.0587
  212.0000     0.1093     0.3486     8.1895   105.6052     0.0230     2.4691     7.9378     8.0937     7.8916
  212.5000     0.1123     0.3474     8.1889   105.9132     0.0260     2.4654     7.7738     7.9262     8.0011
  213.0000     0.1174     0.3468     8.1732   104.7263     0.0215     2.4549     7.5084     7.7085     8.1116
  213.5000     0.1180     0.3486     8.1726   102.6391     0.0216     2.4549     7.1901     7.1863     8.1105
  214.0000     0.1132     0.3574     8.1721    99.3543     0.0249     2.4610     6.6723     6.7077     7.7246
  214.5000     0.1123     0.3665     8.1715   101.1593     0.0292     2.4647     6.7184     6.7073     7.3065
  215.0000     0.1174     0.3809     8.1709   103.8626     0.0293     2.4542     6.7179     6.7537     6.9590
  215.5000     0.1282     0.3891     8.1703   106.2904     0.0293     2.4430     6.7642     6.8002     6.0133
  216.0000     0.1339     0.3951     8.1696   107.1753     0.0324     2.4362     6.8108     6.7998     6.0553
  216.5000     0.1336     0.3945     8.1690   104.7887     0.0339     2.4310     6.9054     6.8467     6.6723
  217.0000     0.1323     0.3834     8.1685   102.4000     0.0309     2.4287     7.4008     7.0390     7.1512
  217.5000     0.1290     0.3653     8.1679   102.7102     0.0250     2.4318     8.0427     7.9207     7.3005
  218.0000     0.1254     0.3544     8.1673   104.8146     0.0175     2.4371     7.8198     7.9180     7.5050
  218.5000     0.1242     0.3615     8.1817   107.5419     0.0145     2.4416     7.7136     7.8103     7.5563
  219.0000     0.1226     0.3687     8.1810   108.4268     0.0161     2.4454     7.8753     7.7021     7.7677
  219.5000     0.1196     0.3675     8.1804   108.4354     0.0116     2.4477     8.0963     7.9185     7.9304
  220.0000     0.1156     0.3606     8.1950   107.2464     0.0070     2.4509     8.0398     8.1411     8.0399
  220.5000     0.1136     0.3570     8.2093   106.0574     0.0056     2.4598     7.9836     8.0281     8.0386
  221.0000     0.1126     0.3537     8.2087   103.0720     0.0132     2.4621     7.9831     7.9720     8.0375
  221.5000     0.1138     0.3513     8.2231    98.7815     0.0238     2.4621     7.9825     7.9163     8.0365
  222.0000     0.1138     0.3483     8.2224    97.9994     0.0344     2.4607     7.9269     7.9158     7.9798
  222.5000     0.1123     0.3468     8.2068   103.6988     0.0345     2.4614     7.8689     7.9126     7.8141
  223.0000     0.1108     0.3469     8.2063   108.1984     0.0299     2.4645     7.7625     7.8598     7.7590
  223.5000     0.1113     0.3535     8.2057   108.8036     0.0240     2.4683     7.7083     7.8049     7.5982
  224.0000     0.1146     0.3628     8.1901   107.3174     0.0225     2.4646     7.6016     7.6967     7.5446
  224.5000     0.1180     0.3698     8.1894   106.4278     0.0241     2.4586     7.4964     7.5901     7.5380
  225.0000     0.1209     0.3749     8.1888   105.8398     0.0241     2.4548     7.1903     7.2796     7.4384
  225.5000     0.1227     0.3716     8.2034   105.2496     0.0242     2.4503     6.8968     7.0307     7.3860
  226.0000     0.1239     0.3704     8.2027   104.6594     0.0197     2.4473     6.5241     6.6966     7.3850
  226.5000     0.1242     0.3719     8.2021   104.6680     0.0122     2.4459     6.2578     6.3342     7.3330
  227.0000     0.1239     0.3777     8.2014   104.6767     0.0168     2.4451     5.9147     5.8630     7.1807
  227.5000     0.1256     0.3852     8.2008   103.7870     0.0213     2.4429     5.0115     4.9321     6.7450
  228.0000     0.1368     0.4000     8.2002   104.0972     0.0199     2.4317     4.9766     4.9662     5.7490
  228.5000     0.1545     0.4112     8.1997   105.0040     0.0199     2.4023     5.1162     5.1057     4.9686
  229.0000     0.1596     0.4202     8.2141   104.7132     0.0230     2.3858     5.3333     5.4347     5.2005
  229.5000     0.1542     0.4215     8.2135   102.0272     0.0294     2.3908     5.8766     5.9066     6.1596
  230.0000     0.1361     0.3983     8.2128   100.8382     0.0352     2.4182     6.2115     6.1576     7.0269
  230.5000     0.1261     0.3850     8.2122   102.0465     0.0352     2.4378     6.6111     6.5090     7.2241
