~VERSION INFORMATION
 VERS.                2.0:   CWLS LOG ASCII STANDARD - VERSION 2.0
 WRAP.                 NO:   ONE LINE PER DEPTH STEP
~WELL INFORMATION
#MNEM.UNIT      DATA TYPE    INFORMATION
#----------   ------------   ------------------------------
 STRT.F            0.0000:   START DEPTH
 STOP.F          555.0000:   STOP DEPTH
 STEP.F            0.5000:   STEP LENGTH
 NULL.          -999.2500:   NO VALUE
 COMP.       F D SERV INC:   COMPANY
 WELL. NAVAL PETROLEUM RESERVE 3 SX-3 #77-3:   WELL
 FLD .        N. P. R NO3:   FIELD
 LOC .       S3 T38N R78W:   LOCATION
 CNTY.            NATRONA:   COUNTY
 STAT.            WYOMING:   STATE
 CTRY. UNITED STATES OF AMERICA:   COUNTRY
 SRVC.     Atlas Wireline:   SERVICE COMPANY
 DATE.        26-OCT-1992:   LOGDATE
 API .       490252255200:   API NUMBER
~CURVE INFORMATION
#MNEM.UNIT       API CODE    CURVE DESCRIPTION
#----------   ------------   ------------------------------
 DEPT.F                  :   
 GRR .GAPI   07 310 01 00:   GAMMA RAY
 RILD.OHMM   07 120 46 00:   INDUCTION LOG DEEP RESISTIVITY
 RILM.OHMM   07 120 44 00:   INDUCTION LOG MEDIUM RESISTIVITY
~PARAMETER INFORMATION
#MNEM.UNIT          VALUE    DESCRIPTION
#----------   ------------   ------------------------------
 PD  .                 GL:   PERMANENT DATUM
 EPD .F              5161:   ELEVATION PERMANENT DATUM
 LMF .                 KB:   LOG MEASURED FROM
 DAPD.F                10:   FEET ABOVE PERMANENT DATUM
 DMF .                 KB:   DRILLING MEASURED FROM
 EKB .F              5171:   KELLING BUSHING
 EDF .F              5170:   DRILLING FLOOR
 EGL .F              5161:   GROUND LEVEL
 DATE.        26-OCT-1992:   RUN DATE
 RUN .                  1:   RUN NUMBER
 DD  .F               562:   DEPTH DRILLER
 DL  .F               563:   DEPTH LOGGER
 BLI .F               555:   BOTTOM LOG INTERVAL
 CS  .IN            8.625:   CASING SIZE
 CBD .F                85:   CASING BOTTOM DRILLER
 CBL .F                56:   CASING BOTTOM LOGGER
 BS  .IN            7.875:   BIT SIZE
 BSD .F               562:   BIT SIZE AT DEPTH
 DFT .           AIR FOAM:   DRILLING FLUID TYPE
 TCS .HRS               1:   TIME CURCULATED STOPPED
 MRT .F                67:   MAXIMUM RECORDED TEMPERATURE
 LUN .            HL-6274:   LOGGING UNIT NUMBER
 LUL .             CASPER:   LOGGING UNIT LOCATION
 ENGI.             RAUTIO:   RECORDING ENGINEER
 WITN.        GARY STRONG:   WITNESSED BY
 CLNT.            A2DTECH:   CLIENT CODE
 ORIG.           5" PRINT:   ORIGIN OF DATA
 UWI .       490252255200:   UNIQUE WELL ID
 DICO. A2D Technologies, Inc.:   DIGITIZING COMPANY
~OTHER INFORMATION
~A    DEPT      GRR      RILD       RILM   
# ...
  182.0000   123.3524     8.0226     7.7926
  182.5000   120.6063     7.9678     7.7946
  183.0000   119.3806     7.9689     7.9057
  183.5000   120.0020     7.9106     7.9630
  184.0000   121.4815     7.9666     8.0204
  184.5000   120.5564     7.9671     8.0782
  185.0000   119.6341     8.0235     8.1364
  185.5000   118.1049     8.1370     8.3102
  186.0000   115.6653     8.1376     8.3701
  186.5000   115.3530     8.2526     8.3753
  187.0000   118.0697     8.4279     8.3735
  187.5000   123.3434     8.4284     8.3170
  188.0000   127.4543     8.3121     8.3773
  188.5000   126.2257     8.4297     8.4968
  189.0000   125.3035     8.6691     8.6783
  189.5000   124.3812     8.7916     8.8637
  190.0000   124.0660     8.9783     9.0530
  190.5000   124.0542     9.1052     9.1183
  191.0000   124.3460     9.0424     9.2483
  191.5000   125.5852     8.9801     9.2502
  192.0000   131.2998     9.3651     9.2525
  192.5000   133.4125     9.3006     9.2544
  193.0000   132.4902     9.1084     9.1915
  193.5000   130.0506     9.1728     9.1294
  194.0000   127.9144     9.1734     9.0047
  194.5000   125.4747     9.1092     8.9439
  195.0000   122.7314     8.9220     8.8839
  195.5000   122.7688     8.8605     8.8240
  196.0000   124.8295     8.7383     8.7645
  196.5000   127.5491     8.6177     8.7667
  197.0000   128.1444     8.6787     8.8299
  197.5000   126.6152     8.7401     8.8317
  198.0000   122.9615     8.9257     8.8953
  198.5000   121.1288     8.9265     9.0222
  199.0000   123.0268     8.9271     9.0872
  199.5000   127.4757     8.9277     9.0890
  200.0000   128.9813     8.9170     8.9026
  200.5000   128.3626     8.9819     9.0277
  201.0000   127.1369     8.9837     9.0277
  201.5000   130.4727     8.9856     9.0277
  202.0000   135.9266     8.8626     8.9641
  202.5000   136.2215     8.8644     8.9026
  203.0000   135.6054     8.8044     8.8407
  203.5000   131.0379     8.7453     8.7181
  204.0000   124.6598     8.6256     8.6575
  204.5000   123.1335     8.6274     8.5973
  205.0000   122.8211     8.6292     8.5375
  205.5000   121.5983     8.6309     8.5375
  206.0000   119.4650     8.6327     8.4782
  206.5000   118.8514     8.5145     8.4192
  207.0000   124.9101     8.1663     8.2448
  207.5000   129.1501     7.8873     7.9621
  208.0000   129.7482     7.5065     7.5271
  208.5000   127.1776     7.1909     7.1570
  209.0000   123.9619     6.8146     6.7345
  209.5000   123.3483     6.5359     6.5491
  210.0000   126.0090     6.3569     6.3688
  210.5000   130.9178     6.3139     6.4583
  211.0000   130.9067     6.3595     6.6876
  211.5000   127.8629     6.4504     6.8769
  212.0000   124.2122     6.5885     7.0716
  212.5000   120.5615     6.8244     7.3226
  213.0000   120.6172     7.0687     7.6357
  213.5000   125.8483     7.3738     7.8522
  214.0000   134.4947     7.7497     7.9621
  214.5000   134.7893     7.9761     7.9621
  215.0000   131.4398     8.1370     7.9621
  215.5000   127.1821     8.1386     7.9068
  216.0000   126.2627     8.1403     7.9068
  216.5000   125.0399     8.0848     7.8518
  217.0000   121.9961     7.9742     7.8518
  217.5000   119.5593     7.8650     7.8518
  218.0000   118.8953     7.7574     7.7972
  218.5000   120.7556     7.6516     7.7430
  219.0000   124.1984     7.5468     7.5826
  219.5000   134.5401     7.3378     7.3715
  220.0000   136.5105     7.0829     7.1145
  220.5000   133.7680     6.7998     6.6876
  221.0000   131.6347     6.4763     6.3246
  221.5000   131.9293     6.1252     5.9396
  222.0000   131.0099     5.8747     5.4625
  222.5000   126.4487     5.5562     5.1660
  223.0000   119.1546     5.2549     5.0589
  223.5000   115.8074     5.1108     5.2021
  224.0000   115.4972     5.4824     5.3868
  224.5000   121.5559     5.5998     5.8166
  225.0000   125.1889     5.7197     6.1935
  225.5000   125.4858     6.0227     6.5036
  226.0000   123.9572     6.5055     6.8291
  226.5000   126.0728     7.0103     7.1709
  227.0000   127.2779     7.3636     7.5313
  227.5000   125.4459     7.5740     7.7484
  228.0000   126.0440     7.8452     7.9621
  228.5000   129.3735     8.0131     8.1306
  229.0000   133.0065     8.1277     8.1875
  229.5000   134.8186     8.2438     8.3026
  230.0000   135.1154     8.3617     8.3607
  230.5000   130.5520     8.3634     8.3607
  231.0000   126.9012     8.4262     8.4192
  231.5000   128.7618     8.4847     8.4192
  232.0000   131.4359     8.4869     8.4782
  232.5000   129.6038     8.5482     8.4782
  233.0000   129.2915     8.6099     8.5375
  233.5000   136.2629     8.6721     8.6575
  234.0000   140.1994     8.7348     8.7181
  234.5000   138.6731     8.7979     8.8407
  235.0000   135.3258     8.9236     8.8407
  235.5000   129.8541     8.9881     8.9026
  236.0000   130.4562     8.9900     8.8407
  236.5000   130.4431     8.9918     8.8407
  237.0000   127.0939     8.9937     8.8407
  237.5000   124.0501     8.9328     8.8407
  238.0000   123.4365     8.9348     8.7792
  238.5000   126.1568     8.8742     8.7792
  239.0000   129.7898     8.8765     8.7125
  239.5000   131.9054     8.8783     8.6575
  240.0000   135.8419     8.8801     8.5973
  240.5000   137.3505     8.8201     8.5973
  241.0000   136.6859     8.7599     8.5973
  241.5000   133.6886     8.6404     8.5973
  242.0000   132.7693     8.5222     8.4192
  242.5000   133.9744     8.3451     8.1875
  243.0000   135.1795     8.0551     7.9068
  243.5000   134.2601     7.7868     7.5299
  244.0000   131.8233     7.4163     7.1709
  244.5000   129.0831     7.0634     6.7279
  245.0000   129.3777     6.5877     6.1708
  245.5000   130.5828     6.0587     5.4625
  246.0000   128.8335     5.3431     4.7510
  246.5000   121.4477     4.3938     4.2789
  247.0000   122.0473     3.6132     3.7476
  247.5000   127.1992     3.0986     3.0825
  248.0000   129.0128     2.8102     2.6810
  248.5000   127.7915     2.6379     2.5532
  249.0000   125.0527     2.5670     2.5003
  249.5000   122.6174     2.5496     2.5179
  250.0000   116.8437     2.5324     2.5355
  250.5000   110.4630     2.6232     2.6078
  251.0000   113.4887     2.8734     2.9990
  251.5000   122.2826     3.1256     3.4488
  252.0000   132.5939     3.5705     4.2106
  252.5000   136.8353     4.6912     4.9943
  253.0000   139.8629     5.3216     5.5853
  253.5000   141.0713     5.8702     6.1169
  254.0000   141.0621     6.3854     6.3797
  254.5000   140.7511     6.7542     6.5616
  255.0000   140.7436     7.0451     6.8435
  255.5000   139.5207     7.1959     6.9411
  256.0000   136.4784     7.1472     6.9425
  256.5000   137.6850     7.0489     6.9439
  257.0000   141.0160     6.8510     6.8384
  257.5000   145.2575     6.5304     6.5700
  258.0000   146.1608     6.2634     6.3019
  258.5000   144.3323     5.9654     5.9610
  259.0000   143.4143     5.7214     5.6780
  259.5000   144.6192     5.4874     5.3334
  260.0000   146.1293     5.2630     5.1158
  260.5000   148.2463     5.0478     4.9414
  261.0000   149.7564     4.8753     4.8400
  261.5000   149.7490     4.7751     4.8074
  262.0000   147.9207     4.8145     4.9151
  262.5000   144.8784     5.0522     5.0857
  263.0000   138.7710     5.3440     5.3787
  263.5000   135.3187     5.6923     5.7285
  264.0000   132.4114     6.0633     6.1868
  264.5000   133.2448     6.4135     6.6817
  265.0000   136.9490     6.7367     7.0667
  265.5000   143.0114     7.0268     7.3703
  266.0000   145.7355     7.3294     7.6870
  266.5000   144.8176     7.5959     7.9105
  267.0000   142.6858     7.9192     8.0755
  267.5000   141.4138     8.0887     8.1337
  268.0000   139.0274     8.1471     8.0788
  268.5000   137.5025     8.1488     8.0804
  269.0000   137.1935     8.1505     8.0259
  269.5000   140.2192     8.1521     7.9717
  270.0000   143.8537     8.0406     7.8082
  270.5000   143.2393     7.9305     7.7015
  271.0000   141.7139     7.7133     7.5435
  271.5000   143.2240     7.4964     7.3832
  272.0000   145.9499     7.2461     7.1373
  272.5000   145.3337     7.0971     6.8460
