~VERSION INFORMATION
 VERS.                2.0:   CWLS LOG ASCII STANDARD - VERSION 2.0
 WRAP.                 NO:   ONE LINE PER DEPTH STEP
~WELL INFORMATION
#MNEM.UNIT      DATA TYPE    INFORMATION
#----------   ------------   ------------------------------
 STRT.F           26.0000:   START DEPTH
 STOP.F         1071.0000:   STOP DEPTH
 STEP.F            0.5000:   STEP LENGTH
 NULL.          -999.2500:   NO VALUE
 COMP. FENIX & SCISSON INC:   COMPANY
 WELL.       NRP 3 #61-14:   WELL
 FLD .        TEAPOT DOME:   FIELD
 LOC .      S14 T38N R78W:   LOCATION
 CNTY.            NATRONA:   COUNTY
 STAT.            WYOMING:   STATE
 CTRY. UNITED STATES OF AMERICA:   COUNTRY
 SRVC.            Unknown:   SERVICE COMPANY
 DATE.        09-JAN-1979:   LOGDATE
 API .       490251076300:   API NUMBER
~CURVE INFORMATION
#MNEM.UNIT       API CODE    CURVE DESCRIPTION
#----------   ------------   ------------------------------
 DEPT.F                  :   
 SPR .MV     05 010 01 00:   SPONTANEOUS POTENTIAL FROM RES.
 SN  .OHMM   05 040 16 00:   SHORT NORMAL 16"
 IL  .OHMM   05 120 00 00:   INDUCTION LOG
 CALD.IN     45 280 60 00:   CALIPER
 GRD .GAPI   45 310 01 00:   GAMMA RAY FROM DENSITY LOG
 RHOB.G/C3   45 350 01 00:   BULK DENSITY
 DPHI.DEC    45 890 12 00:   DENSITY POROSITY SANDSTONE
 CORR.G/C3   45 356 01 00:   DENSITY CORRECTION
~PARAMETER INFORMATION
#MNEM.UNIT          VALUE    DESCRIPTION
#----------   ------------   ------------------------------
 PD  .                 GL:   PERMANENT DATUM
 EPD .F              5240:   ELEVATION PERMANENT DATUM
 LMF .                 KB:   LOG MEASURED FROM
 DAPD.F                 4:   FEET ABOVE PERMANENT DATUM
 DMF .                 KB:   DRILLING MEASURED FROM
 EKB .F              5244:   KELLING BUSHING
 EGL .F              5240:   GROUND LEVEL
 DATE.             1-9-79:   RUN DATE
 RUN .                  1:   RUN NUMBER
 DD  .F              1061:   DEPTH DRILLER
 DL  .F              1071:   DEPTH LOGGER
 BLI .F              1064:   BOTTOM LOG INTERVAL
 TLI .F                50:   TOP LOG INTERVAL
 CS  .IN            8.625:   CASING SIZE
 CBD .F                40:   CASING BOTTOM DRILLER
 CBL .F                38:   CASING BOTTOM LOGGER
 BS  .IN            7.875:   BIT SIZE
 BSD .F              1061:   BIT SIZE AT DEPTH
 DFT .                KCL:   DRILLING FLUID TYPE
 DFD .                8.8:   DRILLING FLUID DENSITY
 DFV .                 36:   DRILLING FLUID VISCOSITY
 DFPH.                9.2:   DRILLING FLUID PH
 MSS .           FLOWLINE:   MUD SAMPLE SOURCE
 RMS .OHMM             .3:   RESISTIVITY MUD SAMPLE
 MST .F                58:   MUD SAMPLE TEMPERATURE
 RMF .OHMM             .3:   RESISTIVITY MUD FILTRATE SAMPLE
 MFST.F                58:   MUD FILTRATE SAMPLE TEMPERATURE
 RMC .OHMM            .34:   RESISTIVITY MUD CAKE
 MCST.F                62:   MUD CAKE SAMPLE TEMPERATURE
 MFSS.           MEASURED:   MUD FILTRATE SAMPLE SOURCE
 MCSS.           MEASURED:   MUD CAKE SAMPLE SOURCE
 RMB .OHMM            .29:   RESISTIVITY MUD AT BHT
 BHT .F                61:   BOTTOM HOLE TEMPERATURE
 TCS .HRS               4:   TIME CURCULATED STOPPED
 MRT .F                61:   MAXIMUM RECORDED TEMPERATURE
 LUN .               3006:   LOGGING UNIT NUMBER
 LUL .             CASPER:   LOGGING UNIT LOCATION
 ENGI.            ROLLINS:   RECORDING ENGINEER
 WITN.           DINSMORE:   WITNESSED BY
 CLNT.            A2DTECH:   CLIENT CODE
 ORIG.           5" PRINT:   ORIGIN OF DATA
 UWI .       490251076300:   UNIQUE WELL ID
 DICO. A2D Technologies, Inc.:   DIGITIZING COMPANY
~OTHER INFORMATION
~A   DEPT      SPR         SN         IL       CALD         GRD      RHOB       DPHI       CORR   
# ...
 1038.5000   -71.1900     8.3110     9.4490     7.6550    96.9280     2.5560     0.0850     0.1200
 1039.0000   -71.4020     8.2610     9.3450     7.6390    97.9090     2.5580     0.1090     0.1130
 1039.5000   -71.6130     8.2110     9.2420     7.6170    98.8960     2.5200     0.1270     0.1130
 1040.0000   -71.8230     8.1600     9.1390     7.5960    99.9200     2.4830     0.1350     0.1140
 1040.5000   -72.1410     8.0940     9.0360     7.5740   100.1850     2.4520     0.1430     0.1160
 1041.0000   -72.4520     8.0070     8.9320     7.5530    99.8390     2.4370     0.1510     0.1170
 1041.5000   -72.7620     7.9210     8.8290     7.5500    99.2210     2.4300     0.1540     0.1180
 1042.0000   -73.0720     7.8340     8.7260     7.5500    98.6410     2.4280     0.1520     0.1180
 1042.5000   -73.3820     7.7480     8.6230     7.5500    98.0730     2.4290     0.1490     0.1160
 1043.0000   -73.6920     7.6610     8.5200     7.5500    98.2980     2.4330     0.1490     0.1140
 1043.5000   -74.0020     7.5750     8.4160     7.5500   100.5860     2.4340     0.1500     0.1100
 1044.0000   -74.3210     7.4880     8.3130     7.5500   102.8730     2.4330     0.1500     0.1050
 1044.5000   -74.3980     7.4020     8.2100     7.5500   103.5430     2.4330     0.1480     0.1030
 1045.0000   -74.4020     7.3150     8.1070     7.5510   101.1490     2.4340     0.1440     0.1030
 1045.5000   -74.4040     7.2290     8.0040     7.5570    98.6960     2.4360     0.1460     0.1030
 1046.0000   -74.3760     7.1420     7.9000     7.5620    98.8450     2.4360     0.1510     0.1030
 1046.5000   -73.7550     7.0560     7.7970     7.5670   101.3550     2.4300     0.1550     0.1030
 1047.0000   -73.1290     6.9690     7.6950     7.6050   103.9450     2.4250     0.1590     0.1030
 1047.5000   -72.8900     6.7670     7.4120     7.6510   104.5760     2.4210     0.1590     0.1030
 1048.0000   -72.7370     6.5360     6.8790     7.6980   104.5790     2.4210     0.1540     0.1030
 1048.5000   -72.5860     6.3060     6.3460     7.7440   104.5800     2.4250     0.1490     0.1030
 1049.0000   -72.4340     6.0760     5.8130     7.7700   104.5810     2.4290     0.1460     0.1030
 1049.5000   -72.2840     5.8450     5.1270     7.7630   104.5110     2.4310     0.1470     0.1030
 1050.0000   -72.0430     5.6150     5.2050     7.7570   104.4420     2.4310     0.1470     0.1030
 1050.5000   -71.7150     5.3840     5.3060     7.7520   104.7850     2.4310     0.1570     0.1030
 1051.0000   -71.3880     5.1540     5.4060     7.7460   106.3510     2.4260     0.1710     0.1030
 1051.5000   -71.0590     5.0330     5.5060     7.7410   109.2180     2.3990     0.1850     0.1030
 1052.0000   -70.7180     5.0800     5.5710     7.7360   113.9110     2.3730     0.1930     0.1030
 1052.5000   -70.5960     5.2960     5.8340     7.7300   121.0520     2.3630     0.1800     0.1030
 1053.0000   -70.5530     5.7790     6.3570     7.7340   123.0290     2.3710     0.1660     0.1030
 1053.5000   -70.5130     6.2610     7.0400     7.7430   118.5100     2.4010     0.1510     0.1030
 1054.0000   -70.4730     6.7430     7.7230     7.7520   109.4860     2.4300     0.1370     0.1030
 1054.5000   -70.4340     7.2260     8.4070     7.7610   100.7810     2.4540     0.1340     0.1030
 1055.0000   -70.3940     7.6950     8.7310     7.7700    99.7820     2.4560     0.1380     0.1050
 1055.5000   -70.3550     7.9550     8.8210     7.7790   100.8050     2.4550     0.1380     0.1060
 1056.0000   -70.3160     8.0660     8.9120     7.7880   102.6320     2.4560     0.1360     0.1080
 1056.5000   -70.2760     8.1780     9.0020     7.7970   103.9750     2.4580     0.1330     0.1140
 1057.0000   -70.2370     8.2900     9.0930     7.8070   100.3590     2.4600     0.1310     0.1230
 1057.5000   -70.1970     8.4010     9.2030     7.8160    96.6280     2.4600     0.1290     0.1440
 1058.0000   -70.1580     8.5130     9.4220     7.8250    96.0820     2.4600     0.1310     0.1720
 1058.5000   -70.1180     8.6240     9.6420     7.8340    98.5780     2.4590     0.1350     0.2040
 1059.0000   -70.0790     8.7360     9.8610     7.8430   103.2370     2.4590     0.1350     0.2310
 1059.5000   -70.0400     8.8480    10.0570     7.8470   107.3440     2.4590     0.1330     0.2420
 1060.0000   -70.0330     8.9590    10.0670     7.8470   107.4260     2.4600     0.1230     0.2440
 1060.5000   -70.0590     9.0710    10.0770     7.8470    99.9150     2.4660     0.1100     0.2460
 1061.0000   -70.0850     9.1820    10.0870     7.8220    97.8530     2.4860     0.0960     0.2410
 1061.5000   -70.1110     9.2940    10.0970     7.7940    97.3050     2.5060     0.0900     0.2310
 1062.0000   -70.1370     9.4050    10.1070     7.7650    97.0500     2.5260     0.0840     0.2210
 1062.5000   -70.1630     9.5170    10.1170     7.7370    97.0380     2.5380     0.0780     0.2210
 1063.0000   -70.1890     9.6290    10.1280     7.7080    96.8220     2.5440     0.0780     0.2220
 1063.5000   -70.2170     9.6920    10.1380     7.6800    95.8800     2.5450     0.0820     0.2240
 1064.0000   -70.2900     9.6920    10.1480     7.6510    95.8490     2.5440     0.0870     0.2320
 1064.5000   -70.4160     9.6920    10.1490     7.6210    95.8530     2.5340     0.0930     0.2480
 1065.0000   -70.4180     9.6920    10.1490     7.5830    95.8540     2.5240     0.1010     0.2720
 1065.5000   -70.4180     9.6920    10.1490     7.5450    95.8530     2.5140     0.1080     0.2960
 1066.0000   -70.4180     9.6920    10.1490     7.5060    95.8530     2.5030     0.1160     0.3000
 1066.5000   -70.4180     9.6920    10.1490     7.4920    95.8530     2.4930     0.1120     0.3030
 1067.0000   -70.4180     9.6920    10.1490     7.4950    95.8530     2.4940     0.1050     0.3130
 1067.5000   -70.4180     9.6920    10.1490     7.4970    95.8530     2.5060     0.0980     0.3230
 1068.0000   -70.4180     9.6920    10.1490     7.5000    95.8530     2.5150     0.0920     0.3230
 1068.5000   -70.4180     9.6920    10.1490     7.5030    95.8530     2.5200     0.1120     0.3230
 1069.0000   -70.4180     9.6920    10.1490     7.5050    95.8530     2.5180     0.1090     0.3230
 1069.5000   -70.4180     9.6920    10.1490     7.5080    95.8530     2.5070     0.1040     0.3240
 1070.0000   -70.4180     9.6920    10.1490     7.5100    95.8530     2.5050     0.1030     0.3260
 1070.5000  -999.2500  -999.2500  -999.2500  -999.2500  -999.2500     2.5060     0.1030  -999.2500
 1071.0000  -999.2500  -999.2500  -999.2500  -999.2500  -999.2500     2.5070     0.1050  -999.2500
