~VERSION INFORMATION
 VERS.                2.0:   CWLS LOG ASCII STANDARD - VERSION 2.0
 WRAP.                 NO:   ONE LINE PER DEPTH STEP
~WELL INFORMATION
#MNEM.UNIT      DATA TYPE    INFORMATION
#----------   ------------   ------------------------------
 STRT.F          695.0000:   START DEPTH
 STOP.F         1588.0000:   STOP DEPTH
 STEP.F            0.5000:   STEP LENGTH
 NULL.          -999.2500:   NO VALUE
 COMP. FENIX & SCISSON INC:   COMPANY
 WELL. 13 SHX 10 STX #13-10:   WELL
 FLD .             TEAPOT:   FIELD
 LOC .      S10 T38N R78W:   LOCATION
 CNTY.            NATRONA:   COUNTY
 STAT.            WYOMING:   STATE
 CTRY. UNITED STATES OF AMERICA:   COUNTRY
 SRVC.            Unknown:   SERVICE COMPANY
 DATE.        22-JUL-1979:   LOGDATE
 API .       490251078700:   API NUMBER
~CURVE INFORMATION
#MNEM.UNIT       API CODE    CURVE DESCRIPTION
#----------   ------------   ------------------------------
 DEPT.F                  :   
 CORR.G/C3   45 356 01 00:   DENSITY CORRECTION
 RHOB.G/C3   45 350 01 00:   BULK DENSITY
 CALD.IN     45 280 60 00:   CALIPER
 GRD .GAPI   45 310 01 00:   GAMMA RAY FROM DENSITY LOG
 DPHI.DEC    45 890 12 00:   DENSITY POROSITY SANDSTONE
~PARAMETER INFORMATION
#MNEM.UNIT          VALUE    DESCRIPTION
#----------   ------------   ------------------------------
 PD  .                 GL:   PERMANENT DATUM
 EPD .F              5306:   ELEVATION PERMANENT DATUM
 LMF .                 DF:   LOG MEASURED FROM
 DAPD.F                 9:   FEET ABOVE PERMANENT DATUM
 DMF .                 KB:   DRILLING MEASURED FROM
 EKB .F              5316:   KELLING BUSHING
 EDF .F              5315:   DRILLING FLOOR
 EGL .F              5306:   GROUND LEVEL
 DATE.            7-22-79:   RUN DATE
 RUN .                  1:   RUN NUMBER
 DD  .F              1595:   DEPTH DRILLER
 DL  .F              1588:   DEPTH LOGGER
 BLI .F              1588:   BOTTOM LOG INTERVAL
 TLI .F               700:   TOP LOG INTERVAL
 CS  .IN            9.625:   CASING SIZE
 CBD .F               950:   CASING BOTTOM DRILLER
 CBL .F               950:   CASING BOTTOM LOGGER
 BS  .IN             8.75:   BIT SIZE
 BSD .F              1595:   BIT SIZE AT DEPTH
 DFT .                OIL:   DRILLING FLUID TYPE
 TCS .HRS               2:   TIME CURCULATED STOPPED
 LUN .               2959:   LOGGING UNIT NUMBER
 LUL .             CASPER:   LOGGING UNIT LOCATION
 ENGI.            ROLLINS:   RECORDING ENGINEER
 WITN.           DINSMORE:   WITNESSED BY
 CLNT.            A2DTECH:   CLIENT CODE
 ORIG.     1", 2.5" PRINT:   ORIGIN OF DATA
 UWI .       490251078700:   UNIQUE WELL ID
 DICO. A2D Technologies, Inc.:   DIGITIZING COMPANY
~OTHER INFORMATION
~A   DEPT     CORR       RHOB       CALD         GRD      DPHI   
# ...
  939.0000  -999.2500  -999.2500  -999.2500    69.2130  -999.2500
  939.5000  -999.2500  -999.2500  -999.2500    71.0117  -999.2500
  940.0000  -999.2500  -999.2500  -999.2500    72.8490  -999.2500
  940.5000  -999.2500  -999.2500  -999.2500    75.7122  -999.2500
  941.0000  -999.2500  -999.2500  -999.2500    79.6807  -999.2500
  941.5000  -999.2500  -999.2500  -999.2500    78.2124  -999.2500
  942.0000  -999.2500  -999.2500  -999.2500    72.5155  -999.2500
  942.5000  -999.2500  -999.2500  -999.2500    72.0368  -999.2500
  943.0000  -999.2500  -999.2500  -999.2500    71.6952  -999.2500
  943.5000  -999.2500  -999.2500  -999.2500    71.6037  -999.2500
  944.0000  -999.2500  -999.2500  -999.2500    71.3535  -999.2500
  944.5000  -999.2500  -999.2500  -999.2500    72.1685  -999.2500
  945.0000  -999.2500  -999.2500  -999.2500    72.9991  -999.2500
  945.5000  -999.2500  -999.2500  -999.2500    73.5292  -999.2500
  946.0000  -999.2500  -999.2500  -999.2500    70.9610  -999.2500
  946.5000  -999.2500  -999.2500  -999.2500    69.2886  -999.2500
  947.0000  -999.2500  -999.2500  -999.2500    68.4642  -999.2500
  947.5000  -999.2500  -999.2500  -999.2500    69.7107  -999.2500
  948.0000  -999.2500  -999.2500  -999.2500    71.9101  -999.2500
  948.5000  -999.2500  -999.2500  -999.2500    74.7257  -999.2500
  949.0000  -999.2500  -999.2500  -999.2500    73.7163  -999.2500
  949.5000  -999.2500  -999.2500  -999.2500    73.4716  -999.2500
  950.0000    -0.1430     2.4729     8.7379    75.0145     0.0566
  950.5000    -0.1523     2.4439     8.7379    76.4283     0.0742
  951.0000    -0.1626     2.4128     8.7379    74.4739     0.0918
  951.5000    -0.1728     2.3844     8.7379    72.6251     0.1000
  952.0000    -0.1831     2.3990     8.7379    70.9623     0.0816
  952.5000    -0.1934     2.4409     8.8037    68.6071     0.0611
  953.0000    -0.2039     2.4838     8.9256    65.7280     0.0263
  953.5000    -0.2057     2.5283     8.9830    62.8937     0.0018
  954.0000    -0.1857     2.6237     9.1724    60.7497    -0.0560
  954.5000    -0.1519     2.6630     9.3391    60.3751    -0.0693
  955.0000    -0.1416     2.6773     9.5331    61.6344    -0.0617
  955.5000    -0.1404     2.6190     9.5723    65.7947    -0.0410
  956.0000    -0.1509     2.5917     9.6074    70.2564    -0.0204
  956.5000    -0.1687     2.5577     9.6500    71.0482    -0.0030
  957.0000    -0.1752     2.5673     9.6417    69.6248    -0.0016
  957.5000    -0.1312     2.5469     9.8348    69.1922     0.0010
  958.0000    -0.0005     2.5183    10.0633    70.6513     0.0038
  958.5000     0.4769     3.0030    10.6144    75.3310    -0.1006
  959.0000     0.4001     2.8863    10.4139    83.8200    -0.0580
  959.5000     0.3585     2.6023    10.2175    90.4978     0.0490
  960.0000     0.3031     2.3296    10.2330    89.5323     0.1336
  960.5000     0.2390     2.2546    10.1948    94.3342     0.1759
  961.0000     0.1875     2.2524    10.1084    96.9259     0.1774
  961.5000     0.1506     2.2512    10.0332    97.8295     0.1763
  962.0000     0.1061     2.2522     9.9506   100.6605     0.1582
  962.5000     0.1356     2.3053     9.9571   105.8246     0.1206
  963.0000     0.1863     2.3824     9.9901   107.4427     0.0724
  963.5000     0.2133     2.4351    10.0240   108.0218     0.0783
  964.0000     0.1937     2.3802     9.9795   106.9550     0.1008
  964.5000     0.2829     2.4119     9.9044   105.6025     0.0828
  965.0000     0.4183     2.5025    10.0603   104.3645     0.0305
  965.5000     0.4983     2.5940    10.3811   102.9398    -0.0233
  966.0000     0.4850     2.5165    10.4004   105.5703     0.0227
  966.5000     0.3628     2.3835    10.2650   108.5675     0.1025
  967.0000     0.2435     2.1775    10.0205   111.4649     0.1974
  967.5000     0.2297     2.1899     9.8921   108.3686     0.1974
  968.0000     0.2341     2.2377     9.9815   109.6857     0.1811
  968.5000     0.1328     2.1882     9.7912   112.1246     0.2222
  969.0000     0.0313     2.1205     9.7154   114.3885     0.2205
  969.5000     0.0284     2.1996     9.6635   113.1223     0.1835
  970.0000     0.0412     2.2955     9.7952   108.2674     0.1466
  970.5000     0.0447     2.3584     9.8090   105.3408     0.1096
  971.0000     0.0404     2.4062     9.7600   106.1309     0.0819
  971.5000     0.0449     2.4192     9.7085   107.6052     0.0758
  972.0000     0.0470     2.4328     9.7058   111.0360     0.0706
  972.5000     0.0441     2.4342     9.7054   109.9088     0.0673
  973.0000     0.0476     2.4407     9.7047   109.4902     0.0641
  973.5000     0.0542     2.4479     9.7066   112.3045     0.0627
  974.0000     0.0606     2.4490     9.7117   113.1120     0.0622
  974.5000     0.0856     2.4481     9.7873   109.4301     0.0617
  975.0000     0.1102     2.4474     9.8518   107.8923     0.0612
  975.5000     0.1335     2.4520     9.8676   110.2818     0.0623
  976.0000     0.1550     2.4505     9.8665   116.5414     0.0644
  976.5000     0.1327     2.4250     9.8188   122.6844     0.0806
  977.0000     0.1115     2.3860     9.7601   130.7627     0.1049
  977.5000     0.0862     2.3404     9.6995   129.2555     0.1220
  978.0000     0.0815     2.3521     9.6409   121.5579     0.1176
  978.5000     0.0855     2.3739     9.5859   113.7146     0.1037
  979.0000     0.0907     2.3946     9.5654   109.0075     0.0908
  979.5000     0.0959     2.4027     9.5461   108.5266     0.0853
  980.0000     0.1010     2.4107     9.5282   104.2547     0.0845
  980.5000     0.1061     2.4164     9.5100   105.3751     0.0809
  981.0000     0.1112     2.4216     9.4984   107.5695     0.0777
  981.5000     0.1101     2.4193     9.4900   109.5430     0.0770
  982.0000     0.1069     2.4140     9.4818   108.3122     0.0809
  982.5000     0.1028     2.4089     9.4736   108.4931     0.0847
  983.0000     0.0995     2.4035     9.4654   111.2467     0.0878
  983.5000     0.0845     2.4065     9.4571   114.5375     0.0860
  984.0000     0.0846     2.4169     9.4489   117.8888     0.0813
  984.5000     0.0840     2.4276     9.4407   117.2326     0.0766
  985.0000     0.0831     2.4297     9.4324   118.0628     0.0732
  985.5000     0.0785     2.4265     9.4241   120.3764     0.0758
  986.0000     0.0739     2.4190     9.4159   118.7286     0.0781
  986.5000     0.0697     2.4237     9.4076   115.1215     0.0737
  987.0000     0.0640     2.4351     9.3993   111.5465     0.0707
  987.5000     0.0572     2.4309     9.3913   109.7040     0.0731
  988.0000     0.0505     2.4287     9.3829   113.0518     0.0739
  988.5000     0.0471     2.4275     9.3877   117.4390     0.0724
  989.0000     0.0467     2.4265     9.3966   116.1456     0.0761
  989.5000     0.0460     2.4190     9.4052   112.7425     0.0789
  990.0000     0.0454     2.4176     9.4135   112.4108     0.0769
  990.5000     0.0445     2.4327     9.4221   113.1766     0.0711
  991.0000     0.0442     2.4399     9.4305   116.3606     0.0686
  991.5000     0.0442     2.4341     9.4390   116.7411     0.0715
  992.0000     0.0490     2.4287     9.4475   116.3215     0.0732
  992.5000     0.0620     2.4285     9.4560   118.2853     0.0702
  993.0000     0.0817     2.4374     9.4644   117.0649     0.0674
  993.5000     0.0998     2.4531     9.4729   117.2389     0.0589
  994.0000     0.1192     2.4686     9.4814   119.2925     0.0482
  994.5000     0.1196     2.4718     9.4899   121.4399     0.0520
  995.0000     0.1086     2.4573     9.4983   118.0183     0.0582
  995.5000     0.0988     2.4444     9.5068   113.9406     0.0645
  996.0000     0.0893     2.4354     9.5153   111.1833     0.0707
  996.5000     0.0795     2.4258     9.5237   109.9233     0.0749
  997.0000     0.0697     2.4283     9.5322   107.9950     0.0737
  997.5000     0.0600     2.4284     9.5406   105.5311     0.0724
  998.0000     0.0519     2.4268     9.5491   101.9707     0.0743
  998.5000     0.0518     2.4302     9.5576   103.3313     0.0732
  999.0000     0.0516     2.4402     9.5659   109.5379     0.0664
  999.5000     0.0516     2.4492     9.5746   112.4150     0.0594
