~VERSION INFORMATION
 VERS.                2.0:   CWLS LOG ASCII STANDARD - VERSION 2.0
 WRAP.                 NO:   ONE LINE PER DEPTH STEP
~WELL INFORMATION
#MNEM.UNIT      DATA TYPE    INFORMATION
#----------   ------------   ------------------------------
 STRT.F           38.0000:   START DEPTH
 STOP.F          483.5000:   STOP DEPTH
 STEP.F            0.5000:   STEP LENGTH
 NULL.          -999.2500:   NO VALUE
 COMP. FENIX & SCISSON INC:   COMPANY
 WELL.    43 SX 10 #43-10:   WELL
 FLD .             TEAPOT:   FIELD
 LOC .      S10 T38N R78W:   LOCATION
 CNTY.            NATRONA:   COUNTY
 STAT.            WYOMING:   STATE
 CTRY. UNITED STATES OF AMERICA:   COUNTRY
 SRVC.            Unknown:   SERVICE COMPANY
 DATE.        12-NOV-1978:   LOGDATE
 API .       490251072700:   API NUMBER
~CURVE INFORMATION
#MNEM.UNIT       API CODE    CURVE DESCRIPTION
#----------   ------------   ------------------------------
 DEPT.F                  :   
 SPR .MV     05 010 01 00:   SPONTANEOUS POTENTIAL FROM RES.
 SN  .OHMM   05 040 16 00:   SHORT NORMAL 16"
 IL  .OHMM   05 120 00 00:   INDUCTION LOG
 GRD .GAPI   45 310 01 00:   GAMMA RAY FROM DENSITY LOG
 CALD.IN     45 280 60 00:   CALIPER
 DEN .G/C3   45 350 01 00:   COMPENSATED BULK DENSTIY
 DPHI.DEC    45 890 12 00:   DENSITY POROSITY SANDSTONE
 CORR.G/C3   45 356 01 00:   DENSITY CORRECTION
~PARAMETER INFORMATION
#MNEM.UNIT          VALUE    DESCRIPTION
#----------   ------------   ------------------------------
 PD  .                 GL:   PERMANENT DATUM
 EPD .F              5193:   ELEVATION PERMANENT DATUM
 LMF .                 KB:   LOG MEASURED FROM
 DAPD.F                 4:   FEET ABOVE PERMANENT DATUM
 DMF .                 KB:   DRILLING MEASURED FROM
 EKB .F              5197:   KELLING BUSHING
 EGL .F              5193:   GROUND LEVEL
 DATE.           11-12-78:   RUN DATE
 RUN .                  1:   RUN NUMBER
 DD  .F               480:   DEPTH DRILLER
 DL  .F               485:   DEPTH LOGGER
 BLI .F               479:   BOTTOM LOG INTERVAL
 TLI .F                50:   TOP LOG INTERVAL
 CS  .IN            8.625:   CASING SIZE
 CBD .F                40:   CASING BOTTOM DRILLER
 CBL .F                45:   CASING BOTTOM LOGGER
 BS  .IN            7.875:   BIT SIZE
 BSD .F               480:   BIT SIZE AT DEPTH
 DFT .            SEA MUD:   DRILLING FLUID TYPE
 DFD .                8.7:   DRILLING FLUID DENSITY
 DFV .                 36:   DRILLING FLUID VISCOSITY
 DFPH.               10.5:   DRILLING FLUID PH
 MSS .            MUD PIT:   MUD SAMPLE SOURCE
 RMS .OHMM            .42:   RESISTIVITY MUD SAMPLE
 MST .F                52:   MUD SAMPLE TEMPERATURE
 RMF .OHMM            .42:   RESISTIVITY MUD FILTRATE SAMPLE
 MFST.F                52:   MUD FILTRATE SAMPLE TEMPERATURE
 RMC .OHMM            .48:   RESISTIVITY MUD CAKE
 MCST.F                54:   MUD CAKE SAMPLE TEMPERATURE
 MFSS.               MEAS:   MUD FILTRATE SAMPLE SOURCE
 MCSS.               MEAS:   MUD CAKE SAMPLE SOURCE
 RMB .OHMM            .34:   RESISTIVITY MUD AT BHT
 BHT .F                71:   BOTTOM HOLE TEMPERATURE
 TCS .HRS               3:   TIME CURCULATED STOPPED
 MRT .F                71:   MAXIMUM RECORDED TEMPERATURE
 LUN .               3006:   LOGGING UNIT NUMBER
 LUL .               CASP:   LOGGING UNIT LOCATION
 ENGI.             MILLER:   RECORDING ENGINEER
 WITN.           DINSMORE:   WITNESSED BY
 CLNT.            A2DTECH:   CLIENT CODE
 ORIG.       2", 5" PRINT:   ORIGIN OF DATA
 UWI .       490251072700:   UNIQUE WELL ID
 DICO. A2D Technologies, Inc.:   DIGITIZING COMPANY
~OTHER INFORMATION
~A   DEPT      SPR         SN         IL         GRD      CALD        DEN       DPHI       CORR   
   38.0000  -999.2500  -999.2500  -999.2500    76.0368  -999.2500  -999.2500  -999.2500  -999.2500
   38.5000  -999.2500  -999.2500  -999.2500    75.9453  -999.2500  -999.2500  -999.2500  -999.2500
   39.0000  -999.2500  -999.2500  -999.2500    76.2950  -999.2500  -999.2500  -999.2500  -999.2500
   39.5000  -999.2500  -999.2500  -999.2500    76.2046  -999.2500  -999.2500  -999.2500  -999.2500
   40.0000  -999.2500  -999.2500  -999.2500    75.8604  -999.2500  -999.2500  -999.2500  -999.2500
   40.5000  -999.2500  -999.2500  -999.2500    76.2918  -999.2500  -999.2500  -999.2500  -999.2500
   41.0000  -999.2500  -999.2500  -999.2500    76.9792  -999.2500  -999.2500  -999.2500  -999.2500
   41.5000  -999.2500  -999.2500  -999.2500    77.6698  -999.2500  -999.2500  -999.2500  -999.2500
   42.0000  -999.2500  -999.2500  -999.2500    78.1808  -999.2500  -999.2500  -999.2500  -999.2500
   42.5000  -999.2500  -999.2500  -999.2500    78.1685  -999.2500  -999.2500  -999.2500  -999.2500
   43.0000  -999.2500  -999.2500  -999.2500    78.0162  -999.2500  -999.2500  -999.2500  -999.2500
   43.5000  -999.2500  -999.2500  -999.2500    77.3139  -999.2500  -999.2500  -999.2500  -999.2500
   44.0000  -999.2500  -999.2500  -999.2500    76.7524  -999.2500  -999.2500  -999.2500  -999.2500
   44.5000  -999.2500  -999.2500  -999.2500    78.3174  -999.2500  -999.2500  -999.2500  -999.2500
   45.0000  -999.2500  -999.2500  -999.2500    79.8783     8.2610     2.0205     0.2938     0.1106
   45.5000  -999.2500  -999.2500  -999.2500    84.9404     8.5190     2.2330     0.2514     0.2105
   46.0000  -999.2500  -999.2500  -999.2500    92.0706     8.5348     2.4943     0.1414     0.1840
   46.5000  -999.2500  -999.2500  -999.2500    96.2916     8.5319     2.5154     0.1004     0.1483
   47.0000  -999.2500  -999.2500  -999.2500    98.4161     8.5299     2.4899     0.1113     0.1031
   47.5000  -999.2500  -999.2500  -999.2500   100.9890     8.5280     2.4685     0.1256     0.0598
   48.0000  -999.2500  -999.2500  -999.2500   100.5493     8.5262     2.4508     0.1396     0.0583
   48.5000  -999.2500  -999.2500  -999.2500    97.0788     8.5243     2.4490     0.1408     0.0586
   49.0000  -999.2500  -999.2500  -999.2500    95.0024     8.5225     2.4494     0.1408     0.0546
   49.5000  -999.2500  -999.2500  -999.2500    96.4889     8.5206     2.4497     0.1408     0.0488
   50.0000   -47.1115  -999.2500  -999.2500    96.8632     8.5188     2.4498     0.1408     0.0445
   50.5000   -47.1115  -999.2500  -999.2500    98.6095     8.5169     2.4470     0.1416     0.0453
   51.0000   -47.1115  -999.2500     7.3892   101.3742     8.5151     2.4443     0.1439     0.0460
   51.5000   -47.1279  -999.2500     7.3892   100.6628     8.5132     2.4416     0.1458     0.0467
   52.0000   -46.3360     7.6229     7.3892    99.5869     8.5114     2.4439     0.1438     0.0474
   52.5000   -45.2601     7.9497     7.4341    98.7968     8.5095     2.4534     0.1390     0.0481
   53.0000   -44.1679     8.3744     7.3887    98.6942     8.5077     2.4629     0.1283     0.0487
   53.5000   -43.8329     8.7521     7.4425    98.5321     8.5058     2.4707     0.1272     0.0494
   54.0000   -43.5369     9.1005     7.5370    98.0219     8.5040     2.4671     0.1293     0.0501
   54.5000   -43.5059     9.2287     7.6323    97.2693     8.5022     2.4635     0.1315     0.0525
   55.0000   -43.4886     9.3588     7.7288    96.4239     8.5003     2.4600     0.1329     0.0584
   55.5000   -43.4702     9.4907     7.8264    95.2113     8.4985     2.4599     0.1332     0.0634
   56.0000   -43.4512     9.6009     7.8928    90.3825     8.4966     2.4634     0.1282     0.0684
   56.5000   -43.4324     9.6821     7.9383    85.5279     8.4945     2.4858     0.1166     0.0713
   57.0000   -43.4134     9.7638     7.9842    86.9780     8.4912     2.4899     0.1142     0.0628
   57.5000   -43.3945     9.8463     8.0303    88.5916     8.4879     2.4914     0.1147     0.0604
   58.0000   -43.3756     9.9295     8.0767    90.5754     8.4846     2.4928     0.1141     0.0583
   58.5000   -43.3567    10.0134     8.1234    95.3515     8.4813     2.4937     0.1132     0.0562
   59.0000   -43.3379    10.0980     8.1703    96.0463     8.4780     2.4869     0.1171     0.0548
   59.5000   -43.3266    10.1833     8.2175    96.2167     8.4747     2.4793     0.1210     0.0566
   60.0000   -43.3267    10.2693     8.2649    96.9660     8.4713     2.4759     0.1248     0.0583
   60.5000   -43.3267    10.3560     8.3127    97.7305     8.4680     2.4751     0.1239     0.0600
   61.0000   -43.3267    10.4435     8.3607    97.8033     8.4647     2.4786     0.1217     0.0599
   61.5000   -43.3267    10.5318     8.4090    97.7178     8.4614     2.4826     0.1195     0.0589
   62.0000   -43.3267    10.5865     8.4575    97.6227     8.4581     2.4867     0.1173     0.0579
   62.5000   -43.3267    10.5865     8.5064    97.2327     8.4548     2.4891     0.1163     0.0569
   63.0000   -43.3267    10.5865     8.5555    96.3458     8.4515     2.4852     0.1190     0.0559
   63.5000   -43.3268    10.5864     8.6049    95.9314     8.4482     2.4796     0.1217     0.0549
   64.0000   -43.3270    10.5860     8.6461    94.7206     8.4448     2.4738     0.1243     0.0553
   64.5000   -43.3265    10.5676     8.6591    92.9795     8.4416     2.4692     0.1270     0.0564
   65.0000   -43.2986    10.5494     8.6721    92.0524     8.4382     2.4692     0.1284     0.0581
   65.5000   -43.1760    10.5311     8.6852    92.1628     8.4325     2.4744     0.1249     0.0649
   66.0000   -43.0577    10.5131     8.6982    92.3460     8.4171     2.4808     0.1208     0.0680
   66.5000   -42.9412    10.4951     8.7113    91.2946     8.4009     2.4857     0.1172     0.0668
   67.0000   -42.9100    10.3935     8.7228    91.7801     8.4461     2.4821     0.1176     0.0656
   67.5000   -42.8901    10.2574     8.6810    91.6484     8.5240     2.4753     0.1233     0.0648
   68.0000   -42.8702    10.1233     8.6431    91.3596     8.4989     2.4723     0.1262     0.0672
   68.5000   -42.8502     9.9910     8.6053    92.0927     8.4563     2.4694     0.1275     0.0696
   69.0000   -42.8301     9.8604     8.5678    92.8538     8.4166     2.4680     0.1288     0.0719
   69.5000   -42.8101     9.7315     8.5304    91.6446     8.4152     2.4699     0.1266     0.0775
   70.0000   -42.7900     9.6043     8.4932    90.7639     8.4413     2.4755     0.1236     0.0841
   70.5000   -42.7698     9.4778     8.4795    90.4061     8.4793     2.4816     0.1206     0.0874
   71.0000   -42.7489     9.3039     8.4723    90.3580     8.5147     2.4853     0.1183     0.0837
   71.5000   -42.7328     9.1346     8.4651    90.4074     8.5226     2.4884     0.1167     0.0800
   72.0000   -42.8798     9.1574     8.4579    89.9756     8.5296     2.4914     0.1150     0.0763
   72.5000   -43.0390     9.1799     8.4508    88.9772     8.5366     2.4943     0.1133     0.0727
   73.0000   -43.1973     9.2025     8.4436    88.1462     8.5437     2.4955     0.1116     0.0690
   73.5000   -43.3302     9.2401     8.4364    87.7166     8.5507     2.4939     0.1129     0.0624
   74.0000   -43.3271     9.3242     8.4293    88.3924     8.5484     2.4879     0.1157     0.0622
   74.5000   -43.3268     9.4081     8.4222    89.9247     8.5359     2.4823     0.1185     0.0618
   75.0000   -43.3270     9.4929     8.4155    91.3623     8.5237     2.4804     0.1200     0.0615
   75.5000   -43.3252     9.5784     8.4058    95.0993     8.5164     2.4795     0.1206     0.0612
   76.0000   -43.2790     9.6648     8.5908    95.8732     8.5228     2.4785     0.1213     0.0609
   76.5000   -43.2311     9.7519     8.8540    96.1832     8.5289     2.4786     0.1216     0.0607
   77.0000   -43.1845     9.8397     9.1254    95.8530     8.5350     2.4801     0.1202     0.0586
   77.5000   -43.1451     9.9284     9.3046    95.5206     8.5410     2.4816     0.1188     0.0563
   78.0000   -42.7496    10.0179     9.2911    95.1595     8.5471     2.4832     0.1181     0.0545
