~VERSION INFORMATION
 VERS.                2.0:   CWLS LOG ASCII STANDARD - VERSION 2.0
 WRAP.                 NO:   ONE LINE PER DEPTH STEP
~WELL INFORMATION
#MNEM.UNIT      DATA TYPE    INFORMATION
#----------   ------------   ------------------------------
 STRT.F          502.0000:   START DEPTH
 STOP.F         5661.0000:   STOP DEPTH
 STEP.F            0.5000:   STEP LENGTH
 NULL.          -999.2500:   NO VALUE
 COMP. FENIX & SCISSON INC:   COMPANY
 WELL.   NPR 3 #32DX22-22:   WELL
 FLD .             TEAPOT:   FIELD
 LOC .      S22 T38N R78W:   LOCATION
 CNTY.            NATRONA:   COUNTY
 STAT.            WYOMING:   STATE
 CTRY. UNITED STATES OF AMERICA:   COUNTRY
 SRVC.       Schlumberger:   SERVICE COMPANY
 DATE.        29-NOV-1978:   LOGDATE
 API .       490251073100:   API NUMBER
~CURVE INFORMATION
#MNEM.UNIT       API CODE    CURVE DESCRIPTION
#----------   ------------   ------------------------------
 DEPT.F                  :   
 SPR .MV     07 010 01 00:   SPONTANEOUS POTENTIAL
 GRR .GAPI   07 310 01 00:   GAMMA RAY FROM RES. LOG.
 SFL .OHMM   07 220 01 00:   SHALLOW FOCUSED LOG RESISTIVITY
 ILD .OHMM   07 120 46 00:   INDUCTION LOG DEEP
 ILM .OHMM   07 120 44 00:   INDUCTION LOG MEDIUM
 NPHI.DEC    42 890 03 00:   NEUTRON POROSITY SANDSTONE
 DPHI.DEC    45 890 12 00:   DENSITY POROSITY SANDSTONE
 RHOB.G/C3   45 350 01 00:   BULK DENSITY
 CORR.G/C3   45 356 01 00:   DENSITY CORRECTION
 CALD.IN     45 280 60 00:   CALIPER
~PARAMETER INFORMATION
#MNEM.UNIT          VALUE    DESCRIPTION
#----------   ------------   ------------------------------
 PD  .                 GL:   PERMANENT DATUM
 EPD .F              5514:   ELEVATION PERMANENT DATUM
 LMF .                 KB:   LOG MEASURED FROM
 DAPD.F                10:   FEET ABOVE PERMANENT DATUM
 DMF .                 KB:   DRILLING MEASURED FROM
 EKB .F              5524:   KELLING BUSHING
 EGL .F              5514:   GROUND LEVEL
 DATE.           11-29-78:   RUN DATE
 RUN .                  1:   RUN NUMBER
 DD  .F              5680:   DEPTH DRILLER
 DL  .F              5667:   DEPTH LOGGER
 BLI .F              5661:   BOTTOM LOG INTERVAL
 TLI .F               530:   TOP LOG INTERVAL
 CS  .IN            8.625:   CASING SIZE
 CBD .F               513:   CASING BOTTOM DRILLER
 CBL .F               530:   CASING BOTTOM LOGGER
 BS  .IN            7.875:   BIT SIZE
 BSD .F              5680:   BIT SIZE AT DEPTH
 DFT .                FGM:   DRILLING FLUID TYPE
 DFD .                9.2:   DRILLING FLUID DENSITY
 DFV .                 50:   DRILLING FLUID VISCOSITY
 DFPH.               11.5:   DRILLING FLUID PH
 DFL .                6.8:   DRILLING FLUID LOSS
 MSS .               TANK:   MUD SAMPLE SOURCE
 RMS .OHMM           1.45:   RESISTIVITY MUD SAMPLE
 MST .F                56:   MUD SAMPLE TEMPERATURE
 RMF .OHMM           1.16:   RESISTIVITY MUD FILTRATE SAMPLE
 MFST.F                56:   MUD FILTRATE SAMPLE TEMPERATURE
 MFSS.               MEAS:   MUD FILTRATE SAMPLE SOURCE
 RMB .OHMM            .62:   RESISTIVITY MUD AT BHT
 BHT .F               132:   BOTTOM HOLE TEMPERATURE
 TCS .HRS            0700:   TIME CURCULATED STOPPED
 TLAB.HRS            1200:   TIME LOGGER AT BOTTOM
 MRT .F               132:   MAXIMUM RECORDED TEMPERATURE
 LUN .               8039:   LOGGING UNIT NUMBER
 LUL .               CSPR:   LOGGING UNIT LOCATION
 ENGI.           STADULIS:   RECORDING ENGINEER
 WITN.           DINSMORE:   WITNESSED BY
 CLNT.            A2DTECH:   CLIENT CODE
 ORIG.       2", 5" PRINT:   ORIGIN OF DATA
 UWI .       490251073100:   UNIQUE WELL ID
 DICO. A2D Technologies, Inc.:   DIGITIZING COMPANY
~OTHER INFORMATION
~A   DEPT      SPR         GRR       SFL        ILD        ILM       NPHI       DPHI       RHOB       CORR       CALD   
# ...
 3584.0000   -49.1293   130.1736    10.4979     8.7104     8.9477     0.3149     0.0894     2.5248     0.0233     8.7429
 3584.5000   -49.1834   128.3773    10.7685     8.8074     9.0045     0.3144     0.0829     2.5326     0.0272     8.7429
 3585.0000   -49.4512   126.0097    11.0837     8.9054     9.0624     0.3100     0.0748     2.5263     0.0251     8.7429
 3585.5000   -49.7774   123.6318    11.4087     9.0047     9.1475     0.3065     0.0701     2.5185     0.0192     8.7429
 3586.0000   -50.1096   121.9177    11.7432     9.1049     9.2491     0.3027     0.0739     2.5132     0.0134     8.7429
 3586.5000   -49.9695   123.9448    11.9591     9.2064     9.3574     0.2989     0.0800     2.5168     0.0077     8.7429
 3587.0000   -49.5162   129.4523    11.8490     9.3228     9.4973     0.2952     0.0825     2.5150     0.0051     8.7429
 3587.5000   -49.0600   136.0309    11.7390     9.4501     9.6392     0.2980     0.0803     2.5060     0.0023     8.7429
 3588.0000   -48.6029   136.5642    11.7384     9.5937     9.7715     0.2994     0.0815     2.4968     0.0030     8.7429
 3588.5000   -48.1866   131.3399    12.0468     9.5836     9.7587     0.3082     0.0882     2.4908     0.0039     8.7429
 3589.0000   -48.1797   124.2264    12.2932     9.5723     9.7468     0.3110     0.0970     2.4949     0.0068     8.7429
 3589.5000   -48.1813   120.6603    12.2098     9.5609     9.7350     0.3071     0.0970     2.4976     0.0106     8.7429
 3590.0000   -48.1832   119.5942    12.0331     9.5496     9.7231     0.3031     0.0922     2.4942     0.0094     8.7438
 3590.5000   -48.0363   122.4893    11.7907     9.5383     9.7113     0.3026     0.0928     2.4909     0.0069     8.7495
 3591.0000   -47.7944   128.5021    11.5533     9.5270     9.6997     0.3015     0.0955     2.4883     0.0037     8.7552
 3591.5000   -47.5864   134.3841    11.5278     9.5156     9.6822     0.2994     0.0982     2.4922     0.0023     8.7609
 3592.0000   -47.7784   134.4125    11.5278     9.5060     9.7442     0.2982     0.0959     2.4961     0.0047     8.7666
 3592.5000   -47.9802   127.5900    11.5278     9.6576     9.8617     0.2980     0.0923     2.5039     0.0093     8.7723
 3593.0000   -48.3875   122.3221    11.8031     9.7912     9.9783     0.2978     0.0872     2.5128     0.0168     8.7779
 3593.5000   -48.8133   119.8856    12.2737     9.9267    10.0974     0.2986     0.0821     2.5219     0.0245     8.7836
 3594.0000   -49.2387   118.0505    12.7630    10.0641    10.2141     0.2998     0.0770     2.5256     0.0256     8.7893
 3594.5000   -49.6640   116.8148    13.1169    10.2033    10.3302     0.3020     0.0741     2.5264     0.0243     8.7949
 3595.0000   -50.0897   116.1933    13.2122    10.3445    10.4477     0.3010     0.0757     2.5206     0.0219     8.8007
 3595.5000   -50.5245   113.9880    13.2295    10.4877    10.5664     0.3002     0.0818     2.5105     0.0196     8.8073
 3596.0000   -50.6290   109.3359    13.2338    10.5324    10.6379     0.2973     0.0873     2.5045     0.0173     8.8151
 3596.5000   -50.6666   105.5013    12.7401    10.5524    10.6784     0.2942     0.0877     2.5052     0.0150     8.8230
 3597.0000   -50.7031   105.1528    12.4086    10.5725    10.7191     0.2979     0.0847     2.5107     0.0134     8.8308
 3597.5000   -50.7421   105.5278    12.5210    10.5926    10.7598     0.3025     0.0811     2.5163     0.0146     8.8386
 3598.0000   -50.7794   106.5514    13.0155    10.6134    10.8102     0.3067     0.0788     2.5205     0.0158     8.8439
 3598.5000   -50.6914   108.8367    13.3523    10.2046    10.4979     0.3042     0.0772     2.5227     0.0170     8.8425
 3599.0000   -49.9808   109.2790    13.0397     9.8992    10.1067     0.2973     0.0777     2.5200     0.0159     8.8412
 3599.5000   -49.2857   108.0127    12.3156     9.6659     9.8766     0.2907     0.0822     2.5100     0.0141     8.8399
 3600.0000   -49.0212   107.1784    11.5566     9.4382     9.6798     0.2880     0.0868     2.5066     0.0124     8.8386
 3600.5000   -48.8381   109.2673    10.8102     9.2140     9.4870     0.2910     0.0878     2.5109     0.0105     8.8373
 3601.0000   -48.5786   111.3291    10.7281     9.1466     9.3276     0.2974     0.0769     2.5265     0.0157     8.8361
 3601.5000   -48.7621   112.5968    10.7113     9.1232     9.2987     0.3024     0.0665     2.5471     0.0232     8.8348
 3602.0000   -48.9380   111.8755    10.9560     9.1009     9.2699     0.3093     0.0560     2.5636     0.0307     8.8335
 3602.5000   -48.8977   111.6458    11.4961     9.0786     9.2411     0.3156     0.0456     2.5765     0.0382     8.8322
 3603.0000   -48.5916   112.1677    11.7415     9.0562     9.2125     0.3175     0.0440     2.5762     0.0392     8.8309
 3603.5000   -48.2881   112.3900    11.5088     9.0339     9.1840     0.3179     0.0503     2.5639     0.0365     8.8297
 3604.0000   -48.3071   112.5204    10.9681     9.0113     9.0862     0.3086     0.0563     2.5518     0.0321     8.8284
 3604.5000   -48.8841   113.5995    10.6134     8.9969     9.1222     0.3040     0.0623     2.5399     0.0272     8.8271
 3605.0000   -49.4467   117.8237    10.7290     9.0401     9.1850     0.2990     0.0692     2.5280     0.0216     8.8258
 3605.5000   -49.9879   121.9751    10.8328     9.0739     9.2477     0.3016     0.0768     2.5176     0.0143     8.8245
 3606.0000   -50.0870   123.6956    10.9376     9.2950     9.5003     0.3104     0.0817     2.5142     0.0137     8.8248
 3606.5000   -50.1678   124.6963    11.3149     9.5596     9.7715     0.3175     0.0821     2.5158     0.0134     8.8265
 3607.0000   -50.2507   125.2759    12.3627     9.7159     9.8558     0.3187     0.0821     2.5126     0.0130     8.8283
 3607.5000   -50.3341   124.3656    13.4869     9.7727     9.9474     0.3087     0.0844     2.5117     0.0126     8.8301
 3608.0000   -50.4176   121.8466    13.1708     9.8317    10.0399     0.2993     0.0846     2.5159     0.0122     8.8319
 3608.5000   -50.5010   120.1386    12.6876     9.8913    10.1332     0.2924     0.0819     2.5199     0.0129     8.8336
 3609.0000   -50.5876   122.3959    12.2292     9.9524    10.2306     0.2887     0.0793     2.5219     0.0195     8.8354
 3609.5000   -50.6080   124.9319    11.9591     9.9381    10.2647     0.2937     0.0779     2.5175     0.0257     8.8372
 3610.0000   -50.5981   126.1742    12.7883     9.9223    10.2997     0.3002     0.0798     2.5064     0.0252     8.8390
 3610.5000   -50.3442   127.3897    13.2303     9.9069    10.3244     0.3002     0.0873     2.4951     0.0170     8.8407
 3611.0000   -50.0838   127.4188    13.2303     9.8916    10.1878     0.2940     0.0962     2.4959     0.0119     8.8425
 3611.5000   -49.8248   122.3815    12.7693     9.8765    10.0837     0.2871     0.0951     2.5126     0.0126     8.8443
 3612.0000   -49.5661   115.6564    12.3053     9.8628    10.0445     0.2861     0.0808     2.5290     0.0204     8.8460
 3612.5000   -49.3074   109.0350    12.0695     9.9036    10.0445     0.2927     0.0712     2.5354     0.0181     8.8478
 3613.0000   -49.0486   105.6851    12.0695     9.9527    10.0444     0.2974     0.0704     2.5309     0.0143     8.8496
 3613.5000   -48.7897   105.1155    12.4776     9.9164    10.0448     0.3002     0.0736     2.5254     0.0104     8.8514
 3614.0000   -48.5311   106.2662    12.9220     9.8687    10.0455     0.2946     0.0781     2.5165     0.0063     8.8531
 3614.5000   -48.2694   108.9684    12.9895     9.8214     9.9819     0.2906     0.0839     2.5045     0.0028     8.8549
 3615.0000   -48.1828   111.2897    12.7531     9.7715     9.9315     0.2880     0.0891     2.5028    -0.0007     8.8567
 3615.5000   -48.1799   112.6970    12.2999     9.6544     9.8813     0.2894     0.0895     2.5074     0.0006     8.8585
 3616.0000   -48.4502   112.4891    11.7221     9.5006     9.8314     0.2897     0.0791     2.5399     0.0110     8.8602
 3616.5000   -48.9375   107.7316    11.1714     9.4187     9.7820     0.2852     0.0606     2.5571     0.0258     8.8620
 3617.0000   -49.3908   103.7539    10.6466     9.4204     9.7335     0.2801     0.0488     2.5644     0.0326     8.8638
