~VERSION INFORMATION
 VERS.                2.0:   CWLS LOG ASCII STANDARD - VERSION 2.0
 WRAP.                 NO:   ONE LINE PER DEPTH STEP
~WELL INFORMATION
#MNEM.UNIT      DATA TYPE    INFORMATION
#----------   ------------   ------------------------------
 STRT.F            0.0000:   START DEPTH
 STOP.F          504.0000:   STOP DEPTH
 STEP.F            0.5000:   STEP LENGTH
 NULL.          -999.2500:   NO VALUE
 COMP.       F D SERV INC:   COMPANY
 WELL. NAVAL PETROLEUM RESERVE 3 SX-1 #72-2-10:   WELL
 FLD .      nN. P. R. NO3:   FIELD
 LOC .      S10 T38N R78W:   LOCATION
 CNTY.            NATRONA:   COUNTY
 STAT.            WYOMING:   STATE
 CTRY. UNITED STATES OF AMERICA:   COUNTRY
 SRVC.     Atlas Wireline:   SERVICE COMPANY
 DATE.        09-DEC-1992:   LOGDATE
 API .       490252257300:   API NUMBER
~CURVE INFORMATION
#MNEM.UNIT       API CODE    CURVE DESCRIPTION
#----------   ------------   ------------------------------
 DEPT.F                  :   
 GRR .GAPI   07 310 01 00:   GAMMA RAY
 RILD.OHMM   07 120 46 00:   INDUCTION LOG DEEP RESISTIVITY
 RILM.OHMM   07 120 44 00:   RESITIVITY LONG MEDIUM
~PARAMETER INFORMATION
#MNEM.UNIT          VALUE    DESCRIPTION
#----------   ------------   ------------------------------
 PD  .                 GL:   PERMANENT DATUM
 EPD .F              5169:   ELEVATION PERMANENT DATUM
 LMF .                 KB:   LOG MEASURED FROM
 DAPD.F                10:   FEET ABOVE PERMANENT DATUM
 DMF .                 KB:   DRILLING MEASURED FROM
 EKB .F              5179:   KELLING BUSHING
 EDF .F              5178:   DRILLING FLOOR
 EGL .F              5169:   GROUND LEVEL
 DATE.        09-DEC-1992:   RUN DATE
 RUN .                  1:   RUN NUMBER
 DD  .F               525:   DEPTH DRILLER
 DL  .F               519:   DEPTH LOGGER
 BLI .F               510:   BOTTOM LOG INTERVAL
 CS  .IN            8.625:   CASING SIZE
 CBD .F                83:   CASING BOTTOM DRILLER
 CBL .F                84:   CASING BOTTOM LOGGER
 BS  .IN            7.875:   BIT SIZE
 BSD .F               525:   BIT SIZE AT DEPTH
 DFT .           AIR FOAM:   DRILLING FLUID TYPE
 BHT .F                64:   BOTTOM HOLE TEMPERATURE
 MRT .F                64:   MAXIMUM RECORDED TEMPERATURE
 LUN .           HL- 6274:   LOGGING UNIT NUMBER
 LUL .             CASPER:   LOGGING UNIT LOCATION
 ENGI.       P. RASMUSSEN:   RECORDING ENGINEER
 WITN.          G. STRONG:   WITNESSED BY
 CLNT.            A2DTECH:   CLIENT CODE
 ORIG.           5" PRINT:   ORIGIN OF DATA
 UWI .       490252257300:   UNIQUE WELL ID
 DICO. A2D Technologies, Inc.:   DIGITIZING COMPANY
~OTHER INFORMATION
~A    DEPT      GRR      RILD       RILM   
# ...
   91.0000   136.4458     5.2253     6.7215
   91.5000   138.5542     5.1531     7.5597
   92.0000   140.3615     5.4728     7.3892
   92.5000   139.6988     6.1688     6.7408
   93.0000   134.1285     6.7963     6.1801
   93.5000   128.9157     6.9869     5.9686
   94.0000   127.1084     6.7954     5.9674
   94.5000   127.7108     6.2531     5.8032
   95.0000   129.2169     5.7541     5.6435
   95.5000   131.3253     5.5579     5.5264
   96.0000   134.9398     5.4811     5.4871
   96.5000   136.1446     5.5188     5.4481
   97.0000   136.4618     5.5184     5.4849
   97.5000   138.2530     5.4798     5.5219
   98.0000   137.6506     5.6334     5.6755
   98.5000   133.7349     5.7117     5.7141
   99.0000   131.0241     5.6718     5.6732
   99.5000   128.9157     5.7108     5.7115
  100.0000   128.3132     5.9116     5.8707
  100.5000   132.5269     6.1195     5.9931
  101.0000   135.8372     6.2909     6.1598
  101.5000   137.6415     6.4672     6.3316
  102.0000   135.0883     6.6062     6.4661
  102.5000   128.8504     6.8410     6.6510
  103.0000   129.1983     7.1240     6.8757
  103.5000   131.6050     7.2732     7.0677
  104.0000   134.9153     7.3740     7.2143
  104.5000   135.8167     7.4763     7.3138
  105.0000   131.2949     7.5278     7.4139
  105.5000   130.9915     7.5796     7.4643
  106.0000   132.1927     7.5791     7.5142
  106.5000   133.0933     7.5785     7.5127
  107.0000   135.5603     7.5780     7.5634
  107.5000   140.4167     7.5775     7.5618
  108.0000   139.7103     7.5770     7.6128
  108.5000   137.9001     7.5241     7.6109
  109.0000   137.5960     7.5760     7.6626
  109.5000   138.4967     7.5753     7.6607
  110.0000   140.3010     7.6276     7.6591
  110.5000   139.3944     7.6801     7.7108
  111.0000   136.3794     7.7865     7.7862
  111.5000   136.6777     7.8947     7.8695
  112.0000   136.9760     8.0042     7.9776
  112.5000   133.0572     8.1716     8.0872
  113.0000   130.3428     8.3480     8.2553
  113.5000   131.5447     8.5762     8.4265
  114.0000   135.4574     8.6954     8.6017
  114.5000   138.7678     8.8771     8.7804
  115.0000   139.9696     8.9384     9.0252
  115.5000   136.9546     9.1253     9.2769
  116.0000   132.4336     9.2519     9.4697
  116.5000   130.0211     9.4455     9.5998
  117.0000   131.2229     9.6431     9.7993
  117.5000   131.5212     9.8449     9.8768
  118.0000   128.8067     9.9833    10.0705
  118.5000   125.7917    10.1988    10.3507
  119.0000   123.0779    10.4757    10.4930
  119.5000   121.8709    10.6950    10.7111
  120.0000   123.0720    10.9188    10.8588
  120.5000   124.5751    11.1471    11.0080
  121.0000   124.2710    11.3020    11.2363
  121.5000   123.0632    11.4586    11.3906
  122.0000   119.4056    11.6984    11.4727
  122.5000   116.1296    11.6976    11.6384
  123.0000   119.1380    11.6968    11.7035
  123.5000   120.6418    11.6153    11.5396
  124.0000   118.2285    11.5343    11.3785
  124.5000   115.5147    11.5334    11.3762
  125.0000   117.3190    11.4530    11.2954
  125.5000   116.7137    11.2947    11.1378
  126.0000   117.6144    11.2940    10.9824
  126.5000   120.0211    11.1379    10.9044
  127.0000   122.4880    11.0602    10.7522
  127.5000   124.2821    10.9832    10.6758
  128.0000   123.6260    10.7566    10.5995
  128.5000   120.3098    10.6817    10.5973
  129.0000   119.4032    10.6809    10.5952
  129.5000   120.3039    10.6802    10.5930
  130.0000   123.0118    10.8283    10.7386
  130.5000   127.5269    10.9787    10.8867
  131.0000   126.6204    11.1311    10.8839
  131.5000   120.5934    10.9770    10.8817
  132.0000   115.7108    10.7506    10.7249
  132.5000   112.4548    10.6757    10.5801
  133.0000   114.5597    10.5281    10.4320
  133.5000   117.5688    10.4548    10.3579
  134.0000   120.8791    10.3810    10.2843
  134.5000   121.4793    10.1603    10.1408
  135.0000   121.4757     9.8892     9.9993
  135.5000   120.2679     9.6852     9.8598
  136.0000   119.9638     9.6177     9.6551
  136.5000   120.2620     9.5507     9.5865
  137.0000   122.1466     9.5500     9.5184
  137.5000   126.6315     9.5494     9.5164
  138.0000   126.8797     9.5487     9.4484
  138.5000   125.0688     9.5481     9.4465
  139.0000   122.6562     9.4815     9.3794
  139.5000   120.5449     9.3505     9.2485
  140.0000   119.0359     9.2768     9.1829
  140.5000   120.8409     9.1569     9.1176
  141.0000   121.1386     9.0930     9.0529
  141.5000   120.8343     9.0297     8.9886
  142.0000   120.5301     9.0920     9.1163
  142.5000   122.0833     9.2180     9.2479
  143.0000   122.3315     9.3459     9.4293
  143.5000   120.2194     9.4756     9.5584
  144.0000   116.9032     9.4750     9.3600
  144.5000   111.4786     9.3440     9.2935
  145.0000   110.5720     9.3477     9.2916
  145.5000   114.1836     9.4077     9.3547
  146.0000   118.9999     9.4069     9.3524
  146.5000   122.0090     9.4062     9.2859
  147.0000   122.6085     9.2762     9.2200
  147.5000   121.0492     9.1480     9.1439
  148.0000   119.5898     9.0216     8.8407
  148.5000   118.9845     8.7140     8.4792
  149.0000   119.2827     8.4168     8.0763
  149.5000   121.0870     8.0737     7.8541
  150.0000   128.0121     7.8526     7.6380
  150.5000   131.3875     7.7370     7.6903
  151.0000   132.5301     7.6335     7.5832
  151.5000   131.0241     7.5264     7.4779
  152.0000   124.0964     7.5244     7.4219
  152.5000   118.9759     7.4704     7.3730
  153.0000   119.2771     7.5208     7.4233
  153.5000   121.9880     7.5711     7.5779
  154.0000   123.7952     7.7811     7.7362
  154.5000   127.4096     7.9423     7.7889
  155.0000   131.9377     7.9401     7.8419
  155.5000   132.8313     7.9379     7.8954
  156.0000   129.8193     7.9423     7.9489
  156.5000   125.9036     8.0438     8.0030
  157.0000   127.4096     8.1538     8.1699
  157.5000   130.7229     8.2088     8.2256
  158.0000   134.0361     8.3783     8.2816
  158.5000   135.2410     8.4342     8.3381
  159.0000   133.1325     8.4906     8.3949
  159.5000   128.0121     8.6066     8.4521
  160.0000   125.8635     8.6641     8.5094
  160.5000   122.7380     8.6617     8.5082
  161.0000   121.9880     8.6588     8.5071
  161.5000   125.3012     8.6565     8.4472
  162.0000   129.5181     8.5944     8.4461
  162.5000   130.7229     8.4739     8.3866
  163.0000   131.0241     8.3551     8.2699
  163.5000   131.0241     8.2380     8.1551
  164.0000   129.8193     8.1789     8.1539
  164.5000   128.0121     8.1767     8.1528
  165.0000   128.6747     8.1745     8.1517
  165.5000   129.8193     8.2863     8.2643
  166.0000   127.4096     8.3416     8.3207
  166.5000   128.3132     8.3388     8.3773
  167.0000   130.7229     8.3365     8.3762
  167.5000   129.5181     8.3928     8.4332
  168.0000   124.6988     8.4488     8.4318
  168.5000   124.0432     8.4460     8.4307
  169.0000   127.1084     8.5024     8.4295
  169.5000   128.6235     8.4396     8.3702
  170.0000   129.8594     8.3230     8.2540
  170.5000   131.0241     8.2058     8.1394
  171.0000   131.3253     8.1470     8.1383
  171.5000   130.1205     8.0886     8.1937
  172.0000   126.2048     8.0864     8.1323
  172.5000   125.0000     8.0284     8.0230
  173.0000   125.9036     7.9158     8.0217
  173.5000   126.5060     7.8591     7.9653
  174.0000   127.1084     7.8027     7.9092
  174.5000   126.4869     7.6899     7.7456
  175.0000   123.6948     7.5767     7.5329
  175.5000   122.2892     7.3757     7.3262
  176.0000   120.1807     7.2221     7.0759
  176.5000   119.8795     6.9263     6.8816
  177.0000   122.5904     6.6426     6.5521
  177.5000   126.5060     6.3266     6.3238
  178.0000   131.0241     6.1949     6.2430
  178.5000   131.3253     6.1932     6.2422
  179.0000   131.6265     6.3215     6.2849
  179.5000   128.4980     6.4567     6.4158
  180.0000   123.1928     6.6314     6.5496
  180.5000   126.8072     6.7688     6.7326
  181.0000   131.0241     6.9091     6.9208
  181.5000   135.2410     7.0522     7.2134
