~VERSION INFORMATION
 VERS.                2.0:   CWLS LOG ASCII STANDARD - VERSION 2.0
 WRAP.                 NO:   ONE LINE PER DEPTH STEP
~WELL INFORMATION
#MNEM.UNIT      DATA TYPE    INFORMATION
#----------   ------------   ------------------------------
 STRT.F           12.0000:   START DEPTH
 STOP.F          549.0000:   STOP DEPTH
 STEP.F            0.5000:   STEP LENGTH
 NULL.          -999.2500:   NO VALUE
 COMP. LAWRENCE/ALLISON INC:   COMPANY
 WELL.  58-64-1 SX 3 #3-3:   WELL
 FLD .             TEAPOT:   FIELD
 LOC .       S3 T38N R78W:   LOCATION
 CNTY.            NATRONA:   COUNTY
 STAT.            WYOMING:   STATE
 CTRY. UNITED STATES OF AMERICA:   COUNTRY
 SRVC.      Dresser Atlas:   SERVICE COMPANY
 DATE.        05-DEC-1984:   LOGDATE
 API .       490251117800:   API NUMBER
~CURVE INFORMATION
#MNEM.UNIT       API CODE    CURVE DESCRIPTION
#----------   ------------   ------------------------------
 DEPT.F                  :   
 RFOC.OHMM   07 220 04 00:   RESISTIVITY FOCUSED LOG
 RILD.OHMM   07 120 46 00:   INDUCTION LOG DEEP RESISTIVITY
 RILM.OHMM   07 120 44 00:   INDUCTION LOG MEDIUM RESISTIVITY
 SPR .MV     07 010 01 00:   SPONTANEOUS POTENTIAL
 CALD.IN     45 280 60 00:   CALIPER FROM DENSITY LOG
 CNC .DEC    42 890 03 00:   NEUTRON POROSITY SANDSTONE
 CORR.G/C3   45 356 01 00:   DENSITY CORRECTION
 DEN .G/C3   45 350 01 00:   COMPENSATED BULK DENSTIY
 GRD .GAPI   45 310 01 00:   GAMMA RAY FROM DENSITY LOG
 PORD.DEC    45 890 12 00:   POROSITY DENSITY SANDSTONE
 DT  .US/F   60 520 00 00:   INTERVAL TRANSIT TIME
~PARAMETER INFORMATION
#MNEM.UNIT          VALUE    DESCRIPTION
#----------   ------------   ------------------------------
 PD  .                 GL:   PERMANENT DATUM
 EPD .F              5188:   ELEVATION PERMANENT DATUM
 LMF .                 KB:   LOG MEASURED FROM
 DMF .                 KB:   DRILLING MEASURED FROM
 EGL .F              5188:   GROUND LEVEL
 DATE.         5-DEC-1984:   RUN DATE
 RUN .                  1:   RUN NUMBER
 DD  .F               556:   DEPTH DRILLER
 DL  .F               551:   DEPTH LOGGER
 BLI .F               549:   BOTTOM LOG INTERVAL
 CS  .IN            8.625:   CASING SIZE
 CBD .F                20:   CASING BOTTOM DRILLER
 CBL .F                20:   CASING BOTTOM LOGGER
 BS  .IN            7.875:   BIT SIZE
 BSD .F               556:   BIT SIZE AT DEPTH
 DFT .          KCL WATER:   DRILLING FLUID TYPE
 MSS .           FLOWLINE:   MUD SAMPLE SOURCE
 RMS .OHMM            .36:   RESISTIVITY MUD SAMPLE
 MST .F                70:   MUD SAMPLE TEMPERATURE
 RMF .OHMM            .26:   RESISTIVITY MUD FILTRATE SAMPLE
 MFST.F                70:   MUD FILTRATE SAMPLE TEMPERATURE
 RMC .OHMM            .46:   RESISTIVITY MUD CAKE
 MCST.F                70:   MUD CAKE SAMPLE TEMPERATURE
 MFSS.               CALC:   MUD FILTRATE SAMPLE SOURCE
 MCSS.               CALC:   MUD CAKE SAMPLE SOURCE
 RMB .OHMM            .29:   RESISTIVITY MUD AT BHT
 BHT .F                85:   BOTTOM HOLE TEMPERATURE
 TCS .HRS               3:   TIME CURCULATED STOPPED
 MRT .F               100:   MAXIMUM RECORDED TEMPERATURE
 LUN .               6274:   LOGGING UNIT NUMBER
 LUL .               GLTE:   LOGGING UNIT LOCATION
 ENGI.             RAUTIO:   RECORDING ENGINEER
 WITN.       GROOMS/LUERS:   WITNESSED BY
 CLNT.            A2DTECH:   CLIENT CODE
 ORIG.         2.5" PRINT:   ORIGIN OF DATA
 UWI .       490251117800:   UNIQUE WELL ID
 DICO. A2D Technologies, Inc.:   DIGITIZING COMPANY
~OTHER INFORMATION
~A   DEPT     RFOC       RILD       RILM        SPR       CALD        CNC       CORR        DEN         GRD      PORD         DT   
# ...
  286.5000    29.4465    28.6936    27.4693   -50.7360     8.0826     0.2486    -0.0022     2.3629    76.6738     0.1884    99.7285
  287.0000    29.0277    28.6799    27.0787   -50.7480     8.0831     0.2555     0.0063     2.3549    78.5471     0.1932   102.4434
  287.5000    28.6150    28.2701    26.3248   -50.7599     8.0835     0.2612     0.0295     2.3482    80.0659     0.1993   102.5943
  288.0000    28.2080    28.2566    24.4924   -51.0760     8.0839     0.2659     0.0458     2.3398    80.9240     0.2018   100.9351
  288.5000    27.4227    27.4364    22.5208   -51.4164     8.0844     0.2681     0.0401     2.3455    79.7047     0.1957    98.9744
  289.0000    26.2909    25.9089    21.3396   -51.7082     8.0848     0.2668     0.0268     2.3621    77.8780     0.1836    98.0694
  289.5000    25.2058    24.4665    21.3307   -52.0243     8.0853     0.2633     0.0262     2.3767    77.8750     0.1750    97.4661
  290.0000    21.9230    22.3699    21.3816   -52.1580     8.0857     0.2585     0.0368     2.4020    77.8720     0.1676    97.6169
  290.5000    21.0182    20.7555    21.9880   -53.2644     8.0861     0.2531     0.0415     2.4142    79.0849     0.1616    97.7677
  291.0000    21.3039    20.8917    22.5245   -53.5805     8.0866     0.2483     0.0322     2.4121    81.5135     0.1589    97.9185
  291.5000    21.5936    21.4075    22.8308   -53.5927     8.0870     0.2457     0.0217     2.4066    83.3342     0.1628    98.0694
  292.0000    21.8871    21.6102    22.7063   -53.2988     8.0875     0.2495     0.0156     2.3950    86.3708     0.1694    98.2202
  292.5000    21.5482    21.1893    21.9408   -53.3131     8.0879     0.2472     0.0186     2.3935    88.8197     0.1673    98.2202
  293.0000    20.9370    20.7050    21.2685   -53.1915     8.0883     0.2417     0.0277     2.4037    89.4043     0.1632    97.9185
  293.5000    20.6762    20.6949    21.1186   -53.0334     8.0888     0.2351     0.0368     2.4113    86.2361     0.1595    97.7632
  294.0000    20.6676    20.6849    21.2508   -53.0456     8.0892     0.2303     0.0398     2.4189    85.1431     0.1572    97.6008
  294.5000    20.7299    20.9644    21.2419   -53.0578     8.0896     0.2324     0.0276     2.4098    87.1946     0.1594    97.3037
  295.0000    20.9409    20.9542    21.5305   -53.0723     8.0891     0.2396     0.0185     2.4037    88.7845     0.1628    97.3303
  295.5000    21.0252    21.2375    22.1272   -53.0842     8.0887     0.2483     0.0245     2.4007    86.0131     0.1658    97.6169
  296.0000    21.3223    21.5228    22.7437   -53.4001     8.0882     0.2549     0.0336     2.3946    83.5258     0.1683    97.5726
  296.5000    21.7452    22.4294    23.7018   -53.4120     8.0775     0.2564     0.0333     2.3900    81.4802     0.1707    97.1388
  297.0000    22.5478    24.3705    25.0480   -54.0318     8.0571     0.2549     0.0149     2.3885    81.4772     0.1720    96.9553
  297.5000    23.6692    26.8506    27.5989   -54.6516     8.0566     0.2478     0.0164     2.3932    82.3556     0.1714    95.7361
  298.0000    25.9539    28.3737    28.3660   -54.6636     8.0260     0.2310     0.0309     2.4020    85.1104     0.1666    92.2571
  298.5000    28.1795    28.7575    27.9626   -54.6755     8.0255     0.2084     0.0298     2.4269    87.2654     0.1491    88.7780
  299.0000    28.5061    28.3466    27.5650   -54.6874     8.0553     0.1942     0.0175     2.4642    89.1125     0.1299    85.2990
  299.5000    27.9379    28.3331    26.7976   -54.3954     8.0547     0.1911     0.0074     2.4915    89.9726     0.1107    81.7798
  300.0000    27.1601    27.9283    26.0516   -54.4073     8.0544     0.2089     0.0030     2.5011    88.7533     0.1009    82.0815
  300.5000    26.3976    27.1331    23.9288   -53.8113     8.0539     0.2200     0.0257     2.4704    87.0113     0.1123    84.4115
  301.0000    25.2608    26.3605    22.0272   -53.7994     8.0535     0.2278     0.0462     2.4461    85.0806     0.1381    86.5008
  301.5000    22.2366    25.6549    21.4081   -53.5312     8.0530     0.2314     0.0500     2.4188    82.6371     0.1550    89.9993
  302.0000    19.9228    25.2118    20.2395   -53.5441     8.0526     0.2341     0.0362     2.4006    81.4093     0.1640    93.4840
  302.5000    19.1160    23.1305    18.8703   -53.5574     8.0521     0.2384     0.0392     2.3885    80.1816     0.1694    95.9917
  303.0000    18.6093    20.7348    18.3437   -53.5684     8.0517     0.2439     0.0453     2.3870    81.9934     0.1716    96.7391
  303.5000    18.3091    19.9514    17.8317   -53.5805     8.0512     0.2501     0.0321     2.3885    84.4131     0.1721    97.1802
  304.0000    18.0836    19.9929    17.5768   -53.5927     8.0508     0.2536     0.0063     2.3915    85.0091     0.1715    97.4842
  304.5000    17.8263    20.2175    17.5684   -53.6049     8.0503     0.2557    -0.0091     2.3976    84.9717     0.1706    97.7881
  305.0000    17.8188    19.9306    17.5599   -53.6170     8.0498     0.2523     0.0042     2.3944    84.3769     0.1711    97.9185
  305.5000    17.8114    19.8580    17.5515   -53.6292     8.0494     0.2417     0.0017     2.3865    85.0486     0.1738    97.9185
  306.0000    17.8040    19.5710    17.5430   -53.6413     8.0489     0.2399    -0.0030     2.3794    86.8855     0.1773    97.9185
  306.5000    17.8613    19.2880    17.7804   -53.6535     8.0485     0.2440     0.0001     2.3794    89.4570     0.1804    97.7383
  307.0000    18.0394    19.0092    18.0208   -53.5522     8.0480     0.2508     0.0030     2.3812    91.0167     0.1787    97.5535
  307.5000    18.2845    18.8189    18.5202   -53.3715     8.0778     0.2548     0.0121     2.3858    88.8247     0.1740    97.3152
  308.0000    18.5331    18.8124    18.7706   -53.0821     8.0773     0.2542     0.0242     2.3908    86.5329     0.1722    97.4601
  308.5000    18.7849    19.0705    19.0336   -52.7903     8.0769     0.2496     0.0273     2.3945    86.1177     0.1728    98.9005
  309.0000    18.8705    19.3311    19.2967   -52.4985     8.0462     0.2454     0.0212     2.3874    88.1804     0.1741    99.6184
  309.5000    19.1322    19.4345    19.5424   -52.5106     8.0439     0.2485     0.0303     2.3818    87.9655     0.1759   100.1161
  310.0000    19.3975    19.4697    19.5325   -52.5228     8.0453     0.2527     0.0455     2.3800    85.4711     0.1765   100.5279
  310.5000    19.2814    19.3096    19.2533   -52.5350     8.0449     0.2521     0.0576     2.3824    82.9768     0.1760   100.6335
  311.0000    19.0071    19.3029    19.2439   -52.5471     8.0444     0.2485     0.0485     2.3824    84.3323     0.1741   100.2323
  311.5000    18.9991    19.2962    19.1907   -52.5616     8.0742     0.2443     0.0394     2.3841    89.6877     0.1730    99.4736
  312.0000    18.8653    19.1509    18.9595   -52.8775     8.0737     0.2389     0.0394     2.3878    92.7153     0.1718    98.8114
  312.5000    18.5917    18.8740    18.6885   -53.1935     8.0733     0.2329     0.0394     2.3945    93.3131     0.1706    98.1637
  313.0000    18.3221    18.6012    18.4213   -53.5094     8.0728     0.2281     0.0392     2.3940    91.4757     0.1699    97.8009
  313.5000    17.8069    18.0790    18.0948   -53.8254     8.0724     0.2311     0.0202     2.3945    89.6401     0.1694    97.4947
  314.0000    17.5486    17.4739    17.8307   -53.8374     8.0719     0.2348    -0.0045     2.3885    89.6282     0.1722    97.1011
  314.5000    17.4338    17.2266    17.3987   -54.1533     8.0714     0.2378    -0.0152     2.3854    89.0084     0.1743    96.8823
  315.0000    17.4251    17.2206    17.1499   -54.4693     8.0710     0.2397    -0.0115     2.3900    88.3886     0.1728    96.7119
  315.5000    17.6619    17.2147    17.1416   -54.1763     8.0705     0.2417    -0.0016     2.3885    87.1609     0.1713    96.8522
  316.0000    17.6546    17.2088    17.2196   -53.5814     8.0701     0.2451     0.0091     2.3809    84.7173     0.1782    97.3092
  316.5000    17.4035    16.9652    17.3664   -53.5934     8.0695     0.2373     0.0030     2.3778    83.4894     0.1792    97.6916
