~VERSION INFORMATION
 VERS.                2.0:   CWLS LOG ASCII STANDARD - VERSION 2.0
 WRAP.                 NO:   ONE LINE PER DEPTH STEP
~WELL INFORMATION
#MNEM.UNIT      DATA TYPE    INFORMATION
#----------   ------------   ------------------------------
 STRT.F            0.0000:   START DEPTH
 STOP.F          533.0000:   STOP DEPTH
 STEP.F            0.1000:   STEP LENGTH
 NULL.          -999.2500:   NO VALUE
 COMP.   FLUOR DANIEL INC:   COMPANY
 WELL.   84-4 X 10 #81-10:   WELL
 FLD .             TEAPOT:   FIELD
 LOC .      S10 T38N R78W:   LOCATION
 CNTY.            NATRONA:   COUNTY
 STAT.            WYOMING:   STATE
 CTRY. UNITED STATES OF AMERICA:   COUNTRY
 SRVC.     Atlas Wireline:   SERVICE COMPANY
 DATE.        25-SEP-1994:   LOGDATE
 API .       490252264000:   API NUMBER
~CURVE INFORMATION
#MNEM.UNIT       API CODE    CURVE DESCRIPTION
#----------   ------------   ------------------------------
 DEPT.F                  :   
 GRR .GAPI   07 310 01 00:   GAMMA RAY
 RILD.OHMM   07 120 46 00:   INDUCTION LOG DEEP RESISTIVITY
 RILM.OHMM   07 120 44 00:   INDUCTION LOG MEDIUM RESISTIVITY
~PARAMETER INFORMATION
#MNEM.UNIT          VALUE    DESCRIPTION
#----------   ------------   ------------------------------
 PD  .                 GL:   PERMANENT DATUM
 EPD .F              5150:   ELEVATION PERMANENT DATUM
 LMF .                 KB:   LOG MEASURED FROM
 DAPD.F                10:   FEET ABOVE PERMANENT DATUM
 DMF .                 KB:   DRILLING MEASURED FROM
 EKB .F              5160:   KELLING BUSHING
 EDF .F              5159:   DRILLING FLOOR
 EGL .F              5150:   GROUND LEVEL
 DATE.        25-SEP-1994:   RUN DATE
 RUN .                  1:   RUN NUMBER
 DD  .F               545:   DEPTH DRILLER
 DL  .F               541:   DEPTH LOGGER
 BLI .F               533:   BOTTOM LOG INTERVAL
 CS  .IN            9.625:   CASING SIZE
 CBD .F                76:   CASING BOTTOM DRILLER
 CBL .F                76:   CASING BOTTOM LOGGER
 BS  .IN             8.75:   BIT SIZE
 BSD .F               545:   BIT SIZE AT DEPTH
 DFT .                AIR:   DRILLING FLUID TYPE
 MRT .F                85:   MAXIMUM RECORDED TEMPERATURE
 LUN .            HL 6401:   LOGGING UNIT NUMBER
 LUL .         FT. MORGAN:   LOGGING UNIT LOCATION
 ENGI.    DAVE FREDERICKS:   RECORDING ENGINEER
 WITN.        GARY STRONG:   WITNESSED BY
 CLNT.            A2DTECH:   CLIENT CODE
 ORIG.           5' PRINT:   ORIGIN OF DATA
 UWI .       490252264000:   UNIQUE WELL ID
 DICO. A2D Technologies, Inc.:   DIGITIZING COMPANY
~OTHER INFORMATION
~A    DEPT      GRR      RILD       RILM   
# ...
  509.6000   125.9454    10.2875    10.5140
  509.7000   127.1408    10.2693    10.5145
  509.8000   128.2238    10.2165    10.5149
  509.9000   128.8056    10.2165    10.5153
  510.0000   128.9624    10.1601    10.5158
  510.1000   128.9648    10.1460    10.5162
  510.2000   128.9672    10.1460    10.5167
  510.3000   128.9700    10.1460    10.5171
  510.4000   128.9720    10.1460    10.5176
  510.5000   128.9744    10.1460    10.5180
  510.6000   128.9768    10.1460    10.5184
  510.7000   128.9792    10.0944    10.5188
  510.8000   128.9496    10.0759    10.5193
  510.9000   128.6834    10.0759    10.5126
  511.0000   128.4451    10.0565    10.4476
  511.1000   128.1929    10.0064    10.4480
  511.2000   127.9406    10.0064    10.4022
  511.3000   127.7907     9.9495    10.3417
  511.4000   127.7931     9.9374    10.3057
  511.5000   127.7955     9.9374    10.2929
  511.6000   127.7982     9.9121    10.2355
  511.7000   127.5817     9.8688    10.2360
  511.8000   127.5020     9.8688    10.1848
  511.9000   127.2517     9.8688    10.1662
  512.0000   126.8250     9.8688    10.1666
  512.1000   126.5728     9.8274    10.1478
  512.2000   126.3087     9.8007    10.0973
  512.3000   125.8257     9.7801    10.0978
  512.4000   125.5154     9.7330    10.0412
  512.5000   125.4135     9.7330     9.9828
  512.6000   125.5202     9.6659     9.9249
  512.7000   125.7772     9.6194     9.8919
  512.8000   126.0343     9.5992     9.8780
  512.9000   126.3257     9.5992     9.8206
  513.0000   126.5484     9.5832     9.7572
  513.1000   126.6310     9.5329     9.7068
  513.2000   127.0182     9.5329     9.6907
  513.3000   127.6203     9.5329     9.6610
  513.4000   127.9853     9.4913     9.6049
  513.5000   129.0467     9.4671     9.5490
  513.6000   129.7828     9.4457     9.4932
  513.7000   130.5490     9.4018     9.4282
  513.8000   131.1630     9.4018     9.3836
  513.9000   131.6747     9.4018     9.3639
  514.0000   132.1263     9.3551     9.3393
  514.1000   132.3834     9.3369     9.3001
  514.2000   132.6728     9.3369     9.2951
  514.3000   133.1199     9.3369     9.2367
  514.4000   133.6317     9.3369     9.2371
  514.5000   134.1434     9.3369     9.2375
  514.6000   134.5708     9.2848     9.2076
  514.7000   134.8278     9.2725     9.1745
  514.8000   135.0930     9.2402     9.1749
  514.9000   135.3419     9.2085     9.1753
  515.0000   135.3985     9.1958     9.1757
  515.1000   135.4009     9.1419     9.1761
  515.2000   135.2951     9.0818     9.1764
  515.3000   135.1049     9.0818     9.1768
  515.4000   135.0752     9.0818     9.1608
  515.5000   134.5085     9.0818     9.1142
  515.6000   134.0614     9.0818     9.1147
  515.7000   133.7331     9.0733     9.1150
  515.8000   133.4809     9.0191     9.1154
  515.9000   133.2287     9.0191     9.1158
  516.0000   132.9764     8.9768     9.1162
  516.1000  -999.2500     8.9569     9.1043
  516.2000  -999.2500     8.9336     9.0540
  516.3000  -999.2500     8.8951     9.0545
  516.4000  -999.2500     8.8907     9.0548
  516.5000  -999.2500     8.8337     9.0552
  516.6000  -999.2500     8.8337     9.0556
  516.7000  -999.2500     8.8337     9.0559
  516.8000  -999.2500     8.8337     9.0482
  516.9000  -999.2500     8.8147     8.9943
  517.0000  -999.2500     8.7727     8.9946
  517.1000  -999.2500     8.7723     8.9950
  517.2000  -999.2500     8.7122     8.9629
  517.3000  -999.2500     8.7122     8.9337
  517.4000  -999.2500     8.6790     8.9341
  517.5000  -999.2500     8.6282     8.9303
  517.6000  -999.2500     8.5924     8.8732
  517.7000  -999.2500     8.5867     8.8736
  517.8000  -999.2500     8.5331     8.8366
  517.9000  -999.2500     8.4864     8.7575
  518.0000  -999.2500     8.4742     8.6923
  518.1000  -999.2500     8.4457     8.6834
  518.2000  -999.2500     8.3962     8.6330
  518.3000  -999.2500     8.3576     8.5740
  518.4000  -999.2500     8.3576     8.5330
  518.5000  -999.2500     8.3576     8.4834
  518.6000  -999.2500     8.3156     8.4571
  518.7000  -999.2500     8.2670     8.4433
  518.8000  -999.2500     8.2427     8.3943
  518.9000  -999.2500     8.2118     8.3420
  519.0000  -999.2500     8.1293     8.2521
  519.1000  -999.2500     8.1293     8.1920
  519.2000  -999.2500     8.0835     8.1444
  519.3000  -999.2500     8.0362     8.0787
  519.4000  -999.2500     7.9610     7.9847
  519.5000  -999.2500     7.9072     7.8917
  519.6000  -999.2500     7.8846     7.7865
  519.7000  -999.2500     7.7924     7.7480
  519.8000  -999.2500     7.6912     7.6428
  519.9000  -999.2500     7.6513     7.5530
  520.0000  -999.2500     7.5439     7.5091
  520.1000  -999.2500     7.3895     7.4596
  520.2000  -999.2500     7.2178     7.3690
  520.3000  -999.2500     7.0638     7.3281
  520.4000  -999.2500     6.9805     7.2855
  520.5000  -999.2500     6.8845     7.2432
  520.6000  -999.2500     6.8845     7.2011
  520.7000  -999.2500     6.8845     7.1593
  520.8000  -999.2500     6.8662     7.1201
  520.9000  -999.2500     6.8370     7.1205
  521.0000  -999.2500     6.8370     7.0841
  521.1000  -999.2500     6.8370     7.0429
  521.2000  -999.2500     6.8004     7.0235
  521.3000  -999.2500     6.7898     7.0237
  521.4000  -999.2500     6.7898     7.0240
  521.5000  -999.2500     6.7898     7.0243
  521.6000  -999.2500     6.7898     7.0247
  521.7000  -999.2500     6.7898     7.0249
  521.8000  -999.2500     6.7898     7.0252
  521.9000  -999.2500     6.8234     7.0255
  522.0000  -999.2500     6.8370     7.0368
  522.1000  -999.2500     6.8370     7.0749
  522.2000  -999.2500     6.8370     7.0752
  522.3000  -999.2500     6.8419     7.1515
  522.4000  -999.2500     6.8845     7.2052
  522.5000  -999.2500     6.8845     7.2715
  522.6000  -999.2500     6.8845     7.3415
  522.7000  -999.2500     6.8845     7.3850
  522.8000  -999.2500     6.9009     7.4293
  522.9000  -999.2500     6.9323     7.5320
  523.0000  -999.2500     6.9343     7.5693
  523.1000  -999.2500     6.9805     7.6141
  523.2000  -999.2500     7.0162     7.6593
  523.3000  -999.2500     7.0575     7.7046
  523.4000  -999.2500     7.0779     7.7503
  523.5000  -999.2500     7.1055     7.7991
  523.6000  -999.2500     7.1894     7.8858
  523.7000  -999.2500     7.2767     7.9792
  523.8000  -999.2500     7.3183     8.0463
  523.9000  -999.2500     7.3959     8.0940
  524.0000  -999.2500     7.4833     8.1525
  524.1000  -999.2500     7.5913     8.2470
  524.2000  -999.2500     7.7144     8.3027
  524.3000  -999.2500     7.8054     8.3451
  524.4000  -999.2500     7.9072     8.4284
  524.5000  -999.2500     7.9910     8.4779
  524.6000  -999.2500     8.0854     8.5107
  524.7000  -999.2500     8.2071     8.6114
  524.8000  -999.2500     8.3351     8.7169
  524.9000  -999.2500     8.4425     8.7668
  525.0000  -999.2500     8.5924     8.8597
  525.1000  -999.2500     8.7122     8.9327
  525.2000  -999.2500     8.7968     8.9856
  525.3000  -999.2500     8.9007     9.0522
  525.4000  -999.2500     8.9813     9.1556
  525.5000  -999.2500     9.0494     9.2158
  525.6000  -999.2500     9.1505     9.2645
  525.7000  -999.2500     9.2085     9.3194
  525.8000  -999.2500     9.3091     9.3746
  525.9000  -999.2500     9.3779     9.4302
  526.0000  -999.2500     9.4331     9.4764
  526.1000  -999.2500     9.5104     9.4768
  526.2000  -999.2500     9.5992     9.4772
  526.3000  -999.2500     9.6024     9.4776
  526.4000  -999.2500     9.7330     9.4780
  526.5000  -999.2500     9.8308     9.4783
  526.6000  -999.2500     9.8688     9.4787
  526.7000  -999.2500     9.9260     9.4791
  526.8000  -999.2500    10.0248     9.4796
  526.9000  -999.2500    10.0838     9.4799
  527.0000  -999.2500    10.1460     9.4803
  527.1000  -999.2500    10.1460     9.4807
  527.2000  -999.2500    10.1460     9.4811
  527.3000  -999.2500    10.1815     9.4815
  527.4000  -999.2500    10.2414     9.4819
  527.5000  -999.2500    10.3017     9.4823
  527.6000  -999.2500    10.3589     9.4827
  527.7000  -999.2500    10.3589     9.4831
