~VERSION INFORMATION
 VERS.                2.0:   CWLS LOG ASCII STANDARD - VERSION 2.0
 WRAP.                 NO:   ONE LINE PER DEPTH STEP
~WELL INFORMATION
#MNEM.UNIT      DATA TYPE    INFORMATION
#----------   ------------   ------------------------------
 STRT.F            0.0000:   START DEPTH
 STOP.F          551.0000:   STOP DEPTH
 STEP.F            0.1000:   STEP LENGTH
 NULL.          -999.2500:   NO VALUE
 COMP.       F D SERV INC:   COMPANY
 WELL.    62-2 SX-3 #62-3:   WELL
 FLD .          N.P.R. #3:   FIELD
 LOC .       S3 T38N R78W:   LOCATION
 CNTY.            NATRONA:   COUNTY
 STAT.            WYOMING:   STATE
 CTRY. UNITED STATES OF AMERICA:   COUNTRY
 SRVC.     Atlas Wireline:   SERVICE COMPANY
 DATE.        17-APR-1992:   LOGDATE
 API .       490252250700:   API NUMBER
~CURVE INFORMATION
#MNEM.UNIT       API CODE    CURVE DESCRIPTION
#----------   ------------   ------------------------------
 DEPT.F                  :   
 GRR .GAPI   07 310 01 00:   GAMMA RAY
 RILD.OHMM   07 120 46 00:   INDUCTION LOG DEEP RESISTIVITY
 RILM.OHMM   07 120 44 00:   INDUCTION LOG MEDIUM RESISTIVITY
~PARAMETER INFORMATION
#MNEM.UNIT          VALUE    DESCRIPTION
#----------   ------------   ------------------------------
 PD  .                 GL:   PERMANENT DATUM
 EPD .F              5130:   ELEVATION PERMANENT DATUM
 LMF .                 KB:   LOG MEASURED FROM
 DAPD.F                 5:   FEET ABOVE PERMANENT DATUM
 DMF .                 KB:   DRILLING MEASURED FROM
 EKB .F              5135:   KELLING BUSHING
 EDF .F              5134:   DRILLING FLOOR
 EGL .F              5130:   GROUND LEVEL
 DATE.        17-APR-1992:   RUN DATE
 RUN .                  1:   RUN NUMBER
 DD  .F               560:   DEPTH DRILLER
 DL  .F               560:   DEPTH LOGGER
 BLI .F               558:   BOTTOM LOG INTERVAL
 CS  .IN            8.625:   CASING SIZE
 CBD .F                47:   CASING BOTTOM DRILLER
 CBL .F                50:   CASING BOTTOM LOGGER
 BS  .IN            7.875:   BIT SIZE
 BSD .F               560:   BIT SIZE AT DEPTH
 DFT .                AIR:   DRILLING FLUID TYPE
 TCS .HRS               2:   TIME CURCULATED STOPPED
 MRT .F                83:   MAXIMUM RECORDED TEMPERATURE
 LUN .           HL- 6274:   LOGGING UNIT NUMBER
 LUL .             CASPER:   LOGGING UNIT LOCATION
 ENGI.            LEBSOCK:   RECORDING ENGINEER
 WITN.        GARY STRONG:   WITNESSED BY
 CLNT.            A2DTECH:   CLIENT CODE
 ORIG.           5" PRINT:   ORIGIN OF DATA
 UWI .       490252250700:   UNIQUE WELL ID
 DICO. A2D Technologies, Inc.:   DIGITIZING COMPANY
~OTHER INFORMATION
~A    DEPT      GRR      RILD       RILM   
# ...
  436.8000    94.2596    24.1952    21.4788
  436.9000    94.5106    24.1962    21.4797
  437.0000    94.7614    24.1972    21.4806
  437.1000    95.0125    24.1982    21.4816
  437.2000    95.0705    24.1993    21.4824
  437.3000    95.0748    24.2004    21.4833
  437.4000    95.0790    24.2013    21.4842
  437.5000    95.0832    24.2023    21.4851
  437.6000    95.0880    24.2033    21.4860
  437.7000    95.0917    24.2044    21.4869
  437.8000    95.0959    24.2054    21.4878
  437.9000    94.9959    24.0782    21.4888
  438.0000    94.7535    24.0385    21.4897
  438.1000    94.5036    24.0396    21.4906
  438.2000    94.2685    24.0406    21.4916
  438.3000    94.0260    24.0388    21.4924
  438.4000    93.9110    23.9030    21.5684
  438.5000    93.7721    23.8759    21.6448
  438.6000    93.2828    23.8770    21.6457
  438.7000    92.7141    23.8320    21.6467
  438.8000    92.0980    23.7123    21.6476
  438.9000    91.5126    23.7135    21.6485
  439.0000    90.9284    23.7144    21.6494
  439.1000    90.1928    23.6269    21.6503
  439.2000    89.4066    23.5510    21.6512
  439.3000    88.7210    23.5251    21.6521
  439.4000    88.1591    23.3887    21.6530
  439.5000    87.6699    23.2603    21.6539
  439.6000    87.2431    23.1290    21.6134
  439.7000    87.0069    23.0665    21.4915
  439.8000    87.0112    23.0293    21.3562
  439.9000    87.0154    22.8992    21.2501
  440.0000    87.1608    22.7489    21.1304
  440.1000    87.4971    22.6416    20.9607
  440.2000    87.9652    22.5920    20.7474
  440.3000    88.2431    22.5439    20.6271
  440.4000    88.6878    22.4166    20.6280
  440.5000    89.1853    22.2808    20.4551
  440.6000    89.7915    22.2817    20.2837
  440.7000    90.4832    22.2826    20.1693
  440.8000    90.9870    22.2239    20.0627
  440.9000    91.4780    22.0984    20.0637
  441.0000    91.7882    21.9756    19.9694
  441.1000    91.7758    21.9766    19.8569
  441.2000    91.6091    21.8790    19.7876
  441.3000    91.5934    21.8251    19.7713
  441.4000    91.3156    21.8261    19.6515
  441.5000    91.3192    21.8270    19.6523
  441.6000    91.1686    21.8280    19.6531
  441.7000    91.1241    21.7198    19.6539
  441.8000    91.3319    21.6775    19.6277
  441.9000    91.3364    21.6784    19.5187
  442.0000    91.5743    21.6793    19.5195
  442.1000    91.8252    21.6802    19.5203
  442.2000    92.1983    21.6811    19.5212
  442.3000    92.6297    21.6821    19.5220
  442.4000    92.9115    21.6830    19.5228
  442.5000    94.0855    21.6839    19.5237
  442.6000    94.4913    21.6848    19.5244
  442.7000    95.1343    21.6858    19.5252
  442.8000    95.8790    21.5841    19.5260
  442.9000    96.6575    21.5362    19.5269
  443.0000    97.7371    21.4910    19.5277
  443.1000    98.1902    21.3877    19.5285
  443.2000    98.6877    21.3888    19.5293
  443.3000    99.0724    21.2776    19.5301
  443.4000    99.3233    21.2413    19.5309
  443.5000    99.5734    21.1860    19.5317
  443.6000    99.5777    21.0950    19.5327
  443.7000    99.3901    21.0958    19.5334
  443.8000    99.1477    21.0967    19.5342
  443.9000    98.7454    21.0037    19.5350
  444.0000    98.0093    20.8852    19.5358
  444.1000    97.1788    20.8061    19.5368
  444.2000    96.7526    20.7949    19.5375
  444.3000    95.9448    20.6629    19.4616
  444.4000    95.0655    20.6636    19.4031
  444.5000    94.3299    20.5886    19.3778
  444.6000    93.5687    20.5212    19.2685
  444.7000    93.3346    20.4997    19.1600
  444.8000    93.0920    20.3798    19.1370
  444.9000    92.9761    20.3807    19.0776
  445.0000    92.9803    20.2962    19.0053
  445.1000    92.9846    20.1817    18.9953
  445.2000    92.9895    20.0999    18.8747
  445.3000    93.4039    20.0946    18.7820
  445.4000    93.7520    19.9615    18.6761
  445.5000    94.0968    19.9622    18.5709
  445.6000    94.5946    19.9631    18.4859
  445.7000    95.1283    19.9218    18.4869
  445.8000    95.5898    19.8254    18.3867
  445.9000    96.2602    19.8264    18.2832
  446.0000    97.0045    19.7240    18.1801
  446.1000    97.7490    19.6898    18.1063
  446.2000    98.4827    19.6389    18.1018
  446.3000    98.7337    19.5541    17.9819
  446.4000    98.3964    19.5549    17.8983
  446.5000    97.9072    19.4439    17.7975
  446.6000    97.3336    19.4201    17.6972
  446.7000    96.6265    19.4209    17.5975
  446.8000    96.0828    19.4218    17.4898
  446.9000    95.8671    19.4120    17.4905
  447.0000    95.4612    19.2880    17.4230
  447.1000    94.9722    19.2887    17.3248
  447.2000    94.5348    19.2192    17.2272
  447.3000    94.2881    19.1558    17.1305
  447.4000    94.0499    19.1567    17.1312
  447.5000    93.9939    19.1575    17.1320
  447.6000    93.8675    19.1582    17.0792
  447.7000    93.6999    19.1590    17.0140
  447.8000    93.7041    19.1598    17.0148
  447.9000    93.7090    19.1305    17.0156
  448.0000    93.5028    19.0278    17.0162
  448.1000    93.4142    19.0287    17.0170
  448.2000    93.4185    19.0294    17.0177
  448.3000    93.4227    19.0302    17.0183
  448.4000    93.4272    19.0310    17.0191
  448.5000    93.1981    19.0318    17.0198
  448.6000    93.1328    19.0327    17.0205
  448.7000    93.1371    19.0334    17.0212
  448.8000    93.1413    19.0342    17.0219
  448.9000    93.1456    19.0350    17.0273
  449.0000    93.1506    19.0358    17.1429
  449.1000    93.1540    19.0366    17.1434
  449.2000    93.1583    19.0374    17.2022
  449.3000    93.1625    19.1226    17.3011
  449.4000    93.1668    19.1727    17.3869
  449.5000    93.1713    19.1735    17.3877
  449.6000    93.3988    19.1743    17.4788
  449.7000    93.8174    19.1752    17.5111
  449.8000    94.3150    19.1759    17.5573
  449.9000    94.8686    19.1767    17.6428
  450.0000    95.6118    19.1703    17.6761
  450.1000    96.3551    19.1535    17.7094
  450.2000    97.0983    19.1366    17.7428
  450.3000    97.8416    19.1198    17.7761
  450.4000    98.5848    19.1029    17.8094
  450.5000    99.3281    19.0861    17.8427
  450.6000    99.8778    19.0692    17.8761
  450.7000    99.8907    19.0484    17.8948
  450.8000   100.1910    18.9218    17.8727
  450.9000   100.1949    18.9229    17.7725
  451.0000   100.1997    18.8609    17.6732
  451.1000   100.1199    18.7549    17.5743
  451.2000    99.9063    18.6496    17.5309
  451.3000    99.9122    18.5350    17.4677
  451.4000    99.9165    18.4407    17.2806
  451.5000    99.7599    18.4082    17.1717
  451.6000    99.5187    18.3622    17.0878
  451.7000    99.3249    18.2591    16.9922
  451.8000    99.3309    18.1562    16.8569
  451.9000    99.0976    18.0546    16.6854
  452.0000    98.6748    17.9533    16.5889
  452.1000    98.3124    17.8524    16.4991
  452.2000    98.1398    17.7522    16.3380
  452.3000    98.1205    17.6525    16.2013
  452.4000    97.5452    17.5393    16.0844
  452.5000    97.3474    17.4547    15.9089
  452.6000    97.1062    17.3567    15.8051
  452.7000    96.8649    17.2198    15.6569
  452.8000    96.5914    17.0426    15.4808
  452.9000    96.0562    16.9420    15.3397
  453.0000    95.8386    16.8517    15.2405
  453.1000    95.5973    16.6886    15.0567
  453.2000    95.3561    16.5468    14.9785
  453.3000    95.1673    16.4290    14.8354
  453.4000    95.1722    16.2437    14.7081
  453.5000    95.1770    16.0264    14.6258
  453.6000    95.1818    15.9534    14.5438
  453.7000    95.3156    15.8638    14.4625
  453.8000    95.4941    15.7428    14.3167
  453.9000    95.4989    15.5879    14.2014
  454.0000    95.5046    15.5893    14.1219
  454.1000    95.5086    15.4311    14.0520
  454.2000    95.5135    15.2572    14.0535
  454.3000    95.5183    15.1620    13.9129
  454.4000    95.5231    15.1254    13.8083
  454.5000    95.5284    14.9533    13.7310
  454.6000    95.5328    14.8701    13.6705
  454.7000    95.7072    14.7866    13.6717
  454.8000    95.8451    14.7486    13.5964
  454.9000    95.8499    14.6978    13.5203
