~VERSION INFORMATION
 VERS.                2.0:   CWLS LOG ASCII STANDARD - VERSION 2.0
 WRAP.                 NO:   ONE LINE PER DEPTH STEP
~WELL INFORMATION
#MNEM.UNIT      DATA TYPE    INFORMATION
#----------   ------------   ------------------------------
 STRT.F            0.0000:   START DEPTH
 STOP.F          545.0000:   STOP DEPTH
 STEP.F            0.1000:   STEP LENGTH
 NULL.          -999.2500:   NO VALUE
 COMP.       F D SERV INC:   COMPANY
 WELL. NAVAL PETROLEUM RESERVE 3 SX-3 #88-5-3:   WELL
 FLD .             TEAPOT:   FIELD
 LOC .       S3 T38N R78W:   LOCATION
 CNTY.            NATRONA:   COUNTY
 STAT.            WYOMING:   STATE
 CTRY. UNITED STATES OF AMERICA:   COUNTRY
 SRVC.     Atlas Wireline:   SERVICE COMPANY
 DATE.        14-OCT-1992:   LOGDATE
 API .       490252255700:   API NUMBER
~CURVE INFORMATION
#MNEM.UNIT       API CODE    CURVE DESCRIPTION
#----------   ------------   ------------------------------
 DEPT.F                  :   
 GRR .GAPI   07 310 01 00:   GAMMA RAY
 RILD.OHMM   07 120 46 00:   INDUCTION LOG DEEP RESISTIVITY
 RILM.OHMM   07 120 44 00:   INDUCTION LOG MEDIUM RESISTIVITY
~PARAMETER INFORMATION
#MNEM.UNIT          VALUE    DESCRIPTION
#----------   ------------   ------------------------------
 PD  .                 GL:   PERMANENT DATUM
 EPD .F              5152:   ELEVATION PERMANENT DATUM
 LMF .                 KB:   LOG MEASURED FROM
 DAPD.F                10:   FEET ABOVE PERMANENT DATUM
 DMF .                 KB:   DRILLING MEASURED FROM
 EKB .F              5162:   KELLING BUSHING
 EDF .F              5161:   DRILLING FLOOR
 EGL .F              5152:   GROUND LEVEL
 DATE.        14-OCT-1992:   RUN DATE
 RUN .                  1:   RUN NUMBER
 DD  .F               555:   DEPTH DRILLER
 DL  .F               552:   DEPTH LOGGER
 BLI .F               546:   BOTTOM LOG INTERVAL
 CS  .IN            8.625:   CASING SIZE
 CBD .F                85:   CASING BOTTOM DRILLER
 CBL .F                96:   CASING BOTTOM LOGGER
 BS  .IN            7.875:   BIT SIZE
 BSD .F               555:   BIT SIZE AT DEPTH
 DFT .           AIR FOAM:   DRILLING FLUID TYPE
 BHT .F                72:   BOTTOM HOLE TEMPERATURE
 TCS .HRS               2:   TIME CURCULATED STOPPED
 MRT .F                72:   MAXIMUM RECORDED TEMPERATURE
 LUN .            HL-6274:   LOGGING UNIT NUMBER
 LUL .             CASPER:   LOGGING UNIT LOCATION
 ENGI.             RAUTIO:   RECORDING ENGINEER
 WITN.        GARY STRONG:   WITNESSED BY
 CLNT.            A2DTECH:   CLIENT CODE
 ORIG.           5" PRINT:   ORIGIN OF DATA
 UWI .       490252255700:   UNIQUE WELL ID
 DICO. A2D Technologies, Inc.:   DIGITIZING COMPANY
~OTHER INFORMATION
~A    DEPT      GRR      RILD       RILM   
# ...
  291.2000   151.1007     6.0127     6.4417
  291.3000   150.5026     5.9650     6.3658
  291.4000   150.2867     5.9173     6.2767
  291.5000   150.0290     5.8697     6.1659
  291.6000   149.9003     5.8220     6.0604
  291.7000   149.8140     5.7841     6.0203
  291.8000   149.5564     5.7500     5.9580
  291.9000   149.2979     5.7161     5.9375
  292.0000   149.2972     5.6898     5.9184
  292.1000   148.6577     5.6882     5.8966
  292.2000   147.8859     5.6507     5.8893
  292.3000   147.2406     5.6508     5.8559
  292.4000   146.8092     5.6508     5.8559
  292.5000   146.5516     5.6692     5.8559
  292.6000   146.2907     5.6902     5.8559
  292.7000   146.2900     5.6903     5.8559
  292.8000   146.2895     5.6904     5.8559
  292.9000   146.2889     5.6905     5.8559
  293.0000   146.7848     5.7201     5.8559
  293.1000   147.8935     5.7301     5.8559
  293.2000   149.1779     5.7485     5.8559
  293.3000   150.4907     5.7827     5.8559
  293.4000   151.3909     5.8102     5.8559
  293.5000   152.0150     5.8114     5.8559
  293.6000   152.7856     5.8508     5.8559
  293.7000   153.4344     5.8508     5.8572
  293.8000   153.8695     5.8751     5.8966
  293.9000   154.0908     5.8916     5.9270
  294.0000   154.0901     5.9042     5.9375
  294.1000   152.8882     5.9394     5.9564
  294.2000   151.4473     5.9740     5.9918
  294.3000   149.9723     5.9741     6.0203
  294.4000   148.8055     5.9741     6.0225
  294.5000   147.8528     5.9986     6.1042
  294.6000   147.1468     6.0158     6.1042
  294.7000   146.8786     6.0283     6.1549
  294.8000   146.8781     6.0577     6.2087
  294.9000   146.8775     6.0583     6.2457
  295.0000   146.8769     6.1000     6.2828
  295.1000   146.9932     6.1307     6.3211
  295.2000   147.2497     6.1672     6.4071
  295.3000   147.5061     6.2039     6.4399
  295.4000   147.7753     6.2408     6.5202
  295.5000   148.0190     6.2780     6.6192
  295.6000   148.4765     6.3155     6.7182
  295.7000   148.6745     6.4034     6.8172
  295.8000   148.3303     6.4672     6.9149
  295.9000   147.7011     6.5185     6.9619
  296.0000   147.4155     6.5768     6.9619
  296.1000   146.8702     6.6422     6.9904
  296.2000   146.8697     6.6882     7.0102
  296.3000   146.8691     6.7684     7.0250
  296.4000   146.8685     6.7685     7.0589
  296.5000   146.8679     6.8352     7.0597
  296.6000   146.8672     6.8898     7.1079
  296.7000   146.8923     6.9308     7.1079
  296.8000   147.1663     6.9721     7.1079
  296.9000   147.6446     7.0136     7.1079
  297.0000   148.1581     7.0560     7.1079
  297.1000   148.6480     7.0561     7.1079
  297.2000   149.1220     7.0562     7.1079
  297.3000   149.5960     7.0563     7.1079
  297.4000   150.0700     7.0564     7.1079
  297.5000   150.5440     7.0565     7.1079
  297.6000   151.0390     7.0566     7.1079
  297.7000   151.6461     7.0567     7.0934
  297.8000   152.3664     7.0081     7.0515
  297.9000   152.8727     6.9748     7.0102
  298.0000   153.1651     6.9600     7.0102
  298.1000   152.9436     6.9407     6.9753
  298.2000   152.6859     6.8998     6.9341
  298.3000   152.4282     6.8538     6.8724
  298.4000   151.9881     6.7703     6.7914
  298.5000   151.2163     6.6935     6.7113
  298.6000   150.4395     6.6148     6.6318
  298.7000   149.2570     6.5129     6.4964
  298.8000   148.2418     6.3983     6.4003
  298.9000   147.0479     6.2749     6.3125
  299.0000   145.8541     6.1278     6.2196
  299.1000   144.6603     5.9780     6.1100
  299.2000   143.7116     5.8445     5.9962
  299.3000   143.0453     5.7344     5.8554
  299.4000   142.5301     5.6335     5.6961
  299.5000   142.0150     5.5490     5.6122
  299.6000   141.4485     5.4837     5.5133
  299.7000   140.9848     5.4192     5.4482
  299.8000   140.4697     5.3520     5.4160
  299.9000   140.0983     5.3222     5.3840
  300.0000   141.0410     5.2796     5.3521
  300.1000   143.8060     5.2340     5.3132
  300.2000   146.3452     5.1884     5.2743
  300.3000   148.6430     5.1428     5.2353
  300.4000   149.7706     5.0972     5.1964
  300.5000   150.6877     5.0515     5.1789
  300.6000   151.5944     5.0298     5.2094
  300.7000   152.6192     5.0404     5.2412
  300.8000   153.5928     5.0650     5.2410
  300.9000   154.3534     5.0652     5.2409
  301.0000   154.9367     5.1005     5.2599
  301.1000   155.1557     5.1006     5.2909
  301.2000   154.8797     5.1008     5.3135
  301.3000   154.2312     5.1009     5.3165
  301.4000   153.4594     5.1103     5.3501
  301.5000   152.7337     5.1366     5.3793
  301.6000   152.2186     5.1368     5.3869
  301.7000   151.6207     5.1661     5.4053
  301.8000   151.6192     5.1727     5.4371
  301.9000   151.6174     5.1729     5.4768
  302.0000   151.8719     5.1864     5.5396
  302.1000   152.2989     5.2172     5.5758
  302.2000   152.5538     5.2454     5.6050
  302.3000   152.8114     5.2455     5.6380
  302.4000   152.8093     5.2457     5.6712
  302.5000   153.0180     5.2689     5.7173
  302.6000   153.2729     5.3002     5.7849
  302.7000   153.4048     5.3192     5.8534
  302.8000   153.4030     5.3334     5.9329
  302.9000   153.4012     5.3952     5.9929
  303.0000   153.3994     5.4313     6.0639
  303.1000   153.1490     5.4595     6.1357
  303.2000   152.8905     5.5148     6.1960
  303.3000   152.4706     5.5804     6.2385
  303.4000   151.8379     5.6586     6.3131
  303.5000   151.0662     5.7534     6.4009
  303.6000   150.3247     5.8220     6.4629
  303.7000   149.7831     5.9437     6.5394
  303.8000   149.7814     6.0026     6.6169
  303.9000   149.7796     6.0978     6.6952
  304.0000   149.7778     6.2067     6.7744
  304.1000   149.8885     6.3059     6.8584
  304.2000   150.1433     6.3861     6.8969
  304.3000   150.3982     6.5042     7.0019
  304.4000   150.6713     6.5788     7.0757
  304.5000   150.6697     6.6571     7.1542
  304.6000   150.6679     6.7362     7.2703
  304.7000   150.6661     6.8163     7.3525
  304.8000   150.5570     6.8973     7.3994
  304.9000   150.2985     6.9753     7.4797
  305.0000   150.0400     7.0200     7.5683
  305.1000   149.7578     7.0970     7.6321
  305.2000   149.2901     7.1814     7.6771
  305.3000   148.9643     7.2421     7.7223
  305.4000   148.2687     7.2851     7.7678
  305.5000   146.9342     7.3383     7.8191
  305.6000   145.0773     7.4208     7.8596
  305.7000   143.0663     7.4210     7.8729
  305.8000   141.6370     7.4987     7.8727
  305.9000   140.9521     7.5248     7.8893
  306.0000   140.3643     7.5487     7.9270
  306.1000   140.1303     7.5935     7.9267
  306.2000   140.2254     7.6303     7.9265
  306.3000   140.5867     7.6310     7.9263
  306.4000   141.3454     7.6837     7.9575
  306.5000   141.9247     7.7220     7.9809
  306.6000   142.3683     7.7375     7.9960
  306.7000   142.8798     7.7377     8.0359
  306.8000   143.5267     7.7524     8.0356
  306.9000   144.2950     7.7919     8.0354
  307.0000   145.1110     7.7921     8.0735
  307.1000   146.1271     7.7923     8.0908
  307.2000   146.7168     7.8292     8.0906
  307.3000   147.5852     7.8468     8.1041
  307.4000   148.2623     7.8471     8.1463
  307.5000   148.7737     7.8473     8.1460
  307.6000   149.1988     7.8521     8.1458
  307.7000   149.4537     7.9022     8.1456
  307.8000   149.7093     7.9024     8.1454
  307.9000   149.7072     7.9378     8.1452
  308.0000   149.7057     7.9577     8.1449
  308.1000   149.1982     7.9580     8.1447
  308.2000   148.3016     7.9691     8.1445
  308.3000   147.0294     8.0164     8.1443
  308.4000   145.3062     8.0696     8.1440
  308.5000   143.9910     8.0698     8.1438
  308.6000   141.8867     8.0700     8.1622
  308.7000   140.2294     8.0702     8.1999
  308.8000   138.0106     8.0878     8.2016
  308.9000   136.2976     8.1267     8.2563
  309.0000   135.4975     8.1277     8.2562
  309.1000   135.1742     8.1836     8.2559
  309.2000   134.3687     8.1838     8.2557
  309.3000   133.6307     8.1840     8.2725
