~VERSION INFORMATION
 VERS.                2.0:   CWLS LOG ASCII STANDARD - VERSION 2.0
 WRAP.                 NO:   ONE LINE PER DEPTH STEP
~WELL INFORMATION
#MNEM.UNIT      DATA TYPE    INFORMATION
#----------   ------------   ------------------------------
 STRT.F           30.0000:   START DEPTH
 STOP.F          440.0000:   STOP DEPTH
 STEP.F            0.5000:   STEP LENGTH
 NULL.          -999.2500:   NO VALUE
 COMP. FENIX & SCISSON INC:   COMPANY
 WELL.    54 SX 10 #54-10:   WELL
 FLD .             TEAPOT:   FIELD
 LOC .      S10 T38N R78W:   LOCATION
 CNTY.            NATRONA:   COUNTY
 STAT.            WYOMING:   STATE
 CTRY. UNITED STATES OF AMERICA:   COUNTRY
 SRVC.            Unknown:   SERVICE COMPANY
 DATE.        10-NOV-1978:   LOGDATE
 API .       490251072800:   API NUMBER
~CURVE INFORMATION
#MNEM.UNIT       API CODE    CURVE DESCRIPTION
#----------   ------------   ------------------------------
 DEPT.F                  :   
 CALD.IN     45 280 60 00:   CALIPER
 GRD .GAPI   45 310 01 00:   GAMMA RAY FROM DENSITY LOG
 DPHI.DEC    45 890 12 00:   DENSITY POROSITY SANDSTONE
 RHOB.G/C3   45 350 01 00:   BULK DENSITY
 CORR.G/C3   45 356 01 00:   DENSITY CORRECTION
 SPR .MV     05 010 01 00:   SPONTANEOUS POTENTIAL FROM RES.
 ILD .OHMM   05 120 46 00:   INDUCTION LOG DEEP
 SN  .OHMM   05 040 16 00:   SHORT NORMAL 16"
~PARAMETER INFORMATION
#MNEM.UNIT          VALUE    DESCRIPTION
#----------   ------------   ------------------------------
 PD  .                 GL:   PERMANENT DATUM
 EPD .F              5196:   ELEVATION PERMANENT DATUM
 LMF .                 KB:   LOG MEASURED FROM
 DAPD.F                 4:   FEET ABOVE PERMANENT DATUM
 DMF .                 KB:   DRILLING MEASURED FROM
 EKB .F              5200:   KELLING BUSHING
 EGL .F              5196:   GROUND LEVEL
 DATE.           11-10-78:   RUN DATE
 RUN .                  1:   RUN NUMBER
 DD  .F               435:   DEPTH DRILLER
 DL  .F               442:   DEPTH LOGGER
 BLI .F               436:   BOTTOM LOG INTERVAL
 TLI .F                50:   TOP LOG INTERVAL
 CS  .IN            8.625:   CASING SIZE
 CBD .F                40:   CASING BOTTOM DRILLER
 CBL .F                50:   CASING BOTTOM LOGGER
 BS  .IN            7.875:   BIT SIZE
 BSD .F               435:   BIT SIZE AT DEPTH
 DFT .            SEA MUD:   DRILLING FLUID TYPE
 DFD .                8.7:   DRILLING FLUID DENSITY
 DFV .                 34:   DRILLING FLUID VISCOSITY
 DFPH.                 10:   DRILLING FLUID PH
 MSS .            MUD PIT:   MUD SAMPLE SOURCE
 RMS .OHMM             .4:   RESISTIVITY MUD SAMPLE
 MST .F                57:   MUD SAMPLE TEMPERATURE
 RMF .OHMM            .34:   RESISTIVITY MUD FILTRATE SAMPLE
 MFST.F                64:   MUD FILTRATE SAMPLE TEMPERATURE
 RMC .OHMM            .44:   RESISTIVITY MUD CAKE
 MCST.F                60:   MUD CAKE SAMPLE TEMPERATURE
 MFSS.            MUD PIT:   MUD FILTRATE SAMPLE SOURCE
 MCSS.            MUD PIT:   MUD CAKE SAMPLE SOURCE
 RMB .OHMM            .36:   RESISTIVITY MUD AT BHT
 BHT .F                72:   BOTTOM HOLE TEMPERATURE
 TCS .HRS               1:   TIME CURCULATED STOPPED
 MRT .F                70:   MAXIMUM RECORDED TEMPERATURE
 LUN .               3006:   LOGGING UNIT NUMBER
 LUL .               CASP:   LOGGING UNIT LOCATION
 ENGI.             MILLER:   RECORDING ENGINEER
 WITN.           DINSMORE:   WITNESSED BY
 CLNT.            A2DTECH:   CLIENT CODE
 ORIG.           5" PRINT:   ORIGIN OF DATA
 UWI .       490251072800:   UNIQUE WELL ID
 DICO. A2D Technologies, Inc.:   DIGITIZING COMPANY
~OTHER INFORMATION
~A   DEPT     CALD         GRD      DPHI       RHOB       CORR        SPR        ILD         SN   
# ...
  394.5000     7.7323    93.1833     0.1370     2.4507     0.0159   -36.4053    13.5757    13.0671
  395.0000     7.7314    96.2725     0.1364     2.4510     0.0132   -36.3938    13.5759    13.0603
  395.5000     7.7306    98.6591     0.1371     2.4511     0.0104   -36.5733    13.5759    13.0534
  396.0000     7.7301    98.8939     0.1372     2.4513     0.0105   -36.8989    13.5759    13.0466
  396.5000     7.7297    99.8211     0.1364     2.4515     0.0114   -37.2260    13.5759    13.0398
  397.0000     7.7292    99.9354     0.1356     2.4516     0.0122   -37.5533    13.5759    13.0330
  397.5000     7.7288    99.4033     0.1366     2.4518     0.0131   -37.8926    13.5761    13.0262
  398.0000     7.7283    97.0789     0.1379     2.4503     0.0140   -37.9631    13.5762    13.0194
  398.5000     7.7278    94.7771     0.1391     2.4485     0.0149   -37.9569    13.5773    13.0126
  399.0000     7.7274    97.3705     0.1396     2.4467     0.0158   -37.9487    13.4985    13.0058
  399.5000     7.7269    97.1870     0.1383     2.4464     0.0166   -37.9413    13.3148    12.9990
  400.0000     7.7265    98.5751     0.1365     2.4475     0.0175   -37.9340    13.1337    12.9923
  400.5000     7.7260   100.3053     0.1348     2.4487     0.0184   -37.9267    12.9551    12.9854
  401.0000     7.7255    99.9871     0.1348     2.4498     0.0193   -37.9194    12.7789    12.9787
  401.5000     7.7251    99.6498     0.1348     2.4509     0.0202   -37.9121    12.6051    12.9399
  402.0000     7.7246    99.3242     0.1303     2.4529     0.0210   -37.9049    12.4692    12.7877
  402.5000     7.7242    99.4310     0.1271     2.4580     0.0219   -37.8976    12.3107    12.6373
  403.0000     7.7237   100.0470     0.1269     2.4630     0.0206   -37.8903    12.1543    12.4886
  403.5000     7.7232   100.6692     0.1284     2.4675     0.0190   -37.8830    11.9998    12.3417
  404.0000     7.7228   100.1268     0.1303     2.4655     0.0175   -37.8757    11.8472    12.1965
  404.5000     7.7223    99.4159     0.1295     2.4634     0.0159   -37.8684    11.6967    12.0531
  405.0000     7.7219    98.6956     0.1315     2.4612     0.0144   -37.8612    11.5480    11.9113
  405.5000     7.7214    97.8365     0.1353     2.4591     0.0129   -37.8539    11.3848    11.7712
  406.0000     7.7210    96.3442     0.1400     2.4562     0.0131   -37.8466    11.1399    11.6327
  406.5000     7.7205    97.8676     0.1361     2.4524     0.0202   -37.8393    10.9003    11.4959
  407.0000     7.7200    99.9459     0.1320     2.4511     0.0272   -37.8320    10.6658    11.3017
  407.5000     7.7196   101.0734     0.1316     2.4550     0.0315   -37.8247    10.4363    11.0471
  408.0000     7.7191   101.2553     0.1312     2.4589     0.0301   -37.8175    10.2119    10.7982
  408.5000     7.7187    99.6405     0.1308     2.4606     0.0289   -37.8102     9.9922    10.5549
  409.0000     7.7182    98.0586     0.1304     2.4617     0.0277   -37.8029     9.7905    10.3171
  409.5000     7.7178    96.5161     0.1312     2.4626     0.0265   -37.7956     9.2679    10.0119
  410.0000     7.7173    98.6742     0.1321     2.4610     0.0252   -37.7893     8.8015     9.5478
  410.5000     7.7168   106.0097     0.1330     2.4595     0.0240   -37.7806     8.3586     9.1077
  411.0000     7.7164   113.3263     0.1360     2.4579     0.0227   -37.7804     7.9380     8.6866
  411.5000     7.7159   116.6276     0.1444     2.4537     0.0219   -36.9649     7.5936     8.2850
  412.0000     7.7155   115.4079     0.1529     2.4404     0.0235   -34.9627     7.1823     7.9020
  412.5000     7.7150   114.8242     0.1613     2.4275     0.0308   -32.8951     6.7933     7.5367
  413.0000     7.7145   116.4174     0.1614     2.4147     0.0379   -32.4293     6.5619     7.1883
  413.5000     7.7141   119.0655     0.1427     2.4082     0.0452   -32.4441     6.6661     6.9967
  414.0000     7.7136   124.8649     0.1277     2.4346     0.0382   -32.4455     6.8358     7.1917
  414.5000     7.7132   130.7667     0.1126     2.4722     0.0243   -32.4458     7.0089     7.9383
  415.0000     7.7127   133.0576     0.1097     2.4891     0.0229   -32.4458     7.1900     8.7625
  415.5000     7.7123   125.6878     0.1097     2.5002     0.0221   -32.4458     7.8047     9.6722
  416.0000     7.7118   120.5361     0.1102     2.4972     0.0213   -32.4458     8.6656    10.6763
  416.5000     7.7113   115.3632     0.1126     2.4945     0.0205   -32.4458     9.6213    11.0052
  417.0000     7.7109   110.2901     0.1151     2.4918     0.0196   -32.4458    10.5359    11.2244
  417.5000     7.7113   107.3511     0.1158     2.4890     0.0188   -32.4458    10.5903    11.3853
  418.0000     7.7122   108.2285     0.1160     2.4862     0.0179   -32.4458    10.6479    11.5591
  418.5000     7.7130   111.2104     0.1161     2.4852     0.0184   -32.4458    10.7033    11.7355
  419.0000     7.7139   114.8727     0.1163     2.4846     0.0190   -32.4458    10.7601    11.9146
  419.5000     7.7147   116.1661     0.1164     2.4840     0.0195   -32.4458    10.8171    12.0964
  420.0000     7.7156   116.3581     0.1166     2.4834     0.0199   -32.4458    11.0329    12.2810
  420.5000     7.7164   118.1816     0.1168     2.4828     0.0199   -32.4457    11.3174    12.4684
  421.0000     7.7173   120.4601     0.1169     2.4823     0.0199   -32.4448    11.6095    12.6587
  421.5000     7.7181   118.1018     0.1164     2.4817     0.0199   -32.4444    11.9092    12.8519
  422.0000     7.7190   114.2466     0.1154     2.4829     0.0199   -32.5048    12.2166    13.0480
  422.5000     7.7198   113.2239     0.1149     2.4845     0.0199   -32.8892    12.3850    13.1994
  423.0000     7.7207   114.9104     0.1177     2.4861     0.0199   -33.5905    12.5139    13.3390
  423.5000     7.7215   116.5882     0.1203     2.4834     0.0199   -34.4556    12.6441    13.4800
  424.0000     7.7224   118.1984     0.1216     2.4785     0.0199   -35.2645    12.7757    13.6226
  424.5000     7.7232   118.6338     0.1222     2.4743     0.0199   -35.5197    12.9087    13.7666
  425.0000     7.7241   119.0492     0.1221     2.4728     0.0208   -35.7923    13.0430    13.8247
  425.5000     7.7250   120.1212     0.1203     2.4713     0.0223   -36.0666    13.1295    13.8248
  426.0000     7.7258   121.1725     0.1185     2.4713     0.0237   -36.3410    13.1888    13.8248
  426.5000     7.7267   121.8481     0.1175     2.4751     0.0252   -36.6130    13.2484    13.8247
  427.0000     7.7275   121.9419     0.1167     2.4789     0.0267   -36.8010    13.3316    13.8248
  427.5000     7.7284   121.8460     0.1158     2.4813     0.0282   -36.8363    13.3183    13.8245
  428.0000     7.7292   120.1567     0.1154     2.4825     0.0296   -36.8741    13.2966    13.8188
  428.5000     7.7301   116.1052     0.1158     2.4838     0.0311   -36.9113    13.2749    13.8130
  429.0000     7.7319   113.0686     0.1181     2.4850     0.0294   -36.9487    13.2533    13.8073
  429.5000     7.7355   112.6383     0.1288     2.4838     0.0217   -36.9861    13.2317    13.8016
  430.0000     7.7391   116.5637     0.1405     2.4806     0.0140   -37.0235    13.2106    13.7958
  430.5000     7.7427  -999.2500     0.1559     2.4599     0.0063   -37.0609    13.1844    13.7901
  431.0000     7.7463  -999.2500     0.1538     2.4381     0.0040   -37.0982    13.1589    13.7844
  431.5000     7.7498  -999.2500     0.1443     2.4229     0.0052   -37.1354    13.1335    13.7787
  432.0000     7.7534  -999.2500     0.1338     2.4407     0.0105   -37.1702    13.1082    13.7730
  432.5000     7.7570  -999.2500     0.1233     2.4555     0.0157   -37.3007    13.0829    13.7672
  433.0000     7.7606  -999.2500     0.1192     2.4683     0.0209   -37.4477    13.0576    13.7615
  433.5000     7.7642  -999.2500     0.1164     2.4744     0.0256   -37.5955    13.0324    13.7558
  434.0000     7.7678  -999.2500  -999.2500     2.4805     0.0231   -37.7492    13.0073    13.7501
  434.5000  -999.2500  -999.2500  -999.2500     2.4864     0.0204   -37.5929    12.9822    13.7444
