~VERSION INFORMATION
 VERS.                2.0:   CWLS LOG ASCII STANDARD - VERSION 2.0
 WRAP.                 NO:   ONE LINE PER DEPTH STEP
~WELL INFORMATION
#MNEM.UNIT      DATA TYPE    INFORMATION
#----------   ------------   ------------------------------
 STRT.F           44.0000:   START DEPTH
 STOP.F          510.0000:   STOP DEPTH
 STEP.F            0.5000:   STEP LENGTH
 NULL.          -999.2500:   NO VALUE
 COMP. FENIX & SCISSON INC:   COMPANY
 WELL. NPR-3 76-SX-3 #76-3:   WELL
 FLD . TEAPOT DOME NPR #3:   FIELD
 LOC .       S3 T38N R78W:   LOCATION
 CNTY.            NATRONA:   COUNTY
 STAT.            WYOMING:   STATE
 CTRY. UNITED STATES OF AMERICA:   COUNTRY
 SRVC.            Unknown:   SERVICE COMPANY
 DATE.        13-OCT-1978:   LOGDATE
 API .       490251072300:   API NUMBER
~CURVE INFORMATION
#MNEM.UNIT       API CODE    CURVE DESCRIPTION
#----------   ------------   ------------------------------
 DEPT.F                  :   
 CALD.IN     45 280 60 00:   CALIPER
 RHOB.G/C3   45 350 01 00:   BULK DENSITY
 CORR.G/C3   45 356 01 00:   DENSITY CORRECTION
 SPR .MV     05 010 01 00:   SPONTANEOUS POTENTIAL FROM RES.
 SN  .OHMM   05 040 16 00:   SHORT NORMAL 16"
 ILD .OHMM   05 120 46 00:   INDUCTION LOG DEEP
 DPHI.DEC    45 890 12 00:   DENSITY POROSITY SANDSTONE
~PARAMETER INFORMATION
#MNEM.UNIT          VALUE    DESCRIPTION
#----------   ------------   ------------------------------
 PD  .                 GL:   PERMANENT DATUM
 EPD .F              5151:   ELEVATION PERMANENT DATUM
 LMF .                 KB:   LOG MEASURED FROM
 DAPD.F                 4:   FEET ABOVE PERMANENT DATUM
 DMF .                 KB:   DRILLING MEASURED FROM
 EKB .F              5155:   KELLING BUSHING
 EGL .F              5151:   GROUND LEVEL
 DATE.         10-13-1978:   RUN DATE
 RUN .                  1:   RUN NUMBER
 DD  .F               515:   DEPTH DRILLER
 DL  .F               517:   DEPTH LOGGER
 BLI .F               511:   BOTTOM LOG INTERVAL
 TLI .F                50:   TOP LOG INTERVAL
 CS  .IN            8.625:   CASING SIZE
 CBD .F                40:   CASING BOTTOM DRILLER
 BS  .IN            7.875:   BIT SIZE
 BSD .F               515:   BIT SIZE AT DEPTH
 DFT .                KCL:   DRILLING FLUID TYPE
 MSS .            MUD PIT:   MUD SAMPLE SOURCE
 RMS .OHMM             .2:   RESISTIVITY MUD SAMPLE
 MST .F                54:   MUD SAMPLE TEMPERATURE
 RMF .OHMM            .19:   RESISTIVITY MUD FILTRATE SAMPLE
 MFST.F                63:   MUD FILTRATE SAMPLE TEMPERATURE
 RMC .OHMM            .26:   RESISTIVITY MUD CAKE
 MCST.F                64:   MUD CAKE SAMPLE TEMPERATURE
 MFSS.               MEAS:   MUD FILTRATE SAMPLE SOURCE
 MCSS.               MEAS:   MUD CAKE SAMPLE SOURCE
 TCS .HRS               2:   TIME CURCULATED STOPPED
 LUN .               3006:   LOGGING UNIT NUMBER
 LUL .               CASP:   LOGGING UNIT LOCATION
 ENGI.             MILLER:   RECORDING ENGINEER
 WITN.           DINSMORE:   WITNESSED BY
 CLNT.            A2DTECH:   CLIENT CODE
 ORIG.           5" PRINT:   ORIGIN OF DATA
 UWI .       490251072300:   UNIQUE WELL ID
 DICO. A2D Technologies, Inc.:   DIGITIZING COMPANY
~OTHER INFORMATION
~A   DEPT     CALD       RHOB        CORR       SPR         SN        ILD         DPHI 
# ...
  135.0000     7.1979     2.4993     0.0675   -14.0014     9.1609     9.5366     0.1442
  135.5000     7.1625     2.4545     0.0670   -13.9940     9.1223     9.4413     0.1440
  136.0000     7.1710     2.4425     0.0657   -14.0341     9.0838     9.5488     0.1438
  136.5000     7.1944     2.4436     0.0641   -14.3375     9.0455     9.6830     0.1436
  137.0000     7.2488     2.4444     0.0625   -14.5896     9.0106     9.7879     0.1409
  137.5000     7.3027     2.4456     0.0609   -14.5834     8.9867     9.9188     0.1337
  138.0000     7.3567     2.4534     0.0593   -14.5834     8.9629    10.0515     0.1265
  138.5000     7.4104     2.4670     0.0593   -14.6373     8.9391    10.1860     0.1192
  139.0000     7.4595     2.4781     0.0596   -14.9189     8.9154    10.3222     0.1118
  139.5000     7.4787     2.4866     0.0599   -15.1722     8.8918    10.4603     0.1089
  140.0000     7.5058     2.4951     0.0602   -15.1366     8.8681    10.6002     0.1058
  140.5000     7.5696     2.4992     0.0605   -15.0933     8.8045    10.6535     0.1141
  141.0000     7.6330     2.4874     0.0609   -15.0511     8.6523    10.6761     0.1226
  141.5000     7.6964     2.4772     0.0624   -15.0093     8.5027    10.6987     0.1234
  142.0000     7.7598     2.4753     0.0661   -14.9674     8.3556    10.7213     0.1234
  142.5000     7.8230     2.4745     0.0789   -14.9256     8.2112    10.7407     0.1231
  143.0000     7.8749     2.4750     0.1068   -14.8834     8.1226    10.4585     0.1195
  143.5000     7.8790     2.4777     0.1412   -14.8422     8.0778    10.1679     0.1080
  144.0000     7.8841     2.4911     0.2502   -14.7975     8.0332     9.8494     0.0573
  144.5000     7.8888     2.5296     0.4531   -15.0879     7.9888     9.5409    -0.1002
  145.0000     7.8763     2.5891     0.6133   -15.6291     7.9447     9.2420    -0.1262
  145.5000     7.7955     2.7040     0.6126   -16.1532     7.9008     8.9525    -0.1262
  146.0000     7.7168     2.9064     0.6166   -16.1588     7.8572     8.6721    -0.1041
  146.5000     7.6382     2.9786     0.4256   -16.1401     7.8138     8.3996    -0.0549
  147.0000     7.5596     2.8089     0.2494   -16.1237     7.7809     8.1478    -0.0057
  147.5000     7.4802     2.6845     0.1856   -16.1080     7.7911     8.1583     0.0436
  148.0000     7.4493     2.5839     0.1397   -16.0923     7.7993     8.1701     0.0928
  148.5000     7.4400     2.4975     0.0938   -16.0766     7.8076     8.1816     0.1302
  149.0000     7.4309     2.4633     0.0597   -16.0609     7.8159     8.1928     0.1359
  149.5000     7.4219     2.4546     0.0560   -16.0453     7.8242     8.2040     0.1376
  150.0000     7.4172     2.4526     0.0544   -16.0296     7.8325     8.2151     0.1361
  150.5000     7.4247     2.4506     0.0533   -16.0138     7.8407     8.2225     0.1342
  151.0000     7.4319     2.4530     0.0522   -15.9979     7.8529     8.2133     0.1324
  151.5000     7.4582     2.4560     0.0511   -15.9833     7.7726     8.2060     0.1370
  152.0000     7.5030     2.4494     0.0500   -16.0278     7.6246     8.1986     0.1450
  152.5000     7.5360     2.4390     0.0490   -16.1971     7.4794     8.1912     0.1498
  153.0000     7.5416     2.4351     0.0502   -16.3647     7.3597     8.1839     0.1493
  153.5000     7.5477     2.4324     0.0516   -16.5354     7.3437     8.1765     0.1451
  154.0000     7.5549     2.4375     0.0529   -16.5799     7.3277     8.1692     0.1395
  154.5000     7.6097     2.4471     0.0542   -16.5959     7.3119     8.1615     0.1346
  155.0000     7.6711     2.4557     0.0556   -16.6112     7.2960     8.1557     0.1348
  155.5000     7.6943     2.4555     0.0569   -16.6269     7.2802     8.1605     0.1334
  156.0000     7.7156     2.4581     0.0564   -16.6425     7.2644     7.5943     0.1286
  156.5000     7.7372     2.4631     0.0558   -16.6582     7.2487     7.3609     0.1234
  157.0000     7.7586     2.4683     0.0551   -16.6739     7.2288     7.4749     0.1246
  157.5000     7.7736     2.4683     0.0545   -16.6896     7.2321     7.6051     0.1268
  158.0000     7.7733     2.4668     0.0538   -16.7053     7.2378     7.7371     0.1291
  158.5000     7.7734     2.4652     0.0531   -16.7210     7.2434     7.8529     0.1298
  159.0000     7.7733     2.4636     0.0565   -16.7367     7.2490     7.8320     0.1285
  159.5000     7.7733     2.4660     0.0611   -16.7524     7.2547     7.8039     0.1270
  160.0000     7.7729     2.4687     0.0658   -16.7680     7.2603     7.7380     0.1258
  160.5000     7.7941     2.4741     0.0721   -16.7837     7.2660     7.4996     0.1158
  161.0000     7.8218     2.4851     0.0944   -16.7994     7.2716     7.3612     0.1049
  161.5000     7.8498     2.4975     0.1166   -16.8151     7.2773     7.3834     0.0940
  162.0000     7.8774     2.5169     0.1390   -16.8308     7.2830     7.4018     0.0850
  162.5000     7.9052     2.5345     0.1482   -16.8465     7.2886     7.4196     0.0811
  163.0000     7.9180     2.5378     0.1473   -16.8622     7.2942     7.4375     0.0805
  163.5000     7.8937     2.5374     0.1462   -16.8778     7.3004     7.4554     0.0802
  164.0000     7.8689     2.5359     0.1451   -16.8935     7.3066     7.4734     0.0845
  164.5000     7.8440     2.5345     0.1439   -16.9092     7.3127     7.4914     0.0890
  165.0000     7.8191     2.5336     0.1428   -16.9248     7.3189     7.5094     0.0896
  165.5000     7.7941     2.5338     0.1417   -16.9406     7.3250     7.5275     0.0858
  166.0000     7.7695     2.5340     0.1406   -16.9571     7.3312     7.5457     0.0837
  166.5000     7.7572     2.5342     0.1395   -17.0111     7.3373     7.5639     0.0845
  167.0000     7.7834     2.5344     0.1408   -17.1071     7.3435     7.5821     0.0849
  167.5000     7.8091     2.5355     0.1440   -17.2025     7.3497     7.6004     0.0825
  168.0000     7.8348     2.5371     0.1471   -17.2971     7.3559     7.6187     0.0786
  168.5000     7.8606     2.5388     0.1503   -17.3621     7.3621     7.6370     0.0794
  169.0000     7.8866     2.5391     0.1534   -17.3610     7.3683     7.6554     0.0813
  169.5000     7.9110     2.5385     0.1565   -17.3612     7.3745     7.6739     0.0834
  170.0000     7.8866     2.5378     0.1610   -17.3611     7.3807     7.6924     0.0820
  170.5000     7.8596     2.5402     0.1729   -17.3611     7.3869     7.7096     0.0750
  171.0000     7.8327     2.5447     0.1847   -17.3611     7.3931     7.6910     0.0680
  171.5000     7.8058     2.5523     0.1968   -17.3611     7.3993     7.6736     0.0611
  172.0000     7.7784     2.5648     0.1976   -17.3611     7.4056     7.6564     0.0553
  172.5000     7.7734     2.5736     0.1892   -17.3611     7.4118     7.6392     0.0575
  173.0000     7.7733     2.5761     0.1640   -17.3611     7.4180     7.6220     0.0673
  173.5000     7.7733     2.5734     0.1350   -17.3611     7.4243     7.6049     0.0813
  174.0000     7.7734     2.5518     0.1059   -17.3611     7.4302     7.5878     0.0953
  174.5000     7.7734     2.5187     0.0763   -17.3611     7.4073     7.5708     0.1094
  175.0000     7.7734     2.5030     0.0707   -17.3611     7.3836     7.5538     0.1117
  175.5000     7.7734     2.4932     0.0703   -17.3611     7.3599     7.5368     0.1106
  176.0000     7.7734     2.4920     0.0700   -17.3611     7.3362     7.5198     0.1064
  176.5000     7.7734     2.4954     0.0697   -17.3611     7.3127     7.5029     0.1023
  177.0000     7.7729     2.5018     0.0694   -17.3608     7.2892     7.4861     0.0982
  177.5000     7.7418     2.5083     0.0691   -17.3609     7.2657     7.4692     0.0950
  178.0000     7.6631     2.5146     0.0639   -17.3837     7.2424     7.4524     0.1007
  178.5000     7.5842     2.5137     0.0577   -17.5286     7.2191     7.4355     0.1077
  179.0000     7.5597     2.5018     0.0514   -17.6715     7.1959     7.3810     0.1146
  179.5000     7.5665     2.4899     0.0490   -17.7589     7.1727     7.3109     0.1172
  180.0000     7.5739     2.4833     0.0490   -17.7578     7.1216     7.2414     0.1170
