~VERSION INFORMATION
 VERS.                2.0:   CWLS LOG ASCII STANDARD - VERSION 2.0
 WRAP.                 NO:   ONE LINE PER DEPTH STEP
~WELL INFORMATION
#MNEM.UNIT      DATA TYPE    INFORMATION
#----------   ------------   ------------------------------
 STRT.F           24.0000:   START DEPTH
 STOP.F          690.0000:   STOP DEPTH
 STEP.F            0.5000:   STEP LENGTH
 NULL.          -999.2500:   NO VALUE
 COMP. DEPARTMENT OF ENERGY:   COMPANY
 WELL.     STX 2 #24-15-2:   WELL
 FLD .             TEAPOT:   FIELD
 LOC .       S2 T38N R78W:   LOCATION
 CNTY.            NATRONA:   COUNTY
 STAT.            WYOMING:   STATE
 CTRY. UNITED STATES OF AMERICA:   COUNTRY
 SRVC.           Gearhart:   SERVICE COMPANY
 DATE.        23-DEC-1987:   LOGDATE
 API .       490251116800:   API NUMBER
~CURVE INFORMATION
#MNEM.UNIT       API CODE    CURVE DESCRIPTION
#----------   ------------   ------------------------------
 DEPT.F                  :   
 GRR .GAPI   07 310 01 00:   GAMMA RAY
 RILD.OHMM   07 120 46 00:   INDUCTION LOG DEEP
 RILM.OHMM   07 120 44 00:   INDUCTION LOG MEDIUM
 RLL .OHMM   07 220 01 00:   LATEROLOG-1 RES.
~PARAMETER INFORMATION
#MNEM.UNIT          VALUE    DESCRIPTION
#----------   ------------   ------------------------------
 PD  .                 GL:   PERMANENT DATUM
 LMF .                 KB:   LOG MEASURED FROM
 DMF .                 KB:   DRILLING MEASURED FROM
 DATE.        03-SEP-1987:   RUN DATE
 RUN .                  1:   RUN NUMBER
 DL  .F               692:   DEPTH LOGGER
 BLI .F               690:   BOTTOM LOG INTERVAL
 CS  .IN            8.625:   CASING SIZE
 CBD .F                48:   CASING BOTTOM DRILLER
 CBL .F                48:   CASING BOTTOM LOGGER
 BS  .IN            7.875:   BIT SIZE
 DFT .                MUD:   DRILLING FLUID TYPE
 TCS .HRS            0600:   TIME CURCULATED STOPPED
 TLAB.HRS            0751:   TIME LOGGER AT BOTTOM
 MRT .F                80:   MAXIMUM RECORDED TEMPERATURE
 LUN .               7597:   LOGGING UNIT NUMBER
 LUL .           GILLETTE:   LOGGING UNIT LOCATION
 ENGI.         WEATHERMON:   RECORDING ENGINEER
 WITN.             STRONG:   WITNESSED BY
 CLNT.            A2DTECH:   CLIENT CODE
 ORIG.           5" PRINT:   ORIGIN OF DATA
 UWI .       490251116800:   UNIQUE WELL ID
 DICO. A2D Technologies, Inc.:   DIGITIZING COMPANY
~OTHER INFORMATION
~A   DEPT       GRR      RILD       RILM        RLL   
# ...
   97.0000    80.5798     8.7369     8.1766     8.9500
   97.5000    84.7463     7.8745     7.5763     7.8443
   98.0000    92.0398     7.3481     7.0689     7.3191
   98.5000    99.3333     7.0501     6.7346     7.1198
   99.0000   101.4701     7.0027     6.5059     7.0226
   99.5000    94.2234     6.9562     6.4173     7.0734
  100.0000    87.5775     7.0070     6.4187     7.0748
  100.5000    87.2900     7.1070     6.4200     7.2254
  101.0000    88.2251     7.1585     6.5112     7.3281
  101.5000    89.1550     7.1765     6.6040     7.3807
  102.0000    90.3879     7.2517     6.6054     7.3311
  102.5000    91.5947     7.3128     6.5152     7.1788
  103.0000    93.4425     7.2636     6.4714     6.9857
  103.5000    96.5394     7.1094     6.4279     6.8433
  104.0000    99.8460     6.9699     6.4295     6.7973
  104.5000   100.1623     6.8755     6.4308     6.8461
  105.0000    98.6693     6.8768     6.4770     6.9434
  105.5000    97.1719     6.9262     6.6148     7.0911
  106.0000    94.1593     7.0245     6.7088     7.2421
  106.5000    92.0558     7.2238     6.7570     7.4478
  107.0000    90.8606     7.3305     6.7181     7.5536
  107.5000    91.1821     7.3792     6.7672     7.5551
  108.0000    92.1091     7.3540     6.7216     7.5044
  108.5000    92.4303     7.3127     6.6773     7.4022
  109.0000    92.4518     7.2314     6.6324     7.3015
  109.5000    92.4695     7.1324     6.5430     7.2524
  110.0000    93.3963     7.0364     6.4965     7.1541
  110.5000    94.3187     7.0376     6.4561     7.0568
  111.0000    92.2196     7.0392     6.4131     6.9604
  111.5000    90.7222     7.0407     6.3708     6.9138
  112.0000    89.8303     7.0911     6.3725     6.9153
  112.5000    90.1515     7.1619     6.4187     7.0136
  113.0000    91.3818     7.2461     6.4685     7.1628
  113.5000    92.3126     7.3465     6.6037     7.3168
  114.0000    92.0228     7.3992     6.7917     7.4283
  114.5000    92.0450     7.4007     6.8886     7.5249
  115.0000    92.6687     7.3510     6.9869     7.5262
  115.5000    93.5955     7.3524     7.0375     7.4758
  116.0000    95.1284     7.3601     7.0394     7.4773
  116.5000    97.8734     7.5106     7.0417     7.4788
  117.0000   100.3153     7.6703     7.1422     7.5325
  117.5000    97.5252     7.7792     7.2442     7.6396
  118.0000    94.2384     7.8897     7.3988     7.8065
  118.5000    93.4032     7.9583     7.5044     7.9571
  119.0000    93.4209     8.0419     7.5839     8.0901
  119.5000    93.4386     8.0606     7.6667     8.1398
  120.0000    93.4563     8.0623     7.7227     8.1982
  120.5000    92.5649     8.0642     7.7786     8.1997
  121.0000    91.0675     8.0096     7.7807     8.2015
  121.5000    91.3882     8.0116     7.7827     8.1463
  122.0000    91.4061     7.9577     7.7310     8.0916
  122.5000    91.3838     7.9042     7.7330     8.0933
  123.0000    89.9306     7.7971     7.6820     8.0389
  123.5000    88.1302     7.7443     7.5780     7.9851
  124.0000    87.5374     7.7462     7.4236     7.9744
  124.5000    87.8626     7.8018     7.2723     7.9326
  125.0000    88.7894     7.9125     7.2743     7.9347
  125.5000    90.0192     7.9693     7.3270     7.9916
  126.0000    90.6430     7.9622     7.4911     8.1617
  126.5000    88.8425     7.9173     7.6436     9.0662
  127.0000    82.3839     7.8096     7.6990    11.2111
  127.5000    76.4581     7.7034     7.4899    12.1378
  128.0000    73.4455     7.7054     7.1858    12.0562
  128.5000    73.7662     7.7672     7.0394    11.4064
  129.0000    79.2385     7.8167     6.9925     9.1334
  129.5000    87.7410     7.7637     7.0433     7.5195
  130.0000    90.4860     7.6055     7.0947     7.3655
  130.5000    91.4128     7.6601     7.2967     7.4705
  131.0000    92.6427     7.7792     7.5568     7.5241
  131.5000    93.9051     7.8800     7.7181     7.5184
  132.0000    95.7091     7.9358     7.7740     7.1700
  132.5000    93.3063     7.9373     7.8303     7.1215
  133.0000    90.5967     7.9389     7.7248     7.0739
  133.5000    89.7009     7.8856     7.7133     7.1247
  134.0000    89.7230     7.8327     7.6749     7.1759
  134.5000    89.7408     7.7801     7.6774     7.3286
  135.0000    89.7585     7.7820     7.6795     7.5367
  135.5000    90.3822     7.8378     7.7117     7.6996
  136.0000    90.4000     7.8939     7.7449     7.8610
  136.5000    90.7212     7.8956     7.7935     7.9177
  137.0000    91.0458     7.8426     7.7419     7.9746
  137.5000    91.3666     7.7630     7.6365     7.8657
  138.0000    91.9904     7.6531     7.4296     7.7587
  138.5000    93.2202     7.5187     7.1746     7.6150
  139.0000    95.6621     7.3736     6.9775     7.4535
  139.5000    95.9785     7.2733     6.8405     7.3438
  140.0000    94.7885     7.2243     6.7479     7.2406
  140.5000    93.5941     7.1758     6.7501     7.1952
  141.0000    92.6788     7.1773     6.7518     7.1967
  141.5000    92.4174     7.1791     6.7537     7.1881
  142.0000    92.4395     7.2304     6.7556     7.1999
  142.5000    92.1497     7.2319     6.6645     7.2014
  143.0000    92.1719     7.2335     6.4835     7.2531
  143.5000    92.1896     7.1848     6.3514     7.2042
  144.0000    91.8998     7.1365     6.3086     7.1063
  144.5000    91.9220     7.1383     6.3107     7.0585
  145.0000    91.9397     7.1397     6.3125     7.0603
  145.5000    91.9576     7.1410     6.3586     7.0615
  146.0000    92.3232     7.1426     6.4493     7.0631
  146.5000    93.2094     7.1440     6.4961     7.1138
  147.0000    94.4392     7.2475     6.6347     7.2149
  147.5000    96.2751     7.5034     6.8236     7.2667
  148.0000    98.7170     7.7701     6.9693     7.4213
  148.5000    99.9469     7.9906     7.0688     7.5793
  149.0000    96.6312     8.1040     7.1701     7.8548
  149.5000    93.9217     8.2190     7.3231     8.1286
  150.0000    92.4242     8.2207     7.5842     8.2439
  150.5000    90.0212     8.2133     7.8001     8.4199
  151.0000    89.1409     7.9990     7.8022     8.4221
  151.5000    89.1640     7.8356     7.8043     8.3660
  152.0000    91.3899     7.7828     7.8069     8.2974
  152.5000    94.0645     7.6558     7.6478     8.1414
  153.0000    94.9966     7.6255     7.4401     8.0311
  153.5000    95.0197     7.5742     7.2885     7.8130
  154.0000    95.0428     7.5761     7.1898     7.6538
  154.5000    95.1071     7.5774     7.0924     7.5501
  155.0000    97.2160     7.6321     6.9968     7.4998
  155.5000    98.7542     7.7118     6.9406     7.5023
  156.0000    98.1712     7.7958     6.9035     7.5043
  156.5000    96.3761     7.9065     6.9058     7.5068
  157.0000    95.1475     7.9084     6.9076     7.5611
  157.5000    95.5190     7.9100     6.9585     7.5631
  158.0000    96.7542     7.9191     7.2061     7.6179
  158.5000    97.6864     8.0239     7.5151     7.6733
  159.0000    97.4064     8.0782     7.7829     7.8374
  159.5000    94.9252     8.2258     7.9491     7.9492
  160.0000    92.0038     8.3164     8.0625     8.1188
  160.5000    90.5118     8.3725     8.1209     8.2921
  161.0000    90.8379     8.3740     8.0668     8.3522
  161.5000    92.3761     8.3560     7.9581     8.4132
  162.0000    94.5616     8.2619     7.8498     8.3572
  162.5000    94.8466     8.1496     7.6899     8.3009
  163.0000    92.7542     7.9745     7.5142     8.0760
  163.5000    91.2621     7.7126     7.3628     7.9114
  164.0000    90.6788     7.5823     7.1771     7.6970
  164.5000    90.7434     7.4356     6.9852     7.5402
  165.0000    91.6402     7.4018     6.8901     7.4694
  165.5000    92.2694     7.3524     6.8442     7.4399
  166.0000    93.2015     7.3539     6.7986     7.4038
  166.5000    94.4367     7.4070     6.8009     7.4440
  167.0000    95.7131     7.3572     6.8502     7.4983
  167.5000    97.2160     7.3074     6.9529     7.6053
  168.0000    98.1481     7.3092     7.0967     7.7338
  168.5000    99.0803     7.2601     7.1225     7.8496
  169.0000    99.1034     7.2229     7.1999     7.9376
  169.5000    98.7838     7.1628     7.2018     7.9935
