~VERSION INFORMATION
 VERS.                2.0:   CWLS LOG ASCII STANDARD - VERSION 2.0
 WRAP.                 NO:   ONE LINE PER DEPTH STEP
~WELL INFORMATION
#MNEM.UNIT      DATA TYPE    INFORMATION
#----------   ------------   ------------------------------
 STRT.F           24.5000:   START DEPTH
 STOP.F          506.0000:   STOP DEPTH
 STEP.F            0.5000:   STEP LENGTH
 NULL.          -999.2500:   NO VALUE
 COMP. FENIX & SCISSON INC:   COMPANY
 WELL.    NPR 3 SX #44-10:   WELL
 FLD .        TEAPOT DOME:   FIELD
 LOC .      S10 T38N R78W:   LOCATION
 CNTY.            NATRONA:   COUNTY
 STAT.            WYOMING:   STATE
 CTRY. UNITED STATES OF AMERICA:   COUNTRY
 SRVC.           BIRDWELL:   SERVICE COMPANY
 DATE.        14-NOV-1978:   LOGDATE
 API .       490251074700:   API NUMBER
~CURVE INFORMATION
#MNEM.UNIT       API CODE    CURVE DESCRIPTION
#----------   ------------   ------------------------------
 DEPT.F                  :   
 SPR .MV     05 010 01 00:   SPONTANEOUS POTENTIAL FROM RES.
 IL  .OHMM   05 120 00 00:   INDUCTION LOG
 SN  .OHMM   05 040 16 00:   SHORT NORMAL 16"
 CALD.IN     45 280 60 00:   CALIPER
 GRD .GAPI   45 310 01 00:   GAMMA RAY FROM DENSITY LOG
 RHOB.G/C3   45 350 01 00:   BULK DENSITY
 DPHI.DEC    45 890 12 00:   DENSITY POROSITY SANDSTONE
 DRHO.G/C3   45 356 01 00:   DENSITY CORRECTION
~PARAMETER INFORMATION
#MNEM.UNIT          VALUE    DESCRIPTION
#----------   ------------   ------------------------------
 PD  .                 GL:   PERMANENT DATUM
 EPD .F              5211:   ELEVATION PERMANENT DATUM
 LMF .                 KB:   LOG MEASURED FROM
 DAPD.F                 4:   FEET ABOVE PERMANENT DATUM
 DMF .                 KB:   DRILLING MEASURED FROM
 EKB .F              5215:   KELLING BUSHING
 EGL .F              5211:   GROUND LEVEL
 DATE.           11-14-78:   RUN DATE
 RUN .                  1:   RUN NUMBER
 DD  .F               510:   DEPTH DRILLER
 DL  .F               506:   DEPTH LOGGER
 BLI .F               500:   BOTTOM LOG INTERVAL
 TLI .F                45:   TOP LOG INTERVAL
 CS  .IN            8.625:   CASING SIZE
 CBD .F                40:   CASING BOTTOM DRILLER
 CBL .F                40:   CASING BOTTOM LOGGER
 BS  .IN            7.875:   BIT SIZE
 BSD .F               510:   BIT SIZE AT DEPTH
 DFT .            SEA MUD:   DRILLING FLUID TYPE
 DFD .                8.7:   DRILLING FLUID DENSITY
 DFV .                 35:   DRILLING FLUID VISCOSITY
 DFPH.               10.5:   DRILLING FLUID PH
 MSS .            MUD PIT:   MUD SAMPLE SOURCE
 RMS .OHMM            .51:   RESISTIVITY MUD SAMPLE
 MST .F                54:   MUD SAMPLE TEMPERATURE
 RMF .OHMM            .45:   RESISTIVITY MUD FILTRATE SAMPLE
 MFST.F                54:   MUD FILTRATE SAMPLE TEMPERATURE
 RMC .OHMM             .5:   RESISTIVITY MUD CAKE
 MCST.F                60:   MUD CAKE SAMPLE TEMPERATURE
 MFSS.           MEASURED:   MUD FILTRATE SAMPLE SOURCE
 MCSS.           MEASURED:   MUD CAKE SAMPLE SOURCE
 RMB .OHMM            .49:   RESISTIVITY MUD AT BHT
 BHT .F                56:   BOTTOM HOLE TEMPERATURE
 TCS .HRS               2:   TIME CURCULATED STOPPED
 MRT .F                56:   MAXIMUM RECORDED TEMPERATURE
 LUN .               2958:   LOGGING UNIT NUMBER
 LUL .               CASP:   LOGGING UNIT LOCATION
 ENGI.             MILLER:   RECORDING ENGINEER
 WITN.           DINSMORE:   WITNESSED BY
 CLNT.            A2DTECH:   CLIENT CODE
 ORIG.       2", 5" PRINT:   ORIGIN OF DATA
 UWI .       490251074700:   UNIQUE WELL ID
 DICO. A2D Technologies, Inc.:   DIGITIZING COMPANY
~OTHER INFORMATION
~A   DEPT      SPR         IL         SN       CALD         GRD      RHOB       DPHI       DRHO   
   24.5000  -999.2500  -999.2500  -999.2500  -999.2500    56.5000  -999.2500  -999.2500  -999.2500
   25.0000  -999.2500  -999.2500  -999.2500  -999.2500    56.5000  -999.2500  -999.2500  -999.2500
   25.5000  -999.2500  -999.2500  -999.2500  -999.2500    66.6530  -999.2500  -999.2500  -999.2500
   26.0000  -999.2500  -999.2500  -999.2500  -999.2500    73.2370  -999.2500  -999.2500  -999.2500
   26.5000  -999.2500  -999.2500  -999.2500  -999.2500    73.9310  -999.2500  -999.2500  -999.2500
   27.0000  -999.2500  -999.2500  -999.2500  -999.2500    72.9540  -999.2500  -999.2500  -999.2500
   27.5000  -999.2500  -999.2500  -999.2500  -999.2500    71.8110  -999.2500  -999.2500  -999.2500
   28.0000  -999.2500  -999.2500  -999.2500  -999.2500    71.2540  -999.2500  -999.2500  -999.2500
   28.5000  -999.2500  -999.2500  -999.2500  -999.2500    71.6650  -999.2500  -999.2500  -999.2500
   29.0000  -999.2500  -999.2500  -999.2500  -999.2500    72.0660  -999.2500  -999.2500  -999.2500
   29.5000  -999.2500  -999.2500  -999.2500  -999.2500    72.9350  -999.2500  -999.2500  -999.2500
   30.0000  -999.2500  -999.2500  -999.2500  -999.2500    74.6270  -999.2500  -999.2500  -999.2500
   30.5000  -999.2500  -999.2500  -999.2500  -999.2500    74.6770  -999.2500  -999.2500  -999.2500
   31.0000  -999.2500  -999.2500  -999.2500  -999.2500    74.6470  -999.2500  -999.2500  -999.2500
   31.5000  -999.2500  -999.2500  -999.2500  -999.2500    74.6160  -999.2500  -999.2500  -999.2500
   32.0000  -999.2500  -999.2500  -999.2500  -999.2500    74.5870  -999.2500  -999.2500  -999.2500
   32.5000  -999.2500  -999.2500  -999.2500  -999.2500    74.5590  -999.2500  -999.2500  -999.2500
   33.0000  -999.2500  -999.2500  -999.2500  -999.2500    74.5320  -999.2500  -999.2500  -999.2500
   33.5000  -999.2500  -999.2500  -999.2500  -999.2500    74.4950  -999.2500  -999.2500  -999.2500
   34.0000  -999.2500  -999.2500  -999.2500  -999.2500    74.0010  -999.2500  -999.2500  -999.2500
   34.5000  -999.2500  -999.2500  -999.2500  -999.2500    73.6620  -999.2500  -999.2500  -999.2500
   35.0000  -999.2500  -999.2500  -999.2500  -999.2500    74.0600  -999.2500  -999.2500  -999.2500
   35.5000  -999.2500  -999.2500  -999.2500  -999.2500    74.4830  -999.2500  -999.2500  -999.2500
   36.0000  -999.2500  -999.2500  -999.2500  -999.2500    73.1350  -999.2500  -999.2500  -999.2500
   36.5000  -999.2500  -999.2500  -999.2500  -999.2500    69.9210  -999.2500  -999.2500  -999.2500
   37.0000  -999.2500  -999.2500  -999.2500  -999.2500    66.6290  -999.2500  -999.2500  -999.2500
   37.5000  -999.2500  -999.2500  -999.2500  -999.2500    65.7390  -999.2500  -999.2500  -999.2500
   38.0000  -999.2500  -999.2500  -999.2500  -999.2500    65.6240  -999.2500  -999.2500  -999.2500
   38.5000  -999.2500  -999.2500  -999.2500  -999.2500    66.2370  -999.2500  -999.2500  -999.2500
   39.0000  -999.2500  -999.2500  -999.2500  -999.2500    75.9690  -999.2500  -999.2500  -999.2500
   39.5000  -999.2500  -999.2500  -999.2500  -999.2500    86.5830  -999.2500  -999.2500  -999.2500
   40.0000  -999.2500  -999.2500  -999.2500     7.9140    93.8080     2.5260  -999.2500  -999.2500
   40.5000  -999.2500  -999.2500  -999.2500     7.9540    96.8090     2.5140     0.0970  -999.2500
   41.0000  -999.2500  -999.2500  -999.2500     7.9940    98.3820     2.5030     0.1070  -999.2500
   41.5000  -999.2500  -999.2500  -999.2500     8.0350    99.6750     2.5040     0.1030  -999.2500
   42.0000  -999.2500  -999.2500  -999.2500     8.0650    99.7680     2.5100     0.1000     0.0590
   42.5000  -999.2500  -999.2500  -999.2500     8.1050    99.4370     2.5150     0.0970     0.0520
   43.0000  -999.2500  -999.2500  -999.2500     8.1450    99.1270     2.5200     0.0930     0.0440
   43.5000  -999.2500  -999.2500  -999.2500     8.1700    99.0580     2.5220     0.0930     0.0360
   44.0000  -999.2500  -999.2500  -999.2500     8.1700   101.1510     2.5200     0.1000     0.0310
   44.5000  -999.2500  -999.2500  -999.2500     8.1530   103.2500     2.5070     0.1050     0.0250
   45.0000   -46.2720  -999.2500  -999.2500     8.1250   105.6180     2.4930     0.1100     0.0240
   45.5000   -46.8540  -999.2500  -999.2500     8.0970   109.8950     2.4930     0.1120     0.0240
   46.0000   -47.3740  -999.2500  -999.2500     8.0670   113.9520     2.4950     0.1100     0.0230
   46.5000   -46.5660  -999.2500  -999.2500     8.0250   112.0640     2.4970     0.1090     0.0220
   47.0000   -45.7950     8.7820    11.4270     7.9430   109.7130     2.4990     0.1100     0.0210
   47.5000   -44.9550     8.7700    11.3840     7.8610   107.3630     2.4920     0.1180     0.0190
   48.0000   -44.5410     8.7590    11.3410     7.7480   105.3130     2.4810     0.1240     0.0170
   48.5000   -47.0170     8.7020    11.2320     7.5340   105.3160     2.4750     0.1230     0.0160
   49.0000   -50.1220     8.7390    11.2870     7.3220   106.4690     2.4750     0.1230     0.0140
   49.5000   -52.5710     8.7270    11.2230     7.2780   107.7760     2.4740     0.1220     0.0140
   50.0000   -45.7590     8.7160    11.1800     7.2350   107.6180     2.4720     0.1270     0.0140
   50.5000   -46.8330     8.7040    11.1370     7.1910   106.9790     2.4700     0.1260     0.0150
   51.0000   -48.0260     8.6930    11.0940     7.1740   106.3290     2.4700     0.1250     0.0160
   51.5000   -49.2500     8.6810    11.0510     7.2470   105.6710     2.4700     0.1260     0.0170
   52.0000   -51.4040     8.6700    11.0080     7.3090   104.8730     2.4680     0.1280     0.0180
   52.5000   -53.6940     8.6590    10.9840     7.3100   102.9470     2.4630     0.1350     0.0180
   53.0000   -55.8380     8.6430    11.1410     7.3100    99.9710     2.4500     0.1480     0.0190
   53.5000   -55.0130     8.7140    11.3830     7.3110    96.7930     2.4320     0.1620     0.0240
   54.0000   -54.3410     8.8780    11.6250     7.3120    94.6930     2.4130     0.1790     0.0460
   54.5000   -54.9140     9.0420    11.8670     7.3530    93.8820     2.3950     0.1580     0.0700
   55.0000   -55.4390     9.2050    12.1090     7.5040    94.5300     2.4560     0.1290     0.0790
   55.5000   -55.4570     9.3060    12.3510     7.6510    96.1960     2.5040     0.0990     0.0650
   56.0000   -55.4570     9.3110    12.5930     7.7980    98.3090     2.5170     0.1040     0.0560
   56.5000   -55.6170     9.3160    12.8350     7.9430   100.2320     2.5040     0.1080     0.0500
   57.0000   -56.0350     9.3200    13.0870     7.9230   100.9550     2.4930     0.1100     0.0560
   57.5000   -56.4500     9.3250    12.7830     7.8940   101.0770     2.4980     0.1070     0.0650
   58.0000   -56.8670     9.3300    12.4650     7.8730   101.2040     2.5070     0.1020     0.0710
   58.5000   -57.2850     9.3340    12.1480     7.9960   101.3340     2.5150     0.0980     0.0670
   59.0000   -57.6930     9.3390    11.8310     8.1250   101.4630     2.5240     0.0930     0.0550
   59.5000   -58.9050     9.3440    11.5130     8.1510   101.5910     2.5270     0.0920     0.0420
   60.0000   -60.7360     9.3480    11.2920     8.1650   101.7160     2.5240     0.0930     0.0340
   60.5000   -61.9190     9.3530    11.2920     8.1810   102.1250     2.5220     0.0950     0.0270
   61.0000   -60.0740     9.3570    11.3210     8.1970   102.4500     2.5200     0.0960     0.0260
   61.5000   -59.9530     9.3620    11.3790     8.2120   102.2350     2.5170     0.0970     0.0270
   62.0000   -60.5130     9.3670    11.4370     8.2280    99.7450     2.5160     0.0970     0.0270
   62.5000   -61.0840     9.3710    11.4960     8.2450    97.1880     2.5150     0.0980     0.0290
   63.0000   -61.2840     9.3760    11.5540     8.2170    95.0640     2.5140     0.0980     0.0330
   63.5000   -60.3420     9.3810    11.6120     8.1880    95.8250     2.5130     0.0980     0.0360
   64.0000   -59.5220     9.3850    11.6710     8.1580    96.5700     2.5120     0.0970     0.0400
   64.5000   -59.7220     9.3900    11.7160     8.1280    97.3970     2.5100     0.0950     0.0440
