~VERSION INFORMATION
 VERS.                2.0:   CWLS LOG ASCII STANDARD - VERSION 2.0
 WRAP.                 NO:   ONE LINE PER DEPTH STEP
~WELL INFORMATION
#MNEM.UNIT      DATA TYPE    INFORMATION
#----------   ------------   ------------------------------
 STRT.F           33.5000:   START DEPTH
 STOP.F          692.0000:   STOP DEPTH
 STEP.F            0.5000:   STEP LENGTH
 NULL.          -999.2500:   NO VALUE
 COMP. FENIX & SCISSON INC:   COMPANY
 WELL.       NPR-3 #65-34:   WELL
 FLD .  TEAPOT DOME NPR-3:   FIELD
 LOC .      S34 T39N R78W:   LOCATION
 CNTY.            NATRONA:   COUNTY
 STAT.            WYOMING:   STATE
 CTRY. UNITED STATES OF AMERICA:   COUNTRY
 SRVC.           BIRDWELL:   SERVICE COMPANY
 DATE.        14-AUG-1978:   LOGDATE
 API .       490251070400:   API NUMBER
~CURVE INFORMATION
#MNEM.UNIT       API CODE    CURVE DESCRIPTION
#----------   ------------   ------------------------------
 DEPT.F                  :   
 CALD.IN     45 280 60 00:   CALIPER
 GRD .GAPI   45 310 01 00:   GAMMA RAY FROM DENSITY LOG
 RHOB.G/C3   45 350 01 00:   BULK DENSITY
 CORR.G/C3   45 356 01 00:   DENSITY CORRECTION
 DPHI.DEC    45 890 12 00:   DENSITY POROSITY SANDSTONE
 SPR .MV     05 010 01 00:   SPONTANEOUS POTENTIAL
 SN  .OHMM   05 040 16 00:   SHORT NORMAL 16'
 ILD .OHMM   05 120 46 00:   INDUCTION LOG DEEP RESISTIVITY
~PARAMETER INFORMATION
#MNEM.UNIT          VALUE    DESCRIPTION
#----------   ------------   ------------------------------
 PD  .                 GL:   PERMANENT DATUM
 EPD .F              5083:   ELEVATION PERMANENT DATUM
 LMF .                 KB:   LOG MEASURED FROM
 DAPD.F                 4:   FEET ABOVE PERMANENT DATUM
 DMF .                 KB:   DRILLING MEASURED FROM
 EKB .F              5087:   KELLING BUSHING
 EGL .F              5083:   GROUND LEVEL
 DATE.            8-14-78:   RUN DATE
 RUN .                  1:   RUN NUMBER
 DD  .F               675:   DEPTH DRILLER
 DL  .F               682:   DEPTH LOGGER
 BLI .F               676:   BOTTOM LOG INTERVAL
 TLI .F                50:   TOP LOG INTERVAL
 CS  .IN            8.625:   CASING SIZE
 CBD .F                40:   CASING BOTTOM DRILLER
 BS  .IN            7.875:   BIT SIZE
 BSD .F               675:   BIT SIZE AT DEPTH
 DFT .                KCL:   DRILLING FLUID TYPE
 DFD .                8.7:   DRILLING FLUID DENSITY
 DFV .                 31:   DRILLING FLUID VISCOSITY
 DFPH.                  9:   DRILLING FLUID PH
 TCS .HRS               2:   TIME CURCULATED STOPPED
 LUN .               3006:   LOGGING UNIT NUMBER
 LUL .               CASP:   LOGGING UNIT LOCATION
 ENGI.             MILLER:   RECORDING ENGINEER
 WITN.           MCGINLEY:   WITNESSED BY
 CLNT.            A2DTECH:   CLIENT CODE
 ORIG.           5" PRINT:   ORIGIN OF DATA
 UWI .       490251070400:   UNIQUE WELL ID
 DICO. A2D Technologies, Inc.:   DIGITIZING COMPANY
~OTHER INFORMATION
~A   DEPT     CALD         GRD      RHOB       CORR       DPHI        SPR         SN        ILD   
   33.5000  -999.2500    64.8424  -999.2500  -999.2500  -999.2500  -999.2500  -999.2500  -999.2500
   34.0000  -999.2500    66.3090  -999.2500  -999.2500  -999.2500  -999.2500  -999.2500  -999.2500
   34.5000  -999.2500    67.3547  -999.2500  -999.2500  -999.2500  -999.2500  -999.2500  -999.2500
   35.0000  -999.2500    66.7146  -999.2500  -999.2500  -999.2500  -999.2500  -999.2500  -999.2500
   35.5000  -999.2500    62.5906  -999.2500  -999.2500  -999.2500  -999.2500  -999.2500  -999.2500
   36.0000  -999.2500    60.0466  -999.2500  -999.2500  -999.2500  -999.2500  -999.2500  -999.2500
   36.5000  -999.2500    63.6550  -999.2500  -999.2500  -999.2500  -999.2500  -999.2500  -999.2500
   37.0000  -999.2500    64.6769  -999.2500  -999.2500  -999.2500  -999.2500  -999.2500  -999.2500
   37.5000  -999.2500    62.7948  -999.2500  -999.2500  -999.2500  -999.2500  -999.2500  -999.2500
   38.0000  -999.2500    60.7903  -999.2500  -999.2500  -999.2500  -999.2500  -999.2500  -999.2500
   38.5000  -999.2500    61.2741  -999.2500  -999.2500  -999.2500  -999.2500  -999.2500  -999.2500
   39.0000  -999.2500    60.7644  -999.2500  -999.2500  -999.2500  -999.2500  -999.2500  -999.2500
   39.5000  -999.2500    58.7639  -999.2500  -999.2500  -999.2500  -999.2500  -999.2500  -999.2500
   40.0000  -999.2500    56.5255  -999.2500  -999.2500  -999.2500  -999.2500  -999.2500  -999.2500
   40.5000  -999.2500    56.2611  -999.2500  -999.2500  -999.2500  -999.2500  -999.2500  -999.2500
   41.0000  -999.2500    56.4102  -999.2500  -999.2500  -999.2500  -999.2500  -999.2500  -999.2500
   41.5000  -999.2500    55.9392  -999.2500  -999.2500  -999.2500  -999.2500  -999.2500  -999.2500
   42.0000  -999.2500    53.9342  -999.2500  -999.2500  -999.2500  -999.2500  -999.2500  -999.2500
   42.5000  -999.2500    51.9483  -999.2500  -999.2500  -999.2500  -999.2500  -999.2500  -999.2500
   43.0000  -999.2500    49.9517  -999.2500  -999.2500  -999.2500  -999.2500  -999.2500  -999.2500
   43.5000  -999.2500    50.1064  -999.2500    -0.3182  -999.2500  -999.2500  -999.2500  -999.2500
   44.0000  -999.2500    52.5532  -999.2500    -0.3194  -999.2500  -999.2500  -999.2500  -999.2500
   44.5000  -999.2500    54.1027  -999.2500    -0.3114  -999.2500  -999.2500  -999.2500  -999.2500
   45.0000     8.7755    56.2678  -999.2500    -0.1071  -999.2500  -999.2500  -999.2500  -999.2500
   45.5000     8.5030    65.6540     2.0262     0.0625     0.2998  -999.2500  -999.2500  -999.2500
   46.0000     8.3748    75.0822     2.2408     0.0916     0.2449  -999.2500  -999.2500  -999.2500
   46.5000     8.3757    77.4062     2.2793     0.0960     0.2348  -999.2500  -999.2500  -999.2500
   47.0000     8.1633    76.4848     2.2814     0.1011     0.2243  -999.2500  -999.2500  -999.2500
   47.5000     7.9462    75.6081     2.3278     0.1076     0.2112  -999.2500  -999.2500  -999.2500
   48.0000     7.8858    74.9591     2.3387     0.1072     0.2014  -999.2500  -999.2500  -999.2500
   48.5000     7.8245    75.4886     2.3435     0.1035     0.1940  -999.2500  -999.2500  -999.2500
   49.0000     7.7639    76.4293     2.3585     0.0920     0.1916  -999.2500  -999.2500  -999.2500
   49.5000     7.7031    76.2617     2.3575     0.0749     0.1899  -999.2500  -999.2500  -999.2500
   50.0000     7.6423    73.8108     2.3600     0.0648     0.1892    -4.9840  -999.2500  -999.2500
   50.5000     7.5983    71.4452     2.3608     0.0604     0.1935    -5.9851     4.8609     5.4008
   51.0000     7.5683    69.9475     2.3549     0.0538     0.1982    -6.2338     4.8046     5.4686
   51.5000     7.5388    70.5946     2.3473     0.0440     0.2030    -6.3898     4.7269     5.5523
   52.0000     7.5093    72.7126     2.3417     0.0449     0.2033    -7.4663     4.7440     5.5201
   52.5000     7.4786    73.7169     2.3426     0.0462     0.1988    -8.5562     4.6505     5.3569
   53.0000     7.4764    75.7825     2.3551     0.0474     0.1922    -9.6402     4.5967     5.2412
   53.5000     7.5269    78.1443     2.3627     0.0482     0.1881   -10.7235     4.5434     5.1280
   54.0000     7.6440    79.5963     2.3679     0.0488     0.1856   -11.8068     4.5112     5.0173
   54.5000     7.8488    78.7503     2.3690     0.0493     0.1866   -12.8901     4.4842     4.9089
   55.0000     8.0474    77.6792     2.3667     0.0498     0.1879   -13.9734     4.4574     4.8029
   55.5000     8.2467    73.2068     2.3644     0.0518     0.1892   -15.0568     4.3550     4.6992
   56.0000     8.4458    71.8416     2.3628     0.0561     0.1895   -16.1401     4.2282     4.5977
   56.5000     8.6202    75.4995     2.3628     0.0632     0.1890   -17.2234     4.1050     4.4984
   57.0000     8.6159    74.2740     2.3628     0.0710     0.1895   -18.3068     3.9855     4.4093
   57.5000     8.6153    72.6736     2.3631     0.0834     0.1945   -19.3911     3.8694     4.2372
   58.0000     8.5982    74.1566     2.3515     0.0981     0.2008   -20.4737     3.8074     4.0843
   58.5000     8.5253    75.9398     2.3483     0.1199     0.2000   -21.4891     3.7641     3.9370
   59.0000     8.4538    76.4105     2.3524     0.1442     0.1953   -22.0894     3.7213     3.9047
   59.5000     8.3251    76.8988     2.3539     0.1691     0.1883   -22.6621     3.6669     3.8943
   60.0000     8.1130    77.3830     2.3343     0.1696     0.1771   -23.2339     3.6734     3.8839
   60.5000     7.9003    77.8858     2.3131     0.1385     0.1700   -23.8067     3.6827     3.8754
   61.0000     7.7924    77.7577     2.3415     0.1166     0.1767   -24.3797     3.6921     3.9113
   61.5000     7.6884    75.3504     2.3701     0.0947     0.1823   -24.9478     3.7008     3.9113
   62.0000     7.6333    74.4111     2.3758     0.0724     0.1892   -25.3339     3.7844     3.9627
   62.5000     7.6320    74.5515     2.3656     0.0592     0.1860   -25.4028     3.8648     4.0396
   63.0000     7.6519    73.6770     2.3656     0.0581     0.1803   -25.4764     3.9474     4.1179
   63.5000     7.7575    72.7309     2.3828     0.0566     0.1792   -25.5489     3.9748     4.1978
   64.0000     7.8972    71.7973     2.3845     0.0569     0.1752   -25.6213     4.0020     4.2793
   64.5000     7.9921    70.9964     2.3890     0.0589     0.1713   -25.6969     4.0297     4.3288
   65.0000     8.1549    70.5118     2.3956     0.0608     0.1716   -25.5559     4.0581     4.3053
   65.5000     8.3642    70.0114     2.3953     0.0632     0.1721   -25.3253     4.0185     4.2620
   66.0000     8.4663    70.0744     2.3948     0.0783     0.1697   -25.1355     3.9771     4.2191
   66.5000     8.4347    73.0862     2.3998     0.0974     0.1654   -26.2313     3.9364     4.1767
   67.0000     8.3982    76.3557     2.4104     0.1165     0.1575   -27.1411     3.8961     4.1589
   67.5000     8.2635    77.6766     2.4210     0.1353     0.1521   -27.2663     3.8562     4.1441
   68.0000     8.0861    76.1722     2.4244     0.1443     0.1629   -27.4072     3.8300     4.1294
   68.5000     7.9072    75.0608     2.4054     0.1299     0.1753   -27.5474     3.8133     4.1147
   69.0000     7.7290    74.7695     2.3786     0.1000     0.1869   -27.6884     3.7528     4.1007
   69.5000     7.5900    74.4493     2.3521     0.0704     0.2043   -27.8270     3.5903     3.9107
   70.0000     7.5956    74.7184     2.3257     0.0409     0.2208   -27.9130     3.3856     3.6624
   70.5000     7.6013    77.3861     2.2993     0.0174     0.2367   -27.8733     3.1925     3.4297
   71.0000     7.6068    80.0920     2.2725     0.0179     0.2588   -27.8360     3.0209     3.2125
   71.5000     7.6118    78.1159     2.2421     0.0178     0.2778   -27.7981     2.9578     3.0637
   72.0000     7.6374    74.7244     2.2229     0.0265     0.2711   -27.7602     2.8853     2.9916
   72.5000     7.6658    75.4832     2.2284     0.0382     0.2437   -27.7231     2.9101     2.9937
   73.0000     7.6941    76.8173     2.2791     0.0339     0.2203   -27.7215     2.9432     2.9937
   73.5000     7.7224    78.1528     2.3209     0.0239     0.2066   -27.7217     2.9766     3.0546
