~VERSION INFORMATION
 VERS.                2.0:   CWLS LOG ASCII STANDARD - VERSION 2.0
 WRAP.                 NO:   ONE LINE PER DEPTH STEP
~WELL INFORMATION
#MNEM.UNIT      DATA TYPE    INFORMATION
#----------   ------------   ------------------------------
 STRT.F            0.0000:   START DEPTH
 STOP.F          446.0000:   STOP DEPTH
 STEP.F            0.5000:   STEP LENGTH
 NULL.          -999.2500:   NO VALUE
 COMP.       F D SERV INC:   COMPANY
 WELL. NAVAL PETROLEUM RESERVE 3 SX-1 #63-5-10:   WELL
 FLD .            WILDCAT:   FIELD
 LOC .      S10 T38N R78W:   LOCATION
 CNTY.            NATRONA:   COUNTY
 STAT.            WYOMING:   STATE
 CTRY. UNITED STATES OF AMERICA:   COUNTRY
 SRVC.     Atlas Wireline:   SERVICE COMPANY
 DATE.        02-FEB-1993:   LOGDATE
 API .       490252257100:   API NUMBER
~CURVE INFORMATION
#MNEM.UNIT       API CODE    CURVE DESCRIPTION
#----------   ------------   ------------------------------
 DEPT.F                  :   
 GRR .GAPI   07 310 01 00:   GAMMA RAY
 RILD.OHMM   07 120 46 00:   INDUCTION LOG DEEP RESISTIVITY
 RILM.OHMM   07 120 44 00:   RESITIVITY LONG MEDIUM
 PORZ.DEC    45 890 12 00:   DENSITY POROSITY SANDSTONE
 ZCOR.G/C3   45 356 01 00:   DENSITY CORRECTION
 ZDEN.G/C3   45 350 01 00:   BULK DENSITY
 NPHI.DEC    42 890 03 00:   NEUTRON POROSITY SANDSTONE
 C13 .IN     45 280 13 00:   CALIPER X
~PARAMETER INFORMATION
#MNEM.UNIT          VALUE    DESCRIPTION
#----------   ------------   ------------------------------
 PD  .                 GL:   PERMANENT DATUM
 EPD .F              5182:   ELEVATION PERMANENT DATUM
 LMF .                 KB:   LOG MEASURED FROM
 DAPD.F                10:   FEET ABOVE PERMANENT DATUM
 DMF .                 KB:   DRILLING MEASURED FROM
 EKB .F              5192:   KELLING BUSHING
 EDF .F              5191:   DRILLING FLOOR
 EGL .F              5182:   GROUND LEVEL
 DATE.        02-FEB-1993:   RUN DATE
 RUN .                  1:   RUN NUMBER
 DD  .F               450:   DEPTH DRILLER
 DL  .F               450:   DEPTH LOGGER
 BLI .F               442:   BOTTOM LOG INTERVAL
 CS  .IN            8.625:   CASING SIZE
 CBD .F                84:   CASING BOTTOM DRILLER
 CBL .F                84:   CASING BOTTOM LOGGER
 BS  .IN            7.875:   BIT SIZE
 BSD .F               450:   BIT SIZE AT DEPTH
 DFT .                AIR:   DRILLING FLUID TYPE
 MRT .F                51:   MAXIMUM RECORDED TEMPERATURE
 LUN .            HL 6274:   LOGGING UNIT NUMBER
 LUL .             CASPER:   LOGGING UNIT LOCATION
 ENGI.       P. RASMUSSEN:   RECORDING ENGINEER
 WITN.          G. STRONG:   WITNESSED BY
 CLNT.            A2DTECH:   CLIENT CODE
 ORIG.           5" PRINT:   ORIGIN OF DATA
 UWI .       490252257100:   UNIQUE WELL ID
 DICO. A2D Technologies, Inc.:   DIGITIZING COMPANY
~OTHER INFORMATION
~A    DEPT      GRR      RILD       RILM       PORZ       ZCOR       ZDEN       NPHI        C13   
# ...
  283.5000   105.7786    20.5121    20.4656     0.1832    -0.0055     2.3462     0.2577     8.2484
  284.0000   101.2360    20.6479    20.4589     0.1835    -0.0071     2.3430     0.2589     8.2474
  284.5000   100.3169    20.9274    20.5970     0.1944    -0.0041     2.3295     0.2601     8.2464
  285.0000   102.1127    21.0662    20.7334     0.2067     0.0033     2.3174     0.2607     8.2454
  285.5000   102.6983    21.2055    20.8721     0.2079     0.0063     2.3045     0.2604     8.2444
  286.0000   101.7791    21.4942    21.0116     0.2010     0.0017     2.3085     0.2608     8.2432
  286.5000   100.2564    21.6348    21.2977     0.1929    -0.0029     2.3225     0.2623     8.2422
  287.0000   100.2389    21.7781    21.2921     0.1869    -0.0014     2.3330     0.2653     8.2412
  287.5000   100.2248    21.7692    21.2853     0.1833     0.0090     2.3412     0.2675     8.2402
  288.0000   100.2106    21.6120    21.2797     0.1797     0.0135     2.3465     0.2701     8.2542
  288.5000   101.1594    21.6049    21.1273     0.1794     0.0089     2.3502     0.2705     8.2530
  289.0000   105.0052    21.5979    20.8178     0.1785     0.0043     2.3516     0.2693     8.2520
  289.5000   108.0077    21.4401    20.2556     0.1782     0.0028     2.3531     0.2687     8.2510
  290.0000   110.7084    21.1384    20.1106     0.1777     0.0012     2.3538     0.2690     8.2349
  290.5000   111.9009    20.9857    20.1053     0.1774     0.0011     2.3538     0.2702     8.2490
  291.0000   111.5815    20.5475    19.9613     0.1774     0.0011     2.3545     0.2714     8.2477
  291.5000   110.9640    20.2566    19.8172     0.1768     0.0025     2.3552     0.2712     8.2468
  292.0000   109.7432    19.8337    19.6753     0.1762     0.0026     2.3566     0.2708     8.2457
  292.5000   107.0106    19.5545    19.5344     0.1741     0.0039     2.3603     0.2691     8.2598
  293.0000   104.8848    19.4132    19.3783     0.1708     0.0054     2.3633     0.2673     8.2587
  293.5000   103.9656    19.2715    19.1216     0.1678     0.0023     2.3663     0.2658     8.2575
  294.0000   103.9515    19.1322    19.1166     0.1657    -0.0008     2.3730     0.2634     8.2565
  294.5000   105.1404    18.9940    18.9797     0.1660    -0.0025     2.3752     0.2625     8.2404
  295.0000   106.9361    18.8567    18.7136     0.1694    -0.0039     2.3646     0.2625     8.2394
  295.5000   107.5288    18.8492    18.7077     0.1763    -0.0040     2.3556     0.2628     8.2384
  296.0000   105.7012    18.9755    18.8340     0.1808    -0.0010     2.3480     0.2620     8.2372
  296.5000   104.4768    19.1012    18.9588     0.1804     0.0004     2.3540     0.2614     8.2362
  297.0000   103.2560    19.2261    18.9729     0.1769    -0.0028     2.3562     0.2623     8.2352
  297.5000   101.7335    19.2183    19.0805     0.1763    -0.0057     2.3561     0.2632     8.2342
  298.0000   101.7033    19.2120    19.0743     0.1763    -0.0013     2.3576     0.2629     8.2329
  298.5000   102.3085    19.0732    19.0693     0.1742     0.0062     2.3629     0.2623     8.2319
  299.0000   101.3858    19.0668    18.8009     0.1701     0.0091     2.3688     0.2608     8.2309
  299.5000   101.6768    18.9278    18.6663     0.1674     0.0138     2.3733     0.2597     8.2299
  300.0000   102.8658    18.6614    18.0260     0.1647     0.0180     2.3770     0.2588     8.2590
  300.5000   106.4714    18.5285    17.5289     0.1629     0.0209     2.3810     0.2579     8.2430
  301.0000   108.2700    18.5249    17.4034     0.1602     0.0179     2.3840     0.2564     8.2572
  301.5000   110.0685    18.5212    17.3988     0.1617     0.0148     2.3772     0.2567     8.2583
  302.0000   110.6807    18.3898    17.3931     0.1659     0.0177     2.3711     0.2591     8.2706
  302.5000   107.3279    18.2592    17.5106     0.1708     0.0252     2.3651     0.2597     8.2394
  303.0000   106.1099    18.1288    17.5048     0.1698     0.0266     2.3718     0.2589     8.2385
  303.5000   104.8919    18.0002    17.5002     0.1663     0.0205     2.3763     0.2571     8.2375
  304.0000   103.3722    17.8725    17.3738     0.1639     0.0129     2.3809     0.2577     8.2366
  304.5000   104.2956    17.6231    17.2494     0.1618     0.0067     2.3853     0.2604     8.2358
  305.0000   106.3631    17.4973    17.0077     0.1588     0.0007     2.3883     0.2613     8.2349
  305.5000   108.1645    17.4938    16.7693     0.1567    -0.0038     2.3897     0.2604     8.2339
  306.0000   105.4353    17.2498    16.4201     0.1552    -0.0114     2.3928     0.2601     8.2483
  306.5000   103.3122    17.0092    15.9664     0.1549    -0.0111     2.3934     0.2617     8.2472
  307.0000   105.1080    16.7711    15.8521     0.1531     0.0004     2.3972     0.2644     8.2454
  307.5000   107.2111    16.5372    15.6299     0.1526     0.0049     2.3986     0.2677     8.2303
  308.0000   107.8030    16.3065    15.6259     0.1535     0.0078     2.3948     0.2671     8.2294
  308.5000   108.0905    15.9681    15.8396     0.1571     0.0092     2.3888     0.2662     8.2286
  309.0000   108.3807    15.7300    15.9455     0.1607     0.0046     2.3850     0.2663     8.2277
  309.5000   107.1598    15.5250    15.8303     0.1616     0.0016     2.3820     0.2675     8.2267
  310.0000   104.1318    15.2028    15.6085     0.1572     0.0030     2.3902     0.2690     8.2258
  310.5000    99.5955    15.0949    15.3888     0.1505     0.0044     2.3985     0.2708     8.2250
  311.0000    99.2824    14.8843    15.0684     0.1479     0.0013     2.4029     0.2738     8.2239
  311.5000   102.2848    14.7780    14.8573     0.1476    -0.0047     2.4044     0.2760     8.2231
  312.0000   102.5779    14.7751    14.6491     0.1446    -0.0138     2.4089     0.2760     8.2222
  312.5000   100.4520    14.6703    14.5432     0.1395    -0.0094     2.4149     0.2760     8.2214
  313.0000   100.1388    14.5662    14.3394     0.1404    -0.0035     2.4194     0.2763     8.2053
  313.5000   101.6330    14.2632    14.2367     0.1416     0.0010     2.4193     0.2757     8.2044
  314.0000   104.6382    14.0642    14.1348     0.1392     0.0056     2.4133     0.2739     8.2036
  314.5000   110.3583    13.9644    13.9366     0.1332     0.0038     2.4238     0.2715     8.2027
  315.0000   113.9668    13.7696    13.7405     0.1272    -0.0038     2.4343     0.2697     8.2017
  315.5000   110.6343    13.6718    13.5480     0.1290    -0.0113     2.4396     0.2704     8.2161
  316.0000   108.8130    13.5742    13.4510     0.1312    -0.0144     2.4335     0.2698     8.2301
  316.5000   109.1061    13.4779    13.3546     0.1294    -0.0070     2.4320     0.2689     8.2292
  317.0000   109.9968    13.3823    13.2581     0.1258     0.0019     2.4380     0.2677     8.2282
  317.5000   113.3008    13.3796    13.2547     0.1285     0.0079     2.4402     0.2662     8.2426
  318.0000   114.7977    13.3764    13.3442     0.1339     0.0138     2.4409     0.2650     8.2416
  318.5000   111.4680    13.3737    13.4325     0.1394     0.0062     2.4334     0.2635     8.2405
  319.0000   111.4167    13.3711    13.5223     0.1454     0.0001     2.4251     0.2626     8.2396
  319.5000   113.8884    13.5549    13.6127     0.1514    -0.0044     2.4164     0.2630     8.2388
  320.0000   114.7521    13.6463    13.7037     0.1565    -0.0060     2.4062     0.2630     8.2380
  320.5000   111.4196    13.8340    13.7945     0.1599    -0.0061     2.3911     0.2627     8.2520
  321.0000   105.6767    14.0235    13.9832     0.1581    -0.0062     2.3873     0.2624     8.2511
  321.5000   106.8919    14.1183    14.1735     0.1575    -0.0045     2.3903     0.2621     8.2503
  322.0000   110.1787    14.3123    14.3684     0.1578    -0.0063     2.3895     0.2600     8.2494
  322.5000   107.1479    14.3088    14.3637     0.1569    -0.0154     2.3872     0.2585     8.2484
  323.0000   106.8348    14.1092    14.2542     0.1536    -0.0170     2.3939     0.2577     8.2476
  323.5000   107.1251    13.9124    13.8667     0.1488    -0.0111     2.4022     0.2580     8.2467
