~VERSION INFORMATION
 VERS.                2.0:   CWLS LOG ASCII STANDARD - VERSION 2.0
 WRAP.                 NO:   ONE LINE PER DEPTH STEP
~WELL INFORMATION
#MNEM.UNIT      DATA TYPE    INFORMATION
#----------   ------------   ------------------------------
 STRT.F           41.0000:   START DEPTH
 STOP.F          468.0000:   STOP DEPTH
 STEP.F            0.1000:   STEP LENGTH
 NULL.          -999.2500:   NO VALUE
 COMP.       F D SERV INC:   COMPANY
 WELL. NAVAL PETROLEUM RESERVE 3 SX-1 #53-1-10:   WELL
 FLD .             TEAPOT:   FIELD
 LOC .      S10 T38N R78W:   LOCATION
 CNTY.            NATRONA:   COUNTY
 STAT.            WYOMING:   STATE
 CTRY. UNITED STATES OF AMERICA:   COUNTRY
 SRVC.     Atlas Wireline:   SERVICE COMPANY
 DATE.        22-DEC-1992:   LOGDATE
 API .       490252256900:   API NUMBER
~CURVE INFORMATION
#MNEM.UNIT       API CODE    CURVE DESCRIPTION
#----------   ------------   ------------------------------
 DEPT.F                  :   
 GRR .GAPI   07 310 01 00:   GAMMA RAY
 RILD.OHMM   07 120 46 00:   INDUCTION LOG DEEP RESISTIVITY
 RILM.OHMM   07 120 44 00:   RESITIVITY LONG MEDIUM
~PARAMETER INFORMATION
#MNEM.UNIT          VALUE    DESCRIPTION
#----------   ------------   ------------------------------
 PD  .                 GL:   PERMANENT DATUM
 EPD .F              5185:   ELEVATION PERMANENT DATUM
 LMF .                 KB:   LOG MEASURED FROM
 DAPD.F                10:   FEET ABOVE PERMANENT DATUM
 DMF .                 KB:   DRILLING MEASURED FROM
 EKB .F              5195:   KELLING BUSHING
 EDF .F              5194:   DRILLING FLOOR
 EGL .F              5185:   GROUND LEVEL
 DATE.        22-DEC-1992:   RUN DATE
 RUN .                  1:   RUN NUMBER
 DD  .F               475:   DEPTH DRILLER
 DL  .F               472:   DEPTH LOGGER
 BLI .F               470:   BOTTOM LOG INTERVAL
 CS  .IN            8.625:   CASING SIZE
 CBL .F                80:   CASING BOTTOM LOGGER
 BS  .IN            7.875:   BIT SIZE
 BSD .F               475:   BIT SIZE AT DEPTH
 DFT .        AIR DRILLED:   DRILLING FLUID TYPE
 LUN .            HL 6321:   LOGGING UNIT NUMBER
 LUL .       RCK, SPRINGS:   LOGGING UNIT LOCATION
 ENGI.      JOHN THOMPSON:   RECORDING ENGINEER
 WITN.          G. STRONG:   WITNESSED BY
 CLNT.            A2DTECH:   CLIENT CODE
 ORIG.           5" PRINT:   ORIGIN OF DATA
 UWI .       490252256900:   UNIQUE WELL ID
 DICO. A2D Technologies, Inc.:   DIGITIZING COMPANY
~OTHER INFORMATION
~A   DEPT      GRR       RILD       RILM   
# ...
  168.4000   152.0741     3.4177     4.6262
  168.5000   151.7790     3.4879     4.8084
  168.6000   151.2686     3.5579     4.9622
  168.7000   150.5435     3.6611     5.1216
  168.8000   149.9856     3.7896     5.2815
  168.9000   149.6223     3.9404     5.4011
  169.0000   149.3748     4.1016     5.5085
  169.1000   149.1516     4.2779     5.5902
  169.2000   149.4569     4.4741     5.6871
  169.3000   149.4583     4.6732     5.8132
  169.4000   149.7892     4.8225     5.9748
  169.5000   150.1786     4.9318     6.1174
  169.6000   150.4291     5.0312     6.2201
  169.7000   150.6825     5.1402     6.3010
  169.8000   151.4312     5.2294     6.3738
  169.9000   152.3761     5.3373     6.4361
  170.0000   153.3738     5.4383     6.4734
  170.1000   154.3716     5.5645     6.5162
  170.2000   155.3694     5.6811     6.5810
  170.3000   156.4538     5.7849     6.6328
  170.4000   157.5923     5.9277     6.6712
  170.5000   159.1851     5.9919     6.7024
  170.6000   160.8116     6.0613     6.7030
  170.7000   162.1151     6.1315     6.7409
  170.8000   162.8540     6.2025     6.7800
  170.9000   163.4434     6.2721     6.7986
  171.0000   163.4446     6.3145     6.7992
  171.1000   163.1463     6.3453     6.8032
  171.2000   162.6497     6.3822     6.8479
  171.3000   162.0709     6.4193     6.8484
  171.4000   161.0228     6.4500     6.8490
  171.5000   160.3172     6.4505     6.8662
  171.6000   159.9341     6.4865     6.8980
  171.7000   159.3059     6.4967     6.8986
  171.8000   158.3836     6.5166     6.8992
  171.9000   157.6739     6.5432     6.9297
  172.0000   157.3902     6.5437     6.9485
  172.1000   156.9662     6.5444     6.9491
  172.2000   156.6278     6.5448     6.9497
  172.3000   156.4841     6.5214     6.9503
  172.4000   156.5350     6.5005     6.9508
  172.5000   156.7906     6.4935     6.9257
  172.6000   157.2801     6.4564     6.9038
  172.7000   157.5902     6.4208     6.8962
  172.8000   158.1111     6.3848     6.8570
  172.9000   158.6983     6.3489     6.8576
  173.0000   159.0278     6.3133     6.8582
  173.1000   160.1383     6.2778     6.8375
  173.2000   160.3605     6.2386     6.7992
  173.3000   160.7777     6.2076     6.7573
  173.4000   161.1652     6.1494     6.6721
  173.5000   161.3581     6.0955     6.6393
  173.6000   161.3596     6.0612     6.5775
  173.7000   161.3612     6.0269     6.5035
  173.8000   161.1648     5.9590     6.4303
  173.9000   160.7738     5.9184     6.3574
  174.0000   160.3662     5.8661     6.2510
  174.1000   160.0841     5.8115     6.1457
  174.2000   159.5479     5.7746     6.0797
  174.3000   159.0909     5.7036     6.0344
  174.4000   158.9438     5.6451     5.9665
  174.5000   158.8250     5.5815     5.8917
  174.6000   158.7094     5.5185     5.8330
  174.7000   158.9599     5.4562     5.7458
  174.8000   159.2537     5.3946     5.6630
  174.9000   159.8734     5.3225     5.5923
  175.0000   160.7739     5.2494     5.4977
  175.1000   161.8690     5.1607     5.4670
  175.2000   163.1159     5.0734     5.4124
  175.3000   164.4204     4.9918     5.3684
  175.4000   165.6095     4.9318     5.3383
  175.5000   166.8563     4.9060     5.3118
  175.6000   167.9745     4.8586     5.3124
  175.7000   169.2694     4.8174     5.2858
  175.8000   171.2832     4.7979     5.2763
  175.9000   173.8378     4.7967     5.2768
  176.0000   176.1981     4.7654     5.2772
  176.1000   178.4593     4.7658     5.2777
  176.2000   179.6085     4.7661     5.2781
  176.3000   179.6612     4.7557     5.2550
  176.4000   179.9150     4.7338     5.2424
  176.5000   179.9165     4.7343     5.2428
  176.6000   179.7267     4.7346     5.2432
  176.7000   178.7943     4.7350     5.2437
  176.8000   176.7236     4.7354     5.2441
  176.9000   173.4589     4.7440     5.2649
  177.0000   169.6056     4.7693     5.2816
  177.1000   168.9387     4.7698     5.2892
  177.2000   167.8564     4.7701     5.3194
  177.3000   166.3848     4.7705     5.3199
  177.4000   164.6428     4.7709     5.3444
  177.5000   162.8807     4.7769     5.3754
  177.6000   159.5997     4.8051     5.3958
  177.7000   156.6052     4.8055     5.4041
  177.8000   153.7426     4.8059     5.4724
  177.9000   151.5026     4.8213     5.4728
  178.0000   149.3718     4.8493     5.4947
  178.1000   147.7710     4.8775     5.5266
  178.2000   147.0792     4.9091     5.5586
  178.3000   147.0401     4.9344     5.5908
  178.4000   147.4129     4.9631     5.6233
  178.5000   148.1158     5.0048     5.6559
  178.6000   149.4295     5.0627     5.7075
  178.7000   152.3326     5.1212     5.7617
  178.8000   155.8700     5.1806     5.7995
  178.9000   159.4913     5.2406     5.8724
  179.0000   162.8297     5.3013     5.9034
  179.1000   165.9602     5.3518     5.9612
  179.2000   167.5145     5.3870     6.0138
  179.3000   168.4734     5.4549     6.0573
  179.4000   169.2862     5.4838     6.1263
  179.5000   169.7739     5.5376     6.1688
  179.6000   170.0245     5.6017     6.2549
  179.7000   170.2534     5.6665     6.3421
  179.8000   170.2551     5.7320     6.4287
  179.9000   170.2564     5.8108     6.5346
  180.0000   170.2580     5.8383     6.6162
  180.1000   170.2595     5.8923     6.6865
  180.2000   170.2080     5.9605     6.7909
  180.3000   169.9590     6.0348     6.8709
  180.4000   169.7129     6.1464     6.9310
  180.5000   169.0789     6.2130     7.0496
  180.6000   168.1944     6.2850     7.1464
  180.7000   167.0309     6.3577     7.2134
  180.8000   165.5681     6.4313     7.2968
  180.9000   164.2020     6.5035     7.3810
  181.0000   163.7542     6.5475     7.4599
  181.1000   163.0874     6.5794     7.5064
  181.2000   162.2260     6.6411     7.5867
  181.3000   161.2313     6.7026     7.6435
  181.4000   160.2296     6.7416     7.7091
  181.5000   158.7484     6.7823     7.7864
  181.6000   157.1376     6.8578     7.8315
  181.7000   155.4408     6.9078     7.8853
  181.8000   154.4111     6.9688     7.9227
  181.9000   154.2016     7.0494     7.9415
  182.0000   154.2034     7.1276     7.9422
  182.1000   154.4377     7.1747     7.9498
  182.2000   154.8667     7.2464     7.9991
  182.3000   155.6144     7.3033     7.9997
  182.4000   156.4730     7.3637     8.0004
  182.5000   156.9727     7.4401     8.0010
  182.6000   157.5511     7.4841     8.0017
  182.7000   157.7622     7.4847     8.0024
  182.8000   158.1681     7.5181     8.0032
  182.9000   158.5668     7.5383     8.0414
  183.0000   158.8174     7.5389     8.0603
  183.1000   159.0759     7.5395     8.0610
  183.2000   159.0774     7.5402     8.0616
  183.3000   159.0789     7.5408     8.0624
  183.4000   159.0804     7.5414     8.1063
  183.5000   159.0819     7.5421     8.1200
  183.6000   159.1069     7.5329     8.1207
  183.7000   159.3887     7.4909     8.1214
  183.8000   159.8262     7.4916     8.1220
  183.9000   160.1622     7.4922     8.1228
  184.0000   160.4128     7.4685     8.0851
  184.1000   160.6633     7.4414     8.0398
  184.2000   160.9135     7.4365     7.9948
  184.3000   160.6656     7.3911     7.9574
  184.4000   160.4180     7.3916     7.9582
  184.5000   159.8892     7.3632     7.9161
  184.6000   159.4021     7.3415     7.9043
  184.7000   159.1378     7.3316     7.8824
  184.8000   158.4056     7.2918     7.8382
  184.9000   157.0415     7.2925     7.7969
  185.0000   154.2491     7.2930     7.7977
  185.1000   152.5006     7.2936     7.7611
  185.2000   151.6597     7.2942     7.7177
  185.3000   151.3023     7.2948     7.6917
  185.4000   150.9165     7.2955     7.6923
  185.5000   150.9180     7.2960     7.6930
  185.6000   150.9196     7.2669     7.6521
  185.7000   150.9211     7.2466     7.6092
  185.8000   151.3464     7.2245     7.5885
  185.9000   152.2686     7.1452     7.5768
  186.0000   153.6770     7.0986     7.5371
  186.1000   156.3901     7.0652     7.5378
  186.2000   158.2075     7.0256     7.5023
  186.3000   159.5113     6.9861     7.4867
  186.4000   160.1546     6.9469     7.4703
  186.5000   160.4689     6.9063     7.4359
