~VERSION INFORMATION
 VERS.                2.0:   CWLS LOG ASCII STANDARD - VERSION 2.0
 WRAP.                 NO:   ONE LINE PER DEPTH STEP
~WELL INFORMATION
#MNEM.UNIT      DATA TYPE    INFORMATION
#----------   ------------   ------------------------------
 STRT.F            3.0000:   START DEPTH
 STOP.F          523.0000:   STOP DEPTH
 STEP.F            0.1000:   STEP LENGTH
 NULL.          -999.2500:   NO VALUE
 COMP.     BROWN JOHN E&C:   COMPANY
 WELL.   NPR 3 #52-2-SX-3:   WELL
 FLD .             TEAPOT:   FIELD
 LOC .       S3 T38N R78W:   LOCATION
 CNTY.            NATRONA:   COUNTY
 STAT.            WYOMING:   STATE
 CTRY. UNITED STATES OF AMERICA:   COUNTRY
 SRVC.     Atlas Wireline:   SERVICE COMPANY
 DATE.        18-APR-1992:   LOGDATE
 API .       490252251500:   API NUMBER
~CURVE INFORMATION
#MNEM.UNIT       API CODE    CURVE DESCRIPTION
#----------   ------------   ------------------------------
 DEPT.F                  :   
 GRR .GAPI   07 310 01 00:   GAMMA RAY
 RILD.OHMM   07 120 46 00:   INDUCTION LOG DEEP RESISTIVITY
 RILM.OHMM   07 120 44 00:   INDUCTION LOG MEDIUM RESISTIVITY
~PARAMETER INFORMATION
#MNEM.UNIT          VALUE    DESCRIPTION
#----------   ------------   ------------------------------
 PD  .                 GL:   PERMANENT DATUM
 EPD .F              5128:   ELEVATION PERMANENT DATUM
 LMF .                 KB:   LOG MEASURED FROM
 DAPD.F                 5:   FEET ABOVE PERMANENT DATUM
 DMF .                 KB:   DRILLING MEASURED FROM
 EKB .F              5133:   KELLING BUSHING
 EDF .F              5132:   DRILLING FLOOR
 EGL .F              5128:   GROUND LEVEL
 DATE.        18-APR-1992:   RUN DATE
 RUN .                  1:   RUN NUMBER
 DD  .F               525:   DEPTH DRILLER
 DL  .F               526:   DEPTH LOGGER
 BLI .F               524:   BOTTOM LOG INTERVAL
 CS  .IN            8.625:   CASING SIZE
 CBD .F                48:   CASING BOTTOM DRILLER
 CBL .F                49:   CASING BOTTOM LOGGER
 BS  .IN            7.875:   BIT SIZE
 BSD .F               525:   BIT SIZE AT DEPTH
 DFT .                AIR:   DRILLING FLUID TYPE
 TCS .HRS               2:   TIME CURCULATED STOPPED
 MRT .F                87:   MAXIMUM RECORDED TEMPERATURE
 LUN .            HL 6274:   LOGGING UNIT NUMBER
 LUL .             CASPER:   LOGGING UNIT LOCATION
 ENGI.            LEBSOCK:   RECORDING ENGINEER
 WITN.             STRONG:   WITNESSED BY
 CLNT.            A2DTECH:   CLIENT CODE
 ORIG.       2", 5" PRINT:   ORIGIN OF DATA
 UWI .       490252251500:   UNIQUE WELL ID
 DICO. A2D Technologies, Inc.:   DIGITIZING COMPANY
~OTHER INFORMATION
~A    DEPT     GRR       RILD       RILM   
# ...
  130.4000   124.4267    12.8354    12.0560
  130.5000   125.1091    12.7878    12.0554
  130.6000   125.8521    12.7878    12.0547
  130.7000   126.4790    12.7878    12.0219
  130.8000   126.9140    12.7220    11.9694
  130.9000   127.1570    12.6988    11.9688
  131.0000   127.1576    12.6657    11.9681
  131.1000   127.1582    12.6103    11.9674
  131.2000   127.1588    12.6103    11.9279
  131.3000   127.0735    12.6103    11.8828
  131.4000   126.8569    12.5539    11.8821
  131.5000   126.8576    12.5225    11.8814
  131.6000   126.8582    12.5225    11.8201
  131.7000   126.5255    12.5225    11.7974
  131.8000   125.6977    12.5225    11.7967
  131.9000   124.4610    12.4589    11.7810
  132.0000   123.2242    12.4353    11.7133
  132.1000   121.7398    12.4353    11.7126
  132.2000   121.2153    12.4353    11.7120
  132.3000   121.1049    12.4353    11.6746
  132.4000   121.1055    12.4353    11.6291
  132.5000   121.0556    12.4353    11.6284
  132.6000   120.5007    12.4353    11.6277
  132.7000   120.2840    12.4121    11.6271
  132.8000   120.0372    12.3487    11.5833
  132.9000   119.6842    12.3487    11.5449
  133.0000   119.0888    12.3487    11.5442
  133.1000   118.0794    12.3487    11.5436
  133.2000   116.1405    12.3487    11.5429
  133.3000   114.5351    12.3487    11.5423
  133.4000   113.4448    12.3487    11.5417
  133.5000   112.7787    12.3487    11.5410
  133.6000   112.3248    12.3487    11.5404
  133.7000   112.3255    12.3487    11.5396
  133.8000   112.5382    12.3711    11.5391
  133.9000   112.9428    12.4353    11.5384
  134.0000   113.6404    12.4353    11.5378
  134.1000   114.6309    12.4353    11.5371
  134.2000   115.6618    12.4353    11.5365
  134.3000   117.3241    12.4353    11.5359
  134.4000   119.0571    12.4353    11.5352
  134.5000   120.5374    12.4353    11.5346
  134.6000   121.7754    12.4353    11.5339
  134.7000   122.9679    12.4353    11.5333
  134.8000   123.5443    12.3979    11.5325
  134.9000   123.7519    12.3487    11.5320
  135.0000   123.6970    12.3545    11.5313
  135.1000   123.5461    12.4353    11.5307
  135.2000   123.5063    12.4353    11.5301
  135.3000   123.2443    12.4353    11.5294
  135.4000   123.0125    12.4062    11.5288
  135.5000   122.5889    12.3487    11.5281
  135.6000   121.6097    12.3487    11.5275
  135.7000   119.9134    12.3487    11.5268
  135.8000   119.2775    12.3487    11.5262
  135.9000   117.7529    12.3487    11.5254
  136.0000   115.4706    12.3487    11.5249
  136.1000   113.0217    12.3487    11.5243
  136.2000   111.7346    12.3487    11.5236
  136.3000   110.3110    12.3487    11.5230
  136.4000   109.1904    12.3487    11.5223
  136.5000   108.4536    12.3487    11.5217
  136.6000   108.0299    12.3487    11.5210
  136.7000   107.7830    12.3487    11.5204
  136.8000   107.4959    12.2818    11.5197
  136.9000   107.4964    12.2627    11.5191
  137.0000   107.6485    12.2627    11.5185
  137.1000   107.8966    12.2627    11.5178
  137.2000   108.1851    12.2627    11.5172
  137.3000   108.7109    12.2627    11.5165
  137.4000   109.1762    12.2627    11.5159
  137.5000   109.6717    12.2200    11.5152
  137.6000   110.2884    12.1773    11.5146
  137.7000   111.0971    12.1773    11.5139
  137.8000   112.0876    12.1773    11.5133
  137.9000   113.2601    12.1773    11.5127
  138.0000   114.0687    12.1773    11.5120
  138.1000   114.9127    12.1773    11.5114
  138.2000   115.5648    12.1586    11.5619
  138.3000   116.0251    12.0925    11.5908
  138.4000   116.2934    12.0925    11.5902
  138.5000   116.2939    12.0925    11.5895
  138.6000   116.2945    12.0512    11.5888
  138.7000   116.2952    11.9826    11.5882
  138.8000   116.2958    11.9247    11.5445
  138.9000   116.2964    11.9247    11.5062
  139.0000   116.2970    11.8616    11.4790
  139.1000   115.9037    11.7940    11.3452
  139.2000   115.6921    11.7269    11.2187
  139.3000   115.6069    11.6773    11.0908
  139.4000   115.3600    11.6749    10.9974
  139.5000   115.0879    11.5960    10.9342
  139.6000   114.8662    11.5424    10.8663
  139.7000   114.6194    11.5152    10.7247
  139.8000   114.4836    11.4913    10.6719
  139.9000   114.8732    11.4350    10.6489
  140.0000   116.6061    11.4350    10.6236
  140.1000   117.5965    11.4350    10.5626
  140.2000   118.3951    11.4350    10.4994
  140.3000   119.2745    11.4044    10.4415
  140.4000   119.9418    11.3554    10.3815
  140.5000   119.9424    11.3538    10.3219
  140.6000   119.9431    11.2763    10.2793
  140.7000   120.1608    11.2763    10.2751
  140.8000   120.7321    11.2763    10.2064
  140.9000   121.5812    11.2536    10.1574
  141.0000   122.3697    11.1978    10.0990
  141.1000   122.3703    11.1978    10.0410
  141.2000   122.3709    11.1978     9.9926
  141.3000   122.3715    11.1542     9.9920
  141.4000   122.3721    11.1198     9.9381
  141.5000   122.3727    11.1049     9.9213
  141.6000   122.3733    11.0424     9.8931
  141.7000   122.3740    11.0424     9.8511
  141.8000   122.1624    10.9928     9.8506
  141.9000   121.9156    10.9655     9.8499
  142.0000   121.2646    10.9441     9.8495
  142.1000   120.2550    10.8891     9.8489
  142.2000   120.2558    10.8891     9.8484
  142.3000   120.2564    10.8336     9.8478
  142.4000   118.6205    10.8133     9.8472
  142.5000   117.0252    10.8133     9.8467
  142.6000   116.1774    10.7995     9.8462
  142.7000   115.6981    10.7379     9.8721
  142.8000   115.4110    10.6768     9.9141
  142.9000   115.4115    10.6632     9.9135
  143.0000   115.4121    10.6296     9.9130
  143.1000   115.5087    10.5890     9.9124
  143.2000   115.7568    10.5890     9.9119
  143.3000   116.0200    10.5890     9.9113
  143.4000   116.7176    10.5890     9.9177
  143.5000   117.4606    10.5492     9.9797
  143.6000   118.2036    10.5152     9.9792
  143.7000   118.8810    10.5152     9.9786
  143.8000   119.3766    10.5152     9.9780
  143.9000   119.9631    10.5152     9.9775
  144.0000   119.7616    10.5152     9.9769
  144.1000   119.6612    10.5152     9.9764
  144.2000   119.5709    10.5152     9.9758
  144.3000   119.3593    10.5152     9.9752
  144.4000   119.3601    10.5152     9.9747
  144.5000   119.3606    10.5152     9.9741
  144.6000   119.3612    10.4764     9.9735
  144.7000   119.3618    10.4420     9.9232
  144.8000   119.4230    10.4420     9.9030
  144.9000   119.6711    10.4420     9.9025
  145.0000   119.9192    10.3838     9.9019
  145.1000   119.9703    10.3693     9.9013
  145.2000   120.5366    10.3693     9.9008
  145.3000   121.5271    10.3693     9.9002
  145.4000   122.4570    10.3693     9.8997
  145.5000   123.0031    10.3693     9.8991
  145.6000   123.4481    10.3693     9.8986
  145.7000   123.7769    10.3693     9.8980
  145.8000   124.1361    10.3693     9.8492
  145.9000   124.5762    10.3693     9.8280
  146.0000   124.8242    10.3693     9.8275
  146.1000   124.8249    10.3693     9.8269
  146.2000   124.6335    10.3693     9.8263
  146.3000   124.3866    10.3693     9.8258
  146.4000   124.1398    10.3693     9.8253
  146.5000   123.8929    10.3693     9.8247
  146.6000   123.6158    10.3693     9.8242
  146.7000   123.1820    10.3693     9.8236
  146.8000   122.6877    10.3693     9.8230
  146.9000   122.0873    10.3693     9.8225
  147.0000   121.3960    10.3693     9.8220
  147.1000   120.8915    10.3693     9.8214
  147.2000   120.1648    10.3693     9.8209
  147.3000   119.9836    10.3693     9.8203
  147.4000   119.9842    10.3693     9.8198
  147.5000   119.9091    10.3524     9.8192
  147.6000   119.6824    10.2971     9.7913
  147.7000   119.6831    10.2971     9.7498
  147.8000   120.1079    10.2971     9.7492
  147.9000   120.7600    10.2971     9.7486
  148.0000   121.6040    10.2971     9.7481
  148.1000   122.5036    10.2971     9.7476
  148.2000   123.0194    10.2971     9.7470
  148.3000   123.7321    10.2971     9.7465
  148.4000   124.1115    10.2971     9.7459
  148.5000   124.4859    10.2971     9.7454
