~VERSION INFORMATION
 VERS.                2.0:   CWLS LOG ASCII STANDARD - VERSION 2.0
 WRAP.                 NO:   ONE LINE PER DEPTH STEP
~WELL INFORMATION
#MNEM.UNIT      DATA TYPE    INFORMATION
#----------   ------------   ------------------------------
 STRT.F           34.0000:   START DEPTH
 STOP.F          555.0000:   STOP DEPTH
 STEP.F            0.5000:   STEP LENGTH
 NULL.          -999.2500:   NO VALUE
 COMP. FENIX & SCISSON-U.S. NAVY:   COMPANY
 WELL.    NPR #3 #17-S-11:   WELL
 FLD .             TEAPOT:   FIELD
 LOC .      S11 T38N R78W:   LOCATION
 CNTY.            NATRONA:   COUNTY
 STAT.            WYOMING:   STATE
 CTRY. UNITED STATES OF AMERICA:   COUNTRY
 SRVC.       Schlumberger:   SERVICE COMPANY
 DATE.        20-FEB-1977:   LOGDATE
 API .       490251028100:   API NUMBER
~CURVE INFORMATION
#MNEM.UNIT       API CODE    CURVE DESCRIPTION
#----------   ------------   ------------------------------
 DEPT.F                  :   
 SPR .MV     07 010 01 00:   SPONTANEOUS POTENTIAL
 ILD .OHMM   07 120 46 00:   INDUCTION LOG DEEP
 ILM .OHMM   07 120 44 00:   INDUCTION LOG MEDIUM
 LL8 .OHMM   07 220 08 00:   LATEROLOG-8 RES.
 CALD.IN     45 280 60 00:   CALIPER FROM DENSITY LOG
 GRD .GAPI   45 310 01 00:   GAMMA RAY FROM DENSITY LOG
 CORR.G/C3   45 356 01 00:   DENSITY CORRECTION
 RHOB.G/C3   45 350 01 00:   BULK DENSITY
 DPHI.DEC    45 890 12 00:   DENSITY POROSITY SANDSTONE
~PARAMETER INFORMATION
#MNEM.UNIT          VALUE    DESCRIPTION
#----------   ------------   ------------------------------
 PD  .                 GL:   PERMANENT DATUM
 EPD .F              5204:   ELEVATION PERMANENT DATUM
 LMF .                 GL:   LOG MEASURED FROM
 DMF .                 GL:   DRILLING MEASURED FROM
 EKB .F              5209:   KELLING BUSHING
 EGL .F              5204:   GROUND LEVEL
 DATE.        20-FEB-1977:   RUN DATE
 RUN .                  1:   RUN NUMBER
 DD  .F               556:   DEPTH DRILLER
 DL  .F               556:   DEPTH LOGGER
 BLI .F               555:   BOTTOM LOG INTERVAL
 TLI .F                42:   TOP LOG INTERVAL
 CS  .IN            8.625:   CASING SIZE
 CBD .F                42:   CASING BOTTOM DRILLER
 CBL .F                42:   CASING BOTTOM LOGGER
 BS  .IN            7.875:   BIT SIZE
 BSD .F               556:   BIT SIZE AT DEPTH
 DFT .            KCL MUD:   DRILLING FLUID TYPE
 DFD .                8.8:   DRILLING FLUID DENSITY
 DFV .                 33:   DRILLING FLUID VISCOSITY
 DFPH.                8.0:   DRILLING FLUID PH
 DFL .                7.6:   DRILLING FLUID LOSS
 MSS .           FLOWLINE:   MUD SAMPLE SOURCE
 RMS .OHMM            .44:   RESISTIVITY MUD SAMPLE
 MST .F                66:   MUD SAMPLE TEMPERATURE
 RMF .OHMM            .41:   RESISTIVITY MUD FILTRATE SAMPLE
 MFST.F                66:   MUD FILTRATE SAMPLE TEMPERATURE
 MFSS.               MEAS:   MUD FILTRATE SAMPLE SOURCE
 TCS .HRS               3:   TIME CURCULATED STOPPED
 LUN .               7680:   LOGGING UNIT NUMBER
 LUL .               CSPR:   LOGGING UNIT LOCATION
 ENGI.             TAYLOR:   RECORDING ENGINEER
 WITN.               JAPP:   WITNESSED BY
 CLNT.            A2DTECH:   CLIENT CODE
 ORIG.           5" PRINT:   ORIGIN OF DATA
 UWI .       490251028100:   UNIQUE WELL ID
 DICO. A2D Technologies, Inc.:   DIGITIZING COMPANY
~OTHER INFORMATION
~A   DEPT      SPR        ILD        ILM        LL8       CALD        GRD       CORR       RHOB       DPHI   
# ...
  508.5000   -34.2989    14.0156    13.5389    15.5927     8.2165    70.5882     0.0483     2.4074     0.1451
  509.0000   -34.3049    13.9170    13.5371    15.5927     8.2169    70.3620     0.0273     2.3915     0.1550
  509.5000   -34.1574    13.7238    13.3491    15.5927     8.2174    70.3620     0.0295     2.3765     0.1637
  510.0000   -34.0129    13.6272    13.2490    15.5927     8.2179    69.9095    -0.0013     2.3719     0.1643
  510.5000   -34.1708    13.5313    13.1464    15.4853     8.2183    69.4570     0.0039     2.3798     0.1583
  511.0000   -34.1768    13.5295    12.8891    15.3786     8.2188    70.5882     0.0219     2.3992     0.1532
  511.5000   -34.1827    13.5277    12.7984    15.2726     8.2192    71.9457     0.0383     2.4195     0.1565
  512.0000   -34.0365    13.5258    12.6207    15.0628     8.2197    73.0769     0.0420     2.4172     0.1562
  512.5000   -34.0427    13.5240    12.6190    14.8560     8.2201    74.6606     0.0254     2.4135     0.1440
  513.0000   -34.0486    13.4288    12.6173    14.7536     8.2206    76.0196     0.0479     2.4195     0.1399
  513.5000   -34.0547    13.4266    12.5285    14.6519     8.2210    77.1712     0.0433     2.4233     0.1480
  514.0000   -34.0608    13.4248    12.2692    14.6519     8.2215    78.7330     0.0326     2.4188     0.1492
  514.5000   -34.2200    13.2383    11.8501    14.5510     8.2219    79.6380     0.0260     2.4158     0.1354
  515.0000   -34.3779    12.9644    11.6048    14.4441     8.2224    78.7330     0.0335     2.4289     0.1311
  515.5000   -34.3839    12.6961    11.4433    14.2522     8.2228    76.9231     0.0402     2.4407     0.1379
  516.0000   -34.3899    12.6068    11.2844    14.1540     8.2233    75.1131     0.0432     2.4422     0.1290
  516.5000   -34.2439    12.6051    11.2829    14.0565     8.2238    73.3032     0.0229     2.4414     0.1281
  517.0000   -34.2498    12.5164    11.2035    14.0565     8.2242    72.3982     0.0198     2.4490     0.1313
  517.5000   -34.2558    12.5147    11.2020    13.9596     8.2247    72.6244     0.0288     2.4633     0.1157
  518.0000   -34.2618    12.5130    11.2783    13.9596     8.2251    74.2081     0.0438     2.4671     0.1301
  518.5000   -34.2677    12.5112    11.2768    13.9596     8.2256    75.5656     0.0264     2.4550     0.1311
  519.0000   -34.1216    12.5092    11.4325    14.0565     8.2260    76.0181     0.0339     2.4543     0.1223
  519.5000   -34.1277    12.5075    11.5904    14.0565     8.2265    75.4856     0.0159     2.4517     0.1264
  520.0000   -34.1337    12.4195    11.6694    14.0565     8.2269    73.9819     0.0136     2.4241     0.1386
  520.5000   -33.9876    12.2470    11.5869    14.0565     8.2274    73.3032     0.0255     2.4181     0.1310
  521.0000   -33.9951    12.1608    11.4260    14.0565     8.2278    73.7557     0.0315     2.4355     0.1250
  521.5000   -33.8491    12.0753    11.3456    14.0565     8.2283    75.3394     0.0284     2.4543     0.1202
  522.0000   -34.0070    11.9903    11.1880    14.0565     8.2287    76.6968     0.0216     2.4581     0.1226
  522.5000   -34.0130    11.9060    11.1093    14.0565     8.2292    76.9231     0.0329     2.4521     0.1238
  523.0000   -34.0189    11.9044    11.1078    13.9596     8.2297    76.2443     0.0313     2.4543     0.1193
  523.5000   -34.0249    11.8206    11.1063    13.8634     8.2301    75.7919     0.0230     2.4649     0.1157
  524.0000   -34.0309    11.8189    11.1048    13.6730     8.2288    76.0181     0.0312     2.4727     0.1136
  524.5000   -34.0368    11.8170    11.1033    13.5788     8.2251    77.1841     0.0379     2.4506     0.1187
  525.0000   -34.0428    11.8154    11.1017    13.5788     8.2214    78.8085     0.0161     2.4370     0.1259
  525.5000   -34.0488    11.8138    11.0999    13.5788     8.2177    81.2217     0.0288     2.4634     0.1141
  526.0000   -34.0547    11.7307    10.8702    13.3923     8.2140    82.1267     0.0385     2.4717     0.1143
  526.5000   -34.0608    11.6482    10.7938    13.3000     8.2103    78.7330     0.0460     2.4544     0.1190
  527.0000   -34.2188    11.5662    10.6439    13.3000     8.2066    77.3756     0.0426     2.4710     0.1096
  527.5000   -34.2261    11.4056    10.6424    13.2084     8.2029    77.1493     0.0459     2.4853     0.1024
  528.0000   -34.2321    11.4040    10.6410    13.1041     8.1992    79.1855     0.0518     2.4982     0.1009
  528.5000   -34.0860    11.4817    10.6395    13.0270     8.1955    81.2217     0.0398     2.4929     0.1069
  529.0000   -34.0920    11.4801    10.6381    12.9372     8.1918    81.2217     0.0307     2.4612     0.1145
  529.5000   -34.0980    11.4924    10.6366    12.9372     8.1902    80.9955     0.0232     2.4567     0.1184
  530.0000   -33.9505    11.5568    10.6349    12.9372     8.1907    80.9955     0.0254     2.4771     0.1084
  530.5000   -33.9579    11.5549    10.6334    12.9372     8.1911    81.0309     0.0381     2.4914     0.1045
  531.0000   -33.9639    11.5533    10.6320    12.9372     8.1765    81.6742     0.0471     2.4929     0.1088
  531.5000   -33.8176    11.4720    10.6306    12.9372     8.1769    82.3529     0.0332     2.4635     0.1164
  532.0000   -33.6717    11.4705    10.6291    12.9372     8.1773    82.5792     0.0245     2.4574     0.1120
  532.5000   -33.6778    11.4689    10.6277    12.9372     8.1929    83.0317     0.0379     2.4864     0.1036
  533.0000   -33.5318    11.3882    10.5529    12.9372     8.2085    83.4842     0.0521     2.5006     0.1012
  533.5000   -33.3858    11.3867    10.5515    13.0270     8.2392    83.7104     0.0423     2.4892     0.1042
  534.0000   -33.2398    11.3851    10.5501    13.0366     8.2396    84.1629     0.0295     2.4621     0.1123
  534.5000   -33.2473    11.3836    10.5486    13.3000     8.2402    85.2941     0.0213     2.4394     0.1250
  535.0000   -33.0998    11.3817    10.4741    13.3000     8.2406    87.3303     0.0220     2.4379     0.1265
  535.5000   -32.9537    11.3801    10.4004    13.2084     8.2411    88.6878     0.0257     2.4485     0.1217
  536.0000   -32.8077    11.3001    10.1149    13.0270     8.2415    88.1689     0.0311     2.4636     0.1172
  536.5000   -32.8152    11.1431     9.9744    12.9372     8.2419    85.7466     0.0361     2.4734     0.1130
  537.0000   -32.8212    11.0647     9.9731    12.6716     8.2424    84.1675     0.0330     2.4787     0.1093
  537.5000   -32.9791    10.9111     9.9717    12.4976     8.2428  -999.2500     0.0210     2.4363     0.1181
  538.0000   -33.1370    10.8343     9.9704    12.3259     8.2433  -999.2500     0.0180     2.4659     0.1244
  538.5000   -33.4469    10.7581     9.9388    12.2410     8.2438  -999.2500     0.0262     2.4621     0.1160
  539.0000   -33.4529    10.6087     9.9061    11.9897     8.2442  -999.2500     0.0137     2.4274     0.1286
  539.5000   -33.6109    10.4584     9.8292    11.8250     8.2447  -999.2500     0.0194     2.4395     0.1262
  540.0000   -33.6170    10.3160     9.6924    11.5769     8.2451  -999.2500     0.0178     2.4523     0.1226
  540.5000   -33.6243    10.1724     9.5578    11.2663     8.2456  -999.2500     0.0297     2.4606     0.1187
  541.0000   -33.6302    10.1009     9.4906    11.0350     8.2460  -999.2500     0.0364     2.4659     0.1142
  541.5000   -33.6362     9.8918     9.3588    10.8834     8.2464  -999.2500     0.0454     2.4683     0.1130
  542.0000   -33.6422     9.7545     9.2288    10.6600     8.2469  -999.2500     0.0386     2.4690     0.1136
  542.5000   -33.6481     9.5526     8.9755    10.3692     8.2474  -999.2500     0.0318     2.4629     0.1157
  543.0000   -33.6541     9.4854     8.8508    10.2268     8.2479  -999.2500     0.0287     2.4629     0.1157
  543.5000   -33.6601     9.2891     8.6677    10.0168     8.2483  -999.2500     0.0234     2.4705     0.1133
  544.0000   -33.6660     9.0969     8.3661     9.9478     8.2488  -999.2500     0.0226     2.4833     0.1096
  544.5000   -33.6720     8.9706     8.0295     9.8112     8.2492  -999.2500     0.0317     2.4977     0.1057
