~VERSION INFORMATION
 VERS.                2.0:   CWLS LOG ASCII STANDARD - VERSION 2.0
 WRAP.                 NO:   ONE LINE PER DEPTH STEP
~WELL INFORMATION
#MNEM.UNIT      DATA TYPE    INFORMATION
#----------   ------------   ------------------------------
 STRT.F          502.0000:   START DEPTH
 STOP.F         5661.0000:   STOP DEPTH
 STEP.F            0.5000:   STEP LENGTH
 NULL.          -999.2500:   NO VALUE
 COMP. FENIX & SCISSON INC:   COMPANY
 WELL.   NPR 3 #32DX22-22:   WELL
 FLD .             TEAPOT:   FIELD
 LOC .      S22 T38N R78W:   LOCATION
 CNTY.            NATRONA:   COUNTY
 STAT.            WYOMING:   STATE
 CTRY. UNITED STATES OF AMERICA:   COUNTRY
 SRVC.       Schlumberger:   SERVICE COMPANY
 DATE.        29-NOV-1978:   LOGDATE
 API .       490251073100:   API NUMBER
~CURVE INFORMATION
#MNEM.UNIT       API CODE    CURVE DESCRIPTION
#----------   ------------   ------------------------------
 DEPT.F                  :   
 SPR .MV     07 010 01 00:   SPONTANEOUS POTENTIAL
 GRR .GAPI   07 310 01 00:   GAMMA RAY FROM RES. LOG.
 SFL .OHMM   07 220 01 00:   SHALLOW FOCUSED LOG RESISTIVITY
 ILD .OHMM   07 120 46 00:   INDUCTION LOG DEEP
 ILM .OHMM   07 120 44 00:   INDUCTION LOG MEDIUM
 NPHI.DEC    42 890 03 00:   NEUTRON POROSITY SANDSTONE
 DPHI.DEC    45 890 12 00:   DENSITY POROSITY SANDSTONE
 RHOB.G/C3   45 350 01 00:   BULK DENSITY
 CORR.G/C3   45 356 01 00:   DENSITY CORRECTION
 CALD.IN     45 280 60 00:   CALIPER
~PARAMETER INFORMATION
#MNEM.UNIT          VALUE    DESCRIPTION
#----------   ------------   ------------------------------
 PD  .                 GL:   PERMANENT DATUM
 EPD .F              5514:   ELEVATION PERMANENT DATUM
 LMF .                 KB:   LOG MEASURED FROM
 DAPD.F                10:   FEET ABOVE PERMANENT DATUM
 DMF .                 KB:   DRILLING MEASURED FROM
 EKB .F              5524:   KELLING BUSHING
 EGL .F              5514:   GROUND LEVEL
 DATE.           11-29-78:   RUN DATE
 RUN .                  1:   RUN NUMBER
 DD  .F              5680:   DEPTH DRILLER
 DL  .F              5667:   DEPTH LOGGER
 BLI .F              5661:   BOTTOM LOG INTERVAL
 TLI .F               530:   TOP LOG INTERVAL
 CS  .IN            8.625:   CASING SIZE
 CBD .F               513:   CASING BOTTOM DRILLER
 CBL .F               530:   CASING BOTTOM LOGGER
 BS  .IN            7.875:   BIT SIZE
 BSD .F              5680:   BIT SIZE AT DEPTH
 DFT .                FGM:   DRILLING FLUID TYPE
 DFD .                9.2:   DRILLING FLUID DENSITY
 DFV .                 50:   DRILLING FLUID VISCOSITY
 DFPH.               11.5:   DRILLING FLUID PH
 DFL .                6.8:   DRILLING FLUID LOSS
 MSS .               TANK:   MUD SAMPLE SOURCE
 RMS .OHMM           1.45:   RESISTIVITY MUD SAMPLE
 MST .F                56:   MUD SAMPLE TEMPERATURE
 RMF .OHMM           1.16:   RESISTIVITY MUD FILTRATE SAMPLE
 MFST.F                56:   MUD FILTRATE SAMPLE TEMPERATURE
 MFSS.               MEAS:   MUD FILTRATE SAMPLE SOURCE
 RMB .OHMM            .62:   RESISTIVITY MUD AT BHT
 BHT .F               132:   BOTTOM HOLE TEMPERATURE
 TCS .HRS            0700:   TIME CURCULATED STOPPED
 TLAB.HRS            1200:   TIME LOGGER AT BOTTOM
 MRT .F               132:   MAXIMUM RECORDED TEMPERATURE
 LUN .               8039:   LOGGING UNIT NUMBER
 LUL .               CSPR:   LOGGING UNIT LOCATION
 ENGI.           STADULIS:   RECORDING ENGINEER
 WITN.           DINSMORE:   WITNESSED BY
 CLNT.            A2DTECH:   CLIENT CODE
 ORIG.       2", 5" PRINT:   ORIGIN OF DATA
 UWI .       490251073100:   UNIQUE WELL ID
 DICO. A2D Technologies, Inc.:   DIGITIZING COMPANY
~OTHER INFORMATION
~A   DEPT      SPR         GRR       SFL        ILD        ILM       NPHI       DPHI       RHOB       CORR       CALD   
# ...
 4254.0000   -43.3204   119.0159    11.7742     9.1402     9.4177     0.2119     0.0420     2.5854     0.0377     9.8356
 4254.5000   -42.9365   117.4699    11.2217     9.1648     9.4725     0.2151     0.0384     2.5712     0.0197     9.8360
 4255.0000   -42.9242   116.4994    10.6108     9.5385     9.7775     0.2209     0.0506     2.5577     0.0114     9.8360
 4255.5000   -42.7937   115.9077    10.6113     9.7118     9.9665     0.2256     0.0573     2.5573     0.0127     9.8360
 4256.0000   -42.6579   114.8493    10.8076     9.7797    10.0233     0.2287     0.0541     2.5682     0.0251     9.8360
 4256.5000   -42.5224   113.1518    11.0657     9.8481    10.0805     0.2287     0.0448     2.5828     0.0436     9.8360
 4257.0000   -42.3858   111.5179    11.3634     9.9170    10.1380     0.2244     0.0353     2.5945     0.0529     9.8360
 4257.5000   -42.3209   110.7055    11.6846     9.9863    10.1958     0.2139     0.0307     2.5944     0.0546     9.8360
 4258.0000   -42.3356   110.4538    12.0148    10.0562    10.2748     0.2025     0.0390     2.5845     0.0357     9.8360
 4258.5000   -42.8646   111.4230    12.3544    10.1371    10.4190     0.1912     0.0479     2.5694     0.0192     9.8355
 4259.0000   -43.4240   114.0580    12.4120     9.9854    10.2622     0.1807     0.0482     2.5707     0.0133     9.8544
 4259.5000   -43.9356   116.7368    12.2084     9.8095    10.0195     0.1801     0.0460     2.5733     0.0162     9.8754
 4260.0000   -43.9973   118.6136    11.6677     9.6368     9.7852     0.1882     0.0466     2.5714     0.0259     9.8965
 4260.5000   -44.0471   118.1589    10.5264     9.4670     9.5069     0.2006     0.0543     2.5634     0.0428     9.9165
 4261.0000   -44.0987   116.7879     9.5079     9.3330     9.5717     0.2134     0.0627     2.5521     0.0508     9.9171
 4261.5000   -44.1704   115.3961     9.5656     9.4170     9.6552     0.2235     0.0711     2.5357     0.0371     9.9171
 4262.0000   -44.3383   114.0101     9.9487     9.4878     9.7406     0.2195     0.0809     2.5147     0.0188     9.9326
 4262.5000   -44.5053   113.6456    10.5692     9.5590     9.8265     0.2016     0.0707     2.5246    -0.0014     9.9642
 4263.0000   -44.6726   115.2477    11.0506     9.6308     9.9131     0.1930     0.0530     2.5482     0.0046     9.9737
 4263.5000   -44.8356   117.7321    11.3693     9.7031    10.0005     0.1925     0.0367     2.5726     0.0137     9.9627
 4264.0000   -44.8607   119.7546    11.6342     9.7760    10.0886     0.1926     0.0348     2.5904     0.0221     9.9283
 4264.5000   -44.5719   118.5031    11.8719     9.8494    10.1776     0.1906     0.0346     2.5914     0.0283     9.8934
 4265.0000   -44.2882   117.2981    12.1155     9.9234    10.2673     0.1876     0.0325     2.5947     0.0346     9.8578
 4265.5000   -44.0031   116.0980    12.3640     9.9979    10.3577     0.1844     0.0292     2.5985     0.0431     9.8385
 4266.0000   -43.7411   115.6644    12.6365    10.0730    10.4203     0.1813     0.0278     2.6025     0.0531     9.8197
 4266.5000   -43.7359   115.3755    12.3422    10.1371    10.4203     0.1852     0.0321     2.5992     0.0619     9.8006
 4267.0000   -43.7374   115.1228    11.8140    10.3983    10.5232     0.1889     0.0478     2.5861     0.0532     9.7816
 4267.5000   -43.7391   112.3279    11.3181    10.6803    10.8019     0.1914     0.0606     2.5578     0.0283     9.7628
 4268.0000   -43.7311   107.5760    11.6778    10.9682    11.0880     0.1804     0.0600     2.5516     0.0106     9.7445
 4268.5000   -43.4664   102.6043    13.9994    11.1545    11.3817     0.1659     0.0423     2.5702     0.0153     9.7261
 4269.0000   -43.1857    99.5637    15.3498    11.3249    11.6832     0.1548     0.0300     2.5947     0.0211     9.7121
 4269.5000   -42.9380    98.7251    16.0442    11.4979    11.9927     0.1548     0.0323     2.5990     0.0246     9.7061
 4270.0000   -43.0657    97.9560    15.6826    11.6736    12.1780     0.1597     0.0418     2.5859     0.0195     9.6999
 4270.5000   -43.1980    97.1258    15.0453    11.8511    12.3231     0.1625     0.0452     2.5773     0.0151     9.6943
 4271.0000   -43.3283    95.0134    15.1010    11.9588    12.4066     0.1617     0.0388     2.5833     0.0151     9.6942
 4271.5000   -43.4582    92.9315    15.1841    11.7859    12.1271     0.1652     0.0341     2.5917     0.0179     9.6946
 4272.0000   -43.5759    94.2144    14.5099    11.5886    11.9057     0.1699     0.0307     2.5988     0.0210     9.7120
 4272.5000   -43.6745    99.2228    13.9747    11.1619    11.6883     0.1729     0.0251     2.6069     0.0367     9.7595
 4273.0000   -43.7729   102.2916    14.2611    10.7510    11.3089     0.1708     0.0173     2.6174     0.0605     9.8064
 4273.5000   -43.8743   103.0147    14.5027    10.3549    10.8883     0.1696     0.0159     2.6264     0.0787     9.8536
 4274.0000   -44.1493   104.9890    14.2388     9.9747    10.4832     0.1811     0.0296     2.6028     0.0883     9.8805
 4274.5000   -44.8300   109.7511    12.9574     9.6476    10.0933     0.1925     0.0471     2.5753     0.0647     9.8897
 4275.0000   -44.5993   111.8483    11.8365     9.3836     9.7510     0.2007     0.0582     2.5552     0.0401     9.9037
 4275.5000   -44.1485   109.3273    11.3077     9.1257     9.4287     0.2029     0.0647     2.5384     0.0271     9.9423
 4276.0000   -43.6926   106.8738    11.3119     8.8292     9.0756     0.2045     0.0709     2.5312     0.0253     9.9768
 4276.5000   -43.2458   107.7025    11.3237     8.3125     8.5429     0.2086     0.0721     2.5345     0.0370     9.9923
 4277.0000   -42.9012   110.6540     9.9775     7.8260     8.0413     0.2130     0.0662     2.5440     0.0579    10.0087
 4277.5000   -42.8291   115.1093     9.1058     7.3680     7.5654     0.2150     0.0590     2.5525     0.0841    10.0253
 4278.0000   -42.7509   124.7501     8.3103     6.9368     7.1411     0.2172     0.0596     2.5379     0.0740    10.0385
 4278.5000   -42.6739   137.4735     7.5885     6.5044     6.7464     0.2204     0.0780     2.5156     0.0517    10.0269
 4279.0000   -42.5955   141.0277     6.9968     6.0960     6.3735     0.2235     0.0906     2.4994     0.0183    10.0152
 4279.5000   -42.5320   138.6434     6.8752     5.7123     6.0230     0.2228     0.0906     2.5041     0.0091    10.0035
 4280.0000   -42.6708   137.1952     6.7510     5.2585     5.5041     0.2243     0.0836     2.5093     0.0104    10.0045
 4280.5000   -42.8106   150.5577     6.1503     4.5410     4.9849     0.2332     0.0853     2.5000     0.0125    10.0164
 4281.0000   -43.0261   151.8617     5.3718     3.9804     4.4569     0.2441     0.0958     2.4943     0.0294    10.0287
 4281.5000   -43.6719   159.4460     4.5307     3.4904     3.8372     0.2552     0.0874     2.5027     0.0847    10.0574
 4282.0000   -44.3179   168.1537     3.8044     3.0607     3.3036     0.2647     0.0913     2.5098     0.1455    10.1610
 4282.5000   -44.9626   178.1697     3.2322     2.6774     2.8442     0.2848     0.1613     2.3724     0.2497    10.3199
 4283.0000   -45.5611   190.4141     2.5887     2.3279     2.4487     0.3272     0.2666     2.2099     0.2277    11.0764
 4283.5000   -45.8154   202.9502     2.0699     2.1272     2.1279     0.3935     0.2990     2.0032     0.1507    11.9261
 4284.0000   -46.0548   207.0352     1.8366     2.0142     2.1475     0.4263     0.2992     2.0069     0.0780    12.1113
 4284.5000   -46.2955   202.4031     1.9119     1.9412     2.0288     0.4191     0.2993     2.0012     0.0223    11.0274
 4285.0000   -46.5409   191.7222     1.9974     1.9778     2.0131     0.4468     0.2995     2.0007    -0.0052    10.3495
 4285.5000   -46.7402   177.4309     2.0892     2.0116     2.1709     0.4978     0.2996     2.0002    -0.0323    10.6395
 4286.0000   -46.0958   151.4178     2.3728     2.2229     2.4647     0.4958     0.2998     1.9994    -0.0597    10.9257
 4286.5000   -45.4314   132.9846     3.3780     2.6852     2.9930     0.4476     0.2863     2.1515    -0.0346    10.3232
 4287.0000   -44.7716   116.2809     5.2109     3.0850     3.6319     0.3672     0.1702     2.3676     0.0034     9.7105
