~VERSION INFORMATION
 VERS.                2.0:   CWLS LOG ASCII STANDARD - VERSION 2.0
 WRAP.                 NO:   ONE LINE PER DEPTH STEP
~WELL INFORMATION
#MNEM.UNIT      DATA TYPE    INFORMATION
#----------   ------------   ------------------------------
 STRT.F            1.0000:   START DEPTH
 STOP.F          524.0000:   STOP DEPTH
 STEP.F            0.1000:   STEP LENGTH
 NULL.          -999.2500:   NO VALUE
 COMP.       F D SERV INC:   COMPANY
 WELL.    87-2 SX-3 #87-3:   WELL
 FLD .             TEAPOT:   FIELD
 LOC .       S3 T38N R78W:   LOCATION
 CNTY.            NATRONA:   COUNTY
 STAT.            WYOMING:   STATE
 CTRY. UNITED STATES OF AMERICA:   COUNTRY
 SRVC.     Atlas Wireline:   SERVICE COMPANY
 DATE.        20-OCT-1992:   LOGDATE
 API .       490252254700:   API NUMBER
~CURVE INFORMATION
#MNEM.UNIT       API CODE    CURVE DESCRIPTION
#----------   ------------   ------------------------------
 DEPT.F                  :   
 GRR .GAPI   07 310 01 00:   GAMMA RAY
 RILD.OHMM   07 120 46 00:   INDUCTION LOG DEEP RESISTIVITY
 RILM.OHMM   07 120 44 00:   INDUCTION LOG MEDIUM RESISTIVITY
~PARAMETER INFORMATION
#MNEM.UNIT          VALUE    DESCRIPTION
#----------   ------------   ------------------------------
 PD  .                 GL:   PERMANENT DATUM
 EPD .F              5124:   ELEVATION PERMANENT DATUM
 LMF .                 KB:   LOG MEASURED FROM
 DAPD.F                10:   FEET ABOVE PERMANENT DATUM
 DMF .                 KB:   DRILLING MEASURED FROM
 EKB .F              5134:   KELLING BUSHING
 EDF .F              5133:   DRILLING FLOOR
 EGL .F              5124:   GROUND LEVEL
 DATE.        20-OCT-1992:   RUN DATE
 RUN .                  1:   RUN NUMBER
 DD  .F               533:   DEPTH DRILLER
 DL  .F               532:   DEPTH LOGGER
 BLI .F               524:   BOTTOM LOG INTERVAL
 TLI .F                74:   TOP LOG INTERVAL
 CS  .IN            8.625:   CASING SIZE
 CBD .F                85:   CASING BOTTOM DRILLER
 CBL .F                74:   CASING BOTTOM LOGGER
 BS  .IN            7.875:   BIT SIZE
 BSD .F               533:   BIT SIZE AT DEPTH
 DFT .           AIR FOAM:   DRILLING FLUID TYPE
 TCS .HRS               3:   TIME CURCULATED STOPPED
 MRT .F                70:   MAXIMUM RECORDED TEMPERATURE
 LUN .            HL-6274:   LOGGING UNIT NUMBER
 LUL .             CASPER:   LOGGING UNIT LOCATION
 ENGI.             RAUTIO:   RECORDING ENGINEER
 WITN.        GARY STRONG:   WITNESSED BY
 CLNT.            A2DTECH:   CLIENT CODE
 ORIG.           5" PRINT:   ORIGIN OF DATA
 UWI .       490252254700:   UNIQUE WELL ID
 DICO. A2D Technologies, Inc.:   DIGITIZING COMPANY
~OTHER INFORMATION
~A    DEPT     GRR       RILD       RILM   
# ...
  401.4000    82.7296    24.4346    23.4036
  401.5000    82.2440    24.4906    23.0733
  401.6000    81.9365    24.5413    23.0727
  401.7000    81.8181    24.6628    23.0721
  401.8000    81.7523    24.6632    23.0714
  401.9000    81.5071    24.7884    23.0708
  402.0000    81.2133    24.8365    23.0701
  402.1000    81.0166    24.8966    23.0695
  402.2000    80.7714    25.0111    23.0688
  402.3000    80.6077    25.0115    23.0682
  402.4000    80.6329    25.0118    23.1388
  402.5000    80.9192    25.1143    23.2695
  402.6000    81.3451    25.1876    23.4109
  402.7000    81.8430    25.2239    23.7198
  402.8000    82.3409    25.3647    23.9465
  402.9000    82.8025    25.3651    24.1354
  403.0000    83.0753    25.4779    24.2718
  403.1000    83.7532    25.5434    24.3902
  403.2000    84.3320    25.5437    24.3894
  403.3000    84.8297    25.5441    24.5137
  403.4000    85.3276    25.5445    24.5592
  403.5000    85.8439    25.5448    24.5585
  403.6000    86.3232    25.5452    24.5578
  403.7000    86.6411    25.5455    24.5571
  403.8000    86.8913    25.5459    24.5565
  403.9000    87.0787    25.5463    24.4548
  404.0000    87.0811    25.5466    24.3160
  404.1000    86.8318    25.5470    24.1780
  404.2000    86.5866    25.4845    24.0373
  404.3000    86.3414    25.3700    23.7661
  404.4000    86.0202    25.3704    23.7087
  404.5000    85.5447    25.3707    23.7080
  404.6000    85.2586    25.3711    23.6217
  404.7000    84.6413    25.3714    23.3774
  404.8000    84.0485    25.3718    23.3766
  404.9000    83.4664    25.3680    23.1520
  405.0000    82.7871    25.2255    23.0508
  405.1000    82.5142    25.1964    23.0501
  405.2000    82.2967    25.1968    23.0495
  405.3000    82.0515    25.1510    23.0488
  405.4000    81.9087    25.0223    22.9293
  405.5000    81.9112    25.0227    22.8869
  405.6000    81.9138    24.9024    22.8863
  405.7000    82.1491    24.8493    22.8585
  405.8000    82.7479    24.8497    22.7255
  405.9000    83.6090    24.8287    22.7249
  406.0000    84.6594    24.6776    22.7242
  406.1000    85.9075    24.6779    22.7236
  406.2000    87.1412    24.6783    22.7230
  406.3000    87.8191    24.6786    22.7223
  406.4000    88.0588    24.6492    22.7216
  406.5000    88.0613    24.5077    22.8247
  406.6000    88.0756    24.5081    22.8799
  406.7000    88.3729    24.5084    22.9226
  406.8000    88.3749    24.5087    23.0392
  406.9000    88.5197    24.5091    23.0384
  407.0000    88.7698    24.5094    23.1511
  407.1000    89.0199    24.5098    23.2819
  407.2000    89.3039    24.5101    23.4135
  407.3000    89.7343    24.5104    23.5458
  407.4000    90.3877    24.5108    23.6887
  407.5000    91.1332    24.5111    23.8128
  407.6000    91.9171    24.5115    23.8537
  407.7000    92.9913    24.5118    23.9149
  407.8000    93.6760    24.5122    24.0197
  407.9000    94.0837    24.5125    24.0191
  408.0000    94.1133    24.5128    24.0184
  408.1000    93.8164    24.5132    23.9156
  408.2000    93.3097    24.5135    23.7799
  408.3000    92.8307    24.5139    23.6828
  408.4000    92.1557    24.5142    23.6821
  408.5000    91.1681    24.5146    23.6814
  408.6000    89.9969    24.5149    23.5719
  408.7000    89.0148    24.5152    23.4381
  408.8000    88.2744    24.5156    23.2598
  408.9000    87.3384    24.5159    23.0256
  409.0000    86.4870    24.5163    23.0249
  409.1000    85.8246    24.5166    22.9104
  409.2000    85.3123    24.5170    22.8632
  409.3000    84.4549    24.5173    22.8626
  409.4000    84.2483    24.4369    22.8397
  409.5000    84.0030    24.3475    22.7020
  409.6000    83.7578    24.3478    22.5811
  409.7000    83.5126    24.3482    22.4530
  409.8000    83.2419    24.2277    22.3848
  409.9000    83.0222    24.1795    22.3842
  410.0000    82.9403    24.1238    22.3836
  410.1000    82.9427    24.0120    22.3829
  410.2000    82.9452    24.0124    22.1896
  410.3000    82.9477    24.0128    21.8738
  410.4000    82.9501    23.9174    21.5758
  410.5000    82.9525    23.8465    21.4533
  410.6000    83.0730    23.8147    21.3105
  410.7000    83.2637    23.6808    21.2105
  410.8000    83.2662    23.5477    21.1609
  410.9000    83.2686    23.5173    21.1603
  411.0000    83.4609    23.4468    21.1597
  411.1000    83.5798    23.3544    21.1591
  411.2000    83.6549    23.3461    21.1585
  411.3000    83.9050    23.1927    21.1579
  411.4000    84.2001    23.1930    21.1574
  411.5000    84.2021    23.1154    21.1568
  411.6000    84.3492    23.0324    21.1561
  411.7000    84.5993    23.0162    21.1556
  411.8000    84.8494    22.8729    21.1550
  411.9000    85.1311    22.7581    21.1544
  412.0000    85.3497    22.7145    21.1243
  412.1000    85.4420    22.6606    21.0058
  412.2000    85.5436    22.5571    21.0052
  412.3000    85.8750    22.5575    20.9124
  412.4000    86.6746    22.4365    20.8577
  412.5000    86.9066    22.4013    20.8571
  412.6000    87.3278    22.3403    20.8565
  412.7000    87.8257    22.2461    20.8558
  412.8000    88.2695    22.2444    20.7565
  412.9000    88.5244    22.1194    20.5684
  413.0000    89.0127    22.0924    20.3785
  413.1000    89.1418    22.0245    20.2783
  413.2000    89.2700    21.9007    20.2777
  413.3000    89.4530    21.7775    20.1740
  413.4000    89.4554    21.6360    20.0595
  413.5000    89.4579    21.6362    19.9944
  413.6000    89.2627    21.5623    19.9938
  413.7000    89.0175    21.4411    19.9933
  413.8000    88.8527    21.3372    19.9927
  413.9000    88.8551    21.3376    19.9922
  414.0000    88.8579    21.2291    19.9916
  414.1000    89.0710    21.1098    19.9911
  414.2000    89.3211    21.0428    19.9877
  414.3000    89.5712    21.0192    19.8743
  414.4000    89.8213    20.8970    19.8501
  414.5000    90.0952    20.8973    19.7873
  414.6000    90.5459    20.8114    19.6749
  414.7000    91.2093    20.6944    19.5537
  414.8000    91.7407    20.5780    19.3002
  414.9000    91.9908    20.4656    19.2070
  415.0000    92.2513    20.4659    19.0316
  415.1000    92.4911    20.3746    18.8166
  415.2000    92.5623    20.2600    18.5886
  415.3000    92.5648    20.1461    18.2476
  415.4000    92.5672    20.0328    18.1530
  415.5000    92.5696    19.9040    17.9810
  415.6000    92.3214    19.8083    17.8673
  415.7000    91.3077    19.7661    17.8668
  415.8000    89.9383    19.7233    17.8663
  415.9000    88.5295    19.6124    17.8658
  416.0000    87.3262    19.4930    17.7906
  416.1000    86.4592    19.3925    17.7913
  416.2000    86.0504    19.2835    17.8643
  416.3000    85.8511    19.2237    17.8600
  416.4000    85.8536    19.2239    17.7387
  416.5000    85.8856    19.2242    17.7383
  416.6000    86.1651    19.1184    17.7378
  416.7000    86.3859    19.0911    17.7373
  416.8000    86.6360    19.0365    17.7368
  416.9000    86.7847    18.9588    17.7362
  417.0000    86.8300    18.9591    17.7358
  417.1000    87.0960    18.9594    17.7988
  417.2000    87.3303    18.9596    17.8593
  417.3000    87.7538    18.9599    17.8588
  417.4000    88.2516    18.9602    17.8583
  417.5000    88.8055    18.9604    17.9361
  417.6000    89.5584    18.9607    17.9826
  417.7000    90.5606    18.9610    17.9821
  417.8000    91.2122    18.9612    18.0043
  417.9000    91.8637    18.9615    18.1073
  418.0000    92.5152    18.9618    18.1068
  418.1000    93.6335    18.9620    18.1063
  418.2000    94.6808    18.9623    18.1058
  418.3000    94.9003    18.9625    18.1052
  418.4000    94.5934    18.9628    18.1047
  418.5000    94.5909    18.9631    18.1041
  418.6000    94.5879    18.9633    18.1037
  418.7000    94.5041    18.9636    17.9850
  418.8000    94.2586    18.8830    17.8165
  418.9000    93.9722    18.8323    17.7153
  419.0000    93.7677    18.8325    17.6023
  419.1000    93.3808    18.8271    17.4283
  419.2000    92.8120    18.7022    17.2315
  419.3000    92.1020    18.7024    17.1153
  419.4000    91.5328    18.6411    17.0982
  419.5000    91.1263    18.5363    16.9951
