~VERSION INFORMATION
 VERS.                2.0:   CWLS LOG ASCII STANDARD - VERSION 2.0
 WRAP.                 NO:   ONE LINE PER DEPTH STEP
~WELL INFORMATION
#MNEM.UNIT      DATA TYPE    INFORMATION
#----------   ------------   ------------------------------
 STRT.F           30.0000:   START DEPTH
 STOP.F          562.0000:   STOP DEPTH
 STEP.F            0.5000:   STEP LENGTH
 NULL.          -999.2500:   NO VALUE
 COMP. LAWRENCE/ALLISON INC:   COMPANY
 WELL. NPR 3 #53-16-SX-10:   WELL
 FLD .             TEAPOT:   FIELD
 LOC .      S10 T38N R78W:   LOCATION
 CNTY.            NATRONA:   COUNTY
 STAT.            WYOMING:   STATE
 CTRY. UNITED STATES OF AMERICA:   COUNTRY
 SRVC.      Dresser Atlas:   SERVICE COMPANY
 DATE.        27-AUG-1984:   LOGDATE
 API .       490251098200:   API NUMBER
~CURVE INFORMATION
#MNEM.UNIT       API CODE    CURVE DESCRIPTION
#----------   ------------   ------------------------------
 DEPT.F                  :   
 RILD.OHMM   07 120 46 00:   INDUCTION LOG DEEP RESISTIVITY
 RILM.OHMM   07 120 44 00:   INDUCTION LOG MEDIUM RESISTIVITY
 RFOC.OHMM   07 220 04 00:   RESISTIVITY FOCUSED LOG
 SPR .MV     07 010 01 00:   SPONTANEOUS POTENTIAL
 AC  .US/F   60 520 00 00:   ACOUSTIC SONIC
 DEN .G/C3   45 350 01 00:   COMPENSATED BULK DENSTIY
 CORR.G/C3   45 356 01 00:   DENSITY CORRECTION
 CNC .DEC    42 890 01 00:   NEUTRON POROSITY LIMESTONE
 CALD.IN     45 280 60 00:   CALIPER
 GRD .GAPI   45 310 01 00:   GAMMA RAY FROM DENSITY LOG
 PORD.DEC    45 890 10 00:   POROSITY DENSITY LIMESTONE
~PARAMETER INFORMATION
#MNEM.UNIT          VALUE    DESCRIPTION
#----------   ------------   ------------------------------
 PD  .                 GL:   PERMANENT DATUM
 EPD .F              5199:   ELEVATION PERMANENT DATUM
 LMF .                 GL:   LOG MEASURED FROM
 DMF .                 GL:   DRILLING MEASURED FROM
 EGL .F              5199:   GROUND LEVEL
 DATE.            8-27-84:   RUN DATE
 RUN .                  1:   RUN NUMBER
 DD  .F               550:   DEPTH DRILLER
 DL  .F               549:   DEPTH LOGGER
 BLI .F               547:   BOTTOM LOG INTERVAL
 TLI .F                30:   TOP LOG INTERVAL
 CS  .IN            9.625:   CASING SIZE
 CBD .F                40:   CASING BOTTOM DRILLER
 CBL .F                44:   CASING BOTTOM LOGGER
 BS  .IN            7.875:   BIT SIZE
 BSD .F               550:   BIT SIZE AT DEPTH
 DFT .          KCL/WATER:   DRILLING FLUID TYPE
 MSS .           MUD TANK:   MUD SAMPLE SOURCE
 RMS .OHMM            .28:   RESISTIVITY MUD SAMPLE
 MST .F                78:   MUD SAMPLE TEMPERATURE
 TCS .HRS               4:   TIME CURCULATED STOPPED
 LUN .               4082:   LOGGING UNIT NUMBER
 LUL .          ROOSEVELT:   LOGGING UNIT LOCATION
 ENGI.            FRANCIS:   RECORDING ENGINEER
 WITN.              FIVAS:   WITNESSED BY
 CLNT.            A2DTECH:   CLIENT CODE
 ORIG.       2", 5" PRINT:   ORIGIN OF DATA
 UWI .       490251098200:   UNIQUE WELL ID
 DICO. A2D Technologies, Inc.:   DIGITIZING COMPANY
~OTHER INFORMATION
~A   DEPT     RILD       RILM       RFOC        SPR         AC        DEN       CORR          CNC     CALD         GRD      PORD   
# ...
   60.5000     7.8412     8.0383     8.3334    39.5865   108.3309     2.4927     0.0432     0.2419     8.7299   122.1117     0.1174
   61.0000     7.9200     8.1418     8.4994    38.6661   108.2357     2.5009     0.0567     0.2527     8.7219   121.8819     0.1100
   61.5000     7.9916     8.2465     8.6679    37.7271   107.9164     2.5068     0.0703     0.2549     8.7138   121.3286     0.1050
   62.0000     8.0856     8.3526     8.8395    36.7825   107.1313     2.5126     0.0839     0.2459     8.7058   118.2307     0.1020
   62.5000     8.1807     8.4601     8.9146    36.1742   106.3828     2.5178     0.0958     0.2407     8.6977   114.9455     0.0983
   63.0000     8.2770     8.5690     8.9682    35.5686   106.0994     2.5131     0.0926     0.2397     8.6897   116.5972     0.0958
   63.5000     8.3743     8.6804     9.0221    34.9861   105.8289     2.5052     0.0754     0.2388     8.6816   118.3969     0.0993
   64.0000     8.4728     8.7308     9.0763    34.5705   105.5584     2.4975     0.0583     0.2378     8.6736   116.4508     0.1036
   64.5000     8.5725     8.7734     9.1339    34.5776   105.2879     2.4954     0.0414     0.2422     8.6655   115.7986     0.1080
   65.0000     8.6733     8.8154     9.2042    34.5757   105.0174     2.4973     0.0267     0.2489     8.6575   117.8984     0.1098
   65.5000     8.7210     8.8578     9.2751    34.5765   104.7164     2.4992     0.0278     0.2428     8.6494   119.7195     0.1096
   66.0000     8.7400     8.9003     9.3467    34.5757   104.1924     2.5011     0.0288     0.2347     8.6485   119.2817     0.1073
   66.5000     8.7591     8.9431     9.4185    34.8696   103.7776     2.5025     0.0300     0.2302     8.6529   118.9042     0.1052
   67.0000     8.7782     9.0474     9.4636    35.4207   104.3995     2.5011     0.0169     0.2313     8.6575   118.3768     0.1059
   67.5000     8.7894     9.1202     9.3389    35.9734   105.0109     2.4974     0.0170     0.2340     8.6621   115.1766     0.1080
   68.0000     8.7264     9.0118     9.2351    36.5263   105.6222     2.4885     0.0207     0.2366     8.6666   112.5561     0.1127
   68.5000     8.6819     8.9358     9.1323    37.0788   106.0110     2.4793     0.0412     0.2393     8.6712   114.6817     0.1181
   69.0000     8.6376     8.8606     9.0307    37.6316   106.2110     2.4746     0.0617     0.2416     8.6757   116.6279     0.1229
   69.5000     8.5937     8.7859     8.9303    38.1857   106.3320     2.4751     0.0655     0.2415     8.6803   117.2873     0.1229
   70.0000     8.5500     8.7119     8.8710    38.7399   106.4529     2.4771     0.0549     0.2380     8.6850   116.8368     0.1208
   70.5000     8.5064     8.6385     8.9084    38.7898   106.5738     2.4820     0.0409     0.2401     8.6861   115.8579     0.1172
   71.0000     8.4632     8.6285     8.9351    38.7626   106.6948     2.4869     0.0269     0.2455     8.6861   114.8757     0.1137
   71.5000     8.4201     8.6285     8.9741    38.7352   106.7830     2.4918     0.0168     0.2477     8.6861   114.4749     0.1110
   72.0000     8.3926     8.7727     9.1369    38.7088   106.5967     2.4966     0.0172     0.2493     8.6861   115.1512     0.1082
   72.5000     8.4959     8.8598     9.2049    38.6824   106.4217     2.5014     0.0319     0.2504     8.6861   115.9465     0.1056
   73.0000     8.5855     8.9476     9.2049    38.6558   106.2946     2.5016     0.0491     0.2456     8.6861   116.3771     0.1072
   73.5000     8.6760     9.0364     9.2049    38.6296   106.3528     2.4978     0.0677     0.2365     8.6861   115.9345     0.1104
   74.0000     8.7674     9.1260     9.4804    38.6242   106.3828     2.4922     0.0865     0.2240     8.6861   114.9944     0.1136
   74.5000     8.8599     9.2166     9.7453    38.7142   105.5762     2.4879     0.0859     0.2274     8.6861   113.2347     0.1150
   75.0000     8.9533     9.3226    10.0163    38.8023   104.6919     2.4862     0.0746     0.2332     8.6861   111.6806     0.1163
   75.5000     9.1124     9.4917    10.2947    38.8896   103.8075     2.4846     0.0634     0.2392     8.6861   112.0567     0.1177
   76.0000     9.2743     9.6639    10.5803    38.9793   103.6774     2.4830     0.0531     0.2318     8.6861   113.3488     0.1181
   76.5000     9.4391     9.8392    10.7005    38.8785   104.2121     2.4794     0.0489     0.2278     8.6861   115.1748     0.1199
   77.0000     9.6068    10.0177    10.7564    38.6631   107.5062     2.4752     0.0450     0.2274     8.6861   117.6842     0.1222
   77.5000     9.7775    10.1995    10.8131    38.4450   112.9495     2.4733     0.0410     0.2270     8.6861   117.2206     0.1229
   78.0000     9.9512    10.3845    10.8709    38.2272   118.9523     2.4799     0.0371     0.2295     8.6861   112.7046     0.1193
   78.5000    10.1281    10.5729    11.1044    38.0112   120.9118     2.4887     0.0331     0.2367     8.6861   108.1390     0.1137
   79.0000    10.3081    10.7647    11.3393    37.7902   120.3106     2.4976     0.0291     0.2420     8.6861   106.5708     0.1081
   79.5000    10.4906    10.9600    11.5782    37.3863   120.5646     2.5031     0.0254     0.2323     8.6861   108.6656     0.1050
   80.0000    10.7057    11.1589    11.8221    36.9862   120.8116     2.5061     0.0308     0.2190     8.6861   110.9406     0.1028
   80.5000    10.9463    11.3613    12.1673    36.5879   118.8303     2.5066     0.0523     0.2103     8.6861   112.8561     0.1024
   81.0000    11.1927    11.5674    12.5925    36.1898   116.5650     2.5043     0.0699     0.2084     8.6861   111.1943     0.1036
   81.5000    11.4447    11.7773    13.0702    35.7913   115.2254     2.5017     0.0526     0.2064     8.6861   107.5701     0.1051
   82.0000    11.7013    11.9909    13.0146    35.3903   115.2589     2.4990     0.0286     0.2068     8.6861   103.9658     0.1076
   82.5000    11.9246    12.2085    12.9567    34.9936   115.2199     2.4964     0.0325     0.2151     8.6861   102.4118     0.1100
   83.0000    12.0230    12.4300    13.2137    35.0057   114.9287     2.4909     0.0411     0.2192     8.6861   104.3101     0.1133
   83.5000    12.1289    12.6375    13.4390    35.0459   114.8229     2.4841     0.0496     0.2136     8.6861   106.4477     0.1167
   84.0000    12.2347    12.7899    13.6942    35.0842   114.8649     2.4793     0.0580     0.2115     8.6861   105.8773     0.1197
   84.5000    12.3432    12.9441    13.6111    35.1223   114.9068     2.4810     0.0638     0.2224     8.6861   100.6483     0.1189
   85.0000    12.3920    13.0760    13.5187    35.1568   114.9487     2.4832     0.0464     0.2197     8.6861   101.4837     0.1182
   85.5000    12.4327    12.9137    13.4264    35.0345   114.9906     2.4818     0.0254     0.2155     8.6862   103.6604     0.1188
   86.0000    12.4850    12.7746    13.3332    34.6649   115.1743     2.4799     0.0047     0.2145     8.6865   105.8758     0.1197
   86.5000    12.3740    12.6371    13.2250    34.2985   115.4842     2.4772     0.0167     0.2160     8.6834   108.0984     0.1205
   87.0000    12.2038    12.5010    13.0771    33.9310   115.5751     2.4741     0.0329     0.2123     8.6080   108.8540     0.1225
   87.5000    12.0359    12.3664    12.9322    33.5639   115.6137     2.4704     0.0489     0.2079     8.6162   107.0604     0.1251
   88.0000    11.8704    12.2332    12.7888    33.1968   117.0985     2.4655     0.0463     0.2079     8.7090   104.9483     0.1277
   88.5000    11.7071    12.1015    12.6470    32.8298   118.5833     2.4625     0.0359     0.2135     8.7058   105.2369     0.1295
   89.0000    11.5461    11.9712    12.5067    32.4627   119.0834     2.4642     0.0303     0.2194     8.7054   107.1391     0.1285
   89.5000    11.3872    11.8423    12.3680    32.0670   119.6497     2.4662     0.0342     0.2244     8.7049   105.7322     0.1270
   90.0000    11.2306    11.7148    12.2300    31.5429   119.8487     2.4650     0.0482     0.2192     8.7045   104.1736     0.1288
   90.5000    11.0729    11.5886    12.1354    31.0163   119.9011     2.4603     0.0552     0.2091     8.7041   104.0315     0.1309
