~VERSION INFORMATION
 VERS.                2.0:   CWLS LOG ASCII STANDARD - VERSION 2.0
 WRAP.                 NO:   ONE LINE PER DEPTH STEP
~WELL INFORMATION
#MNEM.UNIT      DATA TYPE    INFORMATION
#----------   ------------   ------------------------------
 STRT.F            0.0000:   START DEPTH
 STOP.F          534.0000:   STOP DEPTH
 STEP.F            0.1000:   STEP LENGTH
 NULL.          -999.2500:   NO VALUE
 COMP.       F D SERV INC:   COMPANY
 WELL. NAVAL PETROLEUM RESERVE 3 SX-1 #71-2-10:   WELL
 FLD .            N.P.R 3:   FIELD
 LOC .      S10 T38N R78W:   LOCATION
 CNTY.            NATRONA:   COUNTY
 STAT.            WYOMING:   STATE
 CTRY. UNITED STATES OF AMERICA:   COUNTRY
 SRVC.     Atlas Wireline:   SERVICE COMPANY
 DATE.        07-DEC-1992:   LOGDATE
 API .       490252257200:   API NUMBER
~CURVE INFORMATION
#MNEM.UNIT       API CODE    CURVE DESCRIPTION
#----------   ------------   ------------------------------
 DEPT.F                  :   
 GRR .GAPI   07 310 01 00:   GAMMA RAY
 RILD.OHMM   07 120 46 00:   INDUCTION LOG DEEP RESISTIVITY
 RILM.OHMM   07 120 44 00:   RESITIVITY LONG MEDIUM
~PARAMETER INFORMATION
#MNEM.UNIT          VALUE    DESCRIPTION
#----------   ------------   ------------------------------
 PD  .                 GL:   PERMANENT DATUM
 EPD .F              5165:   ELEVATION PERMANENT DATUM
 LMF .                 KB:   LOG MEASURED FROM
 DAPD.F                10:   FEET ABOVE PERMANENT DATUM
 DMF .                 KB:   DRILLING MEASURED FROM
 EKB .F              5175:   KELLING BUSHING
 EDF .F              5174:   DRILLING FLOOR
 EGL .F              5165:   GROUND LEVEL
 DATE.        07-DEC-1992:   RUN DATE
 RUN .                  1:   RUN NUMBER
 DD  .F               540:   DEPTH DRILLER
 DL  .F               542:   DEPTH LOGGER
 BLI .F               534:   BOTTOM LOG INTERVAL
 CS  .IN            8.625:   CASING SIZE
 CBD .F                78:   CASING BOTTOM DRILLER
 CBL .F                82:   CASING BOTTOM LOGGER
 BS  .IN            7.875:   BIT SIZE
 BSD .F               540:   BIT SIZE AT DEPTH
 DFT .           AIR FOAM:   DRILLING FLUID TYPE
 BHT .F                70:   BOTTOM HOLE TEMPERATURE
 MRT .F                70:   MAXIMUM RECORDED TEMPERATURE
 LUN .           HL- 6345:   LOGGING UNIT NUMBER
 LUL .         FT. MORGAN:   LOGGING UNIT LOCATION
 ENGI.             BURLEY:   RECORDING ENGINEER
 WITN.        GARY STRONG:   WITNESSED BY
 CLNT.            A2DTECH:   CLIENT CODE
 ORIG.           5" PRINT:   ORIGIN OF DATA
 UWI .       490252257200:   UNIQUE WELL ID
 DICO. A2D Technologies, Inc.:   DIGITIZING COMPANY
~OTHER INFORMATION
~A    DEPT      GRR      RILD       RILM   
# ...
  163.8000   112.2791     7.4386     7.5586
  163.9000   113.4862     7.4382     7.5922
  164.0000   114.3369     7.4377     7.6119
  164.1000   114.9717     7.4373     7.6116
  164.2000   115.8743     7.4368     7.6114
  164.3000   116.5440     7.4365     7.6112
  164.4000   116.7895     7.4361     7.6516
  164.5000   117.0351     7.4357     7.6648
  164.6000   117.2807     7.4352     7.6646
  164.7000   117.3283     7.4348     7.6644
  164.8000   117.3253     7.4344     7.6614
  164.9000   117.3223     7.4340     7.6099
  165.0000   117.2791     7.4336     7.6475
  165.1000   117.0149     7.4332     7.6635
  165.2000   117.0120     7.4327     7.6823
  165.3000   116.6420     7.4323     7.7175
  165.4000   116.1418     7.4720     7.7173
  165.5000   115.5632     7.5150     7.7170
  165.6000   114.8402     7.5360     7.6816
  165.7000   114.2858     7.5356     7.6879
  165.8000   114.0614     7.5351     7.7327
  165.9000   113.6408     7.5347     7.7710
  166.0000   113.1406     7.5343     7.7707
  166.1000   112.3849     7.5339     7.8131
  166.2000   110.9578     7.5334     7.8586
  166.3000   110.9543     7.5330     7.9043
  166.4000   110.9518     7.5326     7.9365
  166.5000   110.9488     7.5321     7.9363
  166.6000   110.9458     7.5318     7.9360
  166.7000   110.9428     7.5577     7.9358
  166.8000   110.9397     7.6011     7.9356
  166.9000   110.9368     7.6369     7.9354
  167.0000   110.9337     7.6364     7.9352
  167.1000   111.4914     7.6788     7.9359
  167.2000   112.4826     7.7230     7.9910
  167.3000   113.4042     7.7429     7.9908
  167.4000   113.9335     7.7574     7.9906
  167.5000   114.3926     7.8019     8.0083
  167.6000   114.8868     7.8508     8.0549
  167.7000   115.3809     7.8504     8.1037
  167.8000   115.8751     7.9138     8.1035
  167.9000   116.3693     7.9604     8.1033
  168.0000   116.9273     7.9599     8.1031
  168.1000   116.9247     7.9624     8.1181
  168.2000   116.9217     8.0149     8.1653
  168.3000   116.9187     8.0146     8.2178
  168.4000   116.8570     8.0439     8.2176
  168.5000   116.5935     8.0700     8.2174
  168.6000   115.7043     8.0696     8.2171
  168.7000   114.8939     8.0691     8.2169
  168.8000   114.4940     8.1157     8.2167
  168.9000   114.3942     8.1624     8.2164
  169.0000   114.0542     8.1817     8.2562
  169.1000   113.3054     8.1812     8.3043
  169.2000   112.5566     8.1883     8.3328
  169.3000   111.8078     8.2378     8.3326
  169.4000   111.0590     8.2374     8.3323
  169.5000   110.2558     8.2369     8.3800
  169.6000   110.2530     8.2364     8.4288
  169.7000   109.8942     8.2360     8.4503
  169.8000   109.3940     8.2355     8.4501
  169.9000   108.8938     8.2350     8.4498
  170.0000   108.4137     8.2346     8.4496
  170.1000   108.1291     8.2341     8.4494
  170.2000   108.1265     8.2116     8.4491
  170.3000   108.1235     8.1757     8.4489
  170.4000   108.2313     8.1752     8.4486
  170.5000   108.4187     8.1747     8.4484
  170.6000   108.4157     8.1743     8.4481
  170.7000   108.4121     8.1739     8.4479
  170.8000   108.4096     8.1734     8.4477
  170.9000   108.4066     8.1637     8.4475
  171.0000   108.3072     8.1154     8.4365
  171.1000   108.0556     8.0689     8.3874
  171.2000   107.7951     8.0578     8.3872
  171.3000   107.7922     8.0574     8.3483
  171.4000   107.4149     8.0569     8.3276
  171.5000   107.0492     8.0565     8.3274
  171.6000   106.7976     8.0560     8.3271
  171.7000   106.5753     8.0126     8.3269
  171.8000   106.5720     7.9988     8.3267
  171.9000   106.5693     7.9752     8.3264
  172.0000   106.7390     7.9421     8.3012
  172.1000   106.9845     7.9416     8.2673
  172.2000   107.2976     7.9411     8.2626
  172.3000   107.8215     7.9407     8.2085
  172.4000   108.9634     7.9403     8.2083
  172.5000   110.2258     7.9195     8.2081
  172.6000   111.3979     7.8839     8.2078
  172.7000   112.1781     7.8826     8.2076
  172.8000   112.7782     7.8279     8.2074
  172.9000   113.7689     7.8276     8.2071
  173.0000   114.2631     7.8271     8.2069
  173.1000   114.9536     7.8267     8.2067
  173.2000   115.5526     7.8262     8.1878
  173.3000   115.9556     7.8258     8.1399
  173.4000   116.1631     7.8254     8.0907
  173.5000   116.1595     7.8249     8.0905
  173.6000   116.6257     7.8245     8.0902
  173.7000   116.7560     7.8241     8.0900
  173.8000   117.0117     7.8236     8.0898
  173.9000   117.5058     7.8231     8.0895
  174.0000   118.0000     7.8227     8.0893
  174.1000   118.5509     7.8223     8.0891
  174.2000   119.2084     7.8219     8.0889
  174.3000   119.7837     7.8214     8.0886
  174.4000   120.1630     7.8184     8.0884
  174.5000   120.4086     7.7659     8.0882
  174.6000   120.6542     7.7655     8.0879
  174.7000   120.9422     7.7650     8.0877
  174.8000   120.7341     7.7646     8.0875
  174.9000   120.6355     7.7642     8.0873
  175.0000   120.5321     7.7637     8.0870
  175.1000   120.3283     7.7633     8.0868
  175.2000   120.3252     7.7984     8.0866
  175.3000   120.3223     7.8170     8.0863
  175.4000   120.1281     7.8166     8.0861
  175.5000   120.0151     7.8162     8.0859
  175.6000   119.9261     7.8157     8.0857
  175.7000   119.7078     7.8153     8.0854
  175.8000   119.7046     7.8148     8.0852
  175.9000   119.9311     7.8144     8.0850
  176.0000   120.1767     7.8140     8.0847
  176.1000   120.5464     7.8135     8.0845
  176.2000   121.0406     7.8130     8.0843
  176.3000   121.5159     7.8127     8.0840
  176.4000   121.7948     7.8122     8.0838
  176.5000   122.0070     7.8327     8.0836
  176.6000   122.0904     7.8663     8.0834
  176.7000   122.0873     7.8658     8.0831
  176.8000   122.0843     7.8653     8.0829
  176.9000   122.0813     7.8275     8.0826
  177.0000   122.0777     7.8096     8.1203
  177.1000   121.6745     7.8092     8.1396
  177.2000   121.3221     7.8087     8.1394
  177.3000   121.0705     7.8083     8.1391
  177.4000   120.7763     7.8078     8.1389
  177.5000   120.2559     7.8074     8.1387
  177.6000   119.7759     7.8070     8.1384
  177.7000   119.2757     7.8065     8.1382
  177.8000   118.7755     7.8061     8.1380
  177.9000   118.2753     7.8056     8.1378
  178.0000   117.8032     7.8052     8.1375
  178.1000   117.5268     7.8048     8.1239
  178.2000   117.3000     7.8043     8.1086
  178.3000   117.0484     7.8039     8.0933
  178.4000   117.0345     7.8035     8.0779
  178.5000   117.2139     7.8030     8.0626
  178.6000   117.2108     7.8026     8.0473
  178.7000   117.2074     7.8021     8.0320
  178.8000   117.2048     7.8216     8.0166
  178.9000   117.5159     7.8561     8.0013
  179.0000   117.8012     7.8557     7.9860
  179.1000   117.7982     7.9104     7.9707
  179.2000   117.7952     7.9101     7.9639
  179.3000   117.7922     7.9096     7.9637
  179.4000   117.7892     7.9092     7.9635
  179.5000   117.7861     7.9087     7.9633
  179.6000   117.7831     7.9083     7.9630
  179.7000   117.7428     7.9079     7.9296
  179.8000   117.4757     7.9074     7.9065
  179.9000   117.2396     7.8826     7.9062
  180.0000   115.7229     7.8513     7.9060
  180.1000   113.9873     7.8458     7.9058
  180.2000   112.7193     7.7955     7.9056
  180.3000   112.0163     7.7952     7.9053
  180.4000   111.7346     7.7947     7.8848
  180.5000   111.7319     7.7943     7.8492
  180.6000   111.7289     7.7938     7.8490
  180.7000   111.7259     7.7910     7.8487
  180.8000   111.7229     7.7385     7.8485
  180.9000   111.7283     7.7381     7.8483
  181.0000   112.0175     7.7377     7.8481
  181.1000   112.0151     7.7372     7.8478
  181.2000   112.2398     7.7368     7.8476
  181.3000   112.6096     7.7364     7.8038
  181.4000   112.9795     7.7359     7.8257
  181.5000   113.3494     7.7006     7.8470
  181.6000   113.7193     7.6810     7.8467
  181.7000   114.0891     7.6806     7.8465
  181.8000   114.4590     7.6868     7.8463
  181.9000   114.8289     7.7337     7.8054
