~VERSION INFORMATION
 VERS.                2.0:   CWLS LOG ASCII STANDARD - VERSION 2.0
 WRAP.                 NO:   ONE LINE PER DEPTH STEP
~WELL INFORMATION
#MNEM.UNIT      DATA TYPE    INFORMATION
#----------   ------------   ------------------------------
 STRT.F            0.0000:   START DEPTH
 STOP.F          534.0000:   STOP DEPTH
 STEP.F            0.1000:   STEP LENGTH
 NULL.          -999.2500:   NO VALUE
 COMP.       F D SERV INC:   COMPANY
 WELL. NAVAL PETROLEUM RESERVE 3 SX-1 #71-2-10:   WELL
 FLD .            N.P.R 3:   FIELD
 LOC .      S10 T38N R78W:   LOCATION
 CNTY.            NATRONA:   COUNTY
 STAT.            WYOMING:   STATE
 CTRY. UNITED STATES OF AMERICA:   COUNTRY
 SRVC.     Atlas Wireline:   SERVICE COMPANY
 DATE.        07-DEC-1992:   LOGDATE
 API .       490252257200:   API NUMBER
~CURVE INFORMATION
#MNEM.UNIT       API CODE    CURVE DESCRIPTION
#----------   ------------   ------------------------------
 DEPT.F                  :   
 GRR .GAPI   07 310 01 00:   GAMMA RAY
 RILD.OHMM   07 120 46 00:   INDUCTION LOG DEEP RESISTIVITY
 RILM.OHMM   07 120 44 00:   RESITIVITY LONG MEDIUM
~PARAMETER INFORMATION
#MNEM.UNIT          VALUE    DESCRIPTION
#----------   ------------   ------------------------------
 PD  .                 GL:   PERMANENT DATUM
 EPD .F              5165:   ELEVATION PERMANENT DATUM
 LMF .                 KB:   LOG MEASURED FROM
 DAPD.F                10:   FEET ABOVE PERMANENT DATUM
 DMF .                 KB:   DRILLING MEASURED FROM
 EKB .F              5175:   KELLING BUSHING
 EDF .F              5174:   DRILLING FLOOR
 EGL .F              5165:   GROUND LEVEL
 DATE.        07-DEC-1992:   RUN DATE
 RUN .                  1:   RUN NUMBER
 DD  .F               540:   DEPTH DRILLER
 DL  .F               542:   DEPTH LOGGER
 BLI .F               534:   BOTTOM LOG INTERVAL
 CS  .IN            8.625:   CASING SIZE
 CBD .F                78:   CASING BOTTOM DRILLER
 CBL .F                82:   CASING BOTTOM LOGGER
 BS  .IN            7.875:   BIT SIZE
 BSD .F               540:   BIT SIZE AT DEPTH
 DFT .           AIR FOAM:   DRILLING FLUID TYPE
 BHT .F                70:   BOTTOM HOLE TEMPERATURE
 MRT .F                70:   MAXIMUM RECORDED TEMPERATURE
 LUN .           HL- 6345:   LOGGING UNIT NUMBER
 LUL .         FT. MORGAN:   LOGGING UNIT LOCATION
 ENGI.             BURLEY:   RECORDING ENGINEER
 WITN.        GARY STRONG:   WITNESSED BY
 CLNT.            A2DTECH:   CLIENT CODE
 ORIG.           5" PRINT:   ORIGIN OF DATA
 UWI .       490252257200:   UNIQUE WELL ID
 DICO. A2D Technologies, Inc.:   DIGITIZING COMPANY
~OTHER INFORMATION
~A    DEPT      GRR      RILD       RILM   
# ...
   72.8000    77.0506  -999.2500  -999.2500
   72.9000    77.0464  -999.2500  -999.2500
   73.0000    77.1366  -999.2500  -999.2500
   73.1000    77.3811  -999.2500  -999.2500
   73.2000    77.6360  -999.2500  -999.2500
   73.3000    78.3470  -999.2500  -999.2500
   73.4000    78.7173  -999.2500  -999.2500
   73.5000    79.0954  -999.2500  -999.2500
   73.6000    79.5076  -999.2500  -999.2500
   73.7000    79.7522  -999.2500  -999.2500
   73.8000    80.0201  -999.2500  -999.2500
   73.9000    79.7912  -999.2500  -999.2500
   74.0000    79.7108  -999.2500  -999.2500
   74.1000    79.7066  -999.2500  -999.2500
   74.2000    79.6345  -999.2500  -999.2500
   74.3000    79.3970  -999.2500  -999.2500
   74.4000    79.3921  -999.2500  -999.2500
   74.5000    78.7530  -999.2500  -999.2500
   74.6000    78.3213  -999.2500  -999.2500
   74.7000    77.9612  -999.2500  -999.2500
   74.8000    77.5140  -999.2500  -999.2500
   74.9000    77.2610  -999.2500  -999.2500
   75.0000    77.0080  -999.2500  -999.2500
   75.1000    77.1522  -999.2500  -999.2500
   75.2000    77.2506  -999.2500  -999.2500
   75.3000    77.3402  -999.2500  -999.2500
   75.4000    77.5441  -999.2500  -999.2500
   75.5000    77.5390  -999.2500  -999.2500
   75.6000    77.5349  -999.2500  -999.2500
   75.7000    77.5307  -999.2500  -999.2500
   75.8000    77.5265  -999.2500  -999.2500
   75.9000    77.5223  -999.2500  -999.2500
   76.0000    77.4900  -999.2500  -999.2500
   76.1000    77.2122  -999.2500  -999.2500
   76.2000    76.9839  -999.2500  -999.2500
   76.3000    76.9030  -999.2500  -999.2500
   76.4000    76.6594  -999.2500  -999.2500
   76.5000    76.1576  -999.2500  -999.2500
   76.6000    75.6558  -999.2500  -999.2500
   76.7000    75.0783  -999.2500  -999.2500
   76.8000    75.0747  -999.2500  -999.2500
   76.9000    74.9117  -999.2500  -999.2500
   77.0000    74.7651  -999.2500  -999.2500
   77.1000    74.8149  -999.2500  -999.2500
   77.2000    75.0594  -999.2500  -999.2500
   77.3000    75.3040  -999.2500  -999.2500
   77.4000    76.3406  -999.2500  -999.2500
   77.5000    76.8524  -999.2500  -999.2500
   77.6000    76.8482  -999.2500  -999.2500
   77.7000    76.8847  -999.2500  -999.2500
   77.8000    77.1408  -999.2500  -999.2500
   77.9000    77.1367  -999.2500  -999.2500
   78.0000    77.1325  -999.2500  -999.2500
   78.1000    77.2606  -999.2500  -999.2500
   78.2000    77.4253  -999.2500  -999.2500
   78.3000    77.4211  -999.2500  -999.2500
   78.4000    77.4164  -999.2500  -999.2500
   78.5000    77.4127  -999.2500  -999.2500
   78.6000    77.4084  -999.2500  -999.2500
   78.7000    77.6423  -999.2500  -999.2500
   78.8000    78.2691  -999.2500  -999.2500
   78.9000    79.2316  -999.2500  -999.2500
   79.0000    79.8006  -999.2500  -999.2500
   79.1000    80.6396  -999.2500  -999.2500
   79.2000    81.4723  -999.2500  -999.2500
   79.3000    82.4261  -999.2500  -999.2500
   79.4000    83.6124  -999.2500  -999.2500
   79.5000    84.6075  -999.2500  -999.2500
   79.6000    86.5936  -999.2500  -999.2500
   79.7000    87.9875  -999.2500  -999.2500
   79.8000    90.3871  -999.2500  -999.2500
   79.9000    93.3395  -999.2500  -999.2500
   80.0000    95.6224  -999.2500  -999.2500
   80.1000    96.9233  -999.2500  -999.2500
   80.2000    98.1020  -999.2500  -999.2500
   80.3000    99.5259  -999.2500  -999.2500
   80.4000   100.7510  -999.2500  -999.2500
   80.5000   102.2180  -999.2500  -999.2500
   80.6000   104.4864  -999.2500  -999.2500
   80.7000   105.0303  -999.2500  -999.2500
   80.8000   108.3759  -999.2500  -999.2500
   80.9000   110.2239  -999.2500  -999.2500
   81.0000   111.0964  -999.2500  -999.2500
   81.1000   111.7064  -999.2500  -999.2500
   81.2000   111.9510  -999.2500  -999.2500
   81.3000   112.2337  -999.2500  -999.2500
   81.4000   112.8602  -999.2500  -999.2500
   81.5000   113.6024  -999.2500  -999.2500
   81.6000   114.5550  -999.2500  -999.2500
   81.7000   115.6891  -999.2500  -999.2500
   81.8000   116.4317  -999.2500  -999.2500
   81.9000   117.4227  -999.2500  -999.2500
   82.0000   118.2169     1.8685     3.2207
   82.1000   119.2478     1.8732     3.5481
   82.2000   120.2117     1.9080     4.1756
   82.3000   120.7842     1.9288     4.5182
   82.4000   121.8263     1.9679     4.8580
   82.5000   122.7661     2.0586     5.4960
   82.6000   123.7570     2.2111     6.2321
   82.7000   124.7480     2.3961     6.8734
   82.8000   125.8964     2.4892     7.3364
   82.9000   127.2276     2.5961     8.1839
   83.0000   127.2225     2.7534     8.9018
   83.1000   127.6640     2.9261     9.6131
   83.2000   128.1574     3.0950    10.1740
   83.3000   128.6508     3.2670    10.6600
   83.4000   129.2096     3.5824    11.1706
   83.5000   129.9257     4.2927    11.8444
   83.6000   130.2090     4.8720    12.9236
   83.7000   130.8337     5.2724    14.5058
   83.8000   131.2619     5.6020    15.9642
   83.9000   131.4018     5.9217    17.1380
   84.0000   131.3976     7.1174    20.6673
   84.1000   131.3934     9.9694    22.2341
   84.2000   131.3892    11.4249    24.6603
   84.3000   131.3849    11.4609    26.7551
   84.4000   131.3807    11.2366    27.7615
   84.5000   131.1938    10.9110    27.5800
   84.6000   130.6920    10.9102    27.2286
   84.7000   130.1630    10.7621    26.9405
   84.8000   129.9237    10.2051    26.6264
   84.9000   129.3048     9.4063    25.8755
   85.0000   128.4237     8.6382    24.3853
   85.1000   127.4243     7.7360    22.2051
   85.2000   126.4506     7.5667    20.2264
   85.3000   125.6194     7.4565    18.8617
   85.4000   124.9494     7.3928    16.6482
   85.5000   123.6898     7.3636    14.6727
   85.6000   122.4273     7.3578    13.6117
   85.7000   121.2982     7.3111    13.1968
   85.8000   119.8759     7.2335    12.1135
   85.9000   119.8710     7.1788    11.3723
   86.0000   119.6586     7.1368    10.9800
   86.1000   119.5620     7.0831    10.1094
   86.2000   119.6618     7.0075     9.8184
   86.3000   119.9064     7.0070     9.6679
   86.4000   120.1518     6.9358     9.5877
   86.5000   121.1396     6.8553     9.5523
   86.6000   121.9350     6.7757     9.5707
   86.7000   122.6771     6.6970     9.6879
   86.8000   123.2377     6.6209     9.6876
   86.9000   123.5207     6.5758     9.7728
   87.0000   124.0419     6.5120     9.8251
   87.1000   124.2727     6.4598     9.7870
   87.2000   124.5173     6.4377     9.6865
   87.3000   124.7619     6.4373     9.6862
   87.4000   124.9289     6.4368     9.5831
   87.5000   124.9498     6.4364     9.4714
   87.6000   125.2212     6.4658     9.3073
   87.7000   125.2175     6.5481     9.0617
   87.8000   125.5514     6.6626     8.7402
   87.9000   125.8114     6.8003     8.2888
   88.0000   125.8072     7.0479     8.0406
   88.1000   125.8149     7.4152     7.8226
   88.2000   126.0993     7.8488     7.6814
   88.3000   126.3040     8.1549     7.5918
   88.4000   126.3928     8.3119     7.5031
   88.5000   126.3886     8.4015     7.4005
   88.6000   126.3843     8.4533     7.3292
   88.7000   126.3801     8.4985     7.2962
   88.8000   125.8811     8.5473     7.2785
   88.9000   125.3793     8.5709     7.2358
   89.0000   125.0201     8.5551     7.1931
   89.1000   124.7671     8.5098     7.1512
   89.2000   124.5518     8.5091     7.1093
   89.3000   124.5473     8.4648     7.0914
   89.4000   124.3092     8.3821     7.0912
   89.5000   124.2380     8.3075     7.0910
   89.6000   124.3631     8.2461     7.0908
   89.7000   124.5307     8.1503     7.0906
   89.8000   126.0815     8.0417     7.1212
   89.9000   126.6302     7.9623     7.1628
   90.0000   126.8474     7.8118     7.2046
   90.1000   127.0920     7.6702     7.2419
   90.2000   127.3365     7.5712     7.2416
   90.3000   127.6448     7.4397     7.2032
   90.4000   128.1158     7.2870     7.1902
   90.5000   128.1107     7.2183     7.1900
   90.6000   128.1072     7.1345     7.1781
   90.7000   128.2582     7.0678     7.1360
   90.8000   128.4000     7.0264     7.0884
   90.9000   128.4462     6.9845     7.0882
