~VERSION INFORMATION
 VERS.                2.0:   CWLS LOG ASCII STANDARD - VERSION 2.0
 WRAP.                 NO:   ONE LINE PER DEPTH STEP
~WELL INFORMATION
#MNEM.UNIT      DATA TYPE    INFORMATION
#----------   ------------   ------------------------------
 STRT.F          717.0000:   START DEPTH
 STOP.F         2448.0000:   STOP DEPTH
 STEP.F            0.5000:   STEP LENGTH
 NULL.          -999.2500:   NO VALUE
 COMP.   FLUOR DANIEL INC:   COMPANY
 WELL. NAVAL PETROLEUM RESERVE 3X27 #34-27:   WELL
 FLD .             TEAPOT:   FIELD
 LOC .      S27 T39N R78W:   LOCATION
 CNTY.            NATRONA:   COUNTY
 STAT.            WYOMING:   STATE
 CTRY. UNITED STATES OF AMERICA:   COUNTRY
 SRVC.            Unknown:   SERVICE COMPANY
 DATE.        17-MAY-1996:   LOGDATE
 API .       490252279300:   API NUMBER
~CURVE INFORMATION
#MNEM.UNIT       API CODE    CURVE DESCRIPTION
#----------   ------------   ------------------------------
 DEPT.F                  :   
 TGAS.TC/CC  91 830 01 00:   TOTAL GAS UNIT
 ROP .FT/HR  91 810 01 00:   RAT OF DRILLING PENETRATION
~PARAMETER INFORMATION
#MNEM.UNIT          VALUE    DESCRIPTION
#----------   ------------   ------------------------------
 EPD .F              5039:   ELEVATION PERMANENT DATUM
 EKB .F              5049:   KELLING BUSHING
 EGL .F              5039:   GROUND LEVEL
 DATE.        17-MAY-1996:   RUN DATE
 RUN .                  1:   RUN NUMBER
 ENGI.     R.HUSK/C.TOWER:   RECORDING ENGINEER
 CLNT.            A2DTECH:   CLIENT CODE
 ORIG.           5" PRINT:   ORIGIN OF DATA
 UWI .       490252279300:   UNIQUE WELL ID
 DICO. A2D Technologies, Inc.:   DIGITIZING COMPANY
~OTHER INFORMATION
~A   DEPT       TGAS        ROP 
# ...
 1081.5000     1.2819     0.9861
 1082.0000     1.2933     0.9859
 1082.5000     1.1155     1.3052
 1083.0000     1.1269     1.3050
 1083.5000     0.9509     1.3047
 1084.0000     0.9605     1.2481
 1084.5000     0.9718     1.0411
 1085.0000     0.9842     1.0409
 1085.5000     0.9953     1.0501
 1086.0000     1.0059     1.0498
 1086.5000     1.0172     1.0496
 1087.0000     1.0286     1.0493
 1087.5000     1.0399     1.0491
 1088.0000     1.0517     1.0583
 1088.5000     1.0646     1.0486
 1089.0000     1.0739     1.0484
 1089.5000     1.0859     1.0481
 1090.0000     1.0989     1.0479
 1090.5000     1.1080     1.0383
 1091.0000     1.1201     1.0380
 1091.5000     1.1307     1.0284
 1092.0000     1.1420     1.0188
 1092.5000     1.1534     1.0186
 1093.0000     1.1647     1.0183
 1093.5000     0.9874     1.0181
 1094.0000     1.0004     1.0178
 1094.5000     1.1987     1.0176
 1095.0000     1.2101     1.0174
 1095.5000     1.2214     1.0171
 1096.0000     1.2338     1.0169
 1096.5000     1.2441     1.0167
 1097.0000     1.2560     1.0258
 1097.5000     1.2681     1.0256
 1098.0000     1.2782     0.6306
 1098.5000     1.2895     0.6398
 1099.0000     1.3008     0.6396
 1099.5000     1.3143     0.6393
 1100.0000     1.1335     0.6391
 1100.5000     1.1710     0.6294
 1101.0000     1.2056     0.6292
 1101.5000     1.2402     0.6290
 1102.0000     1.2748     0.6193
 1102.5000     1.3094     0.6379
 1103.0000     1.3440     0.7693
 1103.5000     1.5523     0.7690
 1104.0000     1.3686     0.7680
 1104.5000     1.1851     0.7592
 1105.0000     1.1921     0.7589
 1105.5000     1.0072     0.7587
 1106.0000     1.0141     0.7584
 1106.5000     0.8292     0.7488
 1107.0000     0.8357     0.7486
 1107.5000     0.8418     0.7578
 1108.0000     0.8474     1.3872
 1108.5000     1.0420     1.3870
 1109.0000     1.0476     1.3867
 1109.5000     1.0532     1.3865
 1110.0000     1.2479     1.0291
 1110.5000     1.2536     0.9537
 1111.0000     1.2603     0.9534
 1111.5000     1.2659     0.9438
 1112.0000     1.2706     0.9342
 1112.5000     1.2771     0.7648
 1113.0000     1.2826     0.7740
 1113.5000     1.2876     0.7737
 1114.0000     1.2938     0.7735
 1114.5000     1.2994     0.7729
 1115.0000     1.3046     0.7636
 1115.5000     1.3105     0.7633
 1116.0000     1.3161     0.7631
 1116.5000     1.3221     0.7629
 1117.0000     1.3273     0.7627
 1117.5000     1.5221     0.7624
 1118.0000     1.5289     0.7716
 1118.5000     1.5344     0.8560
 1119.0000     1.5082     0.8557
 1119.5000     1.3551     0.8555
 1120.0000     1.3621     0.8760
 1120.5000     1.4108     1.1667
 1121.0000     1.3718     1.1744
 1121.5000     1.3788     1.1553
 1122.0000     1.1950     0.9483
 1122.5000     1.0116     0.9480
 1123.0000     1.0174     0.9384
 1123.5000     1.0230     0.9382
 1124.0000     1.0286     0.9380
 1124.5000     1.0342     0.9471
 1125.0000     1.0399     0.9469
 1125.5000     1.0467     0.9467
 1126.0000     1.0522     0.9492
 1126.5000     1.0578     0.9525
 1127.0000     1.0634     0.9558
 1127.5000     1.0690     0.9586
 1128.0000     0.8841     0.7707
 1128.5000     0.7006     0.7707
 1129.0000     0.7075     0.7707
 1129.5000     0.5240     0.7613
 1130.0000     0.5296     0.7613
 1130.5000     0.5351     0.7613
 1131.0000     0.5408     0.7613
 1131.5000     0.5464     0.7613
 1132.0000     0.5521     0.7613
 1132.5000     0.5589     0.7613
 1133.0000     0.5634     0.7613
 1133.5000     0.5700     0.7707
 1134.0000     0.5748     0.8647
 1134.5000     0.5805     0.8647
 1135.0000     0.5861     0.8741
 1135.5000     0.5923     0.8647
 1136.0000     0.5984     0.8647
 1136.5000     0.6032     0.8647
 1137.0000     0.6095     0.8647
 1137.5000     0.6145     0.8647
 1138.0000     0.7134     1.1654
 1138.5000     0.8149     1.1654
 1139.0000     0.8204     1.1654
 1139.5000     0.6372     1.1560
 1140.0000     0.6439     1.0050
 1140.5000     0.6495     0.8177
 1141.0000     0.6550     0.8234
 1141.5000     0.6606     0.8271
 1142.0000     0.6662     0.9023
 1142.5000     0.6718     0.9023
 1143.0000     0.6773     0.9023
 1143.5000     0.6829     0.9023
 1144.0000     0.6885     0.9023
 1144.5000     0.6941     0.9023
 1145.0000     0.6996     0.9023
 1145.5000     0.8943     0.8916
 1146.0000     0.9000     0.7613
 1146.5000     0.9057     0.7613
 1147.0000     0.9124     0.7613
 1147.5000     0.9180     0.7613
 1148.0000     0.9235     1.2594
 1148.5000     0.9291     1.2500
 1149.0000     0.9347     1.2500
 1149.5000     0.9403     1.2500
 1150.0000     0.9444     1.0996
 1150.5000     0.8953     0.9774
 1151.0000     0.8530     0.9680
 1151.5000     0.8108     0.9586
 1152.0000     0.7941     1.0996
 1152.5000     0.8036     1.0996
 1153.0000     0.8149     1.0996
 1153.5000     0.8241     1.0526
 1154.0000     0.8333     1.0338
 1154.5000     0.8426     1.0432
 1155.0000     0.6605     1.0432
 1155.5000     0.8611     1.0432
 1156.0000     0.6789     1.2782
 1156.5000     0.6905     1.2782
 1157.0000     0.6998     1.2688
 1157.5000     0.7105     1.2688
 1158.0000     0.9076     0.9774
 1158.5000     0.7275     0.9774
 1159.0000     0.7374     0.9774
 1159.5000     0.9374     0.9774
 1160.0000     0.9454     0.7519
 1160.5000     0.9548     0.7613
 1161.0000     0.9651     0.7613
 1161.5000     0.9737     0.7613
 1162.0000     0.9836     0.7613
 1162.5000     0.9928     0.7613
 1163.0000     1.0021     0.7613
 1163.5000     1.0113     0.7613
 1164.0000     0.8315     0.8102
 1164.5000     0.8414     0.8929
 1165.0000     0.8523     0.8929
 1165.5000     0.8603     0.8929
 1166.0000     0.8708     0.8929
 1166.5000     0.8800     0.8929
 1167.0000     0.8901     0.8929
 1167.5000     0.8981     0.8929
 1168.0000     0.9076     0.8929
 1168.5000     0.9170     1.1748
 1169.0000     0.9265     1.1748
 1169.5000     0.9359     1.1748
 1170.0000     0.9454     1.1748
 1170.5000     0.9548     1.0150
 1171.0000     0.9656     1.0150
 1171.5000     0.9737     1.0150
 1172.0000     0.9841     1.0150
 1172.5000     0.9933     1.0150
 1173.0000     1.0021     0.8741
 1173.5000     1.0118     0.8741
 1174.0000     1.0210     0.8741
 1174.5000     1.0305     1.1654
 1175.0000     1.0399     1.1748
 1175.5000     1.2402     1.1654
 1176.0000     1.2494     1.1654
 1176.5000     1.2587     1.1466
 1177.0000     1.0765     0.9962
 1177.5000     1.0881     0.9774
 1178.0000     1.0966     0.9774
 1178.5000     1.1066     0.9468
 1179.0000     1.1158     0.8647
 1179.5000     1.1251     0.8741
 1180.0000     1.1345     0.8741
 1180.5000     1.1439     1.9737
 1181.0000     1.1534     1.9549
 1181.5000     1.1643     1.9549
 1182.0000     1.1723     1.9455
 1182.5000     1.1817     1.6259
 1183.0000     1.1921     1.6165
 1183.5000     1.2013     1.6165
 1184.0000     1.2101     1.9737
 1184.5000     1.2195     1.9643
 1185.0000     1.2291     1.9643
 1185.5000     1.2384     1.9643
 1186.0000     1.2479     0.9680
 1186.5000     1.2574     0.9680
 1187.0000     1.2668     0.9680
 1187.5000     1.2776     0.9680
 1188.0000     1.2857     0.9680
 1188.5000     1.2961     0.9484
 1189.0000     1.3053     0.6579
 1189.5000     1.3141     0.6485
 1190.0000     1.3235     0.5357
 1190.5000     1.3330     0.5357
 1191.0000     1.3423     0.5451
 1191.5000     1.1628     0.5451
 1192.0000     1.1723     0.5451
 1192.5000     1.1817     0.5451
 1193.0000     1.1912     0.5451
 1193.5000     1.2018     0.5451
 1194.0000     1.0878     0.5451
 1194.5000     1.0289     0.5451
 1195.0000     1.0405     0.5451
 1195.5000     1.0494     0.5357
 1196.0000     1.0588     0.5357
 1196.5000     1.0683     0.5263
 1197.0000     1.0782     0.5263
 1197.5000     1.0872     0.5263
 1198.0000     1.1256     0.5263
 1198.5000     1.2952     0.5263
 1199.0000     1.3058     0.5357
 1199.5000     1.1260     0.7519
 1200.0000     1.0587     0.7707
 1200.5000     0.6039     0.7707
 1201.0000     0.3966     0.7707
 1201.5000     0.4082     0.7707
 1202.0000     0.4174     0.7613
 1202.5000     0.4267     0.7707
