~VERSION INFORMATION
 VERS.                2.0:   CWLS LOG ASCII STANDARD - VERSION 2.0
 WRAP.                 NO:   ONE LINE PER DEPTH STEP
~WELL INFORMATION
#MNEM.UNIT      DATA TYPE    INFORMATION
#----------   ------------   ------------------------------
 STRT.F           32.0000:   START DEPTH
 STOP.F         1006.0000:   STOP DEPTH
 STEP.F            0.5000:   STEP LENGTH
 NULL.          -999.2500:   NO VALUE
 COMP. FENIX & SCISSON INC:   COMPANY
 WELL.        NPR-3 #54-2:   WELL
 FLD .             TEAPOT:   FIELD
 LOC .       S2 T38N R78W:   LOCATION
 CNTY.            NATRONA:   COUNTY
 STAT.            WYOMING:   STATE
 CTRY. UNITED STATES OF AMERICA:   COUNTRY
 SRVC.              Welex:   SERVICE COMPANY
 DATE.        08-SEP-1977:   LOGDATE
 API .       490251041600:   API NUMBER
~CURVE INFORMATION
#MNEM.UNIT       API CODE    CURVE DESCRIPTION
#----------   ------------   ------------------------------
 DEPT.F                  :   
 CALD.IN     45 280 60 00:   CALIPER FROM DENSITY LOG
 GRD .GAPI   45 310 01 00:   GAMMA RAY FROM DENSITY LOG
 CORR.G/C3   45 356 01 00:   DENSITY CORRECTION
 DPHI.DEC    45 890 12 00:   DENSITY POROSITY SANDSTONE
 RHOB.G/C3   45 350 01 00:   BULK DENSITY
 SPR .MV     07 010 01 00:   SPONTANEOUS POTENTIAL
 ILD .OHMM   07 120 46 00:   INDUCTION LOG DEEP
 ILM .OHMM   07 120 44 00:   INDUCTION LOG MEDIUM
 SGRD.OHMM   07 221 05 00:   SHALLOW SHORT GUARD RESISTIVITY
~PARAMETER INFORMATION
#MNEM.UNIT          VALUE    DESCRIPTION
#----------   ------------   ------------------------------
 PD  .                 GL:   PERMANENT DATUM
 EPD .F              5160:   ELEVATION PERMANENT DATUM
 LMF .                 KB:   LOG MEASURED FROM
 DAPD.F                10:   FEET ABOVE PERMANENT DATUM
 DMF .                 KB:   DRILLING MEASURED FROM
 EKB .F              5170:   KELLING BUSHING
 EGL .F              5160:   GROUND LEVEL
 DATE.        08-SEP-1977:   RUN DATE
 RUN .                  1:   RUN NUMBER
 DD  .F              1000:   DEPTH DRILLER
 DL  .F              1008:   DEPTH LOGGER
 BLI .F              1006:   BOTTOM LOG INTERVAL
 TLI .F                47:   TOP LOG INTERVAL
 CS  .IN            8.625:   CASING SIZE
 BS  .IN             6.75:   BIT SIZE
 BSD .F              1000:   BIT SIZE AT DEPTH
 DFT .            KCL MUD:   DRILLING FLUID TYPE
 DFD .                9.1:   DRILLING FLUID DENSITY
 BHT .F               100:   BOTTOM HOLE TEMPERATURE
 TCS .HRS            0230:   TIME CURCULATED STOPPED
 MRT .F               100:   MAXIMUM RECORDED TEMPERATURE
 ENGI.          D. LAWSON:   RECORDING ENGINEER
 WITN.         HARRINGTON:   WITNESSED BY
 CLNT.            A2DTECH:   CLIENT CODE
 ORIG.           5" PRINT:   ORIGIN OF DATA
 UWI .       490251041600:   UNIQUE WELL ID
 DICO. A2D Technologies, Inc.:   DIGITIZING COMPANY
~OTHER INFORMATION
~A   DEPT     CALD         GRD       CORR      DPHI         RHOB      SPR        ILD        ILM       SGRD   
# ...
  141.5000     7.2816    75.1324     0.0204     0.1360     2.4403   -53.4931     7.4516     9.8040    39.9009
  142.0000     7.3136    72.9059     0.0146     0.1393     2.4314   -53.9253     7.2517     9.0284     8.7237
  142.5000     7.3456    76.0710     0.0102     0.1455     2.4225   -54.2074     7.0085     8.5842     7.4459
  143.0000     7.3776    74.1487     0.0075     0.1502     2.4129   -54.1909     6.7734     8.1820     7.8780
  143.5000     7.3946    72.3707     0.0076     0.1538     2.4070   -54.0249     6.5011     8.0746     8.4494
  144.0000     7.3967    74.1905     0.0078     0.1561     2.4048   -53.8589     6.4054     8.0255     9.5116
  144.5000     7.3988    73.9124     0.0080     0.1576     2.4049   -53.6930     6.2343     7.9768     8.7619
  145.0000     7.4053    72.8870     0.0081     0.1555     2.4073   -53.3775     6.1098     7.9850     9.5944
  145.5000     7.4150    71.7121     0.0083     0.1504     2.4134   -52.9112     6.0775     7.9916    10.5788
  146.0000     7.4374    73.9751     0.0085     0.1497     2.4164   -52.7358     6.2139     7.7263    10.2283
  146.5000     7.4541    77.7329     0.0086     0.1530     2.4143   -52.4903     6.3414     7.6777     9.1650
  147.0000     7.5008    79.2434     0.0088     0.1508     2.4167   -52.2448     6.4821     7.9014     8.5012
  147.5000     7.5175    77.0221     0.0105     0.1472     2.4197   -51.9992     6.6205     8.0738     8.0490
  148.0000     7.5193    80.7851     0.0121     0.1445     2.4228   -51.4839     6.7152     8.1914     9.0408
  148.5000     7.5211    82.1513     0.0123     0.1472     2.4199   -51.1687     6.8090     7.9744    10.5231
  149.0000     7.5229    80.0795     0.0140     0.1504     2.4178   -50.8534     6.9072     8.0939    10.8644
  149.5000     7.5093    82.7910     0.0141     0.1498     2.4179   -50.6876     6.9968     8.3857    10.2150
  150.0000     7.4816    84.1767     0.0143     0.1456     2.4189   -50.5218     7.1140     8.5096    10.7340
  150.5000     7.4381    85.2197     0.0137     0.1422     2.4240   -50.2065     7.2124     8.3979    10.5958
  151.0000     7.4403    83.6915     0.0131     0.1458     2.4234   -50.1902     7.2173     8.2893    10.1040
  151.5000     7.4421    77.4167     0.0133     0.1470     2.4212   -50.1739     7.2223     8.1274     9.5026
  152.0000     7.4439    77.2016     0.0180     0.1448     2.4243   -50.3111     7.2273     8.2475     9.5769
  152.5000     7.4457    80.8371     0.0212     0.1406     2.4289   -50.4410     7.2322     8.4860     9.9225
  153.0000     7.4774    81.4227     0.0243     0.1349     2.4337   -50.4239     7.2372     8.5520    10.7160
  153.5000     7.4941    78.5870     0.0229     0.1334     2.4402   -50.5570     7.1920     8.6185    11.4064
  154.0000     7.5109    78.3039     0.0216     0.1399     2.4341   -50.5407     7.1972     8.5643    11.2488
  154.5000     7.5276    77.5724     0.0203     0.1408     2.4321   -50.6741     7.2522     8.4550     9.8694
  155.0000     7.5294    76.8411     0.0205     0.1415     2.4306   -50.8072     7.2572     8.4037    10.2248
  155.5000     7.5312    75.7887     0.0206     0.1428     2.4284   -50.9402     7.2622     8.4694    10.5200
  156.0000     7.5330    74.4574     0.0193     0.1441     2.4263   -51.0734     7.2170     8.4177    10.5279
  156.5000     7.5497    73.4509     0.0165     0.1449     2.4256   -51.2065     7.1722     8.3666    10.5359
  157.0000     7.5515    73.5507     0.0136     0.1448     2.4257   -51.1898     7.1276     8.3160    10.5438
  157.5000     7.5832    76.2069     0.0122     0.1448     2.4250   -51.3233     7.0826     8.2083    10.5518
  158.0000     7.5850    79.0648     0.0124     0.1451     2.4251   -51.3064     6.9908     7.9910    10.4849
  158.5000     7.6017    76.6910     0.0126     0.1454     2.4251   -51.4402     6.9444     7.7792    10.0658
  159.0000     7.6035    76.2560     0.0143     0.1459     2.4244   -51.4198     6.9002     7.7319    10.0058
  159.5000     7.6053    82.7059     0.0159     0.1468     2.4237   -51.5570     6.8090     7.8462     9.4083
  160.0000     7.6071    81.0795     0.0161     0.1464     2.4208   -51.6902     6.7250     7.8527     9.6799
  160.5000     7.6089    78.8552     0.0193     0.1437     2.4217   -51.9728     6.6371     7.8041    10.3102
  161.0000     7.5953    77.2244     0.0209     0.1419     2.4255   -52.1060     6.5504     7.7024    10.7557
  161.5000     7.5826    78.7415     0.0226     0.1389     2.4293   -52.3886     6.4202     7.6020    10.2545
  162.0000     7.5694    77.8625     0.0258     0.1374     2.4323   -52.5218     6.2072     7.5028     8.8733
  162.5000     7.5408    75.7877     0.0275     0.1376     2.4339   -52.8003     6.1251     7.3539     8.2858
  163.0000     7.4982    72.2182     0.0276     0.1379     2.4317   -53.0870     6.0870     7.2629     7.8450
  163.5000     7.4697    74.7772     0.0263     0.1385     2.4295   -53.3697     6.0923     7.1690     8.2984
  164.0000     7.4416    78.5320     0.0264     0.1396     2.4274   -53.6482     6.0534     7.1255     8.7777
  164.5000     7.4284    81.0909     0.0251     0.1408     2.4252   -53.7854     6.0158     7.1811     9.0938
  165.0000     7.4456    80.0625     0.0253     0.1432     2.4245   -54.2135     5.9784     7.2454     9.2918
  165.5000     7.4922    72.3076     0.0254     0.1449     2.4223   -54.4961     5.9413     7.2933     9.6287
  166.0000     7.5389    70.8262     0.0256     0.1458     2.4186   -54.6334     5.9043     7.1506     9.5629
  166.5000     7.5855    72.9412     0.0258     0.1470     2.4135   -54.7665     5.8272     7.0567     9.0461
  167.0000     7.6321    74.1549     0.0259     0.1484     2.4090   -55.0451     5.7124     6.9174     8.5021
  167.5000     7.6788    76.2655     0.0246     0.1507     2.4076   -55.1782     5.6759     6.8280     8.1206
  168.0000     7.6806    76.8768     0.0247     0.1549     2.4077   -55.3155     5.5641     6.7411     7.6902
  168.5000     7.6226    72.8633     0.0234     0.1561     2.4085   -55.2951     5.5286     6.7467     8.0225
  169.0000     7.5646    72.4282     0.0221     0.1546     2.4078   -55.2787     5.4187     6.6581     8.4274
  169.5000     7.4916    75.5896     0.0192     0.1536     2.4056   -55.4126     5.3119     6.5280     7.8695
  170.0000     7.4630    79.0454     0.0162     0.1545     2.4035   -55.3956     5.2780     6.4870     7.1974
  170.5000     7.4499    76.9706     0.0148     0.1557     2.4013   -55.2298     5.2091     6.5388     6.7663
  171.0000     7.4521    77.8854     0.0134     0.1580     2.3998   -55.2135     5.1767     6.5897     7.8329
  171.5000     7.4539    79.3980     0.0124     0.1613     2.3962   -55.0477     5.2534     6.6409     8.2281
  172.0000     7.4557    80.6117     0.0110     0.1663     2.3872   -54.8819     5.2935     6.6006     8.2344
  172.5000     7.4575    79.8822     0.0112     0.1696     2.3820   -54.5665     5.3710     6.6060     8.2406
  173.0000     7.4593    77.2095     0.0114     0.1651     2.3859   -54.5501     5.4496     6.6115     8.3041
  173.5000     7.4760    73.4905     0.0131     0.1585     2.3934   -54.3842     5.4912     6.5700     8.4849
  174.0000     7.4778    74.4052     0.0147     0.1522     2.4040   -54.2182     5.5331     6.4850     9.0984
  174.5000     7.4945    78.3095     0.0179     0.1501     2.4115   -54.2018     5.5754     6.4917     8.2085
  175.0000     7.5262    80.1166     0.0196     0.1485     2.4139   -54.1854     5.5792     6.5877     7.7183
  175.5000     7.5430    77.2989     0.0197     0.1506     2.4139   -54.3151     5.5830     6.6389     7.9411
  176.0000     7.5597    75.3736     0.0199     0.1510     2.4117   -54.2988     5.5869     6.7370     8.3998
  176.5000     7.5914    73.2988     0.0201     0.1491     2.4103   -54.2825     5.5907     6.7894     8.5826
  177.0000     7.6231    72.1208     0.0217     0.1517     2.4081   -54.2661     5.5946     6.8422     8.5282
  177.5000     7.6697    70.9429     0.0219     0.1541     2.4082   -54.2498     5.5214     6.8478     8.4771
