~VERSION INFORMATION
 VERS.                2.0:   CWLS LOG ASCII STANDARD - VERSION 2.0
 WRAP.                 NO:   ONE LINE PER DEPTH STEP
~WELL INFORMATION
#MNEM.UNIT      DATA TYPE    INFORMATION
#----------   ------------   ------------------------------
 STRT.F          276.0000:   START DEPTH
 STOP.F         2768.0000:   STOP DEPTH
 STEP.F            0.5000:   STEP LENGTH
 NULL.          -999.2500:   NO VALUE
 COMP.       TESORD PETRO:   COMPANY
 WELL. AX-20 NPR #3 #83-20:   WELL
 FLD .            WILDCAT:   FIELD
 LOC .      S20 T39N R78W:   LOCATION
 CNTY.            NATRONA:   COUNTY
 STAT.            WYOMING:   STATE
 CTRY. UNITED STATES OF AMERICA:   COUNTRY
 SRVC.       Schlumberger:   SERVICE COMPANY
 DATE.        20-JUL-1971:   LOGDATE
 API .       490251022000:   API NUMBER
~CURVE INFORMATION
#MNEM.UNIT       API CODE    CURVE DESCRIPTION
#----------   ------------   ------------------------------
 DEPT.F                  :   
 SPR .MV     05 010 01 00:   SPONTANEOUS POTENTIAL FROM RES.
 ASN .OHMM   05 041 16 00:   AMPLIFIED SHORT NORMAL 16"
 ILD .OHMM   05 120 46 00:   INDUCTION LOG DEEP
 CALD.IN     45 280 60 00:   CALIPER FROM DENSITY
 CORR.G/C3   45 356 01 00:   DENSITY CORRECTION
 DPHI.DEC    45 890 12 00:   DENSITY POROSITY SANDSTONE
 GRD .GAPI   45 310 01 00:   GAMMA RAY FROM DENSITY LOG
 RHOB.G/C3   45 350 01 00:   BULK DENSITY
 CILD.MMHO   05 110 46 00:   CONDUCTIVITY INDUCTION LOG DEEP
~PARAMETER INFORMATION
#MNEM.UNIT          VALUE    DESCRIPTION
#----------   ------------   ------------------------------
 PD  .                 GL:   PERMANENT DATUM
 EPD .F              4994:   ELEVATION PERMANENT DATUM
 LMF .                 KB:   LOG MEASURED FROM
 DAPD.F                11:   FEET ABOVE PERMANENT DATUM
 DMF .                 KB:   DRILLING MEASURED FROM
 EKB .F              5005:   KELLING BUSHING
 EGL .F              4994:   GROUND LEVEL
 DATE.        20-JUL-1971:   RUN DATE
 RUN .                  1:   RUN NUMBER
 DD  .F              2770:   DEPTH DRILLER
 DL  .F              2769:   DEPTH LOGGER
 BLI .F              2768:   BOTTOM LOG INTERVAL
 TLI .F               276:   TOP LOG INTERVAL
 CS  .IN            10.75:   CASING SIZE
 CBD .F               274:   CASING BOTTOM DRILLER
 CBL .F               276:   CASING BOTTOM LOGGER
 BS  .IN                9:   BIT SIZE
 BSD .F              2770:   BIT SIZE AT DEPTH
 DFT .      FRESH GEL MUD:   DRILLING FLUID TYPE
 DFD .                 10:   DRILLING FLUID DENSITY
 DFV .                 82:   DRILLING FLUID VISCOSITY
 DFPH.                  8:   DRILLING FLUID PH
 DFL .                4.8:   DRILLING FLUID LOSS
 MSS .           FLOWLINE:   MUD SAMPLE SOURCE
 RMS .OHMM            1.8:   RESISTIVITY MUD SAMPLE
 MST .F                73:   MUD SAMPLE TEMPERATURE
 RMF .OHMM            1.4:   RESISTIVITY MUD FILTRATE SAMPLE
 MFST.F                73:   MUD FILTRATE SAMPLE TEMPERATURE
 MFSS.               MEAS:   MUD FILTRATE SAMPLE SOURCE
 RMB .OHMM           1.15:   RESISTIVITY MUD AT BHT
 BHT .F               116:   BOTTOM HOLE TEMPERATURE
 TCS .HRS               2:   TIME CURCULATED STOPPED
 MRT .F               116:   MAXIMUM RECORDED TEMPERATURE
 LUN .               7037:   LOGGING UNIT NUMBER
 LUL .               CSPR:   LOGGING UNIT LOCATION
 ENGI.             JENSEN:   RECORDING ENGINEER
 WITN.                MAY:   WITNESSED BY
 CLNT.            A2DTECH:   CLIENT CODE
 ORIG.     1", 2.5" PRINT:   ORIGIN OF DATA
 UWI .       490251022000:   UNIQUE WELL ID
 DICO. A2D Technologies, Inc.:   DIGITIZING COMPANY
~OTHER INFORMATION
~A   DEPT      SPR          ASN        ILD     CALD       CORR       DPHI        GRD       RHOB       CILD   
# ...
 1371.0000   -33.1343     8.8612     7.5203     9.6529     0.0208     0.0766   104.2733     2.5175  -999.2500
 1371.5000   -33.1343     8.7721     7.2277     9.6521     0.0370     0.0743   104.4141     2.5354  -999.2500
 1372.0000   -33.1503     8.7126     7.0774     9.6512     0.0432     0.0665   106.1552     2.5513  -999.2500
 1372.5000   -33.4328     8.6647     6.9271     9.6503     0.0381     0.0545   106.5347     2.5656  -999.2500
 1373.0000   -33.7313     8.6350     6.9256     9.6494     0.0315     0.0516   105.1017     2.5608  -999.2500
 1373.5000   -33.5106     8.6053     6.7753     9.6485     0.0239     0.0579   104.7112     2.5525  -999.2500
 1374.0000   -33.0962     8.5636     6.9227     9.6476     0.0139     0.0658   104.9727     2.5349  -999.2500
 1374.5000   -32.8358     8.5338     6.9211     9.6467     0.0026     0.0849   106.4727     2.5131  -999.2500
 1375.0000   -32.8358     8.5163     6.9196     9.6458     0.0086     0.0882   106.4552     2.5315  -999.2500
 1375.5000   -32.8358     8.5163     6.9312     9.6747     0.0247     0.0849   104.2838     2.5474  -999.2500
 1376.0000   -32.8358     8.5587     7.2282     9.6738     0.0320     0.0619   102.8441     2.5227  -999.2500
 1376.5000   -32.8358     8.6309     7.3763     9.6729     0.0166     0.0799   105.0402     2.5256  -999.2500
 1377.0000   -32.8358     8.7499     7.8066     9.6720     0.0340     0.0720   108.0373     2.5461  -999.2500
 1377.5000   -32.8358     8.8986     7.9699     9.6711     0.0459     0.0587   109.9617     2.5492  -999.2500
 1378.0000   -32.5373     9.0308     8.1013     9.7000     0.0219     0.0656   107.4103     2.5293  -999.2500
 1378.5000   -32.5373     9.1098     8.2486     9.6989     0.0196     0.0769    97.4730     2.5407  -999.2500
 1379.0000   -32.5373     9.0911     8.2470     9.6981     0.0429     0.0684    94.4297     2.5610  -999.2500
 1379.5000   -32.8358     9.2856     8.0776     9.6972     0.0623     0.0442    96.1653     2.5768  -999.2500
 1380.0000   -32.8358     9.3769     7.7580     9.6963     0.0683     0.0428    97.9999     2.5710  -999.2500
 1380.5000   -32.8358     9.3332     7.3292     9.6954     0.0578     0.0636    97.1090     2.5366  -999.2500
 1381.0000   -32.8358     9.1436     7.0079     9.6946     0.0443     0.0675    98.9100     2.5365  -999.2500
 1381.5000   -32.8358     8.7119     6.6027     9.6937     0.0308     0.0736   106.3664     2.5305  -999.2500
 1382.0000   -32.8358     8.4730     6.3036     9.6928     0.0203     0.0838   110.5618     2.5021  -999.2500
 1382.5000   -33.1343     8.3091     6.2785     9.7217     0.0187     0.0807   108.7723     2.5155  -999.2500
 1383.0000   -33.1343     8.2346     6.1518     9.6910     0.0352     0.0777   105.7536     2.5259  -999.2500
 1383.5000   -33.4328     8.1899     6.1503     9.6902     0.0487     0.0724   104.3948     2.5364  -999.2500
 1384.0000   -33.4328     8.2497     6.2977     9.6595     0.0749     0.0562   102.5882     2.6126  -999.2500
 1384.5000   -33.4328     8.3541     6.3227     9.6586     0.1041     0.0485   103.4683     2.6147  -999.2500
 1385.0000   -33.4328     8.3976     6.4708     9.6578     0.0546     0.0497   105.6916     2.5243  -999.2500
 1385.5000   -33.4328     8.2467     6.6188     9.6569     0.0800     0.0563   103.8850     2.5407  -999.2500
 1386.0000   -33.4328     8.0696     6.7668     9.6560     0.0560     0.0647   102.9740     2.5571  -999.2500
 1386.5000   -33.1343     8.1046     6.9149     9.6550     0.0727     0.0503   104.3018     2.5675  -999.2500
 1387.0000   -33.1343     8.4179     7.1817     9.6541     0.0711     0.0587   104.7358     2.5525  -999.2500
 1387.5000   -33.1343     8.6375     7.1801     9.6533     0.0515     0.0695   103.8230     2.5376  -999.2500
 1388.0000   -32.8358     8.7106     7.1786     9.6524     0.0632     0.0660   102.4642     2.5495  -999.2500
 1388.5000   -32.8358     8.7404     7.1770     9.6515     0.0605     0.0672   102.3762     2.5339  -999.2500
 1389.0000   -32.5373     8.7372     7.0268     9.6506     0.0529     0.0834   104.2243     2.5114  -999.2500
 1389.5000   -32.5373     8.6777     6.9913     9.6497     0.0620     0.0791   107.3431     2.5145  -999.2500
 1390.0000   -32.2388     8.5717     6.8750     9.6597     0.0451     0.0601   107.7761     2.5508  -999.2500
 1390.5000   -32.5373     8.4527     6.8380     9.6779     0.0344     0.0681   100.5957     2.5319  -999.2500
 1391.0000   -32.5373     8.2870     6.7232     9.6768     0.0112     0.0703   102.3712     2.5238  -999.2500
 1391.5000   -32.8358     8.1084     6.6848     9.6896     0.0093     0.0705   105.4900     2.5238  -999.2500
 1392.0000   -33.1343     8.0589     6.5714     9.7048     0.0267     0.0747   110.3999     2.5234  -999.2500
 1392.5000   -33.4328     8.1833     6.5699     9.7039     0.0379     0.0799   111.2799     2.5162  -999.2500
 1393.0000   -33.7313     8.3321     6.6076     9.7030     0.0422     0.0854   105.7832     2.5074  -999.2500
 1393.5000   -33.7313     8.4273     6.7557     9.7021     0.0497     0.0762   100.4790     2.5193  -999.2500
 1394.0000   -33.7313     8.3976     6.8633     9.7010     0.1066     0.0524   102.0274     2.5521  -999.2500
 1394.5000   -33.7313     8.3383     6.8616     9.7001     0.0796     0.0654   106.2925     2.5264  -999.2500
 1395.0000   -33.7313     8.2789     6.7210     9.6993     0.0332     0.0862   105.8293     2.5029  -999.2500
 1395.5000   -33.4328     8.1899     6.7166     9.6984     0.0286     0.0836   107.9763     2.5081  -999.2500
 1396.0000   -33.1343     8.1009     6.7121     9.7273     0.0331     0.0775   111.8334     2.5217  -999.2500
 1396.5000   -33.1343     8.0415     6.5593     9.7264     0.0526     0.0761   107.2471     2.5286  -999.2500
 1397.0000   -32.8358     7.9525     6.5549     9.7255     0.0316     0.0894   106.2150     2.5279  -999.2500
 1397.5000   -32.5373     7.9228     6.4021     9.7246     0.0241     0.0879   107.5428     2.5149  -999.2500
 1398.0000   -32.5373     7.9228     6.3976     9.7238     0.0420     0.0811   105.4028     2.5340  -999.2500
 1398.5000   -32.5373     7.9228     6.3932     9.7526     0.0540     0.0734   103.9297     2.5326  -999.2500
 1399.0000   -32.5373     7.9228     6.3887     9.7518     0.0479     0.0722   106.6706     2.5113  -999.2500
 1399.5000   -32.2388     7.8932     6.3843     9.7509     0.0419     0.0808   111.1714     2.5053  -999.2500
 1400.0000   -32.2388     7.8784     6.5289     9.7202     0.0599     0.0813   115.5224     2.5112  -999.2500
 1400.5000   -32.2418     7.8340     6.5238     9.7194     0.0673     0.0760   113.7202     2.5281  -999.2500
 1401.0000   -32.2448     7.7896     6.6684     9.7005     0.0702     0.0736   113.1894     2.5381  -999.2500
 1401.5000   -32.2478     7.7797     6.6632     9.7001     0.0799     0.0719   110.3485     2.5107  -999.2500
 1402.0000   -32.2507     7.9086     6.7102     9.6698     0.0549     0.0839   106.4506     2.5056  -999.2500
 1402.5000   -32.2537     8.0872     6.8034     9.5798     0.0558     0.0844   106.5123     2.5267  -999.2500
 1403.0000   -32.2567     8.2360     6.7982     9.5794     0.0779     0.0773   105.7298     2.5366  -999.2500
 1403.5000   -32.2597     8.3550     6.7938     9.6685     0.0997     0.0623   102.0295     2.5449  -999.2500
 1404.0000   -32.2627     8.3546     6.7893     9.6979     0.0666     0.0677    97.9701     2.5074  -999.2500
 1404.5000   -32.2657     8.2944     6.7849     9.6975     0.0565     0.0857    99.4635     2.5042  -999.2500
 1405.0000   -32.2687     8.2343     6.7804     9.6672     0.0699     0.0730   101.1715     2.5200  -999.2500
 1405.5000   -32.2716     8.1443     6.7760     9.6688     0.0908     0.0641   103.9011     2.5394  -999.2500
 1406.0000   -32.2746     7.9946     6.7715     9.7260     0.1102     0.0742   105.5552     2.5468  -999.2500
 1406.5000   -32.2776     7.8150     6.6187     9.7554     0.0653     0.0881   103.9319     2.4930  -999.2500
 1407.0000   -32.2806     7.6951     6.6143     9.7549     0.0952     0.0849   101.6284     2.4959  -999.2500
