~VERSION INFORMATION
 VERS.                2.0:   CWLS LOG ASCII STANDARD - VERSION 2.0
 WRAP.                 NO:   ONE LINE PER DEPTH STEP
~WELL INFORMATION
#MNEM.UNIT      DATA TYPE    INFORMATION
#----------   ------------   ------------------------------
 STRT.F           42.0000:   START DEPTH
 STOP.F          408.0000:   STOP DEPTH
 STEP.F            0.5000:   STEP LENGTH
 NULL.          -999.2500:   NO VALUE
 COMP. FENIX & SCISSON INC:   COMPANY
 WELL.       SX 3FO #22-3:   WELL
 FLD .             TEAPOT:   FIELD
 LOC .       S3 T38N R78W:   LOCATION
 CNTY.            NATRONA:   COUNTY
 STAT.            WYOMING:   STATE
 CTRY. UNITED STATES OF AMERICA:   COUNTRY
 SRVC.              Welex:   SERVICE COMPANY
 DATE.        01-JUL-1980:   LOGDATE
 API .       490251083000:   API NUMBER
~CURVE INFORMATION
#MNEM.UNIT       API CODE    CURVE DESCRIPTION
#----------   ------------   ------------------------------
 DEPT.F                  :   
 GRD .GAPI   45 310 01 00:   GAMMA RAY FROM DENSITY LOG
 CALD.IN     45 280 60 00:   CALIPER
 RHOB.G/C3   45 350 01 00:   BULK DENSITY
 DPHI.DEC    45 890 12 00:   DENSITY POROSITY SANDSTONE
 CORR.G/C3   45 356 01 00:   DENSITY CORRECTION
~PARAMETER INFORMATION
#MNEM.UNIT          VALUE    DESCRIPTION
#----------   ------------   ------------------------------
 PD  .                 GL:   PERMANENT DATUM
 EPD .F              5152:   ELEVATION PERMANENT DATUM
 LMF .                 KB:   LOG MEASURED FROM
 DAPD.F                 5:   FEET ABOVE PERMANENT DATUM
 DMF .                 KB:   DRILLING MEASURED FROM
 EKB .F              5157:   KELLING BUSHING
 EGL .F              5152:   GROUND LEVEL
 DATE.             7-1-80:   RUN DATE
 RUN .                  1:   RUN NUMBER
 DD  .F               470:   DEPTH DRILLER
 DL  .F               410:   DEPTH LOGGER
 BLI .F               408:   BOTTOM LOG INTERVAL
 TLI .F                40:   TOP LOG INTERVAL
 BS  .IN             8.75:   BIT SIZE
 BSD .F               470:   BIT SIZE AT DEPTH
 DFT .        AIR DRILLED:   DRILLING FLUID TYPE
 BHT .F                75:   BOTTOM HOLE TEMPERATURE
 TCS .HRS             4.5:   TIME CURCULATED STOPPED
 MRT .F                75:   MAXIMUM RECORDED TEMPERATURE
 ENGI.        REIN/GLASER:   RECORDING ENGINEER
 WITN.             ROADES:   WITNESSED BY
 CLNT.            A2DTECH:   CLIENT CODE
 ORIG.           5" PRINT:   ORIGIN OF DATA
 UWI .       490251083000:   UNIQUE WELL ID
 DICO. A2D Technologies, Inc.:   DIGITIZING COMPANY
~OTHER INFORMATION
~A   DEPT       GRD        CALD       RHOB       DPHI       CORR 
# ...
  225.0000   112.3737     9.0091     2.5114     0.1070     0.1285
  225.5000   113.8554     9.0335     2.5147     0.1056     0.1346
  226.0000   115.0265     9.0497     2.5030     0.1106     0.1316
  226.5000   114.0028     9.0259     2.4952     0.0986     0.1286
  227.0000   112.6761     9.0030     2.5069     0.1095     0.1285
  227.5000   111.3730     8.9801     2.4979     0.1153     0.1197
  228.0000   110.2823     8.9569     2.4913     0.1194     0.1096
  228.5000   111.0414     8.9361     2.5069     0.1105     0.1029
  229.0000   111.6783     8.9640     2.5208     0.0990     0.1093
  229.5000   111.3051     8.9934     2.5385     0.0880     0.1201
  230.0000   111.4702     9.0227     2.5472     0.0890     0.1270
  230.5000   113.1270     9.0266     2.5508     0.0834     0.1240
  231.0000   114.1011     9.0102     2.5325     0.0907     0.1190
  231.5000   114.1369     8.9936     2.5308     0.0954     0.1138
  232.0000   113.1270     8.9766     2.5313     0.0951     0.1155
  232.5000   111.9606     8.9855     2.5317     0.0946     0.1187
  233.0000   110.8020     8.9989     2.5283     0.0989     0.1151
  233.5000   109.9342     9.0125     2.5172     0.1046     0.1120
  234.0000   110.6874     9.0261     2.5151     0.0978     0.1157
  234.5000   111.8359     9.0325     2.5238     0.0915     0.1229
  235.0000   112.9991     8.9996     2.5387     0.0868     0.1302
  235.5000   114.0953     8.9661     2.5549     0.0774     0.1371
  236.0000   113.4792     8.9620     2.5667     0.0798     0.1409
  236.5000   112.6949     8.9784     2.5577     0.0856     0.1445
  237.0000   112.4124     8.9943     2.5698     0.0943     0.1470
  237.5000   111.8647     8.9589     2.5414     0.1029     0.1297
  238.0000   109.8444     8.9057     2.5138     0.1115     0.1104
  238.5000   108.2930     8.8872     2.4915     0.1198     0.0947
  239.0000   109.2250     8.9559     2.4806     0.1278     0.0877
  239.5000   110.5457     9.0267     2.4707     0.1306     0.0829
  240.0000   111.8703     9.0919     2.4746     0.1318     0.0853
  240.5000   113.2014     9.0696     2.4792     0.1252     0.0936
  241.0000   114.5546     9.0417     2.4904     0.1157     0.1015
  241.5000   114.5236     9.0144     2.5087     0.1061     0.1147
  242.0000   112.9476     8.9983     2.5257     0.0975     0.1226
  242.5000   111.3536     9.0192     2.5323     0.0930     0.1309
  243.0000   111.4516     9.0391     2.5408     0.0886     0.1357
  243.5000   112.8131     9.0531     2.5483     0.0838     0.1405
  244.0000   114.1460     9.0372     2.5434     0.0872     0.1452
  244.5000   115.4696     9.0218     2.5387     0.0889     0.1499
  245.0000   116.6661     9.0065     2.5431     0.0869     0.1537
  245.5000   115.8426     8.9913     2.5483     0.0826     0.1576
  246.0000   114.0701     8.9761     2.5497     0.0922     0.1505
  246.5000   112.3164     8.9607     2.5140     0.1074     0.1310
  247.0000   112.1852     8.9453     2.4886     0.1218     0.1127
  247.5000   113.8341     8.9360     2.4864     0.1209     0.0986
  248.0000   115.4461     8.9742     2.4912     0.1182     0.0990
  248.5000   117.0308     9.0109     2.4920     0.1183     0.1017
  249.0000   118.4883     9.0469     2.4932     0.1198     0.1049
  249.5000   117.4025     9.0774     2.4878     0.1178     0.1088
  250.0000   114.8682     9.0773     2.4790     0.1265     0.1026
  250.5000   112.2510     9.0617     2.4702     0.1330     0.0935
  251.0000   112.5481     9.0451     2.4653     0.1322     0.0865
  251.5000   114.2557     9.0285     2.4774     0.1269     0.0861
  252.0000   112.1672     9.0145     2.4894     0.1194     0.0947
  252.5000   110.0383     9.0194     2.4995     0.1153     0.0982
  253.0000   108.1722     9.0245     2.4919     0.1143     0.0920
  253.5000   109.0061     9.0296     2.4765     0.1277     0.0837
  254.0000   110.6812     9.0347     2.4608     0.1386     0.0734
  254.5000   111.0065     9.0398     2.4587     0.1386     0.0716
  255.0000   109.8884     9.0449     2.4641     0.1345     0.0755
  255.5000   109.1280     9.0498     2.4695     0.1317     0.0790
  256.0000   109.3835     9.0487     2.4750     0.1290     0.0822
  256.5000   111.2534     9.0315     2.4712     0.1300     0.0855
  257.0000   113.1410     9.0150     2.4748     0.1283     0.0890
  257.5000   114.9981     8.9986     2.4848     0.1242     0.0973
  258.0000   116.0133     8.9821     2.4787     0.1276     0.0931
  258.5000   113.6344     8.9820     2.4710     0.1302     0.0865
  259.0000   111.7881     8.9931     2.4779     0.1263     0.0805
  259.5000   110.9016     8.9854     2.4850     0.1222     0.0789
  260.0000   110.5239     8.9779     2.4881     0.1184     0.0770
  260.5000   110.6307     8.9798     2.4825     0.1246     0.0763
  261.0000   111.3449     8.9985     2.4790     0.1250     0.0756
  261.5000   112.0590     9.0146     2.4863     0.1215     0.0749
  262.0000   112.6837     9.0196     2.5029     0.0960     0.0809
  262.5000   112.0667     9.0245     2.5201     0.0996     0.0910
  263.0000   110.8929     9.0294     2.5374     0.0903     0.0977
  263.5000   109.9695     9.0328     2.5526     0.0810     0.1019
  264.0000   110.2558     9.0265     2.5669     0.0691     0.1115
  264.5000   111.1954     9.0203     2.5814     0.0611     0.1221
  265.0000   112.1089     9.0141     2.5957     0.0553     0.1328
  265.5000   112.4626     9.0079     2.6075     0.0496     0.1430
  266.0000   110.8986     9.0017     2.5962     0.0490     0.1427
  266.5000   110.7346     8.9955     2.5683     0.0706     0.1302
  267.0000   110.2894     8.9893     2.5407     0.0882     0.1176
  267.5000   110.1652     8.9832     2.5166     0.1012     0.1051
  268.0000   109.1987     8.9770     2.5012     0.1110     0.1009
  268.5000   107.5997     8.9904     2.5023     0.1110     0.1041
  269.0000   106.0278     9.0177     2.5044     0.1102     0.1079
  269.5000   105.9231     9.0452     2.5068     0.1060     0.1150
  270.0000   105.7581     9.0722     2.5209     0.1022     0.1285
  270.5000   106.5523     9.0735     2.5344     0.0886     0.1418
  271.0000   107.4062     9.0752     2.5394     0.0847     0.1553
  271.5000   107.0025     9.0531     2.5620     0.0730     0.1706
  272.0000   106.0863     9.0617     2.6017     0.0581     0.1925
  272.5000   105.1999     9.0729     2.6308     0.0382     0.2150
  273.0000   103.6365     9.0239     2.6135     0.0374     0.2204
  273.5000   101.5904     8.9392     2.5925     0.0582     0.2078
  274.0000   102.6252     8.7531     2.5777     0.0745     0.1897
  274.5000   105.2509     8.7647     2.5649     0.0770     0.1547
  275.0000   107.8667     8.8401     2.5598     0.0774     0.1477
  275.5000   110.4862     8.9171     2.5305     0.0950     0.1376
  276.0000   113.1130     8.9957     2.4911     0.1189     0.1193
  276.5000   115.4239     8.9910     2.4596     0.1328     0.1031
  277.0000   114.2900     8.9345     2.4450     0.1460     0.0984
  277.5000   111.9540     8.8775     2.4295     0.1541     0.0794
  278.0000   109.6197     8.8206     2.4192     0.1629     0.0597
  278.5000   107.2856     8.7790     2.4471     0.1481     0.0605
  279.0000   104.9579     8.8980     2.4678     0.1315     0.0734
  279.5000   102.2406     8.9941     2.4880     0.1238     0.0866
  280.0000   103.5560     8.9760     2.4850     0.1221     0.0935
  280.5000   105.4578     9.0020     2.4895     0.1190     0.1003
  281.0000   103.8034     9.0315     2.4971     0.1166     0.1071
  281.5000   103.9983     8.9907     2.4936     0.1162     0.1140
  282.0000   105.0658     8.9484     2.4889     0.1206     0.1212
  282.5000   103.2487     8.9091     2.4990     0.1153     0.1287
  283.0000   100.0654     8.9301     2.5093     0.1074     0.1362
  283.5000    96.4642     8.9695     2.4941     0.1166     0.1433
  284.0000    90.1056     9.0101     2.4734     0.1287     0.1419
  284.5000    83.8176     9.0346     2.4617     0.1354     0.1444
  285.0000    77.7620     9.0022     2.4621     0.1374     0.1539
  285.5000    73.4353     8.9657     2.4564     0.1375     0.1632
