~VERSION INFORMATION
 VERS.                2.0:   CWLS LOG ASCII STANDARD - VERSION 2.0
 WRAP.                 NO:   ONE LINE PER DEPTH STEP
~WELL INFORMATION
#MNEM.UNIT      DATA TYPE    INFORMATION
#----------   ------------   ------------------------------
 STRT.F           11.0000:   START DEPTH
 STOP.F          804.0000:   STOP DEPTH
 STEP.F            0.1000:   STEP LENGTH
 NULL.          -999.2500:   NO VALUE
 COMP. BROWN JOHN E&C INC:   COMPANY
 WELL. 72-1 STX-34 #72-34:   WELL
 FLD .             TEAPOT:   FIELD
 LOC .      S34 T39N R78W:   LOCATION
 CNTY.            NATRONA:   COUNTY
 STAT.            WYOMING:   STATE
 CTRY. UNITED STATES OF AMERICA:   COUNTRY
 SRVC.     Atlas Wireline:   SERVICE COMPANY
 DATE.        31-JAN-1992:   LOGDATE
 API .       490252250200:   API NUMBER
~CURVE INFORMATION
#MNEM.UNIT       API CODE    CURVE DESCRIPTION
#----------   ------------   ------------------------------
 DEPT.F                  :   
 GRR .GAPI   07 310 01 00:   GAMMA RAY
 RILD.OHMM   07 120 46 00:   INDUCTION LOG DEEP RESISTIVITY
 RILM.OHMM   07 120 44 00:   INDUCTION LOG MEDIUM RESISTIVITY
~PARAMETER INFORMATION
#MNEM.UNIT          VALUE    DESCRIPTION
#----------   ------------   ------------------------------
 PD  .                 GL:   PERMANENT DATUM
 EPD .F              5069:   ELEVATION PERMANENT DATUM
 LMF .                 KB:   LOG MEASURED FROM
 DAPD.F                10:   FEET ABOVE PERMANENT DATUM
 DMF .                 KB:   DRILLING MEASURED FROM
 EKB .F              5079:   KELLING BUSHING
 EDF .F              5078:   DRILLING FLOOR
 EGL .F              5069:   GROUND LEVEL
 DATE.        31-JAN-1992:   RUN DATE
 RUN .                  1:   RUN NUMBER
 DD  .F               814:   DEPTH DRILLER
 DL  .F               813:   DEPTH LOGGER
 BLI .F               804:   BOTTOM LOG INTERVAL
 CS  .IN            9.625:   CASING SIZE
 CBD .F               100:   CASING BOTTOM DRILLER
 CBL .F               104:   CASING BOTTOM LOGGER
 BS  .IN             8.75:   BIT SIZE
 BSD .F               814:   BIT SIZE AT DEPTH
 DFT .                AIR:   DRILLING FLUID TYPE
 MRT .F                90:   MAXIMUM RECORDED TEMPERATURE
 LUN .           HL- 6274:   LOGGING UNIT NUMBER
 LUL .             CASPER:   LOGGING UNIT LOCATION
 ENGI.             RAUTIO:   RECORDING ENGINEER
 WITN.        GARY STRONG:   WITNESSED BY
 CLNT.            A2DTECH:   CLIENT CODE
 ORIG.           5" PRINT:   ORIGIN OF DATA
 UWI .       490252250200:   UNIQUE WELL ID
 DICO. A2D Technologies, Inc.:   DIGITIZING COMPANY
~OTHER INFORMATION
~A   DEPT       GRR      RILD       RILM   
# ...
  338.6000   128.4762     7.2920     7.3343
  338.7000   128.9494     7.2919     7.3342
  338.8000   129.2299     7.2918     7.3340
  338.9000   129.2321     7.2917     7.3047
  339.0000   129.2345     7.2916     7.2829
  339.1000   129.3456     7.2914     7.2719
  339.2000   129.5419     7.2914     7.2320
  339.3000   129.5443     7.2913     7.2319
  339.4000   129.7941     7.2912     7.1978
  339.5000   129.8517     7.2910     7.1815
  339.6000   129.9921     7.2607     7.1655
  339.7000   130.1591     7.2192     7.1313
  339.8000   130.1901     7.1664     7.1312
  339.9000   130.4668     7.0896     7.1311
  340.0000   130.4690     7.0894     7.1013
  340.1000   130.4714     7.0893     7.0814
  340.2000   130.6988     7.0644     7.0576
  340.3000   131.1391     6.9929     6.9800
  340.4000   131.3864     6.8935     6.9343
  340.5000   131.3888     6.8934     6.9342
  340.6000   131.5876     6.8933     6.9341
  340.7000   131.6962     6.8932     6.9341
  340.8000   131.6986     6.8931     6.9260
  340.9000   131.6685     6.8930     6.8857
  341.0000   131.4011     6.8929     6.8855
  341.1000   130.7262     6.8928     6.8854
  341.2000   130.3271     6.8927     6.9069
  341.3000   129.8490     6.8927     6.9335
  341.4000   129.0457     6.8925     6.9334
  341.5000   128.0639     6.8924     6.9333
  341.6000   127.1799     6.8923     6.9332
  341.7000   126.9815     6.8922     6.9331
  341.8000   126.2990     6.8921     6.9330
  341.9000   125.4011     6.8921     6.9329
  342.0000   124.6238     6.8920     6.9328
  342.1000   123.5608     6.8941     6.9327
  342.2000   123.1041     6.9401     6.9326
  342.3000   122.7855     6.9732     6.9325
  342.4000   122.6602     6.9886     6.9324
  342.5000   122.6626     7.0041     6.9323
  342.6000   122.6759     7.0375     6.9322
  342.7000   122.9705     7.0374     6.9321
  342.8000   122.9725     7.0373     6.9320
  342.9000   123.1243     7.0372     6.9320
  343.0000   123.3747     7.0371     6.9319
  343.1000   123.6652     7.0370     6.9317
  343.2000   124.1926     7.0369     6.9316
  343.3000   124.4283     7.0368     6.9315
  343.4000   124.4999     7.0367     6.9314
  343.5000   124.6263     7.0366     6.9158
  343.6000   124.9461     7.0210     6.8831
  343.7000   125.4295     6.9874     6.8830
  343.8000   125.7202     6.9873     6.8828
  343.9000   125.9301     6.9497     6.8538
  344.0000   126.1805     6.9383     6.8145
  344.1000   126.4309     6.9383     6.7872
  344.2000   126.6811     6.9382     6.7839
  344.3000   126.9423     6.9361     6.7398
  344.4000   126.9446     6.8896     6.7397
  344.5000   126.9470     6.8895     6.7396
  344.6000   126.9495     6.8895     6.7396
  344.7000   126.9519     6.8894     6.7395
  344.8000   126.9543     6.8893     6.7393
  344.9000   126.9571     6.8891     6.7392
  345.0000   126.7474     6.8890     6.7391
  345.1000   126.6590     6.8889     6.7391
  345.2000   126.7639     6.8889     6.7390
  345.3000   126.9665     6.8888     6.7434
  345.4000   126.9689     6.8887     6.7860
  345.5000   126.9713     6.8886     6.7859
  345.6000   126.9737     6.8885     6.8122
  345.7000   127.1078     6.8884     6.8513
  345.8000   127.4352     6.8883     6.8810
  345.9000   127.9110     6.8882     6.8809
  346.0000   128.1940     6.8881     6.8807
  346.1000   127.9805     6.8880     6.8806
  346.2000   127.2521     6.8879     6.9037
  346.3000   126.2629     6.8878     6.9287
  346.4000   125.2739     6.8877     6.9286
  346.5000   124.2723     6.8876     6.9284
  346.6000   123.2953     6.8875     6.9283
  346.7000   122.4962     6.8874     6.9282
  346.8000   122.0260     6.8874     6.9478
  346.9000   121.7806     6.8872     6.9766
  347.0000   121.5610     6.8932     6.9788
  347.1000   121.5640     6.9354     7.0252
  347.2000   121.7856     6.9724     7.0590
  347.3000   122.0359     7.0123     7.0742
  347.4000   122.1761     7.0328     7.0905
  347.5000   122.3451     7.0434     7.1236
  347.6000   123.0893     7.0819     7.1234
  347.7000   123.3398     7.0818     7.1628
  347.8000   123.9781     7.0817     7.2348
  347.9000   124.5849     7.0817     7.2739
  348.0000   125.1681     7.0968     7.2867
  348.1000   125.9740     7.1436     7.3246
  348.2000   127.3394     7.2315     7.3244
  348.3000   128.4579     7.2313     7.3610
  348.4000   129.5314     7.2606     7.4032
  348.5000   130.2975     7.2819     7.4456
  348.6000   130.7364     7.2927     7.4790
  348.7000   130.9866     7.3345     7.4789
  348.8000   131.2370     7.3841     7.5216
  348.9000   131.4875     7.4187     7.5310
  349.0000   131.3081     7.4612     7.5310
  349.1000   130.5492     7.4879     7.5308
  349.2000   129.2779     7.4878     7.5307
  349.3000   127.6686     7.4876     7.5306
  349.4000   126.5360     7.4875     7.5305
  349.5000   124.6091     7.4874     7.5304
  349.6000   122.8505     7.4874     7.5102
  349.7000   121.6133     7.4873     7.4566
  349.8000   120.3682     7.4855     7.3728
  349.9000   118.6062     7.4348     7.3227
  350.0000   118.8195     7.4218     7.3124
  350.1000   119.0816     7.4058     7.2998
  350.2000   119.3437     7.3898     7.2872
  350.3000   119.6058     7.3739     7.2745
  350.4000   119.8679     7.3579     7.2709
  350.5000   120.1300     7.3419     7.2707
  350.6000   120.4348     7.3302     7.2705
  350.7000   120.4363     7.3318     7.2703
  350.8000   120.7350     7.3812     7.2700
  350.9000   121.2277     7.3811     7.2699
  351.0000   121.7885     7.4057     7.2697
  351.1000   122.8643     7.4633     7.2694
  351.2000   124.2023     7.5370     7.2693
  351.3000   125.5113     7.5367     7.2690
  351.4000   126.6321     7.5756     7.2689
  351.5000   127.6161     7.5892     7.2686
  351.6000   128.6221     7.5890     7.2684
  351.7000   129.8228     7.5887     7.2764
  351.8000   130.8696     7.5885     7.3189
  351.9000   131.7280     7.5883     7.3187
  352.0000   132.6726     7.5881     7.3185
  352.1000   134.1351     7.5879     7.3183
  352.2000   135.5925     7.5877     7.3181
  352.3000   136.5936     7.5875     7.3179
  352.4000   137.6800     7.5872     7.3177
  352.5000   138.6637     7.5871     7.3175
  352.6000   139.5615     7.5868     7.3173
  352.7000   139.8374     7.5866     7.3171
  352.8000   139.8391     7.5865     7.3169
  352.9000   139.5209     7.5862     7.3167
  353.0000   138.9291     7.5860     7.3541
  353.1000   138.1031     7.5858     7.3675
  353.2000   136.8207     7.5856     7.3859
  353.3000   135.8860     7.5854     7.4187
  353.4000   134.9057     7.5852     7.4185
  353.5000   133.6856     7.5849     7.4183
  353.6000   132.2775     7.5847     7.4181
  353.7000   131.0572     7.5845     7.4400
  353.8000   130.0774     7.5843     7.4696
  353.9000   128.9027     7.5841     7.4694
  354.0000   127.8144     7.5839     7.4691
  354.1000   126.9945     7.5837     7.4690
  354.2000   126.5511     7.6127     7.4688
  354.3000   126.5534     7.6365     7.4685
  354.4000   127.1893     7.6458     7.4746
  354.5000   127.7732     7.6896     7.5204
  354.6000   128.2658     7.7330     7.5202
  354.7000   128.6784     7.7431     7.5495
  354.8000   128.6803     7.7429     7.5922
  354.9000   129.3679     7.7564     7.6252
  355.0000   129.7631     7.7969     7.6250
  355.1000   129.8959     7.7966     7.6683
  355.2000   129.9551     7.7964     7.6780
  355.3000   130.2021     7.8523     7.6778
  355.4000   130.2039     7.9239     7.6912
  355.5000   130.0171     7.9611     7.7347
  355.6000   129.9050     7.9608     7.7850
  355.7000   129.9068     8.0036     7.8226
  355.8000   129.9782     8.0162     7.8391
  355.9000   131.1210     8.0160     7.8565
  356.0000   132.1508     8.0278     7.8936
  356.1000   133.6775     8.0734     7.8933
  356.2000   135.1236     8.1282     7.8931
  356.3000   136.0384     8.1655     7.8929
  356.4000   136.5763     8.1848     7.8927
  356.5000   136.8008     8.1846     7.8924
  356.6000   136.8823     8.1844     7.8922
  356.7000   136.8841     8.1841     7.8920
