~VERSION INFORMATION
 VERS.                2.0:   CWLS LOG ASCII STANDARD - VERSION 2.0
 WRAP.                 NO:   ONE LINE PER DEPTH STEP
~WELL INFORMATION
#MNEM.UNIT      DATA TYPE    INFORMATION
#----------   ------------   ------------------------------
 STRT.F           24.5000:   START DEPTH
 STOP.F          506.0000:   STOP DEPTH
 STEP.F            0.5000:   STEP LENGTH
 NULL.          -999.2500:   NO VALUE
 COMP. FENIX & SCISSON INC:   COMPANY
 WELL.    NPR 3 SX #44-10:   WELL
 FLD .        TEAPOT DOME:   FIELD
 LOC .      S10 T38N R78W:   LOCATION
 CNTY.            NATRONA:   COUNTY
 STAT.            WYOMING:   STATE
 CTRY. UNITED STATES OF AMERICA:   COUNTRY
 SRVC.           BIRDWELL:   SERVICE COMPANY
 DATE.        14-NOV-1978:   LOGDATE
 API .       490251074700:   API NUMBER
~CURVE INFORMATION
#MNEM.UNIT       API CODE    CURVE DESCRIPTION
#----------   ------------   ------------------------------
 DEPT.F                  :   
 SPR .MV     05 010 01 00:   SPONTANEOUS POTENTIAL FROM RES.
 IL  .OHMM   05 120 00 00:   INDUCTION LOG
 SN  .OHMM   05 040 16 00:   SHORT NORMAL 16"
 CALD.IN     45 280 60 00:   CALIPER
 GRD .GAPI   45 310 01 00:   GAMMA RAY FROM DENSITY LOG
 RHOB.G/C3   45 350 01 00:   BULK DENSITY
 DPHI.DEC    45 890 12 00:   DENSITY POROSITY SANDSTONE
 DRHO.G/C3   45 356 01 00:   DENSITY CORRECTION
~PARAMETER INFORMATION
#MNEM.UNIT          VALUE    DESCRIPTION
#----------   ------------   ------------------------------
 PD  .                 GL:   PERMANENT DATUM
 EPD .F              5211:   ELEVATION PERMANENT DATUM
 LMF .                 KB:   LOG MEASURED FROM
 DAPD.F                 4:   FEET ABOVE PERMANENT DATUM
 DMF .                 KB:   DRILLING MEASURED FROM
 EKB .F              5215:   KELLING BUSHING
 EGL .F              5211:   GROUND LEVEL
 DATE.           11-14-78:   RUN DATE
 RUN .                  1:   RUN NUMBER
 DD  .F               510:   DEPTH DRILLER
 DL  .F               506:   DEPTH LOGGER
 BLI .F               500:   BOTTOM LOG INTERVAL
 TLI .F                45:   TOP LOG INTERVAL
 CS  .IN            8.625:   CASING SIZE
 CBD .F                40:   CASING BOTTOM DRILLER
 CBL .F                40:   CASING BOTTOM LOGGER
 BS  .IN            7.875:   BIT SIZE
 BSD .F               510:   BIT SIZE AT DEPTH
 DFT .            SEA MUD:   DRILLING FLUID TYPE
 DFD .                8.7:   DRILLING FLUID DENSITY
 DFV .                 35:   DRILLING FLUID VISCOSITY
 DFPH.               10.5:   DRILLING FLUID PH
 MSS .            MUD PIT:   MUD SAMPLE SOURCE
 RMS .OHMM            .51:   RESISTIVITY MUD SAMPLE
 MST .F                54:   MUD SAMPLE TEMPERATURE
 RMF .OHMM            .45:   RESISTIVITY MUD FILTRATE SAMPLE
 MFST.F                54:   MUD FILTRATE SAMPLE TEMPERATURE
 RMC .OHMM             .5:   RESISTIVITY MUD CAKE
 MCST.F                60:   MUD CAKE SAMPLE TEMPERATURE
 MFSS.           MEASURED:   MUD FILTRATE SAMPLE SOURCE
 MCSS.           MEASURED:   MUD CAKE SAMPLE SOURCE
 RMB .OHMM            .49:   RESISTIVITY MUD AT BHT
 BHT .F                56:   BOTTOM HOLE TEMPERATURE
 TCS .HRS               2:   TIME CURCULATED STOPPED
 MRT .F                56:   MAXIMUM RECORDED TEMPERATURE
 LUN .               2958:   LOGGING UNIT NUMBER
 LUL .               CASP:   LOGGING UNIT LOCATION
 ENGI.             MILLER:   RECORDING ENGINEER
 WITN.           DINSMORE:   WITNESSED BY
 CLNT.            A2DTECH:   CLIENT CODE
 ORIG.       2", 5" PRINT:   ORIGIN OF DATA
 UWI .       490251074700:   UNIQUE WELL ID
 DICO. A2D Technologies, Inc.:   DIGITIZING COMPANY
~OTHER INFORMATION
~A   DEPT      SPR         IL         SN       CALD         GRD      RHOB       DPHI       DRHO   
# ...
  389.0000   -26.7170    24.4470    23.6310     8.0310    68.3860     2.3670     0.1840     0.0120
  389.5000   -26.7540    24.3220    23.5070     8.0320    68.1980     2.3680     0.1850     0.0130
  390.0000   -26.9330    24.1960    23.3830     8.0340    66.3350     2.3680     0.1850     0.0130
  390.5000   -27.5090    24.0710    23.2600     8.0360    63.9560     2.3700     0.1850     0.0140
  391.0000   -28.0650    23.9450    23.1360     8.0370    63.1120     2.3770     0.1790     0.0150
  391.5000   -28.6170    23.8200    23.0130     8.0390    63.4800     2.3840     0.1730     0.0150
  392.0000   -29.2390    23.6940    22.8890     8.0410    63.8400     2.3860     0.1760     0.0160
  392.5000   -31.6610    23.5690    22.7660     8.0420    64.1970     2.3820     0.1790     0.0160
  393.0000   -34.2290    23.4430    22.6420     8.0440    64.5690     2.3770     0.1820     0.0170
  393.5000   -34.9170    23.3180    22.5180     8.0460    65.9340     2.3730     0.1830     0.0170
  394.0000   -34.3830    23.1920    22.3950     8.0470    68.0170     2.3690     0.1830     0.0200
  394.5000   -33.8520    23.0660    22.2710     8.0490    70.0560     2.3680     0.1840     0.0230
  395.0000   -33.3160    22.9410    22.1480     8.0490    69.2630     2.3750     0.1770     0.0270
  395.5000   -32.7780    22.8150    22.0240     8.0470    68.2530     2.3950     0.1660     0.0290
  396.0000   -32.2370    22.6900    21.8920     8.0450    68.3960     2.4210     0.1480     0.0270
  396.5000   -31.6990    22.5640    21.7340     8.0420    68.4120     2.4470     0.1300     0.0250
  397.0000   -31.6560    22.3620    21.5760     8.0400    66.5920     2.4730     0.1170     0.0220
  397.5000   -31.6950    22.1480    21.4170     8.0380    66.5020     2.4910     0.1160     0.0230
  398.0000   -31.7370    21.9330    21.2590     8.0360    67.3010     2.4770     0.1270     0.0260
  398.5000   -31.7790    21.7180    21.1010     8.0330    68.0920     2.4560     0.1400     0.0270
  399.0000   -31.8210    21.5040    20.9430     8.0310    69.4990     2.4340     0.1530     0.0270
  399.5000   -31.8630    21.2890    20.7850     8.0290    71.5870     2.4110     0.1650     0.0270
  400.0000   -31.9060    21.0750    20.6260     8.0270    73.6730     2.4020     0.1630     0.0270
  400.5000   -31.9490    20.8600    20.4680     8.0250    75.7840     2.4040     0.1620     0.0270
  401.0000   -31.9950    20.7140    20.3100     8.0220    75.4900     2.4070     0.1610     0.0270
  401.5000   -32.1330    20.6380    20.1520     8.0200    74.0900     2.4010     0.1650     0.0270
  402.0000   -32.5740    20.5610    19.9940     8.0180    72.8620     2.3950     0.1700     0.0270
  402.5000   -33.0050    20.4850    19.8360     8.0160    72.8920     2.3890     0.1740     0.0270
  403.0000   -33.4360    20.4090    19.6290     8.0130    72.7300     2.3830     0.1790     0.0270
  403.5000   -33.9000    20.3330    19.4170     8.0110    72.3210     2.3770     0.1810     0.0270
  404.0000   -35.3170    20.2570    19.2040     8.0110    71.9130     2.3810     0.1750     0.0270
  404.5000   -36.7190    20.1850    18.9910     8.0130    71.7000     2.3940     0.1700     0.0250
  405.0000   -38.1500    20.0000    18.7790     8.0160    72.0650     2.4050     0.1640     0.0220
  405.5000   -36.5450    19.6220    18.5780     8.0180    72.7010     2.4030     0.1640     0.0200
  406.0000   -35.1610    19.1830    18.3220     8.0200    72.4980     2.4000     0.1660     0.0180
  406.5000   -35.8930    18.7440    18.0800     8.0230    72.8250     2.3970     0.1690     0.0150
  407.0000   -36.6020    18.3040    17.8380     8.0250    75.8290     2.3930     0.1690     0.0150
  407.5000   -35.2730    17.8650    17.5950     8.0270    78.8190     2.3950     0.1640     0.0140
  408.0000   -35.3630    17.4260    17.3530     8.0300    81.3620     2.4040     0.1600     0.0130
  408.5000   -35.7140    16.9860    17.1110     8.0320    82.0620     2.4130     0.1550     0.0130
  409.0000   -36.0510    16.5470    16.8690     8.0340    78.9540     2.4210     0.1510     0.0120
  409.5000   -36.0610    16.1080    16.6320     8.0370    75.4080     2.4300     0.1470     0.0130
  410.0000   -36.0610    15.9400    16.4960     8.0390    72.3370     2.4350     0.1510     0.0150
  410.5000   -36.0610    15.8300    16.3630     8.0420    72.6130     2.4250     0.1560     0.0170
  411.0000   -36.0610    15.7200    16.2300     8.0440    74.2260     2.4120     0.1610     0.0200
  411.5000   -36.0610    15.6110    16.1290     8.0460    76.3560     2.4030     0.1640     0.0210
  412.0000   -36.0590    15.5010    16.0490     8.0490    74.6330     2.4080     0.1600     0.0200
  412.5000   -36.0540    15.3920    15.9680     8.0510    72.4270     2.4160     0.1560     0.0200
  413.0000   -36.2780    15.2820    15.8870     8.0530    72.1500     2.4170     0.1550     0.0190
  413.5000   -36.5440    15.1720    15.8070     8.0560    72.1850     2.4170     0.1550     0.0180
  414.0000   -36.8120    15.0630    15.7260     8.0580    72.2260     2.4190     0.1550     0.0180
  414.5000   -37.0800    14.9530    15.6450     8.0600    72.2640     2.4210     0.1530     0.0190
  415.0000   -37.3420    14.8430    15.5650     8.0630    72.1580     2.4230     0.1510     0.0200
  415.5000   -37.5770    14.7340    15.4840     8.0650    71.6810     2.4220     0.1520     0.0210
  416.0000   -39.1190    14.6240    15.4040     8.0670    71.2190     2.4200     0.1550     0.0230
  416.5000   -40.9430    14.5140    15.3230     8.0700    70.7500     2.4190     0.1500     0.0300
  417.0000   -42.1020    14.4050    15.2420     8.0620    70.4770     2.4290     0.1420     0.0360
  417.5000   -41.9700    14.2950    15.1620     8.0530    72.7010     2.4410     0.1350     0.0410
  418.0000   -41.8960    14.1860    15.0810     8.0440    75.0050     2.4520     0.1330     0.0380
  418.5000   -41.0390    14.0760    15.0000     8.0340    77.3830     2.4530     0.1330     0.0340
  419.0000   -40.1140    13.9660    14.9200     8.0250    77.6560     2.4520     0.1360     0.0350
  419.5000   -39.6820    13.8570    14.8390     8.0160    75.9450     2.4510     0.1360     0.0370
  420.0000   -39.6500    13.7470    14.7540     8.0070    74.0770     2.4510     0.1320     0.0390
  420.5000   -39.6160    13.6370    14.7460     7.9970    72.6950     2.4620     0.1250     0.0410
  421.0000   -39.5830    13.5280    14.7380     7.9880    73.1380     2.4730     0.1180     0.0410
  421.5000   -39.5520    13.4520    14.7290     7.9790    75.3170     2.4840     0.1150     0.0410
  422.0000   -39.5270    13.4440    14.7210     7.9690    76.6980     2.4820     0.1160     0.0410
  422.5000   -39.6580    13.4360    14.7130     7.9600    77.1230     2.4770     0.1200     0.0410
  423.0000   -40.2370    13.4280    14.7050     7.9510    77.5590     2.4720     0.1240     0.0400
  423.5000   -41.2980    13.4210    14.6970     7.9500    77.9930     2.4670     0.1260     0.0390
  424.0000   -42.7400    13.4130    14.6880     7.9500    78.4250     2.4660     0.1260     0.0370
  424.5000   -41.5720    13.4050    14.6800     7.9520    78.7040     2.4660     0.1260     0.0350
  425.0000   -40.4560    13.3970    14.6720     7.9570    78.7000     2.4650     0.1280     0.0330
  425.5000   -40.3590    13.3890    14.6640     7.9630    78.7000     2.4620     0.1290     0.0310
  426.0000   -40.6880    13.3820    14.6550     7.9680    78.7000     2.4580     0.1290     0.0350
  426.5000   -41.4640    13.3740    14.6470     7.9740    78.7010     2.4620     0.1210     0.0410
  427.0000   -42.2360    13.3660    14.6390     7.9790    78.7030     2.4770     0.1120     0.0430
  427.5000   -43.7070    13.3580    14.6310     7.9840    78.7010     2.4910     0.1030     0.0430
  428.0000   -46.1490    13.3500    14.6220     7.9900    79.0900     2.5050     0.0940     0.0420
  428.5000   -45.2860    13.3430    14.5920     7.9950    79.8330     2.5190     0.0850     0.0380
  429.0000   -43.7560    13.3290    14.5370     8.0000    80.5730     2.5330     0.0800     0.0360
