~VERSION INFORMATION
 VERS.                2.0:   CWLS LOG ASCII STANDARD - VERSION 2.0
 WRAP.                 NO:   ONE LINE PER DEPTH STEP
~WELL INFORMATION
#MNEM.UNIT      DATA TYPE    INFORMATION
#----------   ------------   ------------------------------
 STRT.F            4.0000:   START DEPTH
 STOP.F          614.0000:   STOP DEPTH
 STEP.F            0.1000:   STEP LENGTH
 NULL.          -999.2500:   NO VALUE
 COMP.   FLUOR DANIEL INC:   COMPANY
 WELL.     63-4 X 3 #63-3:   WELL
 FLD .          N.P.R. #3:   FIELD
 LOC .       S3 T38N R78W:   LOCATION
 CNTY.            NATRONA:   COUNTY
 STAT.            WYOMING:   STATE
 CTRY. UNITED STATES OF AMERICA:   COUNTRY
 SRVC.      Western Atlas:   SERVICE COMPANY
 DATE.        01-JUN-1995:   LOGDATE
 API .       490252271300:   API NUMBER
~CURVE INFORMATION
#MNEM.UNIT       API CODE    CURVE DESCRIPTION
#----------   ------------   ------------------------------
 DEPT.F                  :   
 GRR .GAPI   07 310 01 00:   GAMMA RAY
 RILD.OHMM   07 120 46 00:   INDUCTION LOG DEEP RESISTIVITY
 RILM.OHMM   07 120 44 00:   INDUCTION LOG MEDIUM RESISTIVITY
~PARAMETER INFORMATION
#MNEM.UNIT          VALUE    DESCRIPTION
#----------   ------------   ------------------------------
 PD  .                 GL:   PERMANENT DATUM
 EPD .F              5173:   ELEVATION PERMANENT DATUM
 LMF .                 KB:   LOG MEASURED FROM
 DAPD.F                10:   FEET ABOVE PERMANENT DATUM
 DMF .                 KB:   DRILLING MEASURED FROM
 EKB .F              5183:   KELLING BUSHING
 EDF .F              5182:   DRILLING FLOOR
 EGL .F              5173:   GROUND LEVEL
 DATE.        01-JUN-1995:   RUN DATE
 RUN .                  1:   RUN NUMBER
 DD  .F               626:   DEPTH DRILLER
 DL  .F               622:   DEPTH LOGGER
 BLI .F               614:   BOTTOM LOG INTERVAL
 TLI .F                95:   TOP LOG INTERVAL
 CS  .IN            9.625:   CASING SIZE
 CBD .F                95:   CASING BOTTOM DRILLER
 CBL .F                95:   CASING BOTTOM LOGGER
 BS  .IN             8.75:   BIT SIZE
 BSD .F               626:   BIT SIZE AT DEPTH
 DFT .                AIR:   DRILLING FLUID TYPE
 MRT .F               147:   MAXIMUM RECORDED TEMPERATURE
 LUN .            HL 6530:   LOGGING UNIT NUMBER
 LUL .             CASPER:   LOGGING UNIT LOCATION
 ENGI.        VERN RAUTIO:   RECORDING ENGINEER
 WITN.        STEVE HARDY:   WITNESSED BY
 CLNT.            A2DTECH:   CLIENT CODE
 ORIG.           5" PRINT:   ORIGIN OF DATA
 UWI .       490252271300:   UNIQUE WELL ID
 DICO. A2D Technologies, Inc.:   DIGITIZING COMPANY
~OTHER INFORMATION
~A    DEPT       GRR     RILD       RILM   
# ...
  531.8000    83.3825    10.3925    10.3217
  531.9000    83.8407    10.3932    10.2992
  532.0000    84.2014    10.3939    10.2513
  532.1000    84.5662    10.3948    10.2518
  532.2000    84.9607    10.3954    10.2523
  532.3000    84.9637    10.3961    10.2527
  532.4000    84.9672    10.3968    10.2531
  532.5000    84.7483    10.3975    10.2288
  532.6000    84.4959    10.3983    10.1832
  532.7000    84.2436    10.3991    10.1836
  532.8000    83.9913    10.3997    10.1841
  532.9000    83.7389    10.3588    10.1845
  533.0000    83.4745    10.3292    10.1849
  533.1000    83.2341    10.3299    10.1853
  533.2000    82.9817    10.3234    10.1858
  533.3000    82.8792    10.2599    10.1862
  533.4000    82.8822    10.2606    10.1867
  533.5000    82.9416    10.2613    10.1870
  533.6000    83.2195    10.2291    10.1874
  533.7000    84.1001    10.1703    10.1593
  533.8000    84.5393    10.1219    10.1180
  533.9000    85.3963    10.1227    10.1185
  534.0000    86.4209    10.1234    10.1189
  534.1000    87.3674    10.1241    10.1193
  534.2000    88.1367    10.0892    10.1197
  534.3000    88.9518    10.0555    10.0899
  534.4000    89.1948    10.0561    10.0508
  534.5000    89.6467    10.0547    10.0512
  534.6000    90.1604     9.9881    10.0516
  534.7000    90.5742     9.9887    10.0520
  534.8000    90.8326     9.9512    10.0524
  534.9000    91.0846     9.8940    10.0208
  535.0000    91.0881     9.8530     9.9839
  535.1000    90.8754     9.8537     9.9844
  535.2000    90.7915     9.8545     9.9848
  535.3000    90.6729     9.8551     9.9291
  535.4000    90.4206     9.8151     9.9167
  535.5000    90.1683     9.7883     9.9171
  535.6000    89.8975     9.7702     9.9176
  535.7000    89.9003     9.7218     9.9180
  535.8000    89.5232     9.7226     9.9184
  535.9000    89.3021     9.7233     9.9189
  536.0000    89.3051     9.7239     9.9192
  536.1000    89.4580     9.6923     9.9196
  536.2000    90.2208     9.6366     9.8957
  536.3000    90.5232     9.5918     9.8520
  536.4000    90.9494     9.5926     9.8524
  536.5000    91.4631     9.5933     9.8529
  536.6000    91.7402     9.5485     9.8533
  536.7000    91.8149     9.5282     9.8166
  536.8000    92.0483     9.5048     9.7861
  536.9000    92.0516     9.4636     9.7715
  537.0000    91.8207     9.4612     9.7154
  537.1000    91.5683     9.3995     9.6529
  537.2000    91.3159     9.4001     9.6532
  537.3000    91.0636     9.3638     9.6154
  537.4000    90.8113     9.3364     9.5602
  537.5000    90.5589     9.3370     9.5053
  537.6000    90.5625     9.3318     9.4507
  537.7000    90.5649     9.2738     9.3917
  537.8000    90.4060     9.2744     9.3920
  537.9000    90.2689     9.2357     9.3924
  538.0000    90.2719     9.1826     9.3643
  538.1000    90.2749     9.1298     9.3284
  538.2000    90.2782     9.0857     9.3288
  538.3000    90.2810     9.0864     9.3292
  538.4000    90.2840     9.0358     9.2787
  538.5000    90.4923     8.9838     9.1854
  538.6000    90.7830     8.9630     9.1387
  538.7000    91.1856     8.9427     9.1198
  538.8000    91.6020     8.9023     9.0674
  538.9000    91.9619     8.9029     9.0142
  539.0000    92.7312     8.9036     8.9636
  539.1000    93.6289     8.9041     8.9121
  539.2000    94.2694     8.8714     8.8914
  539.3000    95.0385     8.8438     8.8918
  539.4000    95.6885     8.8444     8.8816
  539.5000    96.2024     8.8411     8.8312
  539.6000    96.7420     8.7845     8.8316
  539.7000    97.5743     8.7850     8.8319
  539.8000    97.8115     8.7500     8.8004
  539.9000    98.2578     8.6742     8.7498
  540.0000    98.7716     8.5899     8.6996
  540.1000    99.1910     8.5342     8.6496
  540.2000    99.4493     8.4297     8.5926
  540.3000    99.7078     8.3842     8.5086
  540.4000   100.0126     8.2998     8.4429
  540.5000   100.0151     8.2041     8.3719
  540.6000   100.0181     8.1094     8.2757
  540.7000    99.9050     8.0158     8.1805
  540.8000    99.6527     7.9225     8.0758
  540.9000    99.4227     7.7598     7.9937
  541.0000    99.4263     7.6172     7.9336
  541.1000    99.1979     7.4684     7.8430
  541.2000    99.1299     7.3215     7.6946
  541.3000    98.8576     7.1624     7.5181
  541.4000    98.3498     7.0368     7.3320
  541.5000    97.7977     6.8513     7.2547
  541.6000    97.0272     6.6841     7.1714
  541.7000    96.1245     6.4925     7.1327
  541.8000    95.5081     6.3234     7.1051
  541.9000    94.7451     6.1879     7.0234
  542.0000    93.9821     6.0841     6.9388
  542.1000    93.2849     6.0073     6.7879
  542.2000    92.7771     5.8825     6.6327
  542.3000    92.2148     5.7711     6.4601
  542.4000    91.9895     5.6542     6.2494
  542.5000    91.9184     5.5348     6.0064
  542.6000    91.9214     5.4436     5.7977
  542.7000    92.0124     5.3781     5.4469
  542.8000    92.2708     5.3188     5.1811
  542.9000    92.5348     5.2575     4.9973
  543.0000    93.2870     5.2143     4.8770
  543.1000    94.2593     5.1727     4.7930
  543.2000    95.1276     5.1189     4.7115
  543.3000    96.0065     5.0894     4.6798
  543.4000    97.0940     5.0550     4.6576
  543.5000    98.3741     5.0553     4.6140
  543.6000    99.8070     5.0556     4.5725
  543.7000   100.7089     5.0560     4.5592
  543.8000   101.7330     5.0563     4.5901
  543.9000   102.8886     5.0567     4.7134
  544.0000   104.1687     5.0571     4.8330
  544.1000   105.4865     5.0574     4.9755
  544.2000   107.0756     5.0577     5.1221
  544.3000   107.8180     5.0581     5.2641
  544.4000   108.5873     5.0584     5.3877
  544.5000   109.0504     5.0622     5.5280
  544.6000   108.6705     5.0944     5.5858
  544.7000   107.5159     5.0947     5.6743
  544.8000   106.7531     5.0951     5.7742
  544.9000   105.8886     5.0954     5.8757
  545.0000   104.7836     5.0958     5.9789
  545.1000   103.5096     5.1011     6.0918
  545.2000   102.2356     5.1320     6.1912
  545.3000   101.0430     5.1323     6.3273
  545.4000   100.0243     5.1564     6.4556
  545.5000    98.9578     5.1869     6.5825
  545.6000    97.5010     5.2302     6.7370
  545.7000    96.3649     5.2988     6.9016
  545.8000    95.4961     5.3926     6.9792
  545.9000    94.7329     5.5036     7.0926
  546.0000    94.0825     5.5583     7.2174
  546.1000    93.8398     5.6455     7.3280
  546.2000    93.8433     5.7300     7.4219
  546.3000    94.0644     5.8163     7.5531
  546.4000    94.1511     5.9508     7.6410
  546.5000    94.1541     6.0677     7.7305
  546.6000    94.1571     6.1962     7.8210
  546.7000    94.1914     6.3169     7.9125
  546.8000    94.4654     6.4880     8.0051
  546.9000    94.4683     6.7195     8.0987
  547.0000    94.2780     6.9475     8.2095
  547.1000    94.1722     7.1208     8.2896
  547.2000    94.1752     7.3620     8.3867
  547.3000    94.1782     7.5912     8.4628
  547.4000    94.1748     7.8166     8.5250
  547.5000    93.8827     8.0303     8.6217
  547.6000    93.4551     8.2111     8.6789
  547.7000    92.9473     8.3568     8.6792
  547.8000    92.3179     8.4743     8.7136
  547.9000    91.6296     8.5959     8.7646
  548.0000    91.1779     8.6851     8.8159
  548.1000    91.4836     8.7365     8.8628
  548.2000    91.7233     8.7882     8.8632
  548.3000    91.9818     8.8402     8.8635
  548.4000    92.0967     8.8999     8.8639
  548.5000    92.0997     8.9004     8.8642
  548.6000    92.1527     8.9360     8.8646
  548.7000    92.4111     8.9636     8.8715
  548.8000    92.7135     8.9796     8.9269
  548.9000    92.7160     9.0273     8.9273
  549.0000    92.7190     9.0280     8.9276
  549.1000    92.7221     9.0768     8.9280
  549.2000    92.6532     9.0921     8.9284
  549.3000    92.4009     9.0927     8.9288
  549.4000    92.1271     9.0934     8.9291
  549.5000    92.1299     9.0940     8.9295
  549.6000    92.1329     9.0946     8.9299
  549.7000    91.9958     9.1466     8.9302
  549.8000    91.7435     9.1595     8.9507
  549.9000    91.4444     9.2211     8.9930
