~VERSION INFORMATION
 VERS.                2.0:   CWLS LOG ASCII STANDARD - VERSION 2.0
 WRAP.                 NO:   ONE LINE PER DEPTH STEP
~WELL INFORMATION
#MNEM.UNIT      DATA TYPE    INFORMATION
#----------   ------------   ------------------------------
 STRT.F            0.0000:   START DEPTH
 STOP.F          551.0000:   STOP DEPTH
 STEP.F            0.1000:   STEP LENGTH
 NULL.          -999.2500:   NO VALUE
 COMP.       F D SERV INC:   COMPANY
 WELL.    62-2 SX-3 #62-3:   WELL
 FLD .          N.P.R. #3:   FIELD
 LOC .       S3 T38N R78W:   LOCATION
 CNTY.            NATRONA:   COUNTY
 STAT.            WYOMING:   STATE
 CTRY. UNITED STATES OF AMERICA:   COUNTRY
 SRVC.     Atlas Wireline:   SERVICE COMPANY
 DATE.        17-APR-1992:   LOGDATE
 API .       490252250700:   API NUMBER
~CURVE INFORMATION
#MNEM.UNIT       API CODE    CURVE DESCRIPTION
#----------   ------------   ------------------------------
 DEPT.F                  :   
 GRR .GAPI   07 310 01 00:   GAMMA RAY
 RILD.OHMM   07 120 46 00:   INDUCTION LOG DEEP RESISTIVITY
 RILM.OHMM   07 120 44 00:   INDUCTION LOG MEDIUM RESISTIVITY
~PARAMETER INFORMATION
#MNEM.UNIT          VALUE    DESCRIPTION
#----------   ------------   ------------------------------
 PD  .                 GL:   PERMANENT DATUM
 EPD .F              5130:   ELEVATION PERMANENT DATUM
 LMF .                 KB:   LOG MEASURED FROM
 DAPD.F                 5:   FEET ABOVE PERMANENT DATUM
 DMF .                 KB:   DRILLING MEASURED FROM
 EKB .F              5135:   KELLING BUSHING
 EDF .F              5134:   DRILLING FLOOR
 EGL .F              5130:   GROUND LEVEL
 DATE.        17-APR-1992:   RUN DATE
 RUN .                  1:   RUN NUMBER
 DD  .F               560:   DEPTH DRILLER
 DL  .F               560:   DEPTH LOGGER
 BLI .F               558:   BOTTOM LOG INTERVAL
 CS  .IN            8.625:   CASING SIZE
 CBD .F                47:   CASING BOTTOM DRILLER
 CBL .F                50:   CASING BOTTOM LOGGER
 BS  .IN            7.875:   BIT SIZE
 BSD .F               560:   BIT SIZE AT DEPTH
 DFT .                AIR:   DRILLING FLUID TYPE
 TCS .HRS               2:   TIME CURCULATED STOPPED
 MRT .F                83:   MAXIMUM RECORDED TEMPERATURE
 LUN .           HL- 6274:   LOGGING UNIT NUMBER
 LUL .             CASPER:   LOGGING UNIT LOCATION
 ENGI.            LEBSOCK:   RECORDING ENGINEER
 WITN.        GARY STRONG:   WITNESSED BY
 CLNT.            A2DTECH:   CLIENT CODE
 ORIG.           5" PRINT:   ORIGIN OF DATA
 UWI .       490252250700:   UNIQUE WELL ID
 DICO. A2D Technologies, Inc.:   DIGITIZING COMPANY
~OTHER INFORMATION
~A    DEPT      GRR      RILD       RILM   
# ...
  109.2000   134.5456     8.9545     8.5265
  109.3000   134.8063     8.9547     8.5265
  109.4000   134.8048     8.9549     8.5265
  109.5000   134.9798     8.9136     8.5265
  109.6000   135.2254     8.8926     8.5275
  109.7000   135.4055     8.8747     8.5760
  109.8000   135.4141     8.8308     8.5863
  109.9000   135.7047     8.8310     8.5863
  110.0000   135.9052     8.8311     8.5863
  110.1000   136.1508     8.8651     8.5911
  110.2000   136.3056     8.8934     8.6465
  110.3000   136.3394     8.8935     8.6465
  110.4000   136.6050     8.8936     8.6779
  110.5000   136.6037     8.8938     8.7072
  110.6000   136.6021     8.9324     8.7072
  110.7000   136.6006     8.9564     8.7072
  110.8000   136.5991     8.9565     8.6606
  110.9000   136.6025     8.9567     8.6465
  111.0000   136.8482     8.9569     8.6465
  111.1000   136.8971     8.9570     8.6465
  111.2000   136.7545     8.9571     8.6454
  111.3000   136.5916     8.9572     8.5964
  111.4000   136.5900     8.9573     8.5863
  111.5000   136.5883     8.9575     8.5863
  111.6000   136.3652     9.0052     8.5863
  111.7000   136.1165     9.0206     8.5814
  111.8000   135.7568     9.0207     8.5265
  111.9000   135.1499     9.0208     8.5265
  112.0000   134.1604     9.0210     8.5265
  112.1000   133.1700     9.0212     8.5067
  112.2000   132.1804     9.0213     8.4671
  112.3000   131.8715     9.0214     8.4671
  112.4000   132.3594     9.0046     8.4671
  112.5000   133.3206     8.9587     8.4671
  112.6000   134.1511     8.9589     8.4671
  112.7000   135.0169     8.9590     8.4671
  112.8000   135.8428     8.9591     8.4671
  112.9000   136.5826     8.9592     8.4671
  113.0000   137.2719     8.9593     8.4671
  113.1000   137.7746     8.9595     8.4671
  113.2000   138.0152     8.9596     8.4511
  113.3000   138.2608     8.9597     8.4082
  113.4000   138.3752     8.9598     8.4082
  113.5000   138.2223     8.9599     8.4082
  113.6000   137.7265     8.9578     8.4082
  113.7000   137.1602     8.8978     8.3885
  113.8000   136.7351     8.8979     8.3496
  113.9000   136.2395     8.8682     8.3496
  114.0000   135.7439     8.8361     8.3496
  114.1000   135.2935     8.8296     8.3496
  114.2000   135.0347     8.7747     8.3496
  114.3000   135.5074     8.7748     8.3496
  114.4000   135.8184     8.7749     8.3482
  114.5000   136.0640     8.7528     8.3010
  114.6000   136.2391     8.7139     8.2915
  114.7000   136.2526     8.7141     8.3183
  114.8000   136.5383     8.7142     8.3496
  114.9000   136.5371     8.7143     8.3496
  115.0000   136.5356     8.7144     8.3496
  115.1000   136.5340     8.7146     8.3496
  115.2000   136.4923     8.7147     8.3496
  115.3000   136.2283     8.7148     8.3496
  115.4000   135.7631     8.7571     8.3496
  115.5000   135.4438     8.7763     8.3496
  115.6000   135.1951     8.7764     8.3496
  115.7000   134.9466     8.7765     8.3496
  115.8000   134.6878     8.7766     8.3496
  115.9000   134.1011     8.7768     8.3496
  116.0000   134.7049     8.7769     8.3496
  116.1000   135.4447     8.7770     8.3496
  116.2000   136.0937     8.7771     8.3496
  116.3000   136.5512     8.7772     8.3496
  116.4000   136.8168     8.7774     8.3496
  116.5000   137.2693     8.7775     8.3496
  116.6000   137.5905     8.7776     8.3496
  116.7000   137.8361     8.7777     8.3496
  116.8000   138.1423     8.7778     8.3496
  116.9000   138.6297     8.7780     8.3696
  117.0000   138.8755     8.7781     8.4082
  117.1000   139.1210     8.7782     8.4082
  117.2000   139.5078     8.7784     8.4082
  117.3000   139.9148     8.7785     8.4082
  117.4000   140.1303     8.7786     8.4082
  117.5000   140.1284     8.7788     8.4082
  117.6000   139.9053     8.7789     8.4082
  117.7000   139.6566     8.7790     8.4082
  117.8000   139.5189     8.7791     8.4082
  117.9000   139.5174     8.7792     8.4082
  118.0000   139.5159     8.7794     8.4082
  118.1000   140.0084     8.7795     8.4082
  118.2000   140.6927     8.7796     8.4082
  118.3000   141.2966     8.7797     8.4082
  118.4000   141.7086     8.7798     8.4082
  118.5000   141.9793     8.7800     8.4082
  118.6000   142.5323     8.7801     8.4082
  118.7000   142.7479     8.7802     8.4082
  118.8000   143.1550     8.7803     8.4082
  118.9000   143.5417     8.7804     8.4082
  119.0000   143.7368     8.7806     8.4082
  119.1000   143.7352     8.7807     8.4082
  119.2000   143.7338     8.7808     8.4101
  119.3000   143.5456     8.7809     8.4671
  119.4000   143.2970     8.7810     8.4671
  119.5000   142.9727     8.7812     8.4671
  119.6000   142.4769     8.7813     8.4839
  119.7000   141.9105     8.8240     8.5265
  119.8000   141.6974     8.8432     8.5265
  119.9000   141.2924     8.8433     8.5265
  120.0000   140.8976     8.8434     8.5265
  120.1000   140.6490     8.8436     8.5472
  120.2000   140.3903     8.8438     8.5863
  120.3000   140.1517     8.8439     8.5863
  120.4000   139.9032     8.8440     8.6335
  120.5000   139.5285     8.8441     8.6465
  120.6000   139.1740     8.8453     8.6465
  120.7000   139.1574     8.8960     8.6600
  120.8000   138.8681     8.9066     8.7072
  120.9000   138.6601     8.9067     8.7072
  121.0000   138.4115     8.9239     8.7475
  121.1000   138.1629     8.9695     8.7682
  121.2000   137.9144     8.9696     8.7682
  121.3000   137.6504     8.9697     8.7682
  121.4000   136.9532     8.9699     8.7682
  121.5000   136.3868     8.9700     8.8127
  121.6000   135.7701     8.9800     8.8297
  121.7000   134.9619     9.0333     8.8297
  121.8000   133.9615     9.0334     8.8297
  121.9000   132.4975     9.0715     8.8297
  122.0000   131.4877     9.0971     8.8297
  122.1000   130.2507     9.1117     8.8668
  122.2000   129.1046     9.1612     8.8916
  122.3000   128.1497     9.1614     8.8916
  122.4000   127.3463     9.2046     8.8939
  122.5000   127.1180     9.2259     8.9540
  122.6000   126.8695     9.2261     8.9540
  122.7000   126.6209     9.2262     8.9540
  122.8000   126.4327     9.2264     8.9540
  122.9000   126.4262     9.2744     8.9540
  123.0000   126.1775     9.2914     8.9540
  123.1000   126.3222     9.3155     8.9996
  123.2000   126.4266     9.3569     9.0168
  123.3000   126.5108     9.3571     9.0168
  123.4000   126.7865     9.4104     9.0168
  123.5000   127.3297     9.4230     9.0168
  123.6000   127.7719     9.4521     9.0168
  123.7000   128.2646     9.4895     9.0168
  123.8000   128.8685     9.4896     9.0168
  123.9000   129.4973     9.4898     9.0168
  124.0000   129.7428     9.4899     9.0168
  124.1000   130.2353     9.5238     9.0168
  124.2000   130.5365     9.5568     9.0168
  124.3000   130.9184     9.5569     9.0168
  124.4000   131.3304     9.5571     9.0168
  124.5000   131.5759     9.5572     9.0168
  124.6000   131.8516     9.5573     9.0168
  124.7000   132.2839     9.5575     9.0168
  124.8000   132.6153     9.5440     9.0168
  124.9000   133.0992     9.4911     9.0168
  125.0000   133.8376     9.4912     9.0168
  125.1000   134.3456     9.4913     9.0168
  125.2000   134.5888     9.4915     9.0168
  125.3000   135.0214     9.4916     9.0168
  125.4000   135.3905     9.4917     9.0168
  125.5000   135.7095     9.4919     9.0168
  125.6000   136.2051     9.4445     9.0168
  125.7000   136.7885     9.4260     9.0168
  125.8000   136.9936     9.4261     9.0168
  125.9000   137.2431     9.4157     9.0168
  126.0000   137.5814     9.3606     8.9984
  126.1000   138.0447     9.3608     8.9540
  126.2000   138.3193     9.3216     8.9540
  126.3000   138.5437     9.2688     8.9540
  126.4000   138.9579     9.2310     8.9540
  126.5000   139.2375     9.2283     8.9540
  126.6000   139.2923     9.1669     8.9540
  126.7000   139.5474     9.1241     8.9540
  126.8000   139.5510     9.1032     8.9044
  126.9000   139.7383     9.0843     8.8916
  127.0000   139.8608     9.0328     8.8916
  127.1000   139.9348     8.9771     8.8772
  127.2000   140.1705     8.9772     8.8297
  127.3000   139.8723     8.9425     8.8297
