~VERSION INFORMATION
 VERS.                2.0:   CWLS LOG ASCII STANDARD - VERSION 2.0
 WRAP.                 NO:   ONE LINE PER DEPTH STEP
~WELL INFORMATION
#MNEM.UNIT      DATA TYPE    INFORMATION
#----------   ------------   ------------------------------
 STRT.F          371.0000:   START DEPTH
 STOP.F         1998.0000:   STOP DEPTH
 STEP.F            0.5000:   STEP LENGTH
 NULL.          -999.2500:   NO VALUE
 COMP.       ANADARKO PET:   COMPANY
 WELL. StX-21 NPR #3 #17-21:   WELL
 FLD .             TEAPOT:   FIELD
 LOC .      S21 T39N R78W:   LOCATION
 CNTY.            NATRONA:   COUNTY
 STAT.            WYOMING:   STATE
 CTRY. UNITED STATES OF AMERICA:   COUNTRY
 SRVC.            Unknown:   SERVICE COMPANY
 DATE.        11-OCT-1994:   LOGDATE
 API .       490252266400:   API NUMBER
~CURVE INFORMATION
#MNEM.UNIT       API CODE    CURVE DESCRIPTION
#----------   ------------   ------------------------------
 DEPT.F                  :   
 ROP .MIN/FT 91 810 01 00:   RATE OF DRILLING PENETRATION
 TGAS.UNITS  91 830 01 00:   TOTAL GAS FROM HOTWIRE
~PARAMETER INFORMATION
#MNEM.UNIT          VALUE    DESCRIPTION
#----------   ------------   ------------------------------
 DATE.         10-11-1994:   RUN DATE
 RUN .                  1:   RUN NUMBER
 DD  .F              1997:   DEPTH DRILLER
 BLI .F              2000:   BOTTOM LOG INTERVAL
 TLI .F               360:   TOP LOG INTERVAL
 CS  .IN                7:   CASING SIZE
 CBD .F               344:   CASING BOTTOM DRILLER
 ENGI.   C. TOWER R. HUSK:   RECORDING ENGINEER
 CLNT.            A2DTECH:   CLIENT CODE
 ORIG.         2.5" PRINT:   ORIGIN OF DATA
 UWI .       490252266400:   UNIQUE WELL ID
 DICO. A2D Technologies, Inc.:   DIGITIZING COMPANY
~OTHER INFORMATION
~A   DEPT        ROP       TGAS 
# ...
  492.5000     0.5372     1.8317
  493.0000     0.5369     1.8335
  493.5000     0.5367     1.8353
  494.0000     0.5364     1.8372
  494.5000     0.5361     1.8390
  495.0000     0.5358     1.8409
  495.5000     0.5356     1.8428
  496.0000     0.5353     1.8446
  496.5000     0.5350     1.8465
  497.0000     0.5347     1.8483
  497.5000     0.5344     1.8505
  498.0000     0.5342     1.8523
  498.5000     0.5339     1.8541
  499.0000     0.5336     1.8559
  499.5000     0.5334     1.8577
  500.0000     0.5331     0.0024
  500.5000     0.5516     0.0167
  501.0000     0.5700     0.0310
  501.5000     0.5885     0.0454
  502.0000     0.6070     0.0597
  502.5000     0.6071     0.0744
  503.0000     0.6072     0.0893
  503.5000     0.6073     0.1041
  504.0000     0.6074     0.1190
  504.5000     0.6034     0.1339
  505.0000     0.5891     0.1488
  505.5000     0.5829     0.1636
  506.0000     0.5709     0.1815
  506.5000     0.5710     0.1958
  507.0000     0.5711     0.2101
  507.5000     0.5528     0.2245
  508.0000     0.5530     0.2388
  508.5000     0.5530     0.2531
  509.0000     0.6634     0.2678
  509.5000     0.6819     0.2826
  510.0000     0.6820     0.2975
  510.5000     0.6821     0.3128
  511.0000     0.6822     0.3273
  511.5000     0.6823     0.3421
  512.0000     0.6824     0.3570
  512.5000     0.6824     0.3719
  513.0000     0.6825     0.3868
  513.5000     0.6826     0.4035
  514.0000     0.6827     0.4179
  514.5000     0.6828     0.4322
  515.0000     0.6645     0.4463
  515.5000     0.6646     0.4612
  516.0000     0.6647     0.4776
  516.5000     0.6648     0.4909
  517.0000     0.6465     0.5058
  517.5000     0.6466     0.5207
  518.0000     0.6467     0.5373
  518.5000     0.6468     0.5504
  519.0000     0.6469     0.5653
  519.5000     0.6470     0.5802
  520.0000     0.6471     0.5950
  520.5000     0.6472     0.6099
  521.0000     0.6425     0.6256
  521.5000     0.6289     0.6399
  522.0000     0.6474     0.6545
  522.5000     0.6475     0.6694
  523.0000     0.6569     0.6853
  523.5000     0.6661     0.6992
  524.0000     0.7581     0.7140
  524.5000     0.8317     0.7289
  525.0000     0.8134     0.7438
  525.5000     0.8135     0.7587
  526.0000     0.8136     0.7760
  526.5000     0.7953     0.7904
  527.0000     0.7954     0.8047
  527.5000     0.7955     0.8190
  528.0000     0.7956     0.8333
  528.5000     0.7957     0.8479
  529.0000     0.8002     0.8628
  529.5000     0.8142     0.8777
  530.0000     0.8143     0.8926
  530.5000     0.8144     0.9074
  531.0000     0.8145     0.9223
  531.5000     0.8146     0.9372
  532.0000     0.8147     0.9521
  532.5000     0.8148     0.9694
  533.0000     0.8149     0.9838
  533.5000     0.8150     0.9981
  534.0000     0.8151     1.0124
  534.5000     0.8336     1.0268
  535.0000     0.4292     1.0413
  535.5000     0.4293     1.0562
  536.0000     0.4294     1.0017
  536.5000     0.4295     0.7122
  537.0000     0.4296     0.7289
  537.5000     0.4297     0.7438
  538.0000     0.4298     0.7587
  538.5000     0.4375     0.7736
  539.0000     0.4483     0.7910
  539.5000     0.4484     0.8053
  540.0000     0.4485     0.8196
  540.5000     0.4486     0.8339
  541.0000     0.4487     0.8483
  541.5000     0.4488     0.8628
  542.0000     0.4489     0.8777
  542.5000     0.4490     1.2645
  543.0000     0.4491     1.2793
  543.5000     0.4492     1.2942
  544.0000     0.4493     1.3091
  544.5000     0.4677     1.3240
  545.0000     0.4678     1.3388
  545.5000     0.4679     1.3563
  546.0000     0.4680     1.3706
  546.5000     0.4681     1.3849
  547.0000     0.4682     1.3993
  547.5000     0.4683     1.4136
  548.0000     0.4684     1.4281
  548.5000     0.4685     1.4430
  549.0000     0.4686     1.4579
  549.5000     0.4871     1.4727
  550.0000     0.4871     1.4876
  550.5000     0.4872     1.5025
  551.0000     0.4873     1.5174
  551.5000     0.4874     1.5322
  552.0000     0.4875     1.5497
  552.5000     0.4902     1.5640
  553.0000     0.5061     1.5783
  553.5000     0.4878     1.5927
  554.0000     0.4879     1.6070
  554.5000     0.4880     1.6215
  555.0000     0.4881     1.6380
  555.5000     0.4881     1.6512
  556.0000     0.4777     1.6661
  556.5000     0.4699     1.6810
  557.0000     0.4701     1.6959
  557.5000     0.4701     1.7107
  558.0000     0.4702     1.7256
  558.5000     0.4703     1.7431
  559.0000     0.4520     1.7574
  559.5000     0.4521     1.7718
  560.0000     0.4522     1.7861
  560.5000     0.4523     1.8004
  561.0000     0.4524     1.8149
  561.5000     0.4479     1.8298
  562.0000     0.4342     1.8446
  562.5000     0.4343     1.8595
  563.0000     0.4344     1.8744
  563.5000     0.4345     1.8893
  564.0000     0.4162     1.9041
  564.5000     0.5633     1.9190
  565.0000     0.6060     1.9365
  565.5000     0.6003     1.9508
  566.0000     0.6004     1.9652
  566.5000     0.5821     1.9795
  567.0000     0.5822     1.9938
  567.5000     0.6006     2.0083
  568.0000     0.6007     2.0231
  568.5000     0.6008     2.0380
  569.0000     0.6009     2.0529
  569.5000     0.6010     2.0678
  570.0000     0.6011     2.0826
  570.5000     0.5828     2.0975
  571.0000     0.5751     2.1124
  571.5000     0.5646     2.1299
  572.0000     0.5463     1.7702
  572.5000     0.5464     1.7867
  573.0000     0.5465     1.4281
  573.5000     0.5466     0.6996
  574.0000     0.5467     0.3421
  574.5000     0.5468     0.3236
  575.0000     0.5469     0.0000
  575.5000     0.5470     0.0149
  576.0000     0.5471     0.0298
  576.5000     0.5472     0.0446
  577.0000     0.5472     0.0595
  577.5000     0.5473     0.0744
  578.0000     0.5527     0.0919
  578.5000     0.5659     0.1063
  579.0000     0.5660     0.1206
  579.5000     0.5661     0.1349
  580.0000     0.5662     0.1492
  580.5000     0.5663     0.1636
  581.0000     0.5664     0.1785
  581.5000     0.5665     0.1934
  582.0000     0.5666     0.2083
  582.5000     0.5850     0.2231
  583.0000     0.5851     0.2380
  583.5000     0.5852     0.2529
  584.0000     0.6037     0.2678
  584.5000     0.6038     0.2853
  585.0000     0.6039     0.2997
  585.5000     0.6040     0.3140
  586.0000     0.6040     0.3283
  586.5000     0.6103     0.3427
  587.0000     0.6226     0.3570
  587.5000     0.6227     0.3719
  588.0000     0.6228     0.3868
  588.5000     0.6229     0.4017
  589.0000     0.6230     0.4165
  589.5000     0.6231     0.4314
  590.0000     0.6232     0.4463
  590.5000     0.6233     0.4612
  591.0000     0.6233     0.4788
  591.5000     0.6234     0.4931
  592.0000     0.6235     0.5074
  592.5000     0.6236     0.5217
  593.0000     0.6237     0.5361
  593.5000     0.6238     0.5504
  594.0000     0.6239     0.5653
  594.5000     0.6240     0.5802
  595.0000     0.6241     0.5950
  595.5000     0.6242     0.6099
  596.0000     0.6243     0.6248
  596.5000     0.5721     0.6397
  597.0000     0.4406     0.6545
  597.5000     0.4407     0.6722
  598.0000     0.4408     0.6865
  598.5000     0.4409     0.7008
  599.0000     0.4594     0.7151
  599.5000     0.4595     0.7295
  600.0000     0.4779     0.7438
  600.5000     0.4780     0.7000
  601.0000     0.5327     0.0000
  601.5000     0.5325     0.0000
  602.0000     0.5323     0.0000
  602.5000     0.5321     0.0000
  603.0000     0.5136     0.0000
  603.5000     0.5134     0.0000
  604.0000     0.5132     0.0000
  604.5000     0.5130     0.0000
  605.0000     0.5129     0.0000
  605.5000     0.5127     0.0000
  606.0000     0.5125     0.0000
  606.5000     0.4939     0.0000
  607.0000     0.4937     0.0000
  607.5000     0.5120     0.0000
  608.0000     0.5049     0.0000
  608.5000     0.5013     0.0000
  609.0000     0.5114     0.0000
  609.5000     0.5112     0.0000
  610.0000     0.5110     0.0000
  610.5000     0.5108     0.0000
  611.0000     0.4923     0.0000
  611.5000     0.4921     0.0000
  612.0000     0.4735     0.0000
  612.5000     0.4733     0.0000
  613.0000     0.4732     0.0000
  613.5000     0.4730     0.0000
