~VERSION INFORMATION
 VERS.                2.0:   CWLS LOG ASCII STANDARD - VERSION 2.0
 WRAP.                 NO:   ONE LINE PER DEPTH STEP
~WELL INFORMATION
#MNEM.UNIT      DATA TYPE    INFORMATION
#----------   ------------   ------------------------------
 STRT.F            0.0000:   START DEPTH
 STOP.F          412.0000:   STOP DEPTH
 STEP.F            0.5000:   STEP LENGTH
 NULL.          -999.2500:   NO VALUE
 COMP. DEPARTMENT OF ENERGY:   COMPANY
 WELL. 65-24 SXS C-3 #65-3:   WELL
 FLD .        TEAPOT EAST:   FIELD
 LOC .       S3 T38N R78W:   LOCATION
 CNTY.            NATRONA:   COUNTY
 STAT.            WYOMING:   STATE
 CTRY. UNITED STATES OF AMERICA:   COUNTRY
 SRVC.      Dresser Atlas:   SERVICE COMPANY
 DATE.        30-JUN-1985:   LOGDATE
 API .       490251134700:   API NUMBER
~CURVE INFORMATION
#MNEM.UNIT       API CODE    CURVE DESCRIPTION
#----------   ------------   ------------------------------
 DEPT.F                  :   
 CALD.IN     45 280 60 00:   CALIPER FROM DENSITY LOG
 CNC .DEC    42 890 03 00:   NEUTRON POROSITY SANDSTONE
 CORR.G/C3   45 356 01 00:   DENSITY CORRECTION
 PORD.DEC    45 890 12 00:   POROSITY DENSITY SANDSTONE
 DEN .G/C3   45 350 01 00:   COMPENSATED BULK DENSTIY
 GRR .GAPI   07 310 01 00:   GAMMA RAY
 RILD.OHMM   07 120 46 00:   INDUCTION LOG DEEP RESISTIVITY
 RILM.OHMM   07 120 44 00:   INDUCTION LOG MEDIUM RESISTIVITY
~PARAMETER INFORMATION
#MNEM.UNIT          VALUE    DESCRIPTION
#----------   ------------   ------------------------------
 PD  .                 GL:   PERMANENT DATUM
 EPD .F              5161:   ELEVATION PERMANENT DATUM
 LMF .                 GL:   LOG MEASURED FROM
 DMF .                 GL:   DRILLING MEASURED FROM
 EGL .F              5161:   GROUND LEVEL
 DATE.        30-JUN-1985:   RUN DATE
 RUN .              1-424:   RUN NUMBER
 DD  .F               424:   DEPTH DRILLER
 DL  .F               422:   DEPTH LOGGER
 BLI .F               414:   BOTTOM LOG INTERVAL
 CS  .IN                7:   CASING SIZE
 CBD .F                80:   CASING BOTTOM DRILLER
 CBL .F                85:   CASING BOTTOM LOGGER
 BS  .IN            4.875:   BIT SIZE
 BSD .F               424:   BIT SIZE AT DEPTH
 DFT .                OIL:   DRILLING FLUID TYPE
 TCS .HRS               3:   TIME CURCULATED STOPPED
 LUN .               6274:   LOGGING UNIT NUMBER
 LUL .           GILLETTE:   LOGGING UNIT LOCATION
 ENGI.             RAUTIO:   RECORDING ENGINEER
 WITN.             GROOMS:   WITNESSED BY
 CLNT.            A2DTECH:   CLIENT CODE
 ORIG.           5" PRINT:   ORIGIN OF DATA
 UWI .       490251134700:   UNIQUE WELL ID
 DICO. A2D Technologies, Inc.:   DIGITIZING COMPANY
~OTHER INFORMATION
~A    DEPT    CALD        CNC       CORR       PORD        DEN         GRR      RILD       RILM   
# ...
  364.5000     5.1341     0.0915    -0.0695     0.2917     2.1571    90.7051    91.2157   158.8545
  365.0000     5.1043     0.0963    -0.0559     0.3092     2.1277    88.1864    93.1660   150.2896
  365.5000     5.0595     0.1022     0.0182     0.3171     2.1240    85.8288    95.2318   142.1864
  366.0000     5.0298     0.1081     0.1200     0.3412     2.0675    83.9993    97.1999   143.2182
  366.5000     4.9980     0.1141     0.1980     0.3669     2.0373    83.0816    97.2293   163.8087
  367.0000     4.9702     0.1201     0.1331     0.3406     2.0796    82.7437    94.5916   181.5757
  367.5000     4.9406     0.1240     0.0093     0.3082     2.1406    85.8967    91.3881   193.3683
  368.0000     4.9108     0.1215    -0.0314     0.2733     2.1692    86.1038    88.2930   200.2715
  368.5000     4.9113  -999.2500    -0.0480     0.2674     2.2032    85.7926    85.3027   201.7249
  369.0000     4.9420  -999.2500    -0.0540     0.2686     2.2047    85.7868    81.1495   193.5243
  369.5000     4.9738  -999.2500    -0.0449     0.2677     2.2062    86.9968    77.9853   176.8267
  370.0000     5.0036  -999.2500    -0.0252     0.2653     2.2138    89.4427    76.3989   152.4689
  370.5000     5.0192  -999.2500    -0.0112     0.2628     2.2153    92.1509    75.8869   131.1604
  371.0000     5.0197  -999.2500     0.0021     0.2704     2.1987    93.0584    75.3840   122.3729
  371.5000     5.0353  -999.2500     0.0067     0.2819     2.1806    93.0512    74.3704   135.8794
  372.0000     5.0358  -999.2500     0.0037     0.2791     2.1884    92.7414    72.3538   159.5178
  372.5000     5.0514  -999.2500     0.0053     0.2712     2.2024    91.2057    66.8871   180.8622
  373.0000     5.0519  -999.2500     0.0174     0.2664     2.2138    89.3849    62.1357   175.9425
  373.5000     5.0524  -999.2500     0.0235     0.2636     2.2199    86.9475    58.3851   151.6181
  374.0000     5.0530  -999.2500     0.0190     0.2467     2.2395    85.1180    55.2437   124.2974
  374.5000     5.0535  -999.2500    -0.0191     0.2264     2.2847    84.5043    53.3727   113.5727
  375.0000     5.0540  -999.2500    -0.0383     0.2131     2.2945    84.4985    51.2079   110.4834
  375.5000     5.0545  -999.2500    -0.0246     0.2150     2.2938    88.1386    49.8188   104.5265
  376.0000     5.0550  -999.2500    -0.0110     0.2575     2.2513    89.9580    48.0920    92.2069
  376.5000     5.0556  -999.2500     0.0042     0.2729     2.1999    89.3429    45.2297    79.1648
  377.0000     5.0388  -999.2500     0.0073     0.2762     2.1928    88.1212    41.9129    77.0063
  377.5000     5.0184  -999.2500     0.0118     0.2765     2.1951    86.5957    39.6577    84.3290
  378.0000     4.9965  -999.2500     0.0058     0.2738     2.1966    85.3252    37.7856    96.9532
  378.5000     4.9970  -999.2500    -0.0047     0.2771     2.1914    84.7589    35.5049    84.1824
  379.0000     4.9823  -999.2500    -0.0232     0.2873     2.1823    86.8808    33.5945    67.5470
  379.5000     4.9830  -999.2500    -0.0378     0.3000     2.1613    89.6106    31.0782    60.8656
  380.0000     4.9682  -999.2500    -0.0423     0.3183     2.1221    91.1245    29.0514    55.6140
  380.5000     4.9385  -999.2500    -0.0543     0.3586     2.0722    92.0306    28.0675    52.6154
  381.0000     4.9239  -999.2500    -0.0769     0.3745     2.0324    91.7194    26.9291    51.9019
  381.5000     4.9091  -999.2500    -0.0920     0.3794     2.0174    90.4978    24.9543    49.0633
  382.0000     4.8795  -999.2500    -0.1022     0.3836     2.0377    90.4920    22.8051    40.1401
  382.5000     4.8800  -999.2500  -999.2500     0.2069  -999.2500    90.4862    21.1327    35.1763
  383.0000     4.8806  -999.2500  -999.2500     0.1229  -999.2500    87.9635    20.1176    31.0417
  383.5000     4.8811  -999.2500  -999.2500     0.1038  -999.2500    85.6099    19.3199    27.5844
  384.0000     4.8663  -999.2500  -999.2500     0.1013  -999.2500    88.0357    18.4079    25.2044
  384.5000     4.8669  -999.2500  -999.2500     0.0971  -999.2500    89.2472    17.2968    23.3526
  385.0000     4.8523  -999.2500  -999.2500     0.0965  -999.2500    88.9360    15.9173    19.6053
  385.5000     4.8527  -999.2500  -999.2500     0.0962  -999.2500    89.5928    14.7501    15.6041
  386.0000     4.8533  -999.2500  -999.2500     0.0957  -999.2500    94.0916    13.8597    13.6745
  386.5000  -999.2500  -999.2500  -999.2500  -999.2500  -999.2500    94.3897    12.7316    12.9372
  387.0000  -999.2500  -999.2500  -999.2500  -999.2500  -999.2500    94.6864    11.3371    12.3251
  387.5000  -999.2500  -999.2500  -999.2500  -999.2500  -999.2500    95.5925    10.2889    11.0289
  388.0000  -999.2500  -999.2500  -999.2500  -999.2500  -999.2500    97.7388     9.3376     9.3344
  388.5000  -999.2500  -999.2500  -999.2500  -999.2500  -999.2500    99.2283     8.4743     7.9436
  389.0000  -999.2500  -999.2500  -999.2500  -999.2500  -999.2500    99.2219     7.5846     6.8280
  389.5000  -999.2500  -999.2500  -999.2500  -999.2500  -999.2500  -999.2500     6.6482     5.9837
  390.0000  -999.2500  -999.2500  -999.2500  -999.2500  -999.2500  -999.2500     5.8822     5.2804
  390.5000  -999.2500  -999.2500  -999.2500  -999.2500  -999.2500  -999.2500     4.9339     4.7913
  391.0000  -999.2500  -999.2500  -999.2500  -999.2500  -999.2500  -999.2500     4.3853     4.3779
  391.5000  -999.2500  -999.2500  -999.2500  -999.2500  -999.2500  -999.2500     4.0076     4.0846
  392.0000  -999.2500  -999.2500  -999.2500  -999.2500  -999.2500  -999.2500     3.7137     3.8088
  392.5000  -999.2500  -999.2500  -999.2500  -999.2500  -999.2500  -999.2500     3.4896     3.5558
  393.0000  -999.2500  -999.2500  -999.2500  -999.2500  -999.2500  -999.2500     3.3714     3.4113
  393.5000  -999.2500  -999.2500  -999.2500  -999.2500  -999.2500  -999.2500     3.2511     3.2955
  394.0000  -999.2500  -999.2500  -999.2500  -999.2500  -999.2500  -999.2500     3.1471     3.2058
  394.5000  -999.2500  -999.2500  -999.2500  -999.2500  -999.2500  -999.2500     3.1044     3.1623
  395.0000  -999.2500  -999.2500  -999.2500  -999.2500  -999.2500  -999.2500     3.0838     3.1195
  395.5000  -999.2500  -999.2500  -999.2500  -999.2500  -999.2500  -999.2500     3.0850     3.1203
  396.0000  -999.2500  -999.2500  -999.2500  -999.2500  -999.2500  -999.2500     3.0859     3.1213
  396.5000  -999.2500  -999.2500  -999.2500  -999.2500  -999.2500  -999.2500     3.1084     3.1222
  397.0000  -999.2500  -999.2500  -999.2500  -999.2500  -999.2500  -999.2500     3.1310     3.1230
  397.5000  -999.2500  -999.2500  -999.2500  -999.2500  -999.2500  -999.2500     3.1322     3.1457
  398.0000  -999.2500  -999.2500  -999.2500  -999.2500  -999.2500  -999.2500     3.1550     3.2129
  398.5000  -999.2500  -999.2500  -999.2500  -999.2500  -999.2500  -999.2500     3.1779     3.2363
  399.0000  -999.2500  -999.2500  -999.2500  -999.2500  -999.2500  -999.2500     3.2011     3.2825
  399.5000  -999.2500  -999.2500  -999.2500  -999.2500  -999.2500  -999.2500     3.2020     3.3297
  400.0000  -999.2500  -999.2500  -999.2500  -999.2500  -999.2500  -999.2500     3.2254     3.3772
  400.5000  -999.2500  -999.2500  -999.2500  -999.2500  -999.2500  -999.2500     3.2521     3.4018
  401.0000  -999.2500  -999.2500  -999.2500  -999.2500  -999.2500  -999.2500     3.3185     3.4504
  401.5000  -999.2500  -999.2500  -999.2500  -999.2500  -999.2500  -999.2500     3.3660     3.4997
  402.0000  -999.2500  -999.2500  -999.2500  -999.2500  -999.2500  -999.2500     3.4380     3.5745
  402.5000  -999.2500  -999.2500  -999.2500  -999.2500  -999.2500  -999.2500     3.4872     3.6256
  403.0000  -999.2500  -999.2500  -999.2500  -999.2500  -999.2500  -999.2500     3.5126     3.6777
  403.5000  -999.2500  -999.2500  -999.2500  -999.2500  -999.2500  -999.2500     3.5628     3.7044
  404.0000  -999.2500  -999.2500  -999.2500  -999.2500  -999.2500  -999.2500     3.5888     3.7312
  404.5000  -999.2500  -999.2500  -999.2500  -999.2500  -999.2500  -999.2500     3.5901     3.7583
