~VERSION INFORMATION
 VERS.                2.0:   CWLS LOG ASCII STANDARD - VERSION 2.0
 WRAP.                 NO:   ONE LINE PER DEPTH STEP
~WELL INFORMATION
#MNEM.UNIT      DATA TYPE    INFORMATION
#----------   ------------   ------------------------------
 STRT.F            1.0000:   START DEPTH
 STOP.F          524.0000:   STOP DEPTH
 STEP.F            0.1000:   STEP LENGTH
 NULL.          -999.2500:   NO VALUE
 COMP.       F D SERV INC:   COMPANY
 WELL.    87-2 SX-3 #87-3:   WELL
 FLD .             TEAPOT:   FIELD
 LOC .       S3 T38N R78W:   LOCATION
 CNTY.            NATRONA:   COUNTY
 STAT.            WYOMING:   STATE
 CTRY. UNITED STATES OF AMERICA:   COUNTRY
 SRVC.     Atlas Wireline:   SERVICE COMPANY
 DATE.        20-OCT-1992:   LOGDATE
 API .       490252254700:   API NUMBER
~CURVE INFORMATION
#MNEM.UNIT       API CODE    CURVE DESCRIPTION
#----------   ------------   ------------------------------
 DEPT.F                  :   
 GRR .GAPI   07 310 01 00:   GAMMA RAY
 RILD.OHMM   07 120 46 00:   INDUCTION LOG DEEP RESISTIVITY
 RILM.OHMM   07 120 44 00:   INDUCTION LOG MEDIUM RESISTIVITY
~PARAMETER INFORMATION
#MNEM.UNIT          VALUE    DESCRIPTION
#----------   ------------   ------------------------------
 PD  .                 GL:   PERMANENT DATUM
 EPD .F              5124:   ELEVATION PERMANENT DATUM
 LMF .                 KB:   LOG MEASURED FROM
 DAPD.F                10:   FEET ABOVE PERMANENT DATUM
 DMF .                 KB:   DRILLING MEASURED FROM
 EKB .F              5134:   KELLING BUSHING
 EDF .F              5133:   DRILLING FLOOR
 EGL .F              5124:   GROUND LEVEL
 DATE.        20-OCT-1992:   RUN DATE
 RUN .                  1:   RUN NUMBER
 DD  .F               533:   DEPTH DRILLER
 DL  .F               532:   DEPTH LOGGER
 BLI .F               524:   BOTTOM LOG INTERVAL
 TLI .F                74:   TOP LOG INTERVAL
 CS  .IN            8.625:   CASING SIZE
 CBD .F                85:   CASING BOTTOM DRILLER
 CBL .F                74:   CASING BOTTOM LOGGER
 BS  .IN            7.875:   BIT SIZE
 BSD .F               533:   BIT SIZE AT DEPTH
 DFT .           AIR FOAM:   DRILLING FLUID TYPE
 TCS .HRS               3:   TIME CURCULATED STOPPED
 MRT .F                70:   MAXIMUM RECORDED TEMPERATURE
 LUN .            HL-6274:   LOGGING UNIT NUMBER
 LUL .             CASPER:   LOGGING UNIT LOCATION
 ENGI.             RAUTIO:   RECORDING ENGINEER
 WITN.        GARY STRONG:   WITNESSED BY
 CLNT.            A2DTECH:   CLIENT CODE
 ORIG.           5" PRINT:   ORIGIN OF DATA
 UWI .       490252254700:   UNIQUE WELL ID
 DICO. A2D Technologies, Inc.:   DIGITIZING COMPANY
~OTHER INFORMATION
~A    DEPT     GRR       RILD       RILM   
# ...
  255.8000   140.3295     6.3983     6.5715
  255.9000   139.3720     6.4511     6.6185
  256.0000   139.0274     6.5249     6.6654
  256.1000   139.0243     6.6006     6.7124
  256.2000   139.0208     6.6750     6.7593
  256.3000   139.2308     6.7224     6.8063
  256.4000   139.3191     6.7811     6.8532
  256.5000   139.4164     6.8587     6.9002
  256.6000   139.6176     6.9342     6.9554
  256.7000   139.6138     6.9801     6.9551
  256.8000   139.6109     7.0137     6.9785
  256.9000   139.6079     7.0537     7.0031
  257.0000   139.6049     7.0940     7.0027
  257.1000   139.6693     7.1345     7.0023
  257.2000   139.9029     7.1781     7.0761
  257.3000   139.8992     7.2162     7.1285
  257.4000   140.0997     7.2574     7.1689
  257.5000   140.1976     7.2793     7.2196
  257.6000   140.2853     7.2794     7.3012
  257.7000   140.5301     7.2801     7.3426
  257.8000   140.7961     7.3217     7.3842
  257.9000   141.0197     7.3307     7.4503
  258.0000   141.2645     7.3541     7.5205
  258.1000   141.3951     7.3960     7.5581
  258.2000   141.3921     7.4383     7.5576
  258.3000   141.3891     7.4862     7.5572
  258.4000   141.6357     7.4863     7.5281
  258.5000   141.6869     7.4864     7.4476
  258.6000   141.8213     7.4689     7.3206
  258.7000   142.2286     7.4189     7.1945
  258.8000   142.9942     7.3316     7.1536
  258.9000   144.1060     7.2920     7.1125
  259.0000   144.7538     7.2210     7.0934
  259.1000   145.3335     7.1597     7.0678
  259.2000   145.8262     7.1192     6.9941
  259.3000   146.4156     7.0790     6.9937
  259.4000   147.4346     7.0316     6.9933
  259.5000   148.3921     7.0317     6.9676
  259.6000   149.1964     7.0085     6.9438
  259.7000   149.2975     6.9830     6.9361
  259.8000   148.7988     6.9780     6.8946
  259.9000   148.2845     6.9346     6.8943
  260.0000   147.4159     6.9347     6.8939
  260.1000   146.5842     6.9348     6.8735
  260.2000   145.5899     6.9349     6.8451
  260.3000   144.4054     6.9350     6.8424
  260.4000   142.9542     6.9351     6.7965
  260.5000   141.6259     6.9352     6.7962
  260.6000   140.7008     6.9055     6.7724
  260.7000   139.7063     6.8872     6.7481
  260.8000   139.3038     6.8873     6.7417
  260.9000   139.5485     6.8845     6.7003
  261.0000   139.7933     6.8396     6.7000
  261.1000   140.0381     6.8070     6.6996
  261.2000   140.0851     6.7922     6.6809
  261.3000   140.0821     6.7774     6.6521
  261.4000   140.0790     6.7391     6.6507
  261.5000   140.0760     6.6984     6.6050
  261.6000   140.0726     6.6632     6.6047
  261.7000   140.0699     6.6256     6.6043
  261.8000   139.9019     6.5881     6.5907
  261.9000   139.2158     6.5509     6.5528
  262.0000   137.9212     6.5133     6.5114
  262.1000   136.4103     6.4399     6.4777
  262.2000   134.9409     6.3957     6.4405
  262.3000   133.0748     6.3596     6.3871
  262.4000   131.4854     6.3236     6.3223
  262.5000   130.7751     6.2843     6.2860
  262.6000   131.3075     6.2045     6.2499
  262.7000   132.4403     6.1738     6.1867
  262.8000   133.9186     6.1390     6.1161
  262.9000   135.6503     6.0899     6.0353
  263.0000   137.2827     6.0276     5.9357
  263.1000   138.7234     5.9921     5.8594
  263.2000   140.0242     5.9273     5.8300
  263.3000   140.7258     5.8364     5.7753
  263.4000   141.2875     5.7379     5.7094
  263.5000   141.9027     5.6323     5.6442
  263.6000   142.5767     5.5056     5.5779
  263.7000   143.0590     5.3596     5.5163
  263.8000   143.3490     5.2858     5.4534
  263.9000   143.1445     5.1795     5.3912
  264.0000   142.3101     5.0631     5.3209
  264.1000   141.2474     4.9529     5.2281
  264.2000   140.6018     4.8612     5.0914
  264.3000   140.5985     4.7872     5.0185
  264.4000   140.5957     4.7064     4.9159
  264.5000   140.7619     4.6269     4.8046
  264.6000   141.0067     4.5543     4.7045
  264.7000   141.2514     4.5023     4.6477
  264.8000   141.4962     4.4521     4.5733
  264.9000   141.7411     4.4209     4.4774
  265.0000   142.1783     4.3828     4.4003
  265.1000   142.6709     4.4713     4.3501
  265.2000   143.1635     4.4713     4.3014
  265.3000   143.6320     4.4714     4.2721
  265.4000   143.9084     4.4714     4.3119
  265.5000   144.3373     4.4715     4.3464
  265.6000   144.6703     4.4716     4.3894
  265.7000   144.8116     4.4716     4.4612
  265.8000   144.8085     4.4717     4.5167
  265.9000   144.8054     4.4718     4.5638
  266.0000   144.8024     4.4793     4.6159
  266.1000   144.6164     4.5032     4.6563
  266.2000   144.3656     4.5033     4.6890
  266.3000   144.0439     4.5033     4.7425
  266.4000   143.5306     4.5034     4.7968
  266.5000   142.6591     4.5132     4.8516
  266.6000   141.6250     4.5350     4.9070
  266.7000   140.3829     4.5351     4.9630
  266.8000   139.1408     4.5591     5.0197
  266.9000   137.9365     4.5670     5.0838
  267.0000   136.8691     4.5792     5.1611
  267.1000   135.9479     4.6053     5.2302
  267.2000   135.4740     4.6316     5.2899
  267.3000   135.2231     4.6581     5.3503
  267.4000   135.0334     4.6639     5.4125
  267.5000   135.0253     4.6787     5.4732
  267.6000   134.7745     4.6967     5.5598
  267.7000   134.9171     4.6993     5.6212
  267.8000   135.0213     4.7297     5.6629
  267.9000   135.1872     4.7532     5.7250
  268.0000   135.6798     4.7803     5.7622
  268.1000   136.2276     4.8076     5.8184
  268.2000   136.6650     4.8401     5.8637
  268.3000   137.3217     4.8980     5.9106
  268.4000   137.9543     4.9515     5.9720
  268.5000   138.4984     5.0499     6.0075
  268.6000   139.2522     5.1660     6.0398
  268.7000   139.7361     5.2847     6.0994
  268.8000   140.2286     5.4059     6.1691
  268.9000   140.7211     5.5539     6.2494
  269.0000   141.1388     5.6577     6.3550
  269.1000   141.3836     5.7685     6.4404
  269.2000   141.6652     5.8558     6.5011
  269.3000   142.0836     5.9270     6.5980
  269.4000   141.4954     6.0394     6.6971
  269.5000   140.5481     6.1014     6.7735
  269.6000   140.1337     6.1478     6.8569
  269.7000   140.1305     6.1984     6.8927
  269.8000   140.3615     6.2693     6.9318
  269.9000   140.7840     6.3421     6.9524
  270.0000   141.1550     6.4135     6.9716
  270.1000   141.4652     6.4870     7.0495
  270.2000   141.9766     6.5415     7.0491
  270.3000   143.1514     6.5900     7.0808
  270.4000   143.7520     6.6653     7.0978
  270.5000   144.6374     6.7538     7.0974
  270.6000   145.8031     6.7862     7.0970
  270.7000   147.2544     6.8488     7.0965
  270.8000   148.6076     6.9120     7.1324
  270.9000   149.9508     6.9453     7.1456
  271.0000   151.6029     6.9454     7.1452
  271.1000   152.8863     6.9455     7.1448
  271.2000   153.5149     6.9732     7.1444
  271.3000   153.7599     6.9943     7.1440
  271.4000   154.0045     6.9944     7.1436
  271.5000   153.8663     6.9950     7.1432
  271.6000   153.7507     7.0350     7.1556
  271.7000   153.6685     7.0437     7.1926
  271.8000   153.4176     7.0661     7.1921
  271.9000   153.1333     7.0932     7.1917
  272.0000   152.9159     7.0933     7.1913
  272.1000   152.6651     7.0934     7.1909
  272.2000   152.4142     7.0935     7.1905
  272.3000   152.1169     7.1195     7.1901
  272.4000   151.5987     7.1434     7.1897
  272.5000   150.8813     7.1435     7.1893
  272.6000   150.1349     7.1436     7.1889
  272.7000   149.3885     7.1437     7.1885
  272.8000   148.7117     7.1438     7.1881
  272.9000   148.2129     7.1642     7.1876
  273.0000   147.6286     7.1940     7.1873
  273.1000   147.4209     7.1941     7.1869
  273.2000   147.1700     7.1942     7.1865
  273.3000   146.8261     7.1943     7.1861
  273.4000   146.2538     7.1944     7.1857
  273.5000   145.1821     7.1945     7.1853
  273.6000   143.5792     7.1946     7.1849
  273.7000   142.5313     7.1947     7.2042
  273.8000   141.7849     7.1948     7.2345
  273.9000   141.1587     7.1949     7.2341
