~VERSION INFORMATION
 VERS.                2.0:   CWLS LOG ASCII STANDARD - VERSION 2.0
 WRAP.                 NO:   ONE LINE PER DEPTH STEP
~WELL INFORMATION
#MNEM.UNIT      DATA TYPE    INFORMATION
#----------   ------------   ------------------------------
 STRT.F          974.5000:   START DEPTH
 STOP.F         2805.0000:   STOP DEPTH
 STEP.F            0.5000:   STEP LENGTH
 NULL.          -999.2500:   NO VALUE
 COMP.   FLUOR DANIEL INC:   COMPANY
 WELL. NAVAL PETROLEUM RESERVE 3 SHX- #38-14:   WELL
 FLD .             TEAPOT:   FIELD
 LOC .      S14 T38N R78W:   LOCATION
 CNTY.            NATRONA:   COUNTY
 STAT.            WYOMING:   STATE
 CTRY. UNITED STATES OF AMERICA:   COUNTRY
 SRVC.            Unknown:   SERVICE COMPANY
 DATE.        20-AUG-1995:   LOGDATE
 API .       490252273400:   API NUMBER
~CURVE INFORMATION
#MNEM.UNIT       API CODE    CURVE DESCRIPTION
#----------   ------------   ------------------------------
 DEPT.F                  :   
 ROP .MIN/FT 91 810 01 00:   RAT OF DRILLING PENETRATION
 TGAS.UNITS  91 830 01 00:   TOTAL GAS FROM HOTWIRE
~PARAMETER INFORMATION
#MNEM.UNIT          VALUE    DESCRIPTION
#----------   ------------   ------------------------------
 EKB .F              5264:   KELLING BUSHING
 EGL .F              5254:   GROUND LEVEL
 DATE.            8-20-95:   RUN DATE
 DD  .F              2805:   DEPTH DRILLER
 CBD .F               980:   CASING BOTTOM DRILLER
 ENGI.              TOWER:   RECORDING ENGINEER
 WITN.               HUSK:   WITNESSED BY
 CLNT.            A2DTECH:   CLIENT CODE
 ORIG.           5" PRINT:   ORIGIN OF DATA
 UWI .       490252273400:   UNIQUE WELL ID
 DICO. A2D Technologies, Inc.:   DIGITIZING COMPANY
~OTHER INFORMATION
~A   DEPT      ROP         TGAS 
# ...
 1096.0000     0.4957     0.1753
 1096.5000     0.4969     0.2088
 1097.0000     0.4981     0.2423
 1097.5000     0.5102     0.2758
 1098.0000     0.5005     0.3093
 1098.5000     0.5020     0.3428
 1099.0000     0.5031     0.3763
 1099.5000     0.5043     0.4098
 1100.0000     0.5055     0.4433
 1100.5000     0.4956     0.4411
 1101.0000     0.4971     0.4389
 1101.5000     0.4874     0.4367
 1102.0000     0.4886     0.4345
 1102.5000     0.4898     0.4323
 1103.0000     0.4913     0.4300
 1103.5000     0.5033     0.4278
 1104.0000     0.5045     0.4256
 1104.5000     0.5057     0.4234
 1105.0000     0.5069     0.4212
 1105.5000     0.5190     0.4190
 1106.0000     0.5310     0.4167
 1106.5000     0.5431     0.4145
 1107.0000     0.5443     0.4123
 1107.5000     0.5564     0.4101
 1108.0000     0.5578     0.4079
 1108.5000     0.5590     0.4057
 1109.0000     0.5602     0.4034
 1109.5000     0.5614     0.4012
 1110.0000     0.5626     0.3988
 1110.5000     0.5638     0.3968
 1111.0000     0.5541     0.3946
 1111.5000     0.5553     0.3924
 1112.0000     0.5565     0.3901
 1112.5000     0.5577     0.3879
 1113.0000     0.5480     0.3857
 1113.5000     0.5495     0.3835
 1114.0000     0.5507     0.3813
 1114.5000     0.5519     0.3791
 1115.0000     0.5422     0.3768
 1115.5000     0.5543     0.3746
 1116.0000     0.5446     0.3724
 1116.5000     0.5458     0.3702
 1117.0000     0.5470     0.3680
 1117.5000     0.5482     0.3658
 1118.0000     0.5497     0.3635
 1118.5000     0.5397     0.3613
 1119.0000     0.5412     0.3591
 1119.5000     0.5424     0.3569
 1120.0000     0.5110     0.3545
 1120.5000     0.5118     0.3457
 1121.0000     0.5126     0.3361
 1121.5000     0.5134     0.3265
 1122.0000     0.5142     0.3169
 1122.5000     0.5150     0.3073
 1123.0000     0.5267     0.2978
 1123.5000     0.5275     0.2882
 1124.0000     0.5283     0.2786
 1124.5000     0.5291     0.2690
 1125.0000     0.5299     0.2594
 1125.5000     0.5307     0.2498
 1126.0000     0.5315     0.2402
 1126.5000     0.5325     0.2307
 1127.0000     0.5442     0.2211
 1127.5000     0.5450     0.2115
 1128.0000     0.5458     0.2019
 1128.5000     0.5466     0.1923
 1129.0000     0.5474     0.1827
 1129.5000     0.5482     0.1731
 1130.0000     0.5490     0.1636
 1130.5000     0.5498     0.1540
 1131.0000     0.5506     0.1444
 1131.5000     0.5514     0.1348
 1132.0000     0.5522     0.1252
 1132.5000     0.5530     0.1156
 1133.0000     0.5538     0.1060
 1133.5000     0.5548     0.0965
 1134.0000     0.5556     0.0869
 1134.5000     0.5564     0.0773
 1135.0000     0.5572     0.0677
 1135.5000     0.5580     0.0581
 1136.0000     0.5479     0.0485
 1136.5000     0.5487     0.0389
 1137.0000     0.5384     0.0294
 1137.5000     0.5394     0.0198
 1138.0000     0.5402     0.0102
 1138.5000     0.5519     0.0006
 1139.0000     0.5527    -0.0090
 1139.5000     0.5535    -0.0186
 1140.0000     0.5543    -0.0282
 1140.5000     0.5662    -0.0377
 1141.0000     0.5670    -0.0473
 1141.5000     0.5678    -0.0569
 1142.0000     0.5795    -0.0665
 1142.5000     0.5803    -0.0761
 1143.0000     0.5811    -0.0857
 1143.5000     0.5819    -0.0953
 1144.0000     0.5716    -0.1048
 1144.5000     0.5726    -0.1144
 1145.0000     0.5734    -0.1240
 1145.5000     0.5742    -0.1336
 1146.0000     0.5641    -0.1432
 1146.5000     0.5649    -0.1528
 1147.0000     0.5658    -0.1624
 1147.5000     0.5667    -0.1719
 1148.0000     0.5675    -0.1815
 1148.5000     0.5683    -0.1911
 1149.0000     0.5691    -0.2007
 1149.5000     0.5808    -0.2103
 1150.0000     0.5816    -0.2199
 1150.5000     0.5824    -0.2089
 1151.0000     0.5832    -0.1914
 1151.5000     0.5840    -0.1738
 1152.0000     0.5848    -0.1562
 1152.5000     0.5856    -0.1387
 1153.0000     0.5864    -0.1211
 1153.5000     0.5763    -0.1036
 1154.0000     0.5880    -0.0860
 1154.5000     0.4042    -0.0684
 1155.0000     0.4050    -0.0509
 1155.5000     0.4167    -0.0333
 1156.0000     0.4175    -0.0157
 1156.5000     0.4072     0.0018
 1157.0000     0.4082     0.0194
 1157.5000     0.4090     0.0370
 1158.0000     0.4098     0.0545
 1158.5000     0.4106     0.0721
 1159.0000     0.4114     0.0896
 1159.5000     0.4231     0.1072
 1160.0000     0.4456     0.1248
 1160.5000     0.4349     0.1423
 1161.0000     0.4351     0.1599
 1161.5000     0.4352     0.1775
 1162.0000     0.4353     0.1950
 1162.5000     0.4355     0.2126
 1163.0000     0.4356     0.2301
 1163.5000     0.4357     0.2477
 1164.0000     0.4366     0.2653
 1164.5000     0.4469     0.2828
 1165.0000     0.4470     0.3004
 1165.5000     0.4472     0.3180
 1166.0000     0.4473     0.3355
 1166.5000     0.4474     0.3531
 1167.0000     0.4584     0.3707
 1167.5000     0.4586     0.3882
 1168.0000     0.4587     0.4058
 1168.5000     0.4588     0.4233
 1169.0000     0.4698     0.4409
 1169.5000     0.4700     0.4585
 1170.0000     0.4701     0.4760
 1170.5000     0.4811     0.4936
 1171.0000     0.4813     0.5112
 1171.5000     0.4814     0.5287
 1172.0000     0.4815     0.5463
 1172.5000     0.4708     0.5639
 1173.0000     0.4709     0.5814
 1173.5000     0.4711     0.5990
 1174.0000     0.4603     0.6165
 1174.5000     0.4496     0.6341
 1175.0000     0.4488     0.6517
 1175.5000     0.4390     0.6692
 1176.0000     0.4500     0.6868
 1176.5000     0.4502     0.7067
 1177.0000     0.4503     0.7197
 1177.5000     0.4504     1.6194
 1178.0000     0.4506     8.2826
 1178.5000     0.4507    12.5074
 1179.0000     0.4508    12.9659
 1179.5000     0.4510    13.2006
 1180.0000     0.4511    13.4352
 1180.5000     0.4502    13.8916
 1181.0000     0.4405    14.3479
 1181.5000     0.4406    14.1370
 1182.0000     0.4408    14.1544
 1182.5000     0.4409    14.1674
 1183.0000     0.4410    14.1803
 1183.5000     0.4303    14.1933
 1184.0000     0.4304    14.2063
 1184.5000     0.4197    14.2193
 1185.0000     0.4198    14.4540
 1185.5000     0.4200    14.4691
 1186.0000     0.4201    14.7038
 1186.5000     0.4203    14.7168
 1187.0000     0.4204    14.9514
 1187.5000     0.4096    15.1861
 1188.0000     0.4098    15.1991
 1188.5000     0.4099    15.2121
 1189.0000     0.4101    15.2272
 1189.5000     0.4102    15.2402
 1190.0000     0.4103    15.2532
 1190.5000     0.4105    15.2662
 1191.0000     0.3997    15.2792
 1191.5000     0.3999    15.2921
 1192.0000     0.4000    15.3051
 1192.5000     0.3892    15.3203
 1193.0000     0.3894    15.3333
 1193.5000     0.3895    15.3463
 1194.0000     0.3897    15.3592
 1194.5000     0.3898    15.3722
 1195.0000     0.3899    15.1614
 1195.5000     0.4010    14.2898
 1196.0000     0.4011    14.0790
 1196.5000     0.4012    14.0963
 1197.0000     0.4014    14.1093
 1197.5000     0.4015    14.1223
 1198.0000     0.4016    14.1352
 1198.5000     0.4018    14.1482
 1199.0000     0.4128    13.9374
 1199.5000     0.4129    13.7287
 1200.0000     0.4239    13.7438
 1200.5000     0.5980    13.7708
 1201.0000     0.6090    13.7977
 1201.5000     0.6200    13.8246
 1202.0000     0.6201    13.8516
 1202.5000     0.6311    13.8785
 1203.0000     0.6391    13.9054
 1203.5000     0.6244    13.9323
 1204.0000     0.6250    13.9593
 1204.5000     0.6148    13.9862
 1205.0000     0.6155    14.0131
 1205.5000     0.6162    14.0401
 1206.0000     0.6168    14.0670
 1206.5000     0.6177    14.0939
 1207.0000     0.6183    14.1209
 1207.5000     0.6190    14.1478
 1208.0000     0.6196    14.1747
 1208.5000     0.6203    14.2016
 1209.0000     0.6210    14.2286
 1209.5000     0.6216    14.2555
 1210.0000     0.6223    14.2566
 1210.5000     0.6230    14.1952
 1211.0000     0.6248    14.1338
 1211.5000     0.6353    14.0723
 1212.0000     0.6360    14.0109
 1212.5000     0.6366    13.9495
 1213.0000     0.6373    13.8881
 1213.5000     0.6380    13.8266
 1214.0000     0.6386    13.7652
 1214.5000     0.6393    13.7038
 1215.0000     0.6400    13.6424
 1215.5000     0.6406    13.5809
 1216.0000     0.5217    13.5195
 1216.5000     0.5242    13.4476
 1217.0000     0.5341    13.2288
