~VERSION INFORMATION
 VERS.                2.0:   CWLS LOG ASCII STANDARD - VERSION 2.0
 WRAP.                 NO:   ONE LINE PER DEPTH STEP
~WELL INFORMATION
#MNEM.UNIT      DATA TYPE    INFORMATION
#----------   ------------   ------------------------------
 STRT.F           30.0000:   START DEPTH
 STOP.F          509.0000:   STOP DEPTH
 STEP.F            0.5000:   STEP LENGTH
 NULL.          -999.2500:   NO VALUE
 COMP. FENIX & SCISSON INC:   COMPANY
 WELL.   NPR 3 #45 SX 3-3:   WELL
 FLD .             TEAPOT:   FIELD
 LOC .       S3 T38N R78W:   LOCATION
 CNTY.            NATRONA:   COUNTY
 STAT.            WYOMING:   STATE
 CTRY. UNITED STATES OF AMERICA:   COUNTRY
 SRVC.            Unknown:   SERVICE COMPANY
 DATE.        05-OCT-1978:   LOGDATE
 API .       490251071700:   API NUMBER
~CURVE INFORMATION
#MNEM.UNIT       API CODE    CURVE DESCRIPTION
#----------   ------------   ------------------------------
 DEPT.F                  :   
 SPR .MV     05 010 01 00:   SPONTANEOUS POTENTIAL FROM RES.
 SN  .OHMM   05 040 16 00:   SHORT NORMAL 16"
 ILD .OHMM   05 120 46 00:   INDUCTION LOG DEEP
 GRD .GAPI   45 310 01 00:   GAMMA RAY FROM DENSITY LOG
 CALD.IN     45 280 60 00:   CALIPER
 RHOB.G/C3   45 350 01 00:   BULK DENSITY
 DPHI.DEC    45 890 12 00:   DENSITY POROSITY SANDSTONE
 CORR.G/C3   45 356 01 00:   DENSITY CORRECTION
~PARAMETER INFORMATION
#MNEM.UNIT          VALUE    DESCRIPTION
#----------   ------------   ------------------------------
 PD  .                 GL:   PERMANENT DATUM
 EPD .F              5188:   ELEVATION PERMANENT DATUM
 LMF .                 KB:   LOG MEASURED FROM
 DAPD.F                 4:   FEET ABOVE PERMANENT DATUM
 DMF .                 KB:   DRILLING MEASURED FROM
 EKB .F              5192:   KELLING BUSHING
 EGL .F              5188:   GROUND LEVEL
 DATE.            10-5-78:   RUN DATE
 RUN .                  1:   RUN NUMBER
 DD  .F               510:   DEPTH DRILLER
 DL  .F               509:   DEPTH LOGGER
 BLI .F               503:   BOTTOM LOG INTERVAL
 TLI .F                48:   TOP LOG INTERVAL
 CS  .IN            8.625:   CASING SIZE
 CBL .F                46:   CASING BOTTOM LOGGER
 BS  .IN            7.875:   BIT SIZE
 BSD .F               510:   BIT SIZE AT DEPTH
 DFT .                KCL:   DRILLING FLUID TYPE
 DFD .                8.7:   DRILLING FLUID DENSITY
 DFV .                 37:   DRILLING FLUID VISCOSITY
 DFPH.                  9:   DRILLING FLUID PH
 DFL .               10.4:   DRILLING FLUID LOSS
 MSS .            MUD PIT:   MUD SAMPLE SOURCE
 RMS .OHMM            .28:   RESISTIVITY MUD SAMPLE
 MST .F                58:   MUD SAMPLE TEMPERATURE
 RMF .OHMM            .32:   RESISTIVITY MUD FILTRATE SAMPLE
 MFST.F                54:   MUD FILTRATE SAMPLE TEMPERATURE
 RMC .OHMM            .24:   RESISTIVITY MUD CAKE
 MCST.F                56:   MUD CAKE SAMPLE TEMPERATURE
 MFSS.               MEAS:   MUD FILTRATE SAMPLE SOURCE
 MCSS.               MEAS:   MUD CAKE SAMPLE SOURCE
 BHT .F                64:   BOTTOM HOLE TEMPERATURE
 TCS .HRS               2:   TIME CURCULATED STOPPED
 MRT .F                64:   MAXIMUM RECORDED TEMPERATURE
 LUN .               2958:   LOGGING UNIT NUMBER
 LUL .               CASP:   LOGGING UNIT LOCATION
 ENGI.             MILLER:   RECORDING ENGINEER
 WITN.           DINSMORE:   WITNESSED BY
 CLNT.            A2DTECH:   CLIENT CODE
 ORIG.       2", 5" PRINT:   ORIGIN OF DATA
 UWI .       490251071700:   UNIQUE WELL ID
 DICO. A2D Technologies, Inc.:   DIGITIZING COMPANY
~OTHER INFORMATION
~A   DEPT      SPR         SN        ILD         GRD      CALD       RHOB       DPHI       CORR   
# ...
  394.5000    -5.3005    17.2662    20.6337    73.9868     7.5422     2.3540     0.1992     0.0100
  395.0000    -5.3235    17.2484    20.7046    73.8937     7.5586     2.3536     0.2005     0.0101
  395.5000    -5.3467    17.2306    20.7758    73.7984     7.5475     2.3552     0.1995     0.0102
  396.0000    -5.3699    17.2123    20.8446    73.8491     7.5368     2.3610     0.1947     0.0102
  396.5000    -5.3930    17.1950    20.7614    73.9799     7.5263     2.3715     0.1839     0.0103
  397.0000    -5.4156    17.0787    20.6813    74.1128     7.5157     2.3764     0.1850     0.0104
  397.5000    -5.4400    16.8430    20.6016    74.2458     7.5052     2.3750     0.1861     0.0104
  398.0000    -5.5154    16.7083    20.5222    74.3781     7.4947     2.3736     0.1873     0.0105
  398.5000    -5.7778    16.6870    20.4430    74.5127     7.4840     2.3720     0.1885     0.0105
  399.0000    -5.7892    16.6664    20.3642    74.4797     7.4815     2.3670     0.1897     0.0106
  399.5000    -5.7058    16.6456    20.2857    74.3510     7.4835     2.3617     0.1940     0.0107
  400.0000    -5.9027    16.6248    20.2075    74.2199     7.4857     2.3597     0.1976     0.0107
  400.5000    -6.4070    16.6043    20.1296    74.0890     7.4878     2.3593     0.1981     0.0108
  401.0000    -6.6688    16.5836    20.0520    73.9583     7.4900     2.3652     0.1891     0.0108
  401.5000    -6.7252    16.5417    19.9746    73.8276     7.4921     2.3694     0.1886     0.0109
  402.0000    -6.7769    16.3572    19.8827    73.6969     7.4943     2.3699     0.1881     0.0110
  402.5000    -6.8279    16.1748    19.6989    73.5661     7.4964     2.3727     0.1876     0.0110
  403.0000    -6.8794    15.9944    19.5173    73.4354     7.4985     2.3785     0.1847     0.0111
  403.5000    -6.9308    15.8162    19.2993    73.3041     7.5004     2.3968     0.1714     0.0111
  404.0000    -6.9814    15.6397    18.8985    73.1693     7.5017     2.4109     0.1639     0.0112
  404.5000    -7.0256    15.4741    18.5063    73.0448     7.5029     2.4103     0.1630     0.0113
  405.0000    -7.3919    15.3231    18.1222    73.2708     7.5042     2.4063     0.1688     0.0113
  405.5000    -7.8217    15.1735    17.7465    75.4418     7.5054     2.4023     0.1703     0.0114
  406.0000    -8.2530    15.0255    17.3782    78.0421     7.5067     2.4041     0.1686     0.0115
  406.5000    -8.6861    14.8788    17.0282    80.6541     7.5079     2.4064     0.1667     0.0131
  407.0000    -8.9398    14.7336    16.4740    82.7187     7.5092     2.4079     0.1663     0.0175
  407.5000    -9.1075    14.5898    15.9530    83.3273     7.5105     2.4068     0.1663     0.0219
  408.0000    -9.2747    14.4474    15.6431    82.3361     7.5117     2.4066     0.1663     0.0263
  408.5000    -9.4431    14.3065    15.5707    80.4920     7.5130     2.4085     0.1663     0.0307
  409.0000    -9.6151    14.1669    15.4442    79.7562     7.5142     2.4104     0.1663     0.0370
  409.5000    -9.6642    14.0286    15.2595    79.4791     7.5155     2.4109     0.1662     0.0467
  410.0000    -9.7068    13.8917    15.0769    79.2089     7.5168     2.4107     0.1655     0.0565
  410.5000    -9.7502    13.7561    14.8966    78.9518     7.5181     2.4104     0.1648     0.0655
  411.0000    -9.7944    13.6219    14.7184    78.9783     7.5188     2.4101     0.1647     0.0739
  411.5000    -9.8868    13.5322    14.5358    79.0155     7.4941     2.4125     0.1648     0.0789
  412.0000   -10.0723    13.6158    14.3127    79.0512     7.4381     2.4215     0.1535     0.0769
  412.5000   -10.3444    13.6572    14.1687    79.0868     7.3827     2.4515     0.1392     0.0723
  413.0000   -10.9959    13.2015    14.3170    79.1223     7.3801     2.4620     0.1316     0.0540
  413.5000   -11.1000    12.9678    14.4316    79.1578     7.3804     2.4616     0.1366     0.0226
  414.0000   -11.1810    12.7384    14.1632    79.1933     7.3804     2.4487     0.1451     0.0035
  414.5000   -11.2642    12.6758    13.8919    79.2288     7.3801     2.4364     0.1520     0.0043
  415.0000   -11.3473    12.6590    13.7833    79.2643     7.3916     2.4354     0.1508     0.0049
  415.5000   -11.3964    12.6422    13.7833    79.2990     7.4043     2.4379     0.1491     0.0058
  416.0000   -11.3338    12.6255    13.7833    79.3340     7.4169     2.4402     0.1473     0.0132
  416.5000   -11.2734    12.6087    13.6295    79.4741     7.4295     2.4425     0.1455     0.0206
  417.0000   -11.2145    12.5920    13.4447    80.0923     7.4421     2.4485     0.1437     0.0278
  417.5000   -11.3772    12.5754    13.2624    80.6353     7.4548     2.4555     0.1420     0.0333
  418.0000   -11.5629    12.5663    13.1642    80.8413     7.4674     2.4626     0.1327     0.0315
  418.5000   -11.7483    12.5586    13.1638    81.0488     7.4800     2.4697     0.1264     0.0299
  419.0000   -11.9333    12.5510    13.1641    81.1129     7.4925     2.4719     0.1267     0.0267
  419.5000   -12.1184    12.5433    13.1729    81.0780     7.5001     2.4701     0.1294     0.0235
  420.0000   -12.3034    12.5356    13.1861    81.0410     7.5000     2.4683     0.1307     0.0245
  420.5000   -12.4870    12.5280    13.1991    81.0041     7.5000     2.4669     0.1306     0.0255
  421.0000   -12.6005    12.5203    13.2121    80.9673     7.5000     2.4706     0.1293     0.0214
  421.5000   -12.5990    12.5127    13.2252    80.9305     7.5000     2.4749     0.1271     0.0166
  422.0000   -12.5993    12.5050    13.2383    80.8937     7.5004     2.4792     0.1233     0.0127
  422.5000   -12.5992    12.4974    13.2514    80.8569     7.4854     2.4804     0.1221     0.0107
  423.0000   -12.5992    12.4898    13.2643    80.8202     7.4673     2.4808     0.1217     0.0086
  423.5000   -12.5992    12.4822    13.2775    80.7834     7.4491     2.4804     0.1219     0.0065
  424.0000   -12.5991    12.4745    13.2845    80.7466     7.4379     2.4792     0.1227     0.0044
  424.5000   -12.5992    12.4670    13.1989    80.7098     7.4328     2.4779     0.1241     0.0040
  425.0000   -12.5991    12.4599    13.1363    80.6730     7.4279     2.4767     0.1254     0.0049
  425.5000   -12.6705    12.4082    13.0739    80.6362     7.4230     2.4754     0.1268     0.0059
  426.0000   -12.8114    12.3466    13.0118    80.5995     7.4223     2.4741     0.1282     0.0068
  426.5000   -12.9522    12.2854    12.9500    80.5627     7.4266     2.4732     0.1272     0.0078
  427.0000   -13.0932    12.2244    12.8886    80.5259     7.4310     2.4750     0.1254     0.0087
  427.5000   -13.2341    12.1638    12.8269    80.4891     7.4353     2.4793     0.1225     0.0093
  428.0000   -13.3750    12.1034    12.7544    80.4523     7.4397     2.4837     0.1195     0.0082
  428.5000   -13.5159    12.0434    12.6757    80.4156     7.4440     2.4873     0.1168     0.0070
  429.0000   -13.6568    11.9837    12.5975    80.3788     7.4483     2.4878     0.1174     0.0059
  429.5000   -13.7978    11.9242    12.5198    80.3420     7.4527     2.4853     0.1180     0.0048
  430.0000   -13.9390    11.8650    12.4425    80.3052     7.4570     2.4829     0.1194     0.0037
  430.5000   -14.0795    11.8062    12.3658    80.2684     7.4614     2.4804     0.1223     0.0026
  431.0000   -14.1890    11.7476    12.2895    80.2309     7.4657     2.4802     0.1236     0.0016
  431.5000   -14.1868    11.6893    12.2136    80.1932     7.4701     2.4836     0.1209     0.0023
  432.0000   -14.1866    11.6313    12.1383    80.1589     7.4744     2.4868     0.1183     0.0031
  432.5000   -14.1865    11.5736    12.0634    80.4940     7.4787     2.4891     0.1166     0.0038
  433.0000   -14.1862    11.5162    11.9889    81.6702     7.4831     2.4896     0.1165     0.0046
  433.5000   -14.1860    11.4687    11.9150    85.5573     7.4874     2.4888     0.1178     0.0054
  434.0000   -14.2049    11.4685    11.8415    86.9376     7.4918     2.4881     0.1191     0.0058
  434.5000   -14.3639    11.4692    11.7684    86.8979     7.4961     2.4873     0.1196     0.0062
