~VERSION INFORMATION
 VERS.                2.0:   CWLS LOG ASCII STANDARD - VERSION 2.0
 WRAP.                 NO:   ONE LINE PER DEPTH STEP
~WELL INFORMATION
#MNEM.UNIT      DATA TYPE    INFORMATION
#----------   ------------   ------------------------------
 STRT.F         1379.5000:   START DEPTH
 STOP.F         2168.0000:   STOP DEPTH
 STEP.F            0.5000:   STEP LENGTH
 NULL.          -999.2500:   NO VALUE
 COMP.   FLUOR DANIEL INC:   COMPANY
 WELL. NAVAL PETROLEUM RESERVE 3  83-5-STX-10 #83-5-10:   WELL
 FLD .            WILDCAT:   FIELD
 LOC .      S10 T38N R78W:   LOCATION
 CNTY.            NATRONA:   COUNTY
 STAT.            WYOMING:   STATE
 CTRY. UNITED STATES OF AMERICA:   COUNTRY
 SRVC.            Unknown:   SERVICE COMPANY
 DATE.        20-JAN-1995:   LOGDATE
 API .       490252265500:   API NUMBER
~CURVE INFORMATION
#MNEM.UNIT       API CODE    CURVE DESCRIPTION
#----------   ------------   ------------------------------
 DEPT.F                  :   
 C1  .VF     91 831 01 00:   METHANE
 C2  .VF     91 832 01 00:   ETHANE
 ROP .FT/HR  91 810 01 00:   RAT OF DRILLING PENETRATION
 TGAS.TC/CC  91 830 01 00:   TOTAL GAS UNIT
~PARAMETER INFORMATION
#MNEM.UNIT          VALUE    DESCRIPTION
#----------   ------------   ------------------------------
 DATE.        20-JAN-1995:   RUN DATE
 BLI .F              2165:   BOTTOM LOG INTERVAL
 TLI .F              1380:   TOP LOG INTERVAL
 CLNT.            A2DTECH:   CLIENT CODE
 ORIG.         2.5" PRINT:   ORIGIN OF DATA
 UWI .       490252265500:   UNIQUE WELL ID
 DICO. A2D Technologies, Inc.:   DIGITIZING COMPANY
~OTHER INFORMATION
~A  DEPT        C1         C2        ROP        TGAS  
# ...
 1671.5000  -999.2500  -999.2500     0.8032  1068.5806
 1672.0000  -999.2500  -999.2500     0.8029  1061.0979
 1672.5000  -999.2500  -999.2500     0.8027  1038.8611
 1673.0000  -999.2500  -999.2500     0.8024  1016.6243
 1673.5000  -999.2500  -999.2500     0.8021  1001.7469
 1674.0000  -999.2500  -999.2500     0.8018   979.5101
 1674.5000  -999.2500  -999.2500     0.8016   972.0275
 1675.0000  -999.2500  -999.2500     0.8013   949.7731
 1675.5000  -999.2500  -999.2500     0.8010   934.9133
 1676.0000  -999.2500  -999.2500     0.8007   920.0536
 1676.5000  -999.2500  -999.2500     0.8005   890.4398
 1677.0000  -999.2500  -999.2500     0.8002   868.1854
 1677.5000  -999.2500  -999.2500     0.7999   845.9485
 1678.0000  -999.2500  -999.2500     0.7996   831.0889
 1678.5000  -999.2500  -999.2500     0.7994   801.4575
 1679.0000  -999.2500  -999.2500     0.7991   771.8436
 1679.5000  -999.2500  -999.2500     0.7988   742.2297
 1680.0000  -999.2500  -999.2500     0.7985   712.6159
 1680.5000  -999.2500  -999.2500     0.7983   682.9845
 1681.0000  -999.2500  -999.2500     0.7980   660.7477
 1681.5000  -999.2500  -999.2500     1.0175   631.1339
 1682.0000  -999.2500  -999.2500     1.0172   616.2741
 1682.5000  -999.2500  -999.2500     1.0169   594.0197
 1683.0000  -999.2500  -999.2500     1.0166   564.4059
 1683.5000  -999.2500  -999.2500     1.0347   534.7921
 1684.0000  -999.2500  -999.2500     0.8146   512.5377
 1684.5000  -999.2500  -999.2500     0.8144   497.6779
 1685.0000  -999.2500  -999.2500     0.8141   475.4411
 1685.5000  -999.2500  -999.2500     0.8138   453.2043
 1686.0000  -999.2500  -999.2500     0.8135   445.7040
 1686.5000  -999.2500  -999.2500     0.8132   423.4673
 1687.0000  -999.2500  -999.2500     0.8130   415.9846
 1687.5000  -999.2500  -999.2500     0.8127   393.7302
 1688.0000  -999.2500  -999.2500     0.8124   386.2475
 1688.5000  -999.2500  -999.2500     0.8121   386.1419
 1689.0000  -999.2500  -999.2500     0.8302   363.9051
 1689.5000  -999.2500  -999.2500     1.0131   356.4048
 1690.0000  -999.2500  -999.2500     1.0311   356.2992
 1690.5000  -999.2500  -999.2500     1.0308   348.8164
 1691.0000  -999.2500  -999.2500     1.0305   333.9391
 1691.5000  -999.2500  -999.2500     0.8838   326.4565
 1692.0000  -999.2500  -999.2500     0.4989   326.3508
 1692.5000  -999.2500  -999.2500     0.4803   326.2451
 1693.0000  -999.2500  -999.2500     0.4799   318.7449
 1693.5000  -999.2500  -999.2500     0.4796   318.6393
 1694.0000  -999.2500  -999.2500     0.4792   318.5336
 1694.5000  -999.2500  -999.2500     0.4789   318.4103
 1695.0000  -999.2500  -999.2500     0.4785   325.7170
 1695.5000  -999.2500  -999.2500     0.4782   325.5761
 1696.0000  -999.2500  -999.2500     0.4778   325.4705
 1696.5000  -999.2500  -999.2500     0.4775   325.3472
 1697.0000  -999.2500  -999.2500     0.4771   325.2416
 1697.5000  -999.2500  -999.2500     0.4768   317.7589
 1698.0000  -999.2500  -999.2500     0.4765   317.6357
 1698.5000  -999.2500  -999.2500     0.4761   317.5300
 1699.0000  -999.2500  -999.2500     0.4758   317.4244
 1699.5000  -999.2500  -999.2500     0.4754   309.9417
 1700.0000  -999.2500  -999.2500     0.4751   295.0645
 1700.5000  -999.2500  -999.2500     0.4747   294.9596
 1701.0000  -999.2500  -999.2500     0.4744   294.8547
 1701.5000  -999.2500  -999.2500     0.4740   294.7323
 1702.0000  -999.2500  -999.2500     0.4737   309.3816
 1702.5000  -999.2500  -999.2500     0.4733   309.2767
 1703.0000  -999.2500  -999.2500     0.4730   316.5663
 1703.5000  -999.2500  -999.2500     0.4726   316.4265
 1704.0000  -999.2500  -999.2500     0.4723   316.3216
 1704.5000  -999.2500  -999.2500     0.4719   316.1992
 1705.0000  -999.2500  -999.2500     0.4716   316.0943
 1705.5000  -999.2500  -999.2500     0.4712   315.9894
 1706.0000  -999.2500  -999.2500     0.4709   315.8670
 1706.5000  -999.2500  -999.2500     0.4706   315.7622
 1707.0000  -999.2500  -999.2500     0.4702   315.6573
 1707.5000  -999.2500  -999.2500     0.4699   315.5349
 1708.0000  -999.2500  -999.2500     0.4695   315.4300
 1708.5000  -999.2500  -999.2500     0.4692   315.3251
 1709.0000  -999.2500  -999.2500     0.4688   315.2028
 1709.5000  -999.2500  -999.2500     0.4685   315.0979
 1710.0000  -999.2500  -999.2500     0.4681   314.9930
 1710.5000  -999.2500  -999.2500     0.4678   314.8706
 1711.0000  -999.2500  -999.2500     0.4674   314.7657
 1711.5000  -999.2500  -999.2500     0.4671   314.6609
 1712.0000  -999.2500  -999.2500     0.4667   314.5560
 1712.5000  -999.2500  -999.2500     0.4664   314.4467
 1713.0000  -999.2500  -999.2500     0.4660   314.3287
 1713.5000  -999.2500  -999.2500     0.4657   314.2064
 1714.0000  -999.2500  -999.2500     0.4654   314.1015
 1714.5000  -999.2500  -999.2500     0.4650   306.6195
 1715.0000  -999.2500  -999.2500     0.4647   306.5146
 1715.5000  -999.2500  -999.2500     0.4643   306.3923
 1716.0000  -999.2500  -999.2500     0.4640   306.2951
 1716.5000  -999.2500  -999.2500     0.4636   306.1650
 1717.0000  -999.2500  -999.2500     0.4633   306.0601
 1717.5000  -999.2500  -999.2500     0.4629   305.9552
 1718.0000  -999.2500  -999.2500     0.4626   305.8329
 1718.5000  -999.2500  -999.2500     0.4622   305.7280
 1719.0000  -999.2500  -999.2500     0.4619   305.6231
 1719.5000  -999.2500  -999.2500     0.4615   312.9128
 1720.0000  -999.2500  -999.2500     0.4612   312.7869
 1720.5000  -999.2500  -999.2500     0.4608   312.6680
 1721.0000  -999.2500  -999.2500     0.4605   312.5457
 1721.5000  -999.2500  -999.2500     0.4602   312.4549
 1722.0000  -999.2500  -999.2500     0.4598   312.3358
 1722.5000  -999.2500  -999.2500     0.4595   312.2135
 1723.0000  -999.2500  -999.2500     0.4591   312.1086
 1723.5000  -999.2500  -999.2500     0.4588   312.0037
 1724.0000  -999.2500  -999.2500     0.4584   311.8813
 1724.5000  -999.2500  -999.2500     0.4581   311.7765
 1725.0000  -999.2500  -999.2500     0.4577   311.6716
 1725.5000  -999.2500  -999.2500     0.4574   311.5492
 1726.0000  -999.2500  -999.2500     0.4570   311.4443
 1726.5000  -999.2500  -999.2500     0.4567   311.3394
 1727.0000  -999.2500  -999.2500     0.4563   311.2171
 1727.5000  -999.2500  -999.2500     0.4560   311.1122
 1728.0000  -999.2500  -999.2500     0.4556   318.4018
 1728.5000  -999.2500  -999.2500     0.4553   318.2620
 1729.0000  -999.2500  -999.2500     0.4550   340.2882
 1729.5000  -999.2500  -999.2500     0.4546   340.1833
 1730.0000  -999.2500  -999.2500     0.4543   347.4730
 1730.5000  -999.2500  -999.2500     0.4539   369.4643
 1731.0000  -999.2500  -999.2500     0.4536   369.3594
 1731.5000  -999.2500  -999.2500     0.4532   376.6490
 1732.0000  -999.2500  -999.2500     0.4529   376.5092
 1732.5000  -999.2500  -999.2500     0.4525   391.1759
 1733.0000  -999.2500  -999.2500     0.4522   398.4481
 1733.5000  -999.2500  -999.2500     0.4518   398.3082
 1734.0000  -999.2500  -999.2500     0.5982   412.9574
 1734.5000  -999.2500  -999.2500     0.5981   427.6241
 1735.0000  -999.2500  -999.2500     0.5980   434.8963
 1735.5000  -999.2500  -999.2500     0.5979   456.9051
 1736.0000  -999.2500  -999.2500     0.5978   456.7652
 1736.5000  -999.2500  -999.2500     0.5977   456.6603
 1737.0000  -999.2500  -999.2500     0.5976   463.9500
 1737.5000  -999.2500  -999.2500     0.5975   463.8101
 1738.0000  -999.2500  -999.2500     0.6157   478.4943
 1738.5000  -999.2500  -999.2500     0.6156   485.7490
 1739.0000  -999.2500  -999.2500     0.6156   485.6091
 1739.5000  -999.2500  -999.2500     0.6521   492.8813
 1740.0000  -999.2500  -999.2500     1.4945   492.7764
 1740.5000  -999.2500  -999.2500     1.4944   514.8027
 1741.0000  -999.2500  -999.2500     1.5126   522.0573
 1741.5000  -999.2500  -999.2500     1.5492   536.7065
 1742.0000  -999.2500  -999.2500     1.2194   543.9962
 1742.5000  -999.2500  -999.2500     1.2376   551.2684
 1743.0000  -999.2500  -999.2500     1.2375   573.2771
 1743.5000  -999.2500  -999.2500     1.2558   580.5493
 1744.0000  -999.2500  -999.2500     1.0542   602.5756
