~VERSION INFORMATION
 VERS.                2.0:   CWLS LOG ASCII STANDARD - VERSION 2.0
 WRAP.                 NO:   ONE LINE PER DEPTH STEP
~WELL INFORMATION
#MNEM.UNIT      DATA TYPE    INFORMATION
#----------   ------------   ------------------------------
 STRT.F            4.0000:   START DEPTH
 STOP.F          693.0000:   STOP DEPTH
 STEP.F            0.5000:   STEP LENGTH
 NULL.          -999.2500:   NO VALUE
 COMP.   FLUOR DANIEL INC:   COMPANY
 WELL. NAVAL PETROLEUM RESERVE 3 SX-3 #1-34:   WELL
 FLD .             TEAPOT:   FIELD
 LOC .      S34 T39N R78W:   LOCATION
 CNTY.            NATRONA:   COUNTY
 STAT.            WYOMING:   STATE
 CTRY. UNITED STATES OF AMERICA:   COUNTRY
 SRVC.      Western Atlas:   SERVICE COMPANY
 DATE.        06-FEB-1994:   LOGDATE
 API .       490252269600:   API NUMBER
~CURVE INFORMATION
#MNEM.UNIT       API CODE    CURVE DESCRIPTION
#----------   ------------   ------------------------------
 DEPT.F                  :   
 GRR .GAPI   07 310 01 00:   GAMMA RAY FROM RES. LOG.
 ILD .OHMM   07 120 46 00:   INDUCTION LOG DEEP
 ILM .OHMM   07 120 44 00:   INDUCTION LOG MEDIUM
~PARAMETER INFORMATION
#MNEM.UNIT          VALUE    DESCRIPTION
#----------   ------------   ------------------------------
 PD  .                 GL:   PERMANENT DATUM
 EPD .F              5097:   ELEVATION PERMANENT DATUM
 LMF .                 KB:   LOG MEASURED FROM
 DAPD.F                10:   FEET ABOVE PERMANENT DATUM
 DMF .                 KB:   DRILLING MEASURED FROM
 EKB .F              5107:   KELLING BUSHING
 EDF .F              5106:   DRILLING FLOOR
 EGL .F              5097:   GROUND LEVEL
 DATE.         6-FEB-1994:   RUN DATE
 RUN .                  1:   RUN NUMBER
 DD  .F               700:   DEPTH DRILLER
 DL  .F               701:   DEPTH LOGGER
 BLI .F               693:   BOTTOM LOG INTERVAL
 CS  .IN            9.625:   CASING SIZE
 CBD .F                56:   CASING BOTTOM DRILLER
 CBL .F                56:   CASING BOTTOM LOGGER
 BS  .IN             8.75:   BIT SIZE
 BSD .F               700:   BIT SIZE AT DEPTH
 DFT .                AIR:   DRILLING FLUID TYPE
 MRT .F                89:   MAXIMUM RECORDED TEMPERATURE
 LUN .            HL-6274:   LOGGING UNIT NUMBER
 LUL .             CASPER:   LOGGING UNIT LOCATION
 ENGI.        VERN RAUTIO:   RECORDING ENGINEER
 WITN.        GARY STRONG:   WITNESSED BY
 CLNT.            A2DTECH:   CLIENT CODE
 ORIG.           5" PRINT:   ORIGIN OF DATA
 UWI .       490252269600:   UNIQUE WELL ID
 DICO. A2D Technologies, Inc.:   DIGITIZING COMPANY
~OTHER INFORMATION
~A    DEPT      GRR       ILD        ILM   
# ...
   95.0000   107.1560     4.6130     4.7000
   95.5000   107.5460     4.5540     4.6400
   96.0000   107.9970     4.4690     4.5480
   96.5000   107.8760     4.2880     4.3380
   97.0000   105.6940     4.1080     4.1290
   97.5000   103.6180     3.9270     3.9200
   98.0000   102.3030     3.7470     3.7100
   98.5000   103.3240     3.5930     3.5010
   99.0000   105.1780     3.5520     3.4360
   99.5000   106.9850     3.5110     3.4990
  100.0000   106.8900     3.4710     3.5590
  100.5000   102.4360     3.4300     3.6340
  101.0000    97.6490     3.3800     3.6060
  101.5000    93.6580     3.3150     3.5670
  102.0000    92.3580     3.2490     3.4020
  102.5000    93.3290     3.1880     3.2480
  103.0000    97.0630     3.1100     3.1700
  103.5000   100.5840     2.9230     2.9970
  104.0000   102.5620     2.7370     2.8240
  104.5000   102.2410     2.5510     2.6510
  105.0000   101.8690     2.3640     2.4790
  105.5000   103.6350     2.1910     2.3180
  106.0000   106.3290     2.2740     2.3720
  106.5000   107.9170     2.3690     2.4500
  107.0000   106.7910     2.4640     2.5290
  107.5000   102.5660     2.5580     2.7770
  108.0000    97.7390     2.7720     3.0720
  108.5000    96.1750     3.0580     3.3670
  109.0000    97.1740     3.3440     3.6620
  109.5000    99.2880     3.6410     3.9570
  110.0000   101.3530     3.9610     4.2220
  110.5000   101.8040     4.0670     4.2220
  111.0000   100.6650     4.1050     4.1830
  111.5000   102.2710     3.9990     4.0550
  112.0000   106.7710     3.8740     3.9320
  112.5000   110.6920     3.7490     3.8100
  113.0000   112.7560     3.6240     3.6870
  113.5000   113.7590     3.5010     3.5670
  114.0000   114.7000     3.2710     3.3530
  114.5000   115.1370     3.0440     3.1430
  115.0000   115.4840     2.8180     2.9330
  115.5000   116.0340     2.5920     2.7230
  116.0000   117.4100     2.3840     2.5130
  116.5000   120.0240     2.3400     2.4070
  117.0000   120.6470     2.3400     2.4070
  117.5000   120.7780     2.4530     2.5940
  118.0000   119.6630     2.5840     2.9600
  118.5000   115.6220     2.7140     3.2980
  119.0000   110.2680     2.9480     3.6350
  119.5000   105.1230     3.3510     3.9720
  120.0000   103.4340     3.7530     4.3090
  120.5000   102.6220     4.1560     4.6460
  121.0000   103.8040     4.5480     4.8210
  121.5000   105.4300     4.8390     4.9780
  122.0000   105.4740     4.9980     5.1340
  122.5000   104.6340     5.1570     5.2910
  123.0000   103.9320     5.3160     5.4470
  123.5000   106.2510     5.4740     5.6040
  124.0000   108.6490     5.6330     5.7610
  124.5000   108.4790     5.7920     5.9170
  125.0000   106.5500     5.9510     6.0740
  125.5000   104.8970     6.1100     6.2300
  126.0000   104.3080     6.2580     6.3770
  126.5000   105.0610     6.3180     6.4370
  127.0000   105.8090     6.3770     6.4970
  127.5000   106.0430     6.3330     6.4850
  128.0000   105.2840     6.2860     6.4710
  128.5000   104.5060     6.2400     6.4580
  129.0000   105.5720     6.1930     6.4440
  129.5000   108.9620     6.1420     6.4310
  130.0000   111.0590     6.1310     6.4170
  130.5000   109.2270     6.1190     6.4040
  131.0000   107.3710     6.1070     6.3900
  131.5000   106.6530     6.0950     6.3770
  132.0000   104.6980     6.0830     6.3630
  132.5000   100.8720     6.0710     6.3500
  133.0000   101.2690     6.0590     6.3360
  133.5000   103.6000     6.0470     6.3230
  134.0000   105.8530     6.0350     6.3170
  134.5000   109.0290     6.0280     6.3770
  135.0000   111.5580     6.1790     6.5480
  135.5000   113.6180     6.2850     6.7170
  136.0000   112.1500     6.3900     6.8860
  136.5000   108.8210     6.5880     7.0540
  137.0000   106.7720     6.8560     7.2230
  137.5000   107.1670     7.1240     7.3920
  138.0000   107.3130     7.3920     7.5610
  138.5000   106.3360     7.6600     7.7300
  139.0000   104.6040     7.8670     7.8990
  139.5000   101.9560     7.9580     8.0680
  140.0000    99.4310     8.0490     8.1360
  140.5000    99.0010     8.1360     8.1360
  141.0000    99.1010     8.0240     8.1020
  141.5000    96.2770     7.9100     8.0600
  142.0000    95.4030     7.4780     7.6190
  142.5000    95.0590     6.6600     6.9850
  143.0000    95.4700     5.7430     6.3040
  143.5000    95.8620     4.9460     5.5330
  144.0000    96.2600     4.1480     4.7610
  144.5000    97.4850     3.3510     3.9900
  145.0000   101.7170     2.8210     3.2190
  145.5000   111.6320     2.5170     2.4470
  146.0000   121.5340     2.2130     1.9400
  146.5000   128.0370     1.9090     1.9040
  147.0000   127.7930     1.8510     1.9220
  147.5000   126.5240     1.8690     2.0250
  148.0000   126.0720     2.0610     2.2620
  148.5000   125.7520     2.3490     2.9730
  149.0000   122.4460     2.6370     4.0310
  149.5000   116.4080     3.4370     5.0880
  150.0000   102.5910     4.8610     6.1450
  150.5000    89.3100     6.2840     7.2030
  151.0000    87.5470     7.7070     8.2600
  151.5000    87.6110     9.1310     9.4820
  152.0000    87.0550    10.5540    10.8150
  152.5000    86.2190    11.3990    11.6150
  153.0000    85.3250    11.4410    11.6570
  153.5000    86.0730    11.5070    11.7240
  154.0000    87.6440    10.6690    10.8710
  154.5000    88.8100     9.6440     9.8260
  155.0000    89.4590     8.6190     8.7820
  155.5000    90.6310     7.5930     7.7370
  156.0000    93.2450     6.6900     6.8160
  156.5000    96.8050     6.4080     6.5250
  157.0000   100.3970     6.2740     6.3680
  157.5000   104.0930     6.1400     6.3170
  158.0000   103.8120     5.9720     6.7140
  158.5000   100.7270     6.1200     7.2470
  159.0000    96.9200     6.5500     7.7810
  159.5000    91.6670     7.1380     8.3150
  160.0000    90.1370     7.7250     8.8480
  160.5000    90.2230     8.3130     9.3820
  161.0000    90.3460     8.9000     9.8860
  161.5000    90.5790     9.4240    10.3370
  162.0000    91.8410     9.7090    10.7160
  162.5000    94.4040     9.9950    10.8760
  163.0000    96.1690    10.2810    11.0370
  163.5000    95.2070    10.5670    11.1970
  164.0000    93.5450    10.8530    11.3570
  164.5000    93.7670    11.1380    11.5180
  165.0000    94.3850    11.4240    11.6780
  165.5000    93.6140    11.5070    11.7240
  166.0000    91.0270    11.5070    11.7240
  166.5000    89.6540    11.5070    11.7240
  167.0000    88.6420    11.5070    11.7240
  167.5000    87.6370    11.5070    11.7240
  168.0000    86.5880    11.5070    11.8390
  168.5000    86.8420    11.5070    11.9670
  169.0000    87.9750    11.5050    12.0940
  169.5000    89.9530    11.5420    12.2220
  170.0000    91.9900    11.6190    12.3490
  170.5000    92.8670    11.6960    12.4770
  171.0000    92.5790    11.7740    12.6040
  171.5000    91.0680    11.8440    12.7310
  172.0000    90.4530    11.8870    12.8590
  172.5000    90.9580    11.9310    12.8910
  173.0000    95.5190    11.9740    12.9080
  173.5000    99.2250    12.0180    12.9250
  174.0000    99.7370    12.0610    12.9420
  174.5000    96.9080    12.1050    12.9590
  175.0000    94.2860    12.1490    12.9760
  175.5000    92.3830    12.1920    12.9930
  176.0000    92.2100    12.2360    13.1190
  176.5000    92.2730    12.2780    13.3280
  177.0000    93.8510    12.3990    13.5930
  177.5000    95.7150    12.5340    13.8570
  178.0000    95.0790    12.6700    14.1220
  178.5000    90.8870    12.9580    14.3860
  179.0000    87.2500    13.5120    14.8980
  179.5000    87.6310    14.0660    15.7760
  180.0000    87.9120    15.4850    16.7380
  180.5000    86.0270    17.0380    19.6590
  181.0000    83.6500    18.5910    22.8910
  181.5000    81.0020    20.1450    26.1220
  182.0000    76.1740    21.6980    29.3540
  182.5000    71.1740    23.1260    31.6530
  183.0000    71.0250    23.6740    30.4140
  183.5000    72.4220    23.3560    28.0110
  184.0000    74.2790    21.7190    25.0830
  184.5000    78.9570    19.7980    22.1550
  185.0000    85.2610    17.8760    19.2270
  185.5000    87.7210    16.2130    17.2410
