~VERSION INFORMATION
 VERS.                2.0:   CWLS LOG ASCII STANDARD - VERSION 2.0
 WRAP.                 NO:   ONE LINE PER DEPTH STEP
~WELL INFORMATION
#MNEM.UNIT      DATA TYPE    INFORMATION
#----------   ------------   ------------------------------
 STRT.F           11.5000:   START DEPTH
 STOP.F          583.0000:   STOP DEPTH
 STEP.F            0.5000:   STEP LENGTH
 NULL.          -999.2500:   NO VALUE
 COMP.    FENIX & SCISSON:   COMPANY
 WELL.      41 SX 3 #41-3:   WELL
 FLD .             TEAPOT:   FIELD
 LOC .       S3 T38N R78W:   LOCATION
 CNTY.            NATRONA:   COUNTY
 STAT.            WYOMING:   STATE
 CTRY. UNITED STATES OF AMERICA:   COUNTRY
 SRVC.            Unknown:   SERVICE COMPANY
 DATE.        01-DEC-1978:   LOGDATE
 API .       490251074000:   API NUMBER
~CURVE INFORMATION
#MNEM.UNIT       API CODE    CURVE DESCRIPTION
#----------   ------------   ------------------------------
 DEPT.F                  :   
 SPR .MV     05 010 01 00:   SPONTANEOUS POTENTIAL FROM RES.
 SN  .OHMM   05 040 16 00:   SHORT NORMAL 16"
 IL  .OHMM   05 120 00 00:   INDUCTION LOG
 GRD .GAPI   45 310 01 00:   GAMMA RAY FROM DENSITY LOG
 CALD.IN     45 280 60 00:   CALIPER
 DEN .G/C3   45 350 01 00:   COMPENSATED BULK DENSTIY
 CORR.G/C3   45 356 01 00:   DENSITY CORRECTION
 DPHI.DEC    45 890 12 00:   DENSITY POROSITY SANDSTONE
~PARAMETER INFORMATION
#MNEM.UNIT          VALUE    DESCRIPTION
#----------   ------------   ------------------------------
 PD  .                 GL:   PERMANENT DATUM
 EPD .F              5150:   ELEVATION PERMANENT DATUM
 LMF .                 KB:   LOG MEASURED FROM
 DAPD.F                 4:   FEET ABOVE PERMANENT DATUM
 DMF .                 KB:   DRILLING MEASURED FROM
 EKB .F              5154:   KELLING BUSHING
 EGL .F              5150:   GROUND LEVEL
 DATE.            12-1-78:   RUN DATE
 RUN .                  1:   RUN NUMBER
 DD  .F               600:   DEPTH DRILLER
 DL  .F               582:   DEPTH LOGGER
 BLI .F               576:   BOTTOM LOG INTERVAL
 TLI .F                42:   TOP LOG INTERVAL
 CS  .IN            8.625:   CASING SIZE
 CBD .F                40:   CASING BOTTOM DRILLER
 CBL .F                41:   CASING BOTTOM LOGGER
 BS  .IN            7.875:   BIT SIZE
 BSD .F               600:   BIT SIZE AT DEPTH
 DFT .                KCL:   DRILLING FLUID TYPE
 DFD .                8.8:   DRILLING FLUID DENSITY
 DFV .                 35:   DRILLING FLUID VISCOSITY
 DFPH.               11.2:   DRILLING FLUID PH
 DFL .               11.6:   DRILLING FLUID LOSS
 MSS .          FLOW LINE:   MUD SAMPLE SOURCE
 RMS .OHMM            .36:   RESISTIVITY MUD SAMPLE
 MST .F                52:   MUD SAMPLE TEMPERATURE
 RMF .OHMM            .36:   RESISTIVITY MUD FILTRATE SAMPLE
 MFST.F                55:   MUD FILTRATE SAMPLE TEMPERATURE
 RMC .OHMM            .42:   RESISTIVITY MUD CAKE
 MCST.F                60:   MUD CAKE SAMPLE TEMPERATURE
 MFSS.           MEASURED:   MUD FILTRATE SAMPLE SOURCE
 MCSS.           MEASURED:   MUD CAKE SAMPLE SOURCE
 RMB .OHMM            .32:   RESISTIVITY MUD AT BHT
 BHT .F                58:   BOTTOM HOLE TEMPERATURE
 MRT .F                58:   MAXIMUM RECORDED TEMPERATURE
 LUN .               2958:   LOGGING UNIT NUMBER
 LUL .                CPR:   LOGGING UNIT LOCATION
 ENGI.            ROLLINS:   RECORDING ENGINEER
 WITN.              AMEND:   WITNESSED BY
 CLNT.            A2DTECH:   CLIENT CODE
 ORIG.       2", 5" PRINT:   ORIGIN OF DATA
 UWI .       490251074000:   UNIQUE WELL ID
 DICO. A2D Technologies, Inc.:   DIGITIZING COMPANY
~OTHER INFORMATION
~A   DEPT      SPR         SN         IL         GRD      CALD        DEN       CORR       DPHI   
# ...
  173.5000   -34.0328    10.5396    10.8794   102.8334     8.0343     2.5043     0.0295     0.1123
  174.0000   -33.8955    10.5557    10.9057   102.9157     8.0351     2.5027     0.0223     0.1145
  174.5000   -33.9237    10.5718    10.9320   102.9937     8.0358     2.5008     0.0169     0.1167
  175.0000   -33.9478    10.5879    10.9584   103.5105     8.0365     2.4995     0.0200     0.1170
  175.5000   -33.9711    10.6041    10.9848   104.3417     8.0372     2.4997     0.0230     0.1171
  176.0000   -33.9947    10.6203    11.0113   105.5665     8.0380     2.4999     0.0259     0.1172
  176.5000   -34.0182    10.6365    11.0379   108.2964     8.0387     2.5000     0.0288     0.1172
  177.0000   -34.0417    10.6527    11.0729   109.0758     8.0394     2.5002     0.0299     0.1173
  177.5000   -34.0653    10.6709    11.0443   113.0954     8.0401     2.5003     0.0309     0.1158
  178.0000   -34.0911    10.6516    10.9853   115.9133     8.0408     2.5003     0.0309     0.1141
  178.5000   -34.0326    10.6221    10.9266   113.1430     8.0416     2.5047     0.0309     0.1094
  179.0000   -33.9475    10.5928    10.8682   111.1622     8.0423     2.5093     0.0309     0.1094
  179.5000   -33.8615    10.5635    10.8102   108.1718     8.0430     2.5095     0.0342     0.1080
  180.0000   -33.7756    10.5343    10.7524   108.9520     8.0437     2.5093     0.0410     0.1027
  180.5000   -33.6897    10.5052    10.6950   108.5963     8.0445     2.5171     0.0477     0.0970
  181.0000   -33.6038    10.4762    10.6378   106.3122     8.0452     2.5267     0.0530     0.0992
  181.5000   -33.5180    10.4472    10.5810   106.7526     8.0459     2.5283     0.0579     0.1047
  182.0000   -33.4316    10.4183    10.5540   107.8615     8.0466     2.5175     0.0627     0.1129
  182.5000   -33.3453    10.3895    10.5319   108.6635     8.0474     2.5038     0.0657     0.1176
  183.0000   -33.1501    10.3608    10.5100   106.8963     8.0483     2.4946     0.0580     0.1191
  183.5000   -32.8260    10.3321    10.4880   105.1340     8.0389     2.4926     0.0505     0.1205
  184.0000   -32.5140    10.3036    10.4661   103.4268     8.0264     2.4906     0.0429     0.1202
  184.5000   -32.5027    10.2812    10.4442   105.4308     8.0138     2.4913     0.0352     0.1161
  185.0000   -32.5069    10.2556    10.4224   108.3140     8.0097     2.4975     0.0342     0.1120
  185.5000   -32.5809    10.2300    10.4008   109.3742     8.0096     2.5025     0.0337     0.1105
  186.0000   -32.8543    10.1896    10.3797   107.9871     8.0097     2.5016     0.0331     0.1123
  186.5000   -33.0975    10.2014    10.4317   107.7389     8.0097     2.5007     0.0325     0.1145
  187.0000   -33.1026    10.2301    10.4824   109.5634     8.0096     2.4999     0.0319     0.1140
  187.5000   -33.1017    10.2588    10.5335   111.0363     8.0097     2.4992     0.0313     0.1136
  188.0000   -33.1015    10.2877    10.5849   109.6327     8.0095     2.4985     0.0297     0.1131
  188.5000   -33.0856    10.3167    10.6365   108.0329     8.0208     2.4978     0.0259     0.1142
  189.0000   -32.9826    10.3457    10.6882   108.0930     8.0363     2.4971     0.0228     0.1165
  189.5000   -32.9394    10.3749    10.7699   106.4054     8.0522     2.4968     0.0229     0.1175
  190.0000   -33.8304    10.4041    10.7598   105.8673     8.0672     2.4955     0.0229     0.1196
  190.5000   -34.0865    10.4333    10.7366   108.0617     8.0685     2.4932     0.0229     0.1221
  191.0000   -34.0974    10.4758    10.7133   108.5655     8.0693     2.4907     0.0229     0.1215
  191.5000   -34.0962    10.4641    10.6901   106.6740     8.0701     2.4890     0.0229     0.1209
  192.0000   -34.0954    10.4430    10.6668   105.3342     8.0709     2.4880     0.0229     0.1205
  192.5000   -34.0954    10.4220    10.6436   107.2998     8.0717     2.4835     0.0229     0.1283
  193.0000   -34.0954    10.4010    10.6205   107.0541     8.0726     2.4786     0.0229     0.1269
  193.5000   -34.0955    10.3801    10.5974   110.2711     8.0734     2.4795     0.0229     0.1263
  194.0000   -34.0956    10.3592    10.5743   112.3767     8.0742     2.4802     0.0230     0.1272
  194.5000   -34.0952    10.3384    10.5513   109.3352     8.0751     2.4794     0.0304     0.1281
  195.0000   -34.0802    10.3175    10.5284   107.0502     8.0759     2.4786     0.0387     0.1245
  195.5000   -33.9938    10.2968    10.5055   108.1574     8.0767     2.4855     0.0466     0.1207
  196.0000   -33.9077    10.2761    10.4826   109.6488     8.0776     2.4923     0.0453     0.1182
  196.5000   -33.8219    10.2554    10.4758   106.8468     8.0784     2.4931     0.0422     0.1175
  197.0000   -33.7360    10.2346    10.4766   103.3578     8.0792     2.4931     0.0363     0.1190
  197.5000   -33.6501    10.2138    10.5178   101.0035     8.0801     2.4980     0.0305     0.1257
  198.0000   -33.5643    10.1897    10.5571   104.0644     8.0809     2.4818     0.0247     0.1324
  198.5000   -33.4783    10.2297    10.5968   107.1319     8.0817     2.4704     0.0190     0.1351
  199.0000   -33.3917    10.2815    10.6361   104.6037     8.0826     2.4700     0.0210     0.1344
  199.5000   -33.3038    10.3330    10.6962   102.2264     8.0834     2.4699     0.0236     0.1337
  200.0000   -33.2996    10.3951    10.8945   100.1489     8.0842     2.4707     0.0263     0.1330
  200.5000   -33.3001    10.5488    11.0965    98.4781     8.0851     2.4714     0.0244     0.1299
  201.0000   -33.3000    10.7048    11.3023    97.6013     8.0859     2.4765     0.0210     0.1185
  201.5000   -33.2995    10.8631    11.5122    97.3398     8.0868     2.4850     0.0175     0.1219
  202.0000   -33.2606    11.0237    11.7261    98.1281     8.0861     2.4899     0.0174     0.1276
  202.5000   -33.1640    11.1867    11.9196    97.3474     8.0849     2.4813     0.0185     0.1317
  203.0000   -33.2293    11.3522    12.0990    96.3586     8.0837     2.4757     0.0196     0.1294
  203.5000   -33.6197    11.5203    12.3063    95.8994     8.0824     2.4774     0.0206     0.1279
  204.0000   -33.1929    11.6908    12.5253    96.5287     8.0812     2.4790     0.0257     0.1295
  204.5000   -32.6938    11.8136    12.7482    97.1317     8.0800     2.4786     0.0320     0.1267
  205.0000   -32.7048    11.8126    12.9751    97.0814     8.0788     2.4774     0.0324     0.1178
  205.5000   -32.7041    11.8126    13.2060    97.0604     8.0775     2.4919     0.0303     0.1090
  206.0000   -32.7025    12.2340    13.4410   100.6963     8.0763     2.5072     0.0282     0.1009
  206.5000   -32.5957    12.5481    13.6802   101.9946     8.0751     2.5227     0.0261     0.0996
  207.0000   -32.3125    12.7062    13.9237    99.8982     8.0739     2.5250     0.0240     0.0980
  207.5000   -32.0256    12.8664    14.1715    97.7542     8.0727     2.5246     0.0227     0.0992
  208.0000   -31.3498    13.0285    14.3577    99.2261     8.0714     2.5262     0.0222     0.1044
  208.5000   -31.3527    13.0755    14.4082   101.5696     8.0702     2.5149     0.0217     0.1097
  209.0000   -31.4155    13.0769    14.4583   101.1651     8.0690     2.5042     0.0212     0.1106
  209.5000   -31.4535    13.0762    14.4751    99.5959     8.0679     2.5045     0.0207     0.1102
  210.0000   -31.1766    13.0760    14.4749    98.2879     8.0640     2.5044     0.0202     0.1120
  210.5000   -30.7225    13.0760    14.4744    97.9150     8.0596     2.5024     0.0197     0.1148
  211.0000   -30.7787    13.0760    14.4742    97.5011     8.0552     2.5003     0.0192     0.1170
  211.5000   -30.8537    13.0760    14.4723    98.2711     8.0509     2.4983     0.0188     0.1146
  212.0000   -30.9498    13.0760    14.4764    98.2828     8.0479     2.4989     0.0186     0.1121
  212.5000   -31.2201    13.0760    14.2755    98.0719     8.0471     2.5012     0.0183     0.1129
  213.0000   -31.4923    13.0758    14.1277    98.3547     8.0463     2.5006     0.0181     0.1154
  213.5000   -31.7642    13.0762    13.8985    93.4638     8.0455     2.4965     0.0178     0.1177
