~VERSION INFORMATION
 VERS.                2.0:   CWLS LOG ASCII STANDARD - VERSION 2.0
 WRAP.                 NO:   ONE LINE PER DEPTH STEP
~WELL INFORMATION
#MNEM.UNIT      DATA TYPE    INFORMATION
#----------   ------------   ------------------------------
 STRT.F           39.0000:   START DEPTH
 STOP.F          590.0000:   STOP DEPTH
 STEP.F            0.5000:   STEP LENGTH
 NULL.          -999.2500:   NO VALUE
 COMP. FENIX & SCISSON INC:   COMPANY
 WELL.    NPR-3 SX #41-34:   WELL
 FLD .             TEAPOT:   FIELD
 LOC .      S34 T39N R78W:   LOCATION
 CNTY.            NATRONA:   COUNTY
 STAT.            WYOMING:   STATE
 CTRY. UNITED STATES OF AMERICA:   COUNTRY
 SRVC.           BIRDWELL:   SERVICE COMPANY
 DATE.        28-AUG-1978:   LOGDATE
 API .       490251069800:   API NUMBER
~CURVE INFORMATION
#MNEM.UNIT       API CODE    CURVE DESCRIPTION
#----------   ------------   ------------------------------
 DEPT.F                  :   
 SPR .MV     05 010 01 00:   SPONTANEOUS POTENTIAL FROM RES.
 SN  .OHMM   05 040 16 00:   SHORT NORMAL 16"
 ILD .OHMM   05 120 46 00:   INDUCTION LOG DEEP
 CALD.IN     45 280 60 00:   CALIPER
 GRD .GAPI   45 310 01 00:   GAMMA RAY FROM DENSITY LOG
 RHOB.G/C3   45 350 01 00:   BULK DENSITY
 DPHI.DEC    45 890 12 00:   DENSITY POROSITY SANDSTONE
 CORR.G/C3   45 356 01 00:   DENSITY CORRECTION
~PARAMETER INFORMATION
#MNEM.UNIT          VALUE    DESCRIPTION
#----------   ------------   ------------------------------
 PD  .                 GL:   PERMANENT DATUM
 EPD .F              5064:   ELEVATION PERMANENT DATUM
 LMF .                 KB:   LOG MEASURED FROM
 DAPD.F                 4:   FEET ABOVE PERMANENT DATUM
 DMF .                 KB:   DRILLING MEASURED FROM
 EKB .F              5068:   KELLING BUSHING
 EGL .F              5064:   GROUND LEVEL
 DATE.          8-28-1978:   RUN DATE
 RUN .                  1:   RUN NUMBER
 DD  .F               600:   DEPTH DRILLER
 DL  .F               596:   DEPTH LOGGER
 BLI .F               590:   BOTTOM LOG INTERVAL
 TLI .F                50:   TOP LOG INTERVAL
 CS  .IN            8.625:   CASING SIZE
 CBD .F                40:   CASING BOTTOM DRILLER
 BS  .IN            7.875:   BIT SIZE
 BSD .F               600:   BIT SIZE AT DEPTH
 DFT .                KCL:   DRILLING FLUID TYPE
 DFD .                8.7:   DRILLING FLUID DENSITY
 DFV .                 35:   DRILLING FLUID VISCOSITY
 DFPH.                  9:   DRILLING FLUID PH
 DFL .                 10:   DRILLING FLUID LOSS
 MSS .          FLOW LINE:   MUD SAMPLE SOURCE
 RMS .OHMM             .4:   RESISTIVITY MUD SAMPLE
 MST .F                76:   MUD SAMPLE TEMPERATURE
 RMF .OHMM             .3:   RESISTIVITY MUD FILTRATE SAMPLE
 MFST.F                80:   MUD FILTRATE SAMPLE TEMPERATURE
 RMC .OHMM             .4:   RESISTIVITY MUD CAKE
 MCST.F                80:   MUD CAKE SAMPLE TEMPERATURE
 MFSS.               MEAS:   MUD FILTRATE SAMPLE SOURCE
 MCSS.               MEAS:   MUD CAKE SAMPLE SOURCE
 TCS .HRS               3:   TIME CURCULATED STOPPED
 LUN .               2958:   LOGGING UNIT NUMBER
 LUL .               CASP:   LOGGING UNIT LOCATION
 ENGI.             MILLER:   RECORDING ENGINEER
 WITN.              AMEND:   WITNESSED BY
 CLNT.            A2DTECH:   CLIENT CODE
 ORIG.           5" PRINT:   ORIGIN OF DATA
 UWI .       490251069800:   UNIQUE WELL ID
 DICO. A2D Technologies, Inc.:   DIGITIZING COMPANY
~OTHER INFORMATION
~A   DEPT      SPR         SN        ILD       CALD        GRD         RHOB       DPHI      CORR  
# ...
  484.5000   -18.0639    14.8803    19.6611     6.9487    64.5423     2.3851     0.1822     0.0609
  485.0000   -18.0639    14.8440    19.4981     6.9364    65.7789     2.3799     0.1837     0.0601
  485.5000   -18.0641    14.8079    19.3365     6.9245    67.0188     2.3798     0.1857     0.0580
  486.0000   -18.0609    14.7718    19.1762     6.9241    68.2643     2.3780     0.1922     0.0598
  486.5000   -18.0510    14.7358    19.0173     6.9241    68.3552     2.3669     0.1964     0.0621
  487.0000   -18.3817    14.7001    18.8596     6.9242    68.2431     2.3589     0.1964     0.0701
  487.5000   -18.6760    14.6637    18.7033     6.9245    68.1360     2.3599     0.1901     0.0782
  488.0000   -18.9630    14.5894    18.5482     6.9474    68.1729     2.3691     0.1811     0.0863
  488.5000   -19.2492    14.3758    18.3945     7.0127    69.0255     2.3809     0.1725     0.0845
  489.0000   -19.5364    14.1669    18.2420     7.0810    70.0022     2.3929     0.1749     0.0752
  489.5000   -19.8229    13.9611    18.0908     7.1075    70.9761     2.3911     0.1791     0.0658
  490.0000   -19.8608    13.7585    17.9408     7.0339    71.6289     2.3856     0.1808     0.0564
  490.5000   -19.8784    13.6003    17.7921     6.9657    70.3782     2.3817     0.1740     0.0517
  491.0000   -20.0135    13.6490    17.6446     6.9883    69.0353     2.3911     0.1618     0.0508
  491.5000   -20.1491    13.6894    17.4983     7.0202    67.6791     2.4143     0.1505     0.0496
  492.0000   -20.2845    13.7253    17.2672     7.0519    67.3217     2.4341     0.1429     0.0404
  492.5000   -20.4236    13.5689    16.6799     7.0834    67.4675     2.4433     0.1389     0.0319
  493.0000   -20.5644    13.4021    16.1862     7.1187    67.6215     2.4507     0.1389     0.0310
  493.5000   -20.7102    13.2374    15.7072     7.1612    67.7747     2.4526     0.1389     0.0302
  494.0000   -20.8714    13.0746    15.2423     7.2037    67.9252     2.4526     0.1389     0.0293
  494.5000   -21.3845    12.9139    14.7912     7.2462    68.0741     2.4551     0.1364     0.0285
  495.0000   -21.9059    12.7552    14.3535     7.2845    68.2485     2.4607     0.1312     0.0277
  495.5000   -22.4249    12.5984    13.9287     7.3022    69.3251     2.4663     0.1289     0.0268
  496.0000   -22.9429    12.4436    13.5998     7.3365    72.5526     2.4667     0.1308     0.0258
  496.5000   -23.4866    12.2907    13.3523     7.3708    75.0815     2.4616     0.1361     0.0195
  497.0000   -23.8378    12.1808    13.1093     7.4075    74.9178     2.4554     0.1367     0.0129
  497.5000   -24.1106    12.1580    13.1093     7.4374    75.6827     2.4541     0.1369     0.0133
  498.0000   -24.4470    12.1128    13.1093     7.4609    77.4606     2.4538     0.1361     0.0154
  498.5000   -24.6679    12.0677    13.1093     7.3734    77.8810     2.4575     0.1304     0.0182
  499.0000   -24.7284    12.0228    13.1093     7.2551    77.9620     2.4657     0.1210     0.0210
  499.5000   -24.7876    11.9781    13.1093     7.1409    78.9659     2.4741     0.1265     0.0200
  500.0000   -24.8447    11.9335    13.1093     7.1380    80.1155     2.4707     0.1331     0.0170
  500.5000   -24.9024    11.8891    13.1093     7.1845    81.2689     2.4622     0.1390     0.0139
  501.0000   -24.9601    11.8449    13.1093     7.2414    81.4872     2.4539     0.1366     0.0135
  501.5000   -25.0177    11.8008    13.1093     7.2641    79.4941     2.4557     0.1314     0.0177
  502.0000   -25.0754    11.7569    13.1094     7.2273    78.0185     2.4622     0.1262     0.0218
  502.5000   -25.1331    11.7131    13.1097     7.1838    76.9463     2.4706     0.1245     0.0239
  503.0000   -25.1907    11.6696    13.1085     7.1633    74.7599     2.4747     0.1243     0.0239
  503.5000   -25.2484    11.6338    13.1126     7.1997    72.5367     2.4752     0.1241     0.0240
  504.0000   -25.3060    11.6342    12.9150     7.2107    70.4255     2.4757     0.1230     0.0239
  504.5000   -25.3637    11.6341    12.7534     7.2191    70.1822     2.4761     0.1229     0.0239
  505.0000   -25.4214    11.6342    12.5939     7.2275    70.1140     2.4765     0.1242     0.0239
  505.5000   -25.4790    11.6342    12.2932     7.2361    70.0685     2.4770     0.1238     0.0239
  506.0000   -25.5367    11.6342    12.1808     7.2446    68.9623     2.4774     0.1211     0.0239
  506.5000   -25.5944    11.6342    12.0695     7.2531    67.6327     2.4795     0.1178     0.0240
  507.0000   -25.6520    11.6342    12.1690     7.2616    67.0252     2.4835     0.1138     0.0240
  507.5000   -25.7097    11.6342    12.2501     7.2701    67.5969     2.4903     0.1058     0.0238
  508.0000   -25.7673    11.6342    12.3318     7.2785    70.1941     2.4964     0.1129     0.0173
  508.5000   -25.8250    11.6342    12.4140     7.2812    73.2282     2.4938     0.1222     0.0104
  509.0000   -25.8825    11.6342    12.4968     7.2758    75.5697     2.4800     0.1314     0.0034
  509.5000   -25.9387    11.6342    12.5801     7.2705    75.8352     2.4666     0.1368    -0.0005
  510.0000   -26.0023    11.6342    12.6365     7.2651    75.8298     2.4546     0.1397    -0.0018
  510.5000   -26.2024    11.6343    12.6365     7.2598    75.8291     2.4534     0.1292     0.0007
  511.0000   -26.3522    11.6342    12.6365     7.2544    75.8289     2.4607     0.1253     0.0052
  511.5000   -26.4547    11.6253    12.6325     7.2490    75.6016     2.4719     0.1259     0.0098
  512.0000   -26.5607    11.5854    12.6136     7.2432    74.0098     2.4733     0.1276     0.0114
  512.5000   -26.6672    11.5470    12.5953     7.2669    72.1819     2.4709     0.1289     0.0128
  513.0000   -26.7737    11.5084    12.5770     7.2976    71.6088     2.4686     0.1289     0.0143
  513.5000   -26.8805    11.4701    12.5588     7.3283    71.6015     2.4689     0.1286     0.0157
  514.0000   -26.9821    11.4319    12.5406     7.3590    72.9149     2.4694     0.1250     0.0185
  514.5000   -27.0358    11.3938    12.5210     7.3901    79.8811     2.4726     0.1190     0.0214
  515.0000   -27.3894    11.3558    12.5210     7.4204    81.6343     2.4811     0.1142     0.0243
  515.5000   -27.4541    11.3180    12.5210     7.4112    82.1574     2.4884     0.1138     0.0262
  516.0000   -27.4889    11.2803    12.2932     7.2573    82.5512     2.4931     0.1096     0.0269
  516.5000   -27.5257    11.2427    12.2760     7.1044    82.9350     2.5031     0.1042     0.0275
  517.0000   -27.5634    11.2052    12.2394     7.0968    83.3179     2.5003     0.1099     0.0258
  517.5000   -27.6012    11.1679    12.2029     7.3849    83.5639     2.4912     0.1175     0.0198
  518.0000   -27.6389    11.1307    12.1808     7.5131    83.2718     2.4822     0.1234     0.0141
  518.5000   -27.6766    11.0935    12.0695     7.3874    82.9945     2.4773     0.1250     0.0105
  519.0000   -27.7144    11.0568    11.9591     7.2642    82.7084     2.4756     0.1258     0.0127
  519.5000   -27.7520    11.0198    11.7717     7.2211    82.4102     2.4749     0.1240     0.0148
  520.0000   -27.7899    11.0105    11.5106     7.2373    82.0882     2.4772     0.1205     0.0169
  520.5000   -27.8268    10.8915    11.2555     7.7017    82.2195     2.4795     0.1202     0.0183
  521.0000   -27.9896    10.7427    11.0061     7.7804    85.0770     2.4804     0.1211     0.0190
  521.5000   -28.2482    10.5957    10.7624     7.6405    92.6486     2.4799     0.1207     0.0198
  522.0000   -28.5078    10.4507    10.5241     7.4956   100.6725     2.4808     0.1150     0.0205
  522.5000   -28.7675    10.3077    10.2910     7.3625   106.5507     2.4859     0.1198     0.0212
  523.0000   -29.0270    10.1667    10.0631     7.3002   110.6786     2.4828     0.1253     0.0220
  523.5000   -29.2864    10.0277     9.8403     7.3032   109.8669     2.4720     0.1313     0.0242
  524.0000   -29.5459     9.8905     9.6223     7.3397   100.4805     2.4609     0.1435     0.0267
  524.5000   -29.8055     9.7552     9.4092     7.4344    90.7312     2.4443     0.1558     0.0291
