~VERSION INFORMATION
 VERS.                2.0:   CWLS LOG ASCII STANDARD - VERSION 2.0
 WRAP.                 NO:   ONE LINE PER DEPTH STEP
~WELL INFORMATION
#MNEM.UNIT      DATA TYPE    INFORMATION
#----------   ------------   ------------------------------
 STRT.F            0.0000:   START DEPTH
 STOP.F          523.0000:   STOP DEPTH
 STEP.F            0.1000:   STEP LENGTH
 NULL.          -999.2500:   NO VALUE
 COMP.       F D SERV INC:   COMPANY
 WELL. NAVAL PETROLEUM RESERVE 3 SX-3 #87-3:   WELL
 FLD .             TEAPOT:   FIELD
 LOC .       S3 T38N R78W:   LOCATION
 CNTY.            NATRONA:   COUNTY
 STAT.            WYOMING:   STATE
 CTRY. UNITED STATES OF AMERICA:   COUNTRY
 SRVC.      Western Atlas:   SERVICE COMPANY
 DATE.        22-NOV-1992:   LOGDATE
 API .       490252254300:   API NUMBER
~CURVE INFORMATION
#MNEM.UNIT       API CODE    CURVE DESCRIPTION
#----------   ------------   ------------------------------
 DEPT.F                  :   
 GRR .GAPI   07 310 01 00:   GAMMA RAY
 RILD.OHMM   07 120 46 00:   INDUCTION LOG DEEP RESISTIVITY
 RILM.OHMM   07 120 44 00:   INDUCTION LOG MEDIUM RESISTIVITY
~PARAMETER INFORMATION
#MNEM.UNIT          VALUE    DESCRIPTION
#----------   ------------   ------------------------------
 PD  .                 GL:   PERMANENT DATUM
 EPD .F              5129:   ELEVATION PERMANENT DATUM
 LMF .                 KB:   LOG MEASURED FROM
 DAPD.F                10:   FEET ABOVE PERMANENT DATUM
 DMF .                 KB:   DRILLING MEASURED FROM
 EKB .F              5139:   KELLING BUSHING
 EDF .F              5138:   DRILLING FLOOR
 EGL .F              5129:   GROUND LEVEL
 DATE.        22-NOV-1992:   RUN DATE
 RUN .                  1:   RUN NUMBER
 DD  .F               530:   DEPTH DRILLER
 DL  .F               531:   DEPTH LOGGER
 BLI .F               530:   BOTTOM LOG INTERVAL
 TLI .F                58:   TOP LOG INTERVAL
 CS  .IN            8.625:   CASING SIZE
 CBD .F                58:   CASING BOTTOM DRILLER
 CBL .F                58:   CASING BOTTOM LOGGER
 BS  .IN            7.875:   BIT SIZE
 BSD .F               530:   BIT SIZE AT DEPTH
 DFT .           AIR FOAM:   DRILLING FLUID TYPE
 MRT .F                73:   MAXIMUM RECORDED TEMPERATURE
 LUN .            HL-6274:   LOGGING UNIT NUMBER
 LUL .             CASPER:   LOGGING UNIT LOCATION
 ENGI.       P. RASMUSSEN:   RECORDING ENGINEER
 WITN.          G. STRONG:   WITNESSED BY
 CLNT.            A2DTECH:   CLIENT CODE
 ORIG.           5" PRINT:   ORIGIN OF DATA
 UWI .       490252254300:   UNIQUE WELL ID
 DICO. A2D Technologies, Inc.:   DIGITIZING COMPANY
~OTHER INFORMATION
~A    DEPT      GRR      RILD       RILM   
# ...
  200.2000   131.9759     5.9908     6.1182
  200.3000   130.8091     5.9901     6.1219
  200.4000   129.9953     5.9894     6.1604
  200.5000   129.7697     5.9888     6.1602
  200.6000   129.1897     5.9882     6.1824
  200.7000   128.4487     5.9875     6.2027
  200.8000   127.8649     5.9947     6.2086
  200.9000   127.8600     6.0282     6.2455
  201.0000   128.0966     6.0619     6.2785
  201.1000   128.1520     6.0688     6.2887
  201.2000   128.2760     6.0872     6.3051
  201.3000   128.5165     6.1098     6.3321
  201.4000   128.7412     6.1126     6.3319
  201.5000   128.7353     6.1511     6.3673
  201.6000   129.5521     6.1505     6.4031
  201.7000   130.3797     6.1498     6.4199
  201.8000   131.2034     6.1787     6.4302
  201.9000   132.2166     6.2485     6.4663
  202.0000   133.5381     6.3214     6.5091
  202.1000   134.4350     6.3556     6.5391
  202.2000   135.0734     6.4182     6.5975
  202.3000   135.4465     6.4717     6.6589
  202.4000   135.6308     6.5294     6.6962
  202.5000   135.6259     6.6361     6.7385
  202.6000   135.6211     6.6792     6.7716
  202.7000   135.6163     6.7104     6.8096
  202.8000   135.6115     6.7713     6.8478
  202.9000   135.6066     6.8330     6.8929
  203.0000   135.6018     6.8652     6.9759
  203.1000   135.5963     6.8642     7.0125
  203.2000   135.5921     6.9364     7.0519
  203.3000   135.5873     6.9869     7.0730
  203.4000   135.4860     7.0069     7.0817
  203.5000   135.2358     7.0160     7.1218
  203.6000   134.9692     7.0543     7.1614
  203.7000   134.7354     7.0535     7.1710
  203.8000   134.4853     7.0528     7.1918
  203.9000   134.0019     7.0748     7.2205
  204.0000   133.1986     7.1143     7.2222
  204.1000   132.2044     7.1541     7.2703
  204.2000   131.2102     7.1984     7.2700
  204.3000   130.2160     7.1977     7.2698
  204.4000   129.7601     7.2241     7.2695
  204.5000   128.4555     7.2464     7.2692
  204.6000   126.4335     7.2456     7.2688
  204.7000   125.6958     7.2448     7.2685
  204.8000   124.4747     7.2440     7.2682
  204.9000   123.8180     7.2432     7.2680
  205.0000   123.7204     7.2424     7.2676
  205.1000   123.8896     7.2416     7.2673
  205.2000   123.8878     7.2407     7.2670
  205.3000   123.8857     7.2398     7.2667
  205.4000   124.2870     7.2391     7.2665
  205.5000   124.7731     7.2383     7.2661
  205.6000   125.3454     7.2375     7.2658
  205.7000   126.0187     7.2368     7.2655
  205.8000   126.2900     7.2359     7.2652
  205.9000   126.9322     7.2351     7.2649
  206.0000   127.3483     7.2343     7.2646
  206.1000   127.8877     7.2335     7.2643
  206.2000   128.8620     7.2327     7.2639
  206.3000   129.9009     7.2319     7.2637
  206.4000   130.8101     7.2309     7.2634
  206.5000   131.7839     7.1969     7.2493
  206.6000   132.6454     7.1793     7.2124
  206.7000   133.2665     7.1785     7.2120
  206.8000   133.5119     7.1777     7.2117
  206.9000   134.4729     7.1768     7.2114
  207.0000   134.7150     7.1930     7.1951
  207.1000   134.7132     7.2109     7.1608
  207.2000   134.7113     7.2246     7.1605
  207.3000   134.7095     7.2238     7.1230
  207.4000   134.7073     7.1827     7.1102
  207.5000   134.7059     7.1721     7.1099
  207.6000   134.7041     7.1499     7.1095
  207.7000   134.7023     7.1087     7.1093
  207.8000   134.7004     7.0678     7.1090
  207.9000   134.6984     7.0205     7.0789
  208.0000   134.6969     7.0198     7.0590
  208.1000   134.6950     6.9950     7.0587
  208.2000   134.6932     6.9547     7.0585
  208.3000   134.6914     6.9091     7.0581
  208.4000   134.6894     6.8238     7.0578
  208.5000   134.6878     6.8231     7.0350
  208.6000   134.6860     6.8223     6.9952
  208.7000   134.3638     6.8216     6.9594
  208.8000   133.6793     6.8122     6.9590
  208.9000   133.1722     6.7727     6.9250
  209.0000   133.1704     6.7719     6.8858
  209.1000   133.1686     6.7420     6.8619
  209.2000   133.2866     6.7032     6.8556
  209.3000   133.6532     6.6646     6.8136
  209.4000   134.3875     6.6289     6.7782
  209.5000   135.3611     6.6280     6.7140
  209.6000   135.9541     6.6274     6.6551
  209.7000   137.1048     6.6039     6.6174
  209.8000   138.9607     6.5799     6.5790
  209.9000   141.0850     6.5737     6.5068
  210.0000   142.5035     6.5327     6.4604
  210.1000   142.5020     6.4647     6.4238
  210.2000   142.2082     6.4410     6.3874
  210.3000   141.8950     6.4237     6.3512
  210.4000   141.7711     6.3786     6.3152
  210.5000   140.6846     6.3056     6.3078
  210.6000   140.6829     6.2695     6.2876
  210.7000   140.3631     6.2604     6.2520
  210.8000   139.1644     6.2035     6.2166
  210.9000   137.1410     6.1086     6.1763
  211.0000   135.8491     6.0366     6.1463
  211.1000   134.6978     5.9183     6.0903
  211.2000   134.3372     5.8063     6.0088
  211.3000   134.3354     5.7149     5.9125
  211.4000   134.3336     5.6021     5.8403
  211.5000   134.3318     5.4183     5.7803
  211.6000   134.5729     5.2544     5.6721
  211.7000   135.0003     5.0148     5.4784
  211.8000   135.4865     4.8957     5.2355
  211.9000   135.9724     4.8652     5.1151
  212.0000   136.4942     4.8647     5.0593
  212.1000   137.9405     4.8641     5.0231
  212.2000   138.5339     4.8635     5.0087
  212.3000   139.1234     4.8630     5.0085
  212.4000   139.4438     4.8625     5.0083
  212.5000   139.4419     4.8619     5.0080
  212.6000   139.4399     4.8614     5.0078
  212.7000   139.4384     4.8608     5.0076
  212.8000   139.4365     4.8603     4.9984
  212.9000   139.4347     4.8597     4.9725
  213.0000   139.4329     4.8698     4.9722
  213.1000   139.4309     4.8927     4.9960
  213.2000   139.4293     4.8921     5.0066
  213.3000   139.4275     4.9173     5.0064
  213.4000   139.4257     4.9446     5.0062
  213.5000   139.4238     4.9721     5.0059
  213.6000   139.4220     4.9932     5.0058
  213.7000   139.4202     4.9927     5.0246
  213.8000   139.4184     4.9921     5.0403
  213.9000   139.4166     4.9916     5.0402
  214.0000   139.4148     4.9910     5.0399
  214.1000   139.4129     4.9992     5.0397
  214.2000   139.4112     5.0270     5.0603
  214.3000   138.8307     5.0592     5.0745
  214.4000   137.8271     5.0832     5.0817
  214.5000   136.9151     5.1115     5.1096
  214.6000   136.6890     5.1286     5.1094
  214.7000   136.6869     5.1280     5.1319
  214.8000   136.6854     5.1274     5.1607
  214.9000   136.6836     5.1539     5.2085
  215.0000   136.6817     5.1826     5.2995
  215.1000   136.6800     5.2114     5.4388
  215.2000   136.6779     5.2404     5.6797
  215.3000   136.8953     5.2696     5.8712
  215.4000   137.6215     5.2989     5.9664
  215.5000   138.8028     5.3756     6.0046
  215.6000   140.1725     5.4333     6.0789
  215.7000   141.1939     5.4832     6.1098
  215.8000   141.6564     5.5737     6.1209
  215.9000   141.9681     5.6458     6.1207
  216.0000   142.0935     5.7001     6.1272
  216.1000   142.0327     5.8056     6.1629
  216.2000   141.7883     5.9378     6.1627
  216.3000   141.7864     6.0506     6.1878
  216.4000   140.8474     6.0498     6.2225
  216.5000   140.1448     6.1784     6.2483
  216.6000   139.8272     6.2942     6.2495
  216.7000   139.3659     6.3841     6.3201
  216.8000   139.3638     6.4649     6.4202
  216.9000   139.3623     6.5747     6.5500
  217.0000   139.3605     6.6867     6.6869
  217.1000   139.3587     6.7407     6.8004
  217.2000   139.3569     6.7994     6.9346
  217.3000   139.3548     6.8636     7.0006
  217.4000   139.7805     6.9018     7.0554
  217.5000   140.1106     6.9457     7.0951
  217.6000   140.5489     6.9451     7.1295
  217.7000   141.3198     6.9690     7.1291
  217.8000   142.3625     7.0236     7.1288
  217.9000   142.8142     7.0895     7.1553
  218.0000   143.3003     7.0886     7.1955
  218.1000   144.0086     7.1254     7.2280
  218.2000   144.8755     7.1366     7.2276
  218.3000   145.3701     7.1550     7.2274
