~VERSION INFORMATION
 VERS.                2.0:   CWLS LOG ASCII STANDARD - VERSION 2.0
 WRAP.                 NO:   ONE LINE PER DEPTH STEP
~WELL INFORMATION
#MNEM.UNIT      DATA TYPE    INFORMATION
#----------   ------------   ------------------------------
 STRT.F           10.0000:   START DEPTH
 STOP.F          472.5000:   STOP DEPTH
 STEP.F            0.5000:   STEP LENGTH
 NULL.          -999.2500:   NO VALUE
 COMP. FENIX & SCISSON INC:   COMPANY
 WELL. NAVAL PETROLEUM RESERVE 3 SX-1 #67-10:   WELL
 FLD .             TEAPOT:   FIELD
 LOC .      S10 T38N R78W:   LOCATION
 CNTY.            NATRONA:   COUNTY
 STAT.            WYOMING:   STATE
 CTRY. UNITED STATES OF AMERICA:   COUNTRY
 SRVC.           BIRDWELL:   SERVICE COMPANY
 DATE.        05-DEC-1978:   LOGDATE
 API .       490251075000:   API NUMBER
~CURVE INFORMATION
#MNEM.UNIT       API CODE    CURVE DESCRIPTION
#----------   ------------   ------------------------------
 DEPT.F                  :   
 SPR .MV     05 010 01 00:   SPONTANEOUS POTENTIAL FROM RES.
 SN  .OHMM   05 040 16 00:   SHORT NORMAL 16"
 IL  .OHMM   05 120 00 00:   INDUCTION LOG
 CALD.IN     45 280 60 00:   CALIPER
 GRD .GAPI   45 310 01 00:   GAMMA RAY FROM DENSITY LOG
 RHOB.G/C3   45 350 01 00:   BULK DENSITY
 DPHI.DEC    45 890 12 00:   DENSITY POROSITY SANDSTONE
 CORR.G/C3   45 356 01 00:   DENSITY CORRECTION
~PARAMETER INFORMATION
#MNEM.UNIT          VALUE    DESCRIPTION
#----------   ------------   ------------------------------
 PD  .                 GL:   PERMANENT DATUM
 EPD .F              5189:   ELEVATION PERMANENT DATUM
 LMF .                 KB:   LOG MEASURED FROM
 DAPD.F                 4:   FEET ABOVE PERMANENT DATUM
 DMF .                 KB:   DRILLING MEASURED FROM
 EKB .F              5193:   KELLING BUSHING
 EGL .F              5189:   GROUND LEVEL
 DATE.            12-5-78:   RUN DATE
 RUN .                  1:   RUN NUMBER
 DD  .F               475:   DEPTH DRILLER
 DL  .F               471:   DEPTH LOGGER
 BLI .F               465:   BOTTOM LOG INTERVAL
 TLI .F                40:   TOP LOG INTERVAL
 CS  .IN            8.625:   CASING SIZE
 CBD .F                40:   CASING BOTTOM DRILLER
 CBL .F                40:   CASING BOTTOM LOGGER
 BS  .IN            7.875:   BIT SIZE
 BSD .F               475:   BIT SIZE AT DEPTH
 DFT .                KCL:   DRILLING FLUID TYPE
 DFD .                8.8:   DRILLING FLUID DENSITY
 DFV .                 42:   DRILLING FLUID VISCOSITY
 DFPH.               12.2:   DRILLING FLUID PH
 DFL .               11.6:   DRILLING FLUID LOSS
 MSS .          FLOW LINE:   MUD SAMPLE SOURCE
 RMS .OHMM            .31:   RESISTIVITY MUD SAMPLE
 MST .F                60:   MUD SAMPLE TEMPERATURE
 RMF .OHMM            .29:   RESISTIVITY MUD FILTRATE SAMPLE
 MFST.F                61:   MUD FILTRATE SAMPLE TEMPERATURE
 RMC .OHMM            .42:   RESISTIVITY MUD CAKE
 MCST.F                63:   MUD CAKE SAMPLE TEMPERATURE
 MFSS.           MEASURED:   MUD FILTRATE SAMPLE SOURCE
 MCSS.           MEASURED:   MUD CAKE SAMPLE SOURCE
 RMB .OHMM            .33:   RESISTIVITY MUD AT BHT
 BHT .F                57:   BOTTOM HOLE TEMPERATURE
 TCS .HRS               3:   TIME CURCULATED STOPPED
 MRT .F                57:   MAXIMUM RECORDED TEMPERATURE
 LUN .               2958:   LOGGING UNIT NUMBER
 LUL .                CPR:   LOGGING UNIT LOCATION
 ENGI.            ROLLINS:   RECORDING ENGINEER
 WITN.              AMEND:   WITNESSED BY
 CLNT.            A2DTECH:   CLIENT CODE
 ORIG.       2", 5" PRINT:   ORIGIN OF DATA
 UWI .       490251075000:   UNIQUE WELL ID
 DICO. A2D Technologies, Inc.:   DIGITIZING COMPANY
~OTHER INFORMATION
~A   DEPT      SPR         SN         IL       CALD         GRD      RHOB       DPHI       CORR   
# ...
  131.5000   -48.6840     9.8230     9.5020     8.5940    90.7320     2.4250     0.1670     0.0800
  132.0000   -48.3750     9.7700     9.3620     8.6660    90.1050     2.4070     0.1710     0.0800
  132.5000   -48.2270     9.6760     9.2010     8.7340    90.4210     2.4010     0.1750     0.0880
  133.0000   -48.3000     9.4410     9.0390     8.7790    90.1780     2.4030     0.1740     0.1000
  133.5000   -48.3720     9.2060     8.8780     8.7600    89.5410     2.4120     0.1670     0.1170
  134.0000   -48.4420     8.9750     8.7170     8.7400    89.1310     2.4140     0.1650     0.1160
  134.5000   -48.5110     8.7460     8.5550     8.7550    90.0890     2.3980     0.1760     0.1140
  135.0000   -48.5710     8.6750     8.3940     8.8070    93.5270     2.3930     0.1810     0.1110
  135.5000   -49.0460     8.6350     8.2390     8.8080    97.3120     2.3920     0.1810     0.1090
  136.0000   -49.5660     8.5950     8.2840     8.8050   101.0480     2.3940     0.1820     0.1010
  136.5000   -50.0920     8.5490     8.3280     8.8020   104.9210     2.4000     0.1770     0.0910
  137.0000   -50.6310     8.6100     8.3710     8.7990   106.6230     2.4220     0.1580     0.0810
  137.5000   -51.1200     8.6830     8.4140     8.7960   106.5160     2.4400     0.1490     0.0690
  138.0000   -51.4020     8.7550     8.4580     8.7930   107.0420     2.4430     0.1580     0.0460
  138.5000   -51.4010     8.8270     8.5010     8.7900   109.4460     2.4240     0.1670     0.0270
  139.0000   -51.4020     8.9000     8.5440     8.7870   110.4690     2.4160     0.1680     0.0270
  139.5000   -51.4020     8.9620     8.5880     8.7850   110.1080     2.4170     0.1650     0.0330
  140.0000   -51.4020     8.9940     8.6280     8.7820   108.9230     2.4190     0.1640     0.0440
  140.5000   -51.4010     9.0260     8.6640     8.7790   107.6260     2.4200     0.1630     0.0550
  141.0000   -51.4020     9.0590     8.6980     8.7760   106.7160     2.4200     0.1630     0.0610
  141.5000   -51.2300     9.0910     8.7320     8.7730   106.8920     2.4200     0.1630     0.0640
  142.0000   -50.8570     9.1230     8.7650     8.7700   105.8440     2.4200     0.1640     0.0660
  142.5000   -50.4860     9.1560     8.7990     8.7710   104.3820     2.4220     0.1610     0.0680
  143.0000   -50.1140     9.2050     8.8330     8.7730   101.9430     2.4290     0.1560     0.0670
  143.5000   -49.7430     9.1920     8.8700     8.7740    99.5740     2.4380     0.1500     0.0670
  144.0000   -49.4080     9.1660     8.8650     8.7760    97.4340     2.4450     0.1450     0.0620
  144.5000   -49.4530     9.1400     8.8580     8.7770    95.8530     2.4430     0.1510     0.0540
  145.0000   -49.5050     9.1130     8.8510     8.7780    97.3350     2.4360     0.1570     0.0480
  145.5000   -49.5570     9.0870     8.8440     8.7800    99.8330     2.4310     0.1590     0.0480
  146.0000   -49.6090     9.0610     8.8370     8.7810   101.2620     2.4310     0.1590     0.0480
  146.5000   -49.6600     9.0360     8.8300     8.7830   102.2990     2.4300     0.1590     0.0480
  147.0000   -49.7120     9.0940     8.8230     8.7840   102.6360     2.4300     0.1590     0.0470
  147.5000   -49.7640     9.1460     8.8150     8.7860   101.9940     2.4310     0.1590     0.0470
  148.0000   -49.8380     9.2050     8.8080     8.7870   100.6700     2.4340     0.1570     0.0470
  148.5000   -49.9840     9.1700     8.8020     8.7890    99.0070     2.4370     0.1540     0.0470
  149.0000   -50.1260     9.1310     8.7940     8.7890   100.0460     2.4380     0.1520     0.0470
  149.5000   -50.2680     9.0920     8.7760     8.7420   101.3100     2.4400     0.1510     0.0460
  150.0000   -50.4740     9.0530     8.7260     8.6900   103.7660     2.4470     0.1480     0.0450
  150.5000   -51.8100     9.0130     8.6780     8.6370   106.7020     2.4530     0.1410     0.0440
  151.0000   -52.4000     8.9740     8.6290     8.5880   109.7350     2.4580     0.1390     0.0430
  151.5000   -52.9450     8.9350     8.5810     8.5530   110.0500     2.4590     0.1410     0.0370
  152.0000   -53.4900     8.8960     8.5320     8.6250   110.6630     2.4590     0.1420     0.0300
  152.5000   -54.0340     8.8570     8.4840     8.7080   111.4500     2.4600     0.1400     0.0260
  153.0000   -54.5840     8.8180     8.4320     8.7700   110.7880     2.4600     0.1380     0.0260
  153.5000   -54.6960     8.7790     8.3790     8.7600   108.7120     2.4600     0.1380     0.0250
  154.0000   -54.7870     8.7390     8.3260     8.7000   105.9070     2.4570     0.1410     0.0250
  154.5000   -54.8780     8.7000     8.2730     8.7050   102.2960     2.4450     0.1490     0.0240
  155.0000   -54.9700     8.6610     8.2210     8.7750    99.3400     2.4390     0.1530     0.0270
  155.5000   -55.0620     8.6050     8.1700     8.8080    97.0260     2.4380     0.1540     0.0300
  156.0000   -55.1530     8.4650     8.1200     8.7990    94.6310     2.4390     0.1530     0.0320
  156.5000   -55.2450     8.3250     8.0290     8.7900    94.5890     2.4400     0.1510     0.0350
  157.0000   -55.3360     8.1840     7.8710     8.7810    94.2560     2.4410     0.1490     0.0360
  157.5000   -55.4280     8.0440     7.7130     8.7720    92.6380     2.4420     0.1480     0.0360
  158.0000   -55.5200     7.9030     7.5540     8.7960    93.6610     2.4410     0.1500     0.0350
  158.5000   -55.6110     7.7630     7.3960     8.8310    96.4720     2.4360     0.1560     0.0280
  159.0000   -55.7030     7.6230     7.2390     8.8670   100.5690     2.4230     0.1620     0.0260
  159.5000   -55.7950     7.5120     7.1580     8.8150   103.9700     2.4200     0.1640     0.0240
  160.0000   -55.8280     7.5650     7.1330     8.7520   105.8900     2.4220     0.1650     0.0240
  160.5000   -55.8480     7.6090     7.1090     8.8070   104.9520     2.4310     0.1550     0.0240
  161.0000   -55.8680     7.6520     7.0850     8.8880   104.3040     2.4420     0.1470     0.0240
  161.5000   -55.8890     7.7780     7.0600     8.9270   106.0350     2.4510     0.1410     0.0240
  162.0000   -55.9090     7.9010     7.0420     8.9490   106.9160     2.4550     0.1410     0.0240
  162.5000   -55.9290     8.0230     7.4340     8.9400   105.1160     2.4540     0.1400     0.0240
  163.0000   -55.9490     8.1630     7.7950     8.9300   104.0900     2.4530     0.1400     0.0240
  163.5000   -55.9690     8.1550     7.7850     8.9210   104.8280     2.4520     0.1420     0.0240
  164.0000   -55.9890     8.1460     7.7690     8.9120   105.5450     2.4530     0.1430     0.0240
  164.5000   -56.0090     8.1360     7.7540     8.9020   105.3990     2.4530     0.1410     0.0260
  165.0000   -56.0300     8.1270     7.7390     8.8930   104.3900     2.4530     0.1400     0.0280
  165.5000   -56.0500     8.1170     7.7240     8.8870   103.3640     2.4540     0.1410     0.0300
  166.0000   -56.0700     8.1080     7.7080     8.8830   103.1100     2.4540     0.1410     0.0320
  166.5000   -56.0900     8.0980     7.6930     8.8790   103.1760     2.4520     0.1410     0.0310
  167.0000   -56.1100     8.0880     7.6780     8.8740   104.5130     2.4500     0.1440     0.0300
  167.5000   -56.1300     8.0400     7.6630     8.8710   105.6810     2.4480     0.1460     0.0290
  168.0000   -56.1510     7.9880     7.6320     8.8980   105.6510     2.4460     0.1470     0.0260
  168.5000   -56.1710     7.9350     7.5670     8.9280   103.5280     2.4440     0.1480     0.0220
  169.0000   -56.1910     7.8820     7.5030     8.9450   100.9790     2.4410     0.1530     0.0190
  169.5000   -56.2110     7.8300     7.4390     8.9220   100.0010     2.4330     0.1570     0.0150
  170.0000   -56.2310     7.7390     7.3740     8.9010   101.7260     2.4280     0.1590     0.0150
  170.5000   -56.2510     7.5740     7.3070     8.8880   104.0800     2.4250     0.1600     0.0150
  171.0000   -56.2720     7.4100     7.1250     8.8850   103.0190     2.4240     0.1610     0.0150
  171.5000   -56.2920     7.2450     6.9330     8.8810   101.4810     2.4200     0.1630     0.0160
