~VERSION INFORMATION
 VERS.                2.0:   CWLS LOG ASCII STANDARD - VERSION 2.0
 WRAP.                 NO:   ONE LINE PER DEPTH STEP
~WELL INFORMATION
#MNEM.UNIT      DATA TYPE    INFORMATION
#----------   ------------   ------------------------------
 STRT.F            0.0000:   START DEPTH
 STOP.F          596.0000:   STOP DEPTH
 STEP.F            0.1000:   STEP LENGTH
 NULL.          -999.2500:   NO VALUE
 COMP. BROWN JOHN E&C INC:   COMPANY
 WELL.    72-5 SX-3 #72-3:   WELL
 FLD .             TEAPOT:   FIELD
 LOC .       S3 T38N R78W:   LOCATION
 CNTY.            NATRONA:   COUNTY
 STAT.            WYOMING:   STATE
 CTRY. UNITED STATES OF AMERICA:   COUNTRY
 SRVC.      Western Atlas:   SERVICE COMPANY
 DATE.        15-APR-1992:   LOGDATE
 API .       490252250900:   API NUMBER
~CURVE INFORMATION
#MNEM.UNIT       API CODE    CURVE DESCRIPTION
#----------   ------------   ------------------------------
 DEPT.F                  :   
 GRR .GAPI   07 310 01 00:   GAMMA RAY
 RILD.OHMM   07 120 46 00:   INDUCTION LOG DEEP RESISTIVITY
 RILM.OHMM   07 120 44 00:   INDUCTION LOG MEDIUM RESISTIVITY
~PARAMETER INFORMATION
#MNEM.UNIT          VALUE    DESCRIPTION
#----------   ------------   ------------------------------
 PD  .                 GL:   PERMANENT DATUM
 EPD .F              5132:   ELEVATION PERMANENT DATUM
 LMF .                 KB:   LOG MEASURED FROM
 DAPD.F                 5:   FEET ABOVE PERMANENT DATUM
 DMF .                 KB:   DRILLING MEASURED FROM
 EKB .F              5137:   KELLING BUSHING
 EDF .F              5136:   DRILLING FLOOR
 EGL .F              5132:   GROUND LEVEL
 DATE.        15-APR-1992:   RUN DATE
 RUN .                  1:   RUN NUMBER
 DD  .F               605:   DEPTH DRILLER
 DL  .F               599:   DEPTH LOGGER
 BLI .F               596:   BOTTOM LOG INTERVAL
 TLI .F                46:   TOP LOG INTERVAL
 CS  .IN            8.625:   CASING SIZE
 CBD .F                48:   CASING BOTTOM DRILLER
 CBL .F                46:   CASING BOTTOM LOGGER
 BS  .IN            7.875:   BIT SIZE
 BSD .F               605:   BIT SIZE AT DEPTH
 DFT .                AIR:   DRILLING FLUID TYPE
 LUN .            HL-6321:   LOGGING UNIT NUMBER
 LUL .        RK. SPRINGS:   LOGGING UNIT LOCATION
 ENGI.            TRIBBLE:   RECORDING ENGINEER
 WITN.             STRONG:   WITNESSED BY
 CLNT.            A2DTECH:   CLIENT CODE
 ORIG.           5" PRINT:   ORIGIN OF DATA
 UWI .       490252250900:   UNIQUE WELL ID
 DICO. A2D Technologies, Inc.:   DIGITIZING COMPANY
~OTHER INFORMATION
~A    DEPT     GRR       RILD       RILM   
# ...
  109.2000   118.9235     6.1311     5.9305
  109.3000   118.6903     6.0962     5.9058
  109.4000   118.0909     6.0615     5.9057
  109.5000   117.4677     6.0462     5.9056
  109.6000   117.0982     6.0462     5.9055
  109.7000   117.1032     6.0424     5.9054
  109.8000   117.3972     6.0039     5.9054
  109.9000   118.1860     6.0038     5.9053
  110.0000   118.8889     6.0037     5.9052
  110.1000   119.3808     6.0036     5.9051
  110.2000   119.9018     6.0035     5.9050
  110.3000   120.7216     6.0035     5.9050
  110.4000   120.9398     6.0034     5.9130
  110.5000   120.8576     6.0033     5.9462
  110.6000   120.6089     6.0032     5.9461
  110.7000   120.3602     6.0031     5.9460
  110.8000   120.1066     6.0030     5.9459
  110.9000   119.8628     6.0029     5.9574
  111.0000   119.2424     6.0029     5.9874
  111.1000   118.5000     6.0028     5.9873
  111.2000   117.6840     6.0027     5.9872
  111.3000   116.6774     5.9971     5.9872
  111.4000   115.2470     5.9607     5.9871
  111.5000   114.8293     5.9607     5.9870
  111.6000   114.1818     5.9606     5.9869
  111.7000   113.6309     5.9605     6.0206
  111.8000   113.3426     5.9604     6.0287
  111.9000   112.8138     5.9603     6.0286
  112.0000   112.5818     5.9602     6.0285
  112.1000   112.1590     5.9602     6.0284
  112.2000   111.7814     5.9601     6.0283
  112.3000   111.5945     5.9600     6.0283
  112.4000   111.5871     5.9599     6.0282
  112.5000   111.3384     5.9598     6.0281
  112.6000   111.4824     5.9597     6.0280
  112.7000   111.7275     5.9597     6.0279
  112.8000   112.0566     5.9596     6.0609
  112.9000   112.5485     5.9595     6.0700
  113.0000   113.0968     5.9594     6.0699
  113.1000   113.5323     5.9593     6.0698
  113.2000   114.3491     5.9592     6.0698
  113.3000   115.4410     5.9775     6.0697
  113.4000   116.7737     6.0009     6.0696
  113.5000   118.5424     6.0008     6.0905
  113.6000   120.9486     6.0007     6.1119
  113.7000   122.6769     6.0006     6.1172
  113.8000   124.0279     6.0005     6.1546
  113.9000   125.1881     6.0004     6.1545
  114.0000   126.1414     6.0065     6.1792
  114.1000   126.7130     6.0423     6.1975
  114.2000   126.7115     6.0423     6.1974
  114.3000   126.2576     6.0422     6.1973
  114.4000   125.4206     6.0421     6.1972
  114.5000   124.3162     6.0515     6.2255
  114.6000   122.4617     6.0843     6.2405
  114.7000   119.4818     6.0842     6.2404
  114.8000   116.9624     6.0841     6.2403
  114.9000   115.3226     6.1047     6.2402
  115.0000   114.2727     6.1266     6.2401
  115.1000   113.0543     6.1265     6.2400
  115.2000   112.8057     6.1264     6.2399
  115.3000   112.5570     6.1264     6.2478
  115.4000   112.7253     6.1263     6.2835
  115.5000   113.3000     6.1424     6.2834
  115.6000   114.1455     6.1691     6.3110
  115.7000   116.0780     6.1690     6.3273
  115.8000   117.5980     6.1689     6.3387
  115.9000   119.0019     6.1964     6.3714
  116.0000   120.6546     6.2317     6.3713
  116.1000   122.7767     6.2555     6.4029
  116.2000   124.5539     6.2591     6.4158
  116.3000   126.7084     6.2991     6.4310
  116.4000   128.5616     6.2991     6.4606
  116.5000   129.7788     6.2990     6.4605
  116.6000   130.2331     6.3141     6.4961
  116.7000   129.9844     6.3430     6.5056
  116.8000   129.6942     6.3429     6.5247
  116.9000   129.4871     6.3780     6.5619
  117.0000   128.9394     6.4144     6.5968
  117.1000   128.1970     6.4509     6.5967
  117.2000   127.4546     6.4769     6.5966
  117.3000   126.6550     6.4792     6.6197
  117.4000   125.5140     6.5221     6.6574
  117.5000   124.2778     6.5220     6.6891
  117.6000   122.9261     6.5448     6.6890
  117.7000   121.5618     6.5821     6.7248
  117.8000   120.5758     6.6196     6.7357
  117.9000   119.8333     6.6598     6.7543
  118.0000   119.0909     6.6597     6.7827
  118.1000   118.4863     6.6597     6.7826
  118.2000   118.0723     6.6778     6.7825
  118.3000   117.8236     6.7062     6.7824
  118.4000   117.5440     6.7071     6.8050
  118.5000   117.5424     6.7453     6.8297
  118.6000   117.3806     6.7529     6.8349
  118.7000   117.2358     6.7750     6.8774
  118.8000   117.2339     6.8001     6.8773
  118.9000   117.2321     6.8000     6.8772
  119.0000   116.9919     6.7999     6.8771
  119.1000   116.5610     6.8345     6.8770
  119.2000   116.1915     6.8474     6.8769
  119.3000   115.9428     6.8473     6.8768
  119.4000   115.6804     6.8472     6.8767
  119.5000   115.0997     6.8471     6.8766
  119.6000   114.8937     6.8470     6.8765
  119.7000   114.3485     6.8469     6.8764
  119.8000   113.6982     6.8468     6.8763
  119.9000   113.1307     6.8467     6.8762
  120.0000   112.0605     6.8466     6.8506
  120.1000   111.1521     6.8465     6.8282
  120.2000   110.3334     6.8464     6.8281
  120.3000   109.4766     6.8463     6.8280
  120.4000   108.4873     6.8462     6.8279
  120.5000   107.5000     6.8461     6.8278
  120.6000   106.7576     6.8460     6.8073
  120.7000   105.8224     6.8090     6.7801
  120.8000   104.9697     6.7982     6.7800
  120.9000   104.4685     6.7789     6.7799
  121.0000   104.4667     6.7507     6.7798
  121.1000   104.4646     6.7506     6.7557
  121.2000   104.6780     6.7504     6.7325
  121.3000   104.9230     6.7191     6.7258
  121.4000   105.4760     6.7033     6.6854
  121.5000   106.6010     6.6893     6.6853
  121.6000   108.3951     6.6564     6.6853
  121.7000   109.5792     6.6563     6.6663
  121.8000   111.3548     6.6562     6.6385
  121.9000   112.8285     6.6303     6.6367
  122.0000   113.8828     6.6097     6.5922
  122.1000   115.1028     6.6009     6.5921
  122.2000   116.2627     6.5635     6.5920
  122.3000   116.8709     6.5634     6.5919
  122.4000   117.6097     6.5633     6.5864
  122.5000   118.0758     6.5426     6.5458
  122.6000   118.0739     6.5174     6.5116
  122.7000   118.0720     6.5136     6.5001
  122.8000   117.6194     6.4718     6.4828
  122.9000   117.2931     6.4717     6.4547
  123.0000   116.8182     6.4716     6.4540
  123.1000   116.1327     6.4716     6.4173
  123.2000   115.6363     6.4644     6.4095
  123.3000   114.8940     6.4263     6.4094
  123.4000   114.3430     6.4262     6.3970
  123.5000   113.8475     6.4261     6.3605
  123.6000   113.4311     6.4073     6.3203
  123.7000   113.1594     6.3812     6.3202
  123.8000   112.5973     6.3811     6.2963
  123.9000   112.3820     6.3810     6.2604
  124.0000   111.8182     6.3507     6.2323
  124.1000   111.1772     6.3364     6.2322
  124.2000   110.6816     6.3226     6.1972
  124.3000   110.1642     6.2921     6.1886
  124.4000   109.6905     6.2920     6.1697
  124.5000   109.0152     6.2919     6.1454
  124.6000   108.5200     6.2918     6.1483
  124.7000   108.3388     6.2918     6.1883
  124.8000   108.3257     6.2917     6.1882
  124.9000   108.0318     6.2916     6.1881
  125.0000   108.2323     6.2915     6.2025
  125.1000   108.3315     6.2914     6.2313
  125.2000   108.5091     6.2913     6.2312
  125.3000   109.0345     6.2912     6.2311
  125.4000   109.8410     6.2911     6.2311
  125.5000   110.5121     6.2910     6.2490
  125.6000   111.2509     6.2910     6.2745
  125.7000   111.9897     6.3147     6.2764
  125.8000   112.7285     6.3349     6.3183
  125.9000   113.4685     6.3348     6.3482
  126.0000   113.9596     6.3347     6.3624
  126.1000   114.6418     6.3703     6.3761
  126.2000   115.2465     6.3790     6.4068
  126.3000   115.6604     6.3982     6.4067
  126.4000   115.9273     6.4235     6.4407
  126.5000   116.4876     6.4263     6.4515
  126.6000   116.9111     6.4684     6.4690
  126.7000   116.7776     6.4683     6.5058
  126.8000   116.1818     6.4682     6.5419
  126.9000   115.4394     6.4681     6.5418
  127.0000   114.6605     6.4744     6.5717
  127.1000   113.7198     6.5133     6.5875
  127.2000   112.9091     6.5484     6.5874
  127.3000   112.1667     6.5857     6.5920
