~VERSION INFORMATION
 VERS.                2.0:   CWLS LOG ASCII STANDARD - VERSION 2.0
 WRAP.                 NO:   ONE LINE PER DEPTH STEP
~WELL INFORMATION
#MNEM.UNIT      DATA TYPE    INFORMATION
#----------   ------------   ------------------------------
 STRT.F         1420.5000:   START DEPTH
 STOP.F         2187.0000:   STOP DEPTH
 STEP.F            0.5000:   STEP LENGTH
 NULL.          -999.2500:   NO VALUE
 COMP. LAWRENCE/ALLISON INC:   COMPANY
 WELL.      22-2 STX #3-3:   WELL
 FLD .            WILDCAT:   FIELD
 LOC .       S3 T38N R78W:   LOCATION
 CNTY.            NATRONA:   COUNTY
 STAT.            WYOMING:   STATE
 CTRY. UNITED STATES OF AMERICA:   COUNTRY
 SRVC.            Unknown:   SERVICE COMPANY
 DATE.        10-JUN-1991:   LOGDATE
 API .       490251103400:   API NUMBER
~CURVE INFORMATION
#MNEM.UNIT       API CODE    CURVE DESCRIPTION
#----------   ------------   ------------------------------
 DEPT.F                  :   
 ROP .MIN/FT 91 810 01 00:   RATE OF DRILLING PENETRATION
 TGAS.UNITS  91 830 01 00:   TOTAL GAS
~PARAMETER INFORMATION
#MNEM.UNIT          VALUE    DESCRIPTION
#----------   ------------   ------------------------------
 EKB .F              5218:   KELLING BUSHING
 EGL .F              5208:   GROUND LEVEL
 DATE.            6-10-91:   RUN DATE
 BLI .F              2187:   BOTTOM LOG INTERVAL
 TLI .F              1420:   TOP LOG INTERVAL
 CS  .IN            8.625:   CASING SIZE
 CBD .F               562:   CASING BOTTOM DRILLER
 TLAB.HRS            0030:   TIME LOGGER AT BOTTOM
 ENGI.              TOWER:   RECORDING ENGINEER
 WITN.               HUSK:   WITNESSED BY
 CLNT.            A2DTECH:   CLIENT CODE
 ORIG.           5" PRINT:   ORIGIN OF DATA
 UWI .       490251103400:   UNIQUE WELL ID
 DICO. A2D Technologies, Inc.:   DIGITIZING COMPANY
~OTHER INFORMATION
~A  DEPT         ROP      TGAS  
# ...
 1663.5000     0.6228     0.0000
 1664.0000     0.6226     0.0000
 1664.5000     0.6330     0.0000
 1665.0000     0.6329     0.0000
 1665.5000     0.6347     0.0000
 1666.0000     0.6536     0.0000
 1666.5000     0.6639     0.0000
 1667.0000     0.6638     0.0000
 1667.5000     0.6637     0.0000
 1668.0000     0.6635     0.0000
 1668.5000     0.6634     0.0000
 1669.0000     0.6633     0.0000
 1669.5000     0.6631     0.0000
 1670.0000     0.6630     0.0000
 1670.5000     0.6628     0.0000
 1671.0000     0.6627     0.0000
 1671.5000     0.6626     0.0000
 1672.0000     0.6625     0.0000
 1672.5000     0.6623     0.0000
 1673.0000     0.6727     0.0000
 1673.5000     0.6726     0.0000
 1674.0000     0.6724     0.0000
 1674.5000     0.6723     0.0000
 1675.0000     0.6782     0.0000
 1675.5000     0.6825     0.0000
 1676.0000     0.6824     0.0000
 1676.5000     0.6822     0.0000
 1677.0000     0.6758     0.0000
 1677.5000     0.6678     0.0000
 1678.0000     0.6271     0.0000
 1678.5000     0.6175     0.0000
 1679.0000     0.7448     0.0000
 1679.5000     0.8549     0.0000
 1680.0000     0.9245     0.0000
 1680.5000     0.9116     0.0000
 1681.0000     0.9111     0.0000
 1681.5000     0.8688     0.0000
 1682.0000     0.8388     0.0000
 1682.5000     0.7791     0.0000
 1683.0000     0.7314     0.0000
 1683.5000     0.6995     0.0000
 1684.0000     0.6845     0.0000
 1684.5000     0.6883     0.0000
 1685.0000     0.6984     0.0000
 1685.5000     0.7047     0.0000
 1686.0000     0.7226     0.0000
 1686.5000     0.7154     0.0000
 1687.0000     0.6444     0.0000
 1687.5000     0.5719     0.0000
 1688.0000     0.5597     0.0000
 1688.5000     0.5699     0.0000
 1689.0000     0.6009     0.0000
 1689.5000     0.6721     0.0000
 1690.0000     0.7057     0.0000
 1690.5000     0.7255     0.0000
 1691.0000     0.7041     0.0000
 1691.5000     0.5886     0.0000
 1692.0000     0.5216     0.0000
 1692.5000     0.5133     0.0000
 1693.0000     0.4929     0.0000
 1693.5000     0.4925     0.0000
 1694.0000     0.4956     0.0000
 1694.5000     0.5240     0.0000
 1695.0000     0.5647     0.0000
 1695.5000     0.6241     0.0000
 1696.0000     0.6754     0.0000
 1696.5000     0.7208     0.0000
 1697.0000     0.7203     0.0000
 1697.5000     0.7142     0.0000
 1698.0000     0.6955     0.0000
 1698.5000     0.6758     0.0000
 1699.0000     0.6244     0.0000
 1699.5000     0.5749     0.0000
 1700.0000     0.5189     0.0000
 1700.5000     0.5300     0.0000
 1701.0000     0.5914     0.0000
 1701.5000     0.6285     0.0000
 1702.0000     0.6459     0.0000
 1702.5000     0.6741     0.0000
 1703.0000     0.6737     0.0000
 1703.5000     0.6733     0.0000
 1704.0000     0.6598     0.0000
 1704.5000     0.6411     0.0000
 1705.0000     0.6197     0.0000
 1705.5000     0.5828     0.0000
 1706.0000     0.5510     0.0000
 1706.5000     0.5347     0.0000
 1707.0000     0.5316     0.0000
 1707.5000     0.5495     0.0000
 1708.0000     0.5546     0.0000
 1708.5000     0.5541     0.0000
 1709.0000     0.5537     0.0000
 1709.5000     0.5533     0.0000
 1710.0000     0.5635     0.0000
 1710.5000     0.5525     0.0000
 1711.0000     0.5416     0.0000
 1711.5000     0.4956     0.0000
 1712.0000     0.4675     0.0000
 1712.5000     0.4671     0.0000
 1713.0000     0.4562     0.0000
 1713.5000     0.4558     0.0000
 1714.0000     0.4660     0.0000
 1714.5000     0.4655     0.0000
 1715.0000     0.5175     0.0000
 1715.5000     0.6382     0.0000
 1716.0000     0.6950     0.0000
 1716.5000     0.6841     0.0000
 1717.0000     0.6731     0.0000
 1717.5000     0.6728     0.0000
 1718.0000     0.6983     0.0000
 1718.5000     0.7873     0.0000
 1719.0000     0.8666     0.0000
 1719.5000     0.9165     0.0000
 1720.0000     0.9554     0.0000
 1720.5000     0.9744     0.0000
 1721.0000     0.9979     0.0000
 1721.5000     1.0051     0.0000
 1722.0000     0.9701     0.0000
 1722.5000     0.9100     0.0000
 1723.0000     0.7942     0.0000
 1723.5000     0.7392     0.0000
 1724.0000     0.7064     0.0000
 1724.5000     0.6778     0.0000
 1725.0000     0.6773     0.0000
 1725.5000     0.6813     0.0000
 1726.0000     0.6888     0.0531
 1726.5000     0.6972     0.1459
 1727.0000     0.6967     0.2388
 1727.5000     0.6964     0.3317
 1728.0000     0.6960     0.4245
 1728.5000     0.6956     0.5174
 1729.0000     0.7056     0.6180
 1729.5000     0.7053     0.7031
 1730.0000     0.7049     0.7960
 1730.5000     0.7045     0.8953
 1731.0000     0.7250     0.9928
 1731.5000     0.7397     1.0746
 1732.0000     0.7453     1.1675
 1732.5000     0.7554     1.2603
 1733.0000     0.7759     1.3532
 1733.5000     0.7860     1.4576
 1734.0000     0.7856     1.5389
 1734.5000     0.7852     1.6318
 1735.0000     0.7848     1.7275
 1735.5000     0.7751     1.8249
 1736.0000     0.7421     1.9104
 1736.5000     0.7313     2.0032
 1737.0000     0.7727     2.0961
 1737.5000     0.8077     2.1922
 1738.0000     0.8772     2.2972
 1738.5000     0.9498     2.3747
 1739.0000     0.9284     2.4676
 1739.5000     0.9071     2.5604
 1740.0000     0.8895     2.6645
 1740.5000     0.8329     2.7462
 1741.0000     0.7696     2.8390
 1741.5000     0.7181     2.9319
 1742.0000     0.6699     3.0319
 1742.5000     0.6427     3.1176
 1743.0000     0.6213     3.2105
 1743.5000     0.6209     3.3034
 1744.0000     0.6253     3.3992
 1744.5000     0.6516     3.5042
 1745.0000     0.7036     3.5820
 1745.5000     0.7293     3.6748
 1746.0000     0.7497     3.7677
 1746.5000     0.7758     3.8715
 1747.0000     0.7754     3.9534
 1747.5000     0.7438     4.0463
 1748.0000     0.6911     4.1392
 1748.5000     0.6170     4.2389
 1749.0000     0.6375     4.3249
 1749.5000     0.6738     4.4177
 1750.0000     0.7285     4.5106
 1750.5000     0.7727     4.6062
 1751.0000     0.8141     4.7111
 1751.5000     0.8402     4.7892
 1752.0000     0.8554     4.8821
 1752.5000     0.8549     4.9749
 1753.0000     0.8546     5.0785
 1753.5000     0.8413     5.1607
 1754.0000     0.8118     5.2535
 1754.5000     0.7904     5.3464
 1755.0000     0.7641     5.4458
 1755.5000     0.7348     5.5321
 1756.0000     0.7264     5.6250
 1756.5000     0.7155     5.5226
 1757.0000     0.7151     2.6292
 1757.5000     0.7122     2.7342
 1758.0000     0.7039     1.2279
 1758.5000     0.7139     0.0000
 1759.0000     0.7136     0.0000
 1759.5000     0.7237     0.0000
 1760.0000     0.7233     0.0000
 1760.5000     0.7448     0.0000
 1761.0000     0.7348     0.5381
 1761.5000     0.7249     1.0238
 1762.0000     0.7255     1.0083
 1762.5000     0.7154     0.9937
 1763.0000     0.7159     0.9817
 1763.5000     0.7060     0.9685
 1764.0000     0.6961     0.9552
 1764.5000     0.6861     0.9411
 1765.0000     0.6760     0.9261
 1765.5000     0.6766     0.9154
 1766.0000     0.6772     0.9021
 1766.5000     0.6837     0.8885
 1767.0000     0.7064     0.8735
 1767.5000     0.7533     0.8623
 1768.0000     0.7841     0.8491
 1768.5000     0.7637     0.8358
 1769.0000     0.7403     0.8209
 1769.5000     0.7082     0.8093
 1770.0000     0.6814     0.7960
 1770.5000     0.6819     0.7827
 1771.0000     0.6824     0.7684
 1771.5000     0.6934     0.7562
 1772.0000     0.6939     0.7429
 1772.5000     0.6840     0.7297
 1773.0000     0.6784     0.7147
 1773.5000     0.6430     0.7007
 1774.0000     0.6306     0.6899
 1774.5000     0.6127     0.6766
 1775.0000     0.6028     0.6610
 1775.5000     0.6032     0.6482
 1776.0000     0.6038     0.6368
 1776.5000     0.6148     0.6235
 1777.0000     0.6363     0.6103
 1777.5000     0.6684     0.5956
 1778.0000     0.7014     0.5837
 1778.5000     0.7437     0.5705
 1779.0000     0.7747     0.5572
 1779.5000     0.7918     0.5430
 1780.0000     0.7929     0.5307
 1780.5000     0.7749     0.5174
 1781.0000     0.7348     0.5041
 1781.5000     0.7040     0.4904
 1782.0000     0.6894     0.4754
 1782.5000     0.6713     0.4643
 1783.0000     0.6530     0.4511
 1783.5000     0.6536     0.4378
 1784.0000     0.6595     0.4228
 1784.5000     0.6815     0.4113
