~VERSION INFORMATION
 VERS.                2.0:   CWLS LOG ASCII STANDARD - VERSION 2.0
 WRAP.                 NO:   ONE LINE PER DEPTH STEP
~WELL INFORMATION
#MNEM.UNIT      DATA TYPE    INFORMATION
#----------   ------------   ------------------------------
 STRT.F            2.0000:   START DEPTH
 STOP.F          592.0000:   STOP DEPTH
 STEP.F            0.1000:   STEP LENGTH
 NULL.          -999.2500:   NO VALUE
 COMP. BROWN JOHN E&C INC:   COMPANY
 WELL. NAVAL PETROLEUM RESERVE 3 SX-3 #73-3:   WELL
 FLD .             TEAPOT:   FIELD
 LOC .       S3 T38N R78W:   LOCATION
 CNTY.            NATRONA:   COUNTY
 STAT.            WYOMING:   STATE
 CTRY. UNITED STATES OF AMERICA:   COUNTRY
 SRVC.     Atlas Wireline:   SERVICE COMPANY
 DATE.        22-APR-1992:   LOGDATE
 API .       490252251000:   API NUMBER
~CURVE INFORMATION
#MNEM.UNIT       API CODE    CURVE DESCRIPTION
#----------   ------------   ------------------------------
 DEPT.F                  :   
 GRR .GAPI   07 310 01 00:   GAMMA RAY
 RILD.OHMM   07 120 46 00:   INDUCTION LOG DEEP RESISTIVITY
 RILM.OHMM   07 120 44 00:   INDUCTION LOG MEDIUM RESISTIVITY
~PARAMETER INFORMATION
#MNEM.UNIT          VALUE    DESCRIPTION
#----------   ------------   ------------------------------
 PD  .                 GL:   PERMANENT DATUM
 EPD .F              5148:   ELEVATION PERMANENT DATUM
 LMF .                 KB:   LOG MEASURED FROM
 DAPD.F                 5:   FEET ABOVE PERMANENT DATUM
 DMF .                 KB:   DRILLING MEASURED FROM
 EKB .F              5153:   KELLING BUSHING
 EDF .F              5152:   DRILLING FLOOR
 EGL .F              5148:   GROUND LEVEL
 DATE.        22-APR-1992:   RUN DATE
 RUN .                  1:   RUN NUMBER
 DD  .F               600:   DEPTH DRILLER
 DL  .F               601:   DEPTH LOGGER
 BLI .F               592:   BOTTOM LOG INTERVAL
 TLI .F                51:   TOP LOG INTERVAL
 CS  .IN            8.625:   CASING SIZE
 CBD .F                48:   CASING BOTTOM DRILLER
 CBL .F                51:   CASING BOTTOM LOGGER
 BS  .IN            7.875:   BIT SIZE
 BSD .F               600:   BIT SIZE AT DEPTH
 DFT .                AIR:   DRILLING FLUID TYPE
 LUN .            HL-5272:   LOGGING UNIT NUMBER
 LUL .             CASPER:   LOGGING UNIT LOCATION
 ENGI.       P. RAGMUSSEN:   RECORDING ENGINEER
 WITN.          G. STRONG:   WITNESSED BY
 CLNT.            A2DTECH:   CLIENT CODE
 ORIG.           5" PRINT:   ORIGIN OF DATA
 UWI .       490252251000:   UNIQUE WELL ID
 DICO. A2D Technologies, Inc.:   DIGITIZING COMPANY
~OTHER INFORMATION
~A    DEPT      GRR      RILD       RILM   
# ...
  457.0000   103.7655    11.4291    11.4976
  457.1000   103.7689    11.4302    11.4987
  457.2000   103.7731    11.4760    11.5255
  457.3000   103.6963    11.5127    11.5813
  457.4000   103.4341    11.5280    11.5825
  457.5000   102.8815    11.5957    11.5836
  457.6000   102.6767    11.5970    11.5847
  457.7000   102.2872    11.5983    11.6158
  457.8000   101.8043    11.5996    11.6679
  457.9000   101.2871    11.6008    11.6690
  458.0000   100.4891    11.6043    11.6701
  458.1000    99.8348    11.6711    11.6713
  458.2000    99.2696    11.6857    11.7066
  458.3000    98.6834    11.6871    11.7740
  458.4000    97.9572    11.6884    11.8384
  458.5000    97.1918    11.6897    11.8398
  458.6000    96.9653    11.6912    11.8953
  458.7000    97.0707    11.6923    11.9638
  458.8000    97.2042    11.7341    12.0091
  458.9000    97.3205    11.7766    12.0102
  459.0000    97.8160    11.7779    12.0116
  459.1000    98.0617    11.7793    12.0722
  459.2000    98.6765    11.7805    12.0977
  459.3000    99.2860    11.8262    12.0712
  459.4000    99.7772    11.8655    12.0159
  459.5000   100.2684    11.8668    12.0173
  459.6000   100.7600    11.8682    12.0184
  459.7000   101.4459    11.8694    12.0196
  459.8000   101.9077    11.8707    12.0208
  459.9000   102.2337    11.9045    12.0220
  460.0000   102.7252    11.9563    12.0231
  460.1000   103.2930    11.9577    12.0243
  460.2000   103.9130    11.9590    12.0255
  460.3000   104.5005    11.9604    12.0266
  460.4000   104.9919    11.9617    12.0078
  460.5000   105.4831    11.9630    11.9455
  460.6000   106.0288    11.9644    11.9469
  460.7000   106.2492    11.9659    11.9478
  460.8000   106.4970    11.9670    11.9490
  460.9000   106.7447    11.9287    11.9502
  461.0000   106.9502    11.8867    11.9513
  461.1000   106.9547    11.8801    11.9526
  461.2000   107.1863    11.8070    11.8940
  461.3000   107.2645    11.8081    11.8719
  461.4000   107.3803    11.7667    11.8451
  461.5000   107.5746    11.7288    11.7916
  461.6000   107.5790    11.7301    11.7931
  461.7000   107.5831    11.7315    11.7311
  461.8000   107.5873    11.6712    11.6663
  461.9000   107.4691    11.6070    11.6333
  462.0000   107.1655    11.5431    11.6183
  462.1000   106.6761    11.4941    11.5549
  462.2000   105.9500    11.4954    11.5560
  462.3000   105.2238    11.4329    11.5571
  462.4000   104.3637    11.3700    11.5229
  462.5000   103.5443    11.3074    11.4791
  462.6000   103.0270    11.2451    11.4755
  462.7000   101.8945    11.1858    11.4020
  462.8000   100.8841    11.1874    11.4029
  462.9000    99.9602    11.1378    11.3652
  463.0000    99.2337    11.1120    11.3260
  463.1000    98.5355    11.0925    11.3271
  463.2000    97.9939    11.0314    11.3283
  463.3000    97.7838    10.9622    11.3293
  463.4000    97.5444    10.9104    11.2880
  463.5000    97.5003    10.8884    11.2529
  463.6000    97.7480    10.8660    11.2415
  463.7000    98.0148    10.8151    11.1770
  463.8000    98.2436    10.8166    11.1781
  463.9000    98.4913    10.7623    11.1334
  464.0000    98.9561    10.7438    11.0719
  464.1000    99.7917    10.7185    11.0268
  464.2000   101.0523    10.6595    11.0278
  464.3000   102.0001    10.5988    10.9654
  464.4000   102.9783    10.6000    10.9534
  464.5000   103.7174    10.5577    10.9203
  464.6000   104.0857    10.5288    10.8600
  464.7000   104.0899    10.5148    10.8000
  464.8000   104.0941    10.4570    10.7314
  464.9000   103.9096    10.3994    10.6809
  465.0000   103.6703    10.3879    10.6219
  465.1000   103.4309    10.3571    10.5632
  465.2000   103.2058    10.3001    10.5048
  465.3000   103.2110    10.2475    10.4417
  465.4000   103.0146    10.2490    10.4427
  465.5000   102.7753    10.2018    10.4038
  465.6000   102.6196    10.1800    10.3463
  465.7000   102.6238    10.1811    10.3013
  465.8000   102.6286    10.1750    10.3023
  465.9000   102.6323    10.1128    10.2468
  466.0000   102.7893    10.1138    10.1902
  466.1000   103.0371    10.0778    10.1628
  466.2000   103.3579    10.0459    10.1638
  466.3000   104.1578    10.0470    10.1626
  466.4000   105.0498    10.0482    10.0954
  466.5000   105.7006    10.0493    10.0962
  466.6000   106.0859    10.0504    10.0973
  466.7000   106.3334    10.0515    10.0982
  466.8000   106.5920    10.0526    10.0992
  466.9000   106.5961    10.0537    10.1003
  467.0000   106.6003    10.0548    10.1011
  467.1000   106.4877    10.0560    10.1021
  467.2000   106.1897    10.0571    10.1031
  467.3000   105.7073    10.0582    10.1041
  467.4000   105.4681    10.0594    10.1052
  467.5000   104.6707    10.0607    10.1061
  467.6000   103.8288    10.0616    10.1071
  467.7000   103.0328    10.0955    10.1080
  467.8000   102.0741    10.1536    10.1090
  467.9000   101.2093    10.2121    10.1100
  468.0000   100.6213    10.2786    10.1675
  468.1000    99.8949    10.2797    10.1826
  468.2000    99.2496    10.3175    10.1836
  468.3000    98.7895    10.3769    10.1846
  468.4000    98.5152    10.4366    10.1885
  468.5000    98.3107    10.5014    10.2579
  468.6000    98.2214    10.5571    10.3061
  468.7000    98.1337    10.5770    10.3654
  468.8000    97.9276    10.6049    10.4250
  468.9000    98.2345    10.6660    10.4849
  469.0000    98.2383    10.7289    10.5527
  469.1000    98.2425    10.7892    10.6060
  469.2000    98.3498    10.8513    10.6669
  469.3000    98.5975    10.9138    10.7283
  469.4000    98.8587    10.9767    10.7900
  469.5000    99.3233    11.0416    10.8559
  469.6000   100.1589    11.1679    10.9726
  469.7000   101.8215    11.2958    11.0981
  469.8000   103.9259    11.4250    11.2251
  469.9000   104.9129    11.5766    11.3383
  470.0000   105.3996    11.7747    11.4035
  470.1000   105.7076    12.0079    11.6655
  470.2000   105.9555    12.1242    12.0381
  470.3000   106.1364    12.3055    12.3778
  470.4000   106.1318    12.5164    12.6611
  470.5000   105.8924    12.7306    12.9459
  470.6000   105.6531    12.9708    13.2066
  470.7000   105.1414    13.1044    13.5213
  470.8000   104.3367    13.3545    13.9222
  470.9000   103.2275    13.6936    14.3372
  471.0000   100.1334    14.0855    14.7522
  471.1000    96.8525    14.5071    15.1672
  471.2000    93.9899    14.9046    15.5822
  471.3000    92.3366    15.3326    15.9972
  471.4000    91.5793    15.6856    16.4122
  471.5000    90.5012    15.9320    16.8272
  471.6000    89.4229    16.1145    17.2421
  471.7000    87.7351    16.3914    17.6571
  471.8000    85.1913    16.6003    18.0721
  471.9000    81.9121    16.8412    18.4871
  472.0000    79.0591    17.1588    18.9021
  472.1000    78.6082    17.5504    19.3171
  472.2000    78.4639    18.0237    19.7321
  472.3000    78.5794    18.3642    20.1471
  472.4000    78.8271    18.7848    20.5621
  472.5000    79.0800    19.2533    20.9771
  472.6000    79.5614    19.8038    21.3920
  472.7000    80.2331    20.4412    21.8070
  472.8000    80.9677    20.7490    22.2220
  472.9000    81.6383    21.1051    22.6370
  473.0000    82.1237    21.4668    23.0520
  473.1000    82.3714    21.8343    23.4670
  473.2000    82.6192    22.2344    23.8820
  473.3000    82.8670    22.9506    24.2970
  473.4000    83.0395    23.5551    24.6780
  473.5000    83.0607    24.1574    24.9628
  473.6000    83.3503    24.7857    25.3921
  473.7000    83.1513    25.2166    25.7133
  473.8000    82.6232    25.7864    26.0076
  473.9000    81.8106    26.1543    26.2577
  474.0000    80.8404    26.4534    26.3963
  474.1000    79.7514    26.7141    26.3993
  474.2000    79.3278    26.8736    26.6557
  474.3000    78.8448    27.2423    26.8671
  474.4000    78.4595    27.3681    27.0217
  474.5000    78.2202    27.4381    27.1771
  474.6000    77.9623    27.4920    27.3476
  474.7000    77.9662    27.6502    27.6326
  474.8000    77.9705    27.8326    27.8421
  474.9000    78.1915    27.9697    27.9327
  475.0000    78.6326    28.1307    27.9679
  475.1000    78.8882    28.2927    28.1334
