~VERSION INFORMATION
 VERS.                2.0:   CWLS LOG ASCII STANDARD - VERSION 2.0
 WRAP.                 NO:   ONE LINE PER DEPTH STEP
~WELL INFORMATION
#MNEM.UNIT      DATA TYPE    INFORMATION
#----------   ------------   ------------------------------
 STRT.F            0.0000:   START DEPTH
 STOP.F         2182.0000:   STOP DEPTH
 STEP.F            0.1000:   STEP LENGTH
 NULL.          -999.2500:   NO VALUE
 COMP.       FLUOR DANIEL:   COMPANY
 WELL.   75-1 X 29 #75-29:   WELL
 FLD .             TEAPOT:   FIELD
 LOC .      S29 T39N R78W:   LOCATION
 CNTY.            NATRONA:   COUNTY
 STAT.            WYOMING:   STATE
 CTRY. UNITED STATES OF AMERICA:   COUNTRY
 SRVC.      Western Atlas:   SERVICE COMPANY
 DATE.        10-MAY-1996:   LOGDATE
 API .       490252279100:   API NUMBER
~CURVE INFORMATION
#MNEM.UNIT       API CODE    CURVE DESCRIPTION
#----------   ------------   ------------------------------
 DEPT.F                  :   
 GRR .GAPI   07 310 01 00:   GAMMA RAY
 RFOC.OHMM   07 220 04 00:   RESISTIVITY FOCUSED LOG
 RILD.OHMM   07 120 46 00:   INDUCTION LOG DEEP RESISTIVITY
 RILM.OHMM   07 120 44 00:   INDUCTION LOG MEDIUM RESISTIVITY
~PARAMETER INFORMATION
#MNEM.UNIT          VALUE    DESCRIPTION
#----------   ------------   ------------------------------
 PD  .                 GL:   PERMANENT DATUM
 EPD .F              5031:   ELEVATION PERMANENT DATUM
 LMF .                 KB:   LOG MEASURED FROM
 DAPD.F                10:   FEET ABOVE PERMANENT DATUM
 DMF .                 KB:   DRILLING MEASURED FROM
 EKB .F              5041:   KELLING BUSHING
 EDF .F              5040:   DRILLING FLOOR
 EGL .F              5031:   GROUND LEVEL
 DATE.        10-MAY-1996:   RUN DATE
 RUN .                  1:   RUN NUMBER
 DD  .F              2188:   DEPTH DRILLER
 DL  .F              2184:   DEPTH LOGGER
 BLI .F              2182:   BOTTOM LOG INTERVAL
 TLI .F               400:   TOP LOG INTERVAL
 CS  .IN                7:   CASING SIZE
 CBD .F               400:   CASING BOTTOM DRILLER
 CBL .F               400:   CASING BOTTOM LOGGER
 BS  .IN             6.25:   BIT SIZE
 BSD .F              2188:   BIT SIZE AT DEPTH
 DFT .                AIR:   DRILLING FLUID TYPE
 MRT .F                97:   MAXIMUM RECORDED TEMPERATURE
 LUN .            HL-6530:   LOGGING UNIT NUMBER
 LUL .             CASPER:   LOGGING UNIT LOCATION
 ENGI.           BROWNLOW:   RECORDING ENGINEER
 WITN.             LEBEAU:   WITNESSED BY
 CLNT.            A2DTECH:   CLIENT CODE
 ORIG.           5" PRINT:   ORIGIN OF DATA
 UWI .       490252279100:   UNIQUE WELL ID
 DICO. A2D Technologies, Inc.:   DIGITIZING COMPANY
~OTHER INFORMATION
~A    DEPT      GRR      RFOC       RILD       RILM   
# ...
  627.8000   150.8698  -999.2500     6.0496     6.3471
  627.9000   150.8687  -999.2500     6.0175     6.3264
  628.0000   150.8673  -999.2500     6.0073     6.2896
  628.1000   150.8663  -999.2500     5.9890     6.2529
  628.2000   150.7081  -999.2500     5.9542     6.2158
  628.3000   150.4556  -999.2500     5.9195     6.1804
  628.4000   150.1463  -999.2500     5.8829     6.1166
  628.5000   149.6426  -999.2500     5.8827     6.0665
  628.6000   149.0528  -999.2500     5.8572     6.0312
  628.7000   148.6354  -999.2500     5.8049     5.9961
  628.8000   147.9733  -999.2500     5.7609     5.9616
  628.9000   147.2184  -999.2500     5.7556     5.9614
  629.0000   146.4054  -999.2500     5.7207     5.9330
  629.1000   145.3909  -999.2500     5.7205     5.9200
  629.2000   143.9251  -999.2500     5.7202     5.9198
  629.3000   143.0860  -999.2500     5.7200     5.9197
  629.4000   142.2398  -999.2500     5.7198     5.9195
  629.5000   141.5947  -999.2500     5.7196     5.9193
  629.6000   141.0318  -999.2500     5.7193     5.9192
  629.7000   140.2769  -999.2500     5.7191     5.9190
  629.8000   139.3998  -999.2500     5.6928     5.9349
  629.9000   139.3988  -999.2500     5.6792     5.9599
  630.0000   139.3976  -999.2500     5.6789     5.9597
  630.1000   139.5070  -999.2500     5.6786     5.9595
  630.2000   139.9396  -999.2500     5.6784     5.9901
  630.3000   140.9531  -999.2500     5.6781     6.0006
  630.4000   142.4046  -999.2500     5.6780     6.0004
  630.5000   143.4630  -999.2500     5.6777     6.0002
  630.6000   144.8791  -999.2500     5.6775     6.0001
  630.7000   146.6091  -999.2500     5.6772     5.9999
  630.8000   148.6183  -999.2500     5.6770     6.0319
  630.9000   150.6254  -999.2500     5.6767     6.0413
  631.0000   152.9396  -999.2500     5.6765     6.0411
  631.1000   154.0045  -999.2500     5.6763     6.0529
  631.2000   154.7695  -999.2500     5.6761     6.0829
  631.3000   155.1576  -999.2500     5.6758     6.0827
  631.4000   155.4077  -999.2500     5.6756     6.0825
  631.5000   155.6446  -999.2500     5.6753     6.1093
  631.6000   155.6432  -999.2500     5.6751     6.1245
  631.7000   155.4279  -999.2500     5.6748     6.1243
  631.8000   154.5183  -999.2500     5.6901     6.1241
  631.9000   152.8039  -999.2500     5.7138     6.1239
  632.0000   150.7349  -999.2500     5.7136     6.1589
  632.1000   149.2547  -999.2500     5.7133     6.1662
  632.2000   148.1059  -999.2500     5.7131     6.1660
  632.3000   147.6737  -999.2500     5.7358     6.1658
  632.4000   146.8389  -999.2500     5.7524     6.1657
  632.5000   146.0640  -999.2500     5.7621     6.1655
  632.6000   145.6916  -999.2500     5.7954     6.1653
  632.7000   145.6747  -999.2500     5.8318     6.1652
  632.8000   145.3878  -999.2500     5.8316     6.1650
  632.9000   145.6033  -999.2500     5.8556     6.1806
  633.0000   145.6867  -999.2500     5.8894     6.2076
  633.1000   145.6855  -999.2500     5.9122     6.2074
  633.2000   145.6844  -999.2500     5.9163     6.2072
  633.3000   145.6665  -999.2500     5.9528     6.2071
  633.4000   145.3806  -999.2500     5.9848     6.2068
  633.5000   145.3795  -999.2500     6.0193     6.2066
  633.6000   145.3783  -999.2500     6.0351     6.2065
  633.7000   145.2593  -999.2500     6.0470     6.2063
  633.8000   145.0747  -999.2500     6.0765     6.2061
  633.9000   145.0378  -999.2500     6.0762     6.2060
  634.0000   144.4697  -999.2500     6.1097     6.2058
  634.1000   144.2496  -999.2500     6.1179     6.2240
  634.2000   143.4901  -999.2500     6.1177     6.2486
  634.3000   142.3651  -999.2500     6.1306     6.2485
  634.4000   141.3840  -999.2500     6.1597     6.2483
  634.5000   141.0931  -999.2500     6.1594     6.2818
  634.6000   140.2456  -999.2500     6.1592     6.3183
  634.7000   140.0242  -999.2500     6.1589     6.3349
  634.8000   139.6017  -999.2500     6.1587     6.3476
  634.9000   139.3385  -999.2500     6.1584     6.3844
  635.0000   139.3374  -999.2500     6.1581     6.4228
  635.1000   139.3767  -999.2500     6.1579     6.4586
  635.2000   139.9372  -999.2500     6.1576     6.4960
  635.3000   140.3790  -999.2500     6.1574     6.5337
  635.4000   141.2228  -999.2500     6.1571     6.5570
  635.5000   142.3481  -999.2500     6.1569     6.5569
  635.6000   143.5320  -999.2500     6.1566     6.5567
  635.7000   144.5346  -999.2500     6.1564     6.6021
  635.8000   145.6529  -999.2500     6.1561     6.6019
  635.9000   145.8746  -999.2500     6.1559     6.6017
  636.0000   145.9518  -999.2500     6.1556     6.5857
  636.1000   145.9506  -999.2500     6.1554     6.5558
  636.2000   145.8767  -999.2500     6.1551     6.5556
  636.3000   145.6470  -999.2500     6.1548     6.5554
  636.4000   145.6456  -999.2500     6.1545     6.5553
  636.5000   145.6446  -999.2500     6.1543     6.5550
  636.6000   145.6434  -999.2500     6.1540     6.5379
  636.7000   145.6422  -999.2500     6.1538     6.5094
  636.8000   145.5672  -999.2500     6.1535     6.5092
  636.9000   145.2670  -999.2500     6.1533     6.5090
  637.0000   144.4336  -999.2500     6.1530     6.5089
  637.1000   143.9824  -999.2500     6.1528     6.4833
  637.2000   143.4787  -999.2500     6.1771     6.4635
  637.3000   142.9751  -999.2500     6.1950     6.4634
  637.4000   142.3214  -999.2500     6.1947     6.4632
  637.5000   141.3151  -999.2500     6.1945     6.4630
  637.6000   140.2095  -999.2500     6.1942     6.4628
  637.7000   140.4348  -999.2500     6.1940     6.4627
  637.8000   141.0377  -999.2500     6.2193     6.4625
  637.9000   141.9165  -999.2500     6.2366     6.4623
  638.0000   142.6908  -999.2500     6.2363     6.4621
  638.1000   142.9409  -999.2500     6.2360     6.4619
  638.2000   143.2143  -999.2500     6.2357     6.4617
  638.3000   143.4409  -999.2500     6.2355     6.4616
  638.4000   143.8683  -999.2500     6.2352     6.4614
  638.5000   144.4966  -999.2500     6.2545     6.4612
  638.6000   145.0942  -999.2500     6.2780     6.4671
  638.7000   145.3170  -999.2500     6.2778     6.5058
  638.8000   145.3156  -999.2500     6.2775     6.5056
  638.9000   145.3145  -999.2500     6.2773     6.5055
  639.0000   145.1347  -999.2500     6.2770     6.5053
  639.1000   145.0109  -999.2500     6.2768     6.5198
  639.2000   144.9308  -999.2500     6.2765     6.5502
  639.3000   144.6498  -999.2500     6.2762     6.5500
  639.4000   144.1035  -999.2500     6.2759     6.5497
  639.5000   143.6425  -999.2500     6.3113     6.5496
  639.6000   143.1391  -999.2500     6.3190     6.5494
  639.7000   142.8952  -999.2500     6.3188     6.5653
  639.8000   142.8140  -999.2500     6.3185     6.5946
  639.9000   142.5617  -999.2500     6.3255     6.5944
  640.0000   142.2891  -999.2500     6.3619     6.5942
  640.1000   142.5190  -999.2500     6.3616     6.6263
  640.2000   142.9501  -999.2500     6.3614     6.6397
  640.3000   143.3203  -999.2500     6.3611     6.6571
  640.4000   143.5703  -999.2500     6.3761     6.6855
  640.5000   143.8203  -999.2500     6.4047     6.6879
  640.6000   144.0891  -999.2500     6.4045     6.7316
  640.7000   144.0879  -999.2500     6.4042     6.7658
  640.8000   144.0867  -999.2500     6.4348     6.7781
  640.9000   144.2177  -999.2500     6.4482     6.7972
  641.0000   144.4678  -999.2500     6.4480     6.8365
  641.1000   144.7177  -999.2500     6.4568     6.8721
  641.2000   144.9855  -999.2500     6.4922     6.8719
  641.3000   145.2180  -999.2500     6.4919     6.9081
  641.4000   145.4680  -999.2500     6.4917     6.9482
  641.5000   145.7180  -999.2500     6.5162     6.9884
  641.6000   146.0516  -999.2500     6.5362     7.0155
  641.7000   146.5866  -999.2500     6.5359     7.0208
  641.8000   147.3879  -999.2500     6.5384     7.0639
  641.9000   148.0907  -999.2500     6.5808     7.0637
  642.0000   148.6584  -999.2500     6.5806     7.0635
  642.1000   149.0250  -999.2500     6.5803     7.0633
  642.2000   149.1904  -999.2500     6.5800     7.0631
  642.3000   149.1891  -999.2500     6.5909     7.0699
