~VERSION INFORMATION
 VERS.                2.0:   CWLS LOG ASCII STANDARD - VERSION 2.0
 WRAP.                 NO:   ONE LINE PER DEPTH STEP
~WELL INFORMATION
#MNEM.UNIT      DATA TYPE    INFORMATION
#----------   ------------   ------------------------------
 STRT.F            3.0000:   START DEPTH
 STOP.F          515.0000:   STOP DEPTH
 STEP.F            0.5000:   STEP LENGTH
 NULL.          -999.2500:   NO VALUE
 COMP. LAWRENCE/ALLISON INC:   COMPANY
 WELL.      77-35 SX #3-3:   WELL
 FLD .             TEAPOT:   FIELD
 LOC .       S3 T38N R78W:   LOCATION
 CNTY.            NATRONA:   COUNTY
 STAT.            WYOMING:   STATE
 CTRY. UNITED STATES OF AMERICA:   COUNTRY
 SRVC.           Gearhart:   SERVICE COMPANY
 DATE.        24-JUN-1988:   LOGDATE
 API .       490251123200:   API NUMBER
~CURVE INFORMATION
#MNEM.UNIT       API CODE    CURVE DESCRIPTION
#----------   ------------   ------------------------------
 DEPT.F                  :   
 GRR .GAPI   07 310 01 00:   GAMMA RAY
 RILD.OHMM   07 120 46 00:   INDUCTION LOG DEEP RESISTIVITY
 RILM.OHMM   07 120 44 00:   INDUCTION LOG MEDIUM RESISTIVITY
~PARAMETER INFORMATION
#MNEM.UNIT          VALUE    DESCRIPTION
#----------   ------------   ------------------------------
 PD  .                 GL:   PERMANENT DATUM
 EPD .F              5154:   ELEVATION PERMANENT DATUM
 LMF .                 KB:   LOG MEASURED FROM
 DAPD.F                10:   FEET ABOVE PERMANENT DATUM
 DMF .                 KB:   DRILLING MEASURED FROM
 EKB .F              5164:   KELLING BUSHING
 EGL .F              5154:   GROUND LEVEL
 DATE.        24-JUN-1988:   RUN DATE
 RUN .                  1:   RUN NUMBER
 DD  .F               520:   DEPTH DRILLER
 DL  .F               523:   DEPTH LOGGER
 BLI .F             514.5:   BOTTOM LOG INTERVAL
 TLI .F                50:   TOP LOG INTERVAL
 CS  .IN            9.625:   CASING SIZE
 CBD .F                50:   CASING BOTTOM DRILLER
 CBL .F                50:   CASING BOTTOM LOGGER
 BS  .IN             8.75:   BIT SIZE
 BSD .F               520:   BIT SIZE AT DEPTH
 DFT .                AIR:   DRILLING FLUID TYPE
 TLAB.HRS            0645:   TIME LOGGER AT BOTTOM
 MRT .F                70:   MAXIMUM RECORDED TEMPERATURE
 LUN .               7597:   LOGGING UNIT NUMBER
 LUL .           GILLETTE:   LOGGING UNIT LOCATION
 ENGI.          HUCKFELDT:   RECORDING ENGINEER
 WITN.             STRONG:   WITNESSED BY
 CLNT.            A2DTECH:   CLIENT CODE
 ORIG.           5" PRINT:   ORIGIN OF DATA
 UWI .       490251123200:   UNIQUE WELL ID
 DICO. A2D Technologies, Inc.:   DIGITIZING COMPANY
~OTHER INFORMATION
~A    DEPT      GRR      RILD       RILM   
# ...
   94.0000   147.9904     9.0059     8.3288
   94.5000   152.5785     9.0121     8.3863
   95.0000   155.3374     9.0665     8.3849
   95.5000   156.8767     9.0649     8.3838
   96.0000   157.5013     9.0637     8.3826
   96.5000   157.5163     9.0625     8.3815
   97.0000   159.0556     9.0612     8.3219
   97.5000   159.6803     9.0600     8.2628
   98.0000   156.9513     8.9957     8.2616
   98.5000   153.2630     8.9319     8.2605
   99.0000   151.1884     8.8685     8.2017
   99.5000   154.2559     8.8056     8.1433
  100.0000   156.0942     8.8044     8.1449
  100.5000   159.7652     8.8793     8.1761
  101.0000   156.6728     8.9542     8.2072
  101.5000   154.1767     9.0292     8.2384
  102.0000   156.3453     9.1041     8.2547
  102.5000   161.3280     9.1790     8.3704
  103.0000   160.4224     9.2539     8.4877
  103.5000   155.5534     9.3289     8.5505
  104.0000   152.2088     9.4205     8.7273
  104.5000   150.0837     9.5497     8.8605
  105.0000   148.2635     9.7492     9.0364
  105.5000   147.3579     9.9528     9.2274
  106.0000   147.6718    10.0900     9.2915
  106.5000   148.9004    10.3730     9.4880
  107.0000   149.5192    10.6659     9.6884
  107.5000   149.5282    10.8942     9.8931
  108.0000   149.5373    11.1140    10.1021
  108.5000   149.2392    11.3454    10.3158
  109.0000   150.1651    11.5824    10.6075
  109.5000   149.8693    11.8244    10.9842
  110.0000   146.5247    12.0722    11.4542
  110.5000   143.1801    12.4108    11.8609
  111.0000   138.9208    12.7579    12.1966
  111.5000   134.9665    12.9338    12.5417
  112.0000   131.5978    13.1121    12.6289
  112.5000   128.5821    13.1085    12.7166
  113.0000   129.6996    13.1049    12.7157
  113.5000   137.1431    13.1013    12.7146
  114.0000   143.8554    13.0018    12.5372
  114.5000   142.6450    12.7333    12.1905
  115.0000   139.3004    12.4652    11.9366
  115.5000   139.0023    12.2890    11.6879
  116.0000   138.7064    12.0309    11.5248
  116.5000   141.7665    12.0276    11.3639
  117.0000   142.6902    11.7750    11.2840
  117.5000   141.7846    11.6899    11.2832
  118.0000   146.0620    11.6054    11.2824
  118.5000   146.3759    11.6022    11.2816
  119.0000   147.2973    11.5990    11.2022
  119.5000   146.3917    11.5958    11.1234
  120.0000   145.4884    11.5926    10.8158
  120.5000   141.5340    11.5894    10.8910
  121.0000   136.9699    11.5862    10.9666
  121.5000   130.8814    11.6643    11.1203
  122.0000   126.6222    11.6603    11.1976
  122.5000   126.6312    11.6571    11.3545
  123.0000   128.4695    11.7363    11.4334
  123.5000   131.5497    11.6507    11.4325
  124.0000   134.6342    11.6475    11.2729
  124.5000   137.0713    11.4029    10.8848
  125.0000   137.3472    11.1634    10.3640
  125.5000   135.2243    11.0056    10.2911
  126.0000   133.7090    10.6995    10.2187
  126.5000   135.2424    10.4748    10.2180
  127.0000   136.4710    10.3267    10.2173
  127.5000   136.1729    10.1099    10.2166
  128.0000   131.3062    10.0293    10.0038
  128.5000   129.1788     9.8948     9.7954
  129.0000   128.2732     9.8226     9.6587
  129.5000   132.8577     9.8199     9.4575
  130.0000   135.6107     9.8173     9.3865
  130.5000   138.0587     9.7463     9.1953
  131.0000   140.2019     9.6758     9.1306
  131.5000   141.4305     9.6058     9.0662
  132.0000   142.6568     9.5364     9.0656
  132.5000   140.2291     9.5338     9.0649
  133.0000   139.0183     9.5311     9.0643
  133.5000   138.1128     9.5285     9.0637
  134.0000   141.1709     9.5259     9.0631
  134.5000   143.3140     9.5233     9.0624
  135.0000   140.8639     9.5118     9.0618
  135.5000   139.0405     9.4512     9.0612
  136.0000   136.5977     9.4486     9.0606
  136.5000   136.9980     9.3803     9.0599
  137.0000   140.3128     9.3125     8.9962
  137.5000   141.8462     9.2451     8.9956
  138.0000   142.7699     9.1144     8.9323
  138.5000   141.2545     8.9855     8.9297
  139.0000   139.7392     8.7969     8.7456
  139.5000   138.8336     8.6121     8.6149
  140.0000   139.1475     8.4313     8.3849
  140.5000   140.0712     8.2542     8.0962
  141.0000   143.7388     8.0240     7.7630
  141.5000   143.7479     7.9112     7.3401
  142.0000   143.7569     7.9089     7.3396
  142.5000   144.9855     7.9063     7.3906
  143.0000   147.4335     7.9042     7.3901
  143.5000   147.7452     7.9574     7.4414
  144.0000   145.3175     7.9552     7.4409
  144.5000   142.5826     7.9530     7.4928
  145.0000   140.7624     8.0071     7.5976
  145.5000   140.1616     8.0610     7.7582
  146.0000   140.4756     8.1721     7.8669
  146.5000   140.4939     8.2842     7.9772
  147.0000   141.1037     8.4572     7.9766
  147.5000   141.7581     8.5738     8.0884
  148.0000   145.0245     8.6920     8.2018
  148.5000   149.9744     8.7574     8.2588
  149.0000   150.8980     8.8094     8.3744
  149.5000   146.9437     8.8064     8.4327
  150.0000   144.2066     8.8686     8.4938
  150.5000   145.7497     8.8970     8.5245
  151.0000   149.7146     8.9254     8.5552
  151.5000   150.3334     8.9539     8.5860
  152.0000   149.4277     8.9832     8.6039
  152.5000   148.2150     8.9813     8.6017
  153.0000   150.6652     8.9795     8.5999
  153.5000   150.6742     8.9776     8.5982
  154.0000   150.3783     8.9758     8.4179
  154.5000   147.6434     8.9738     8.2993
  155.0000   146.7378     8.9719     8.1823
  155.5000   147.7225     8.9697     8.1805
  156.0000   152.4065     8.9679     8.1785
  156.5000   155.3036     8.9660     8.1768
  157.0000   152.8736     8.9642     8.1752
  157.5000   148.9192     8.9623     8.2890
  158.0000   144.9648     8.9604     8.3455
  158.5000   144.3618     8.9586     8.3433
  159.0000   144.6779     8.9567     8.3416
  159.5000   145.2966     8.9549     8.3399
  160.0000   147.4398     8.9530     8.3382
  160.5000   149.8878     8.9512     8.3365
  161.0000   149.5919     8.8871     8.2767
  161.5000   148.6863     8.8234     8.2750
  162.0000   148.0853     8.7602     8.2156
  162.5000   148.7043     8.6369     8.1566
  163.0000   149.9330     8.5750     8.1546
  163.5000   150.5518     8.4534     8.0961
  164.0000   150.5628     8.2198     7.9820
  164.5000   149.3523     8.0411     7.9247
  165.0000   146.3125     7.8700     7.8130
  165.5000   143.2727     7.6602     7.7029
  166.0000   139.6232     7.4477     7.5414
  166.5000   135.9736     7.2411     7.3833
  167.0000   134.7608     7.0401     7.0785
  167.5000   137.8209     6.8448     6.6453
  168.0000   143.3177     6.7485     6.1520
  168.5000   150.0340     6.6535     5.9791
  169.0000   149.1283     6.6058     5.9382
  169.5000   145.4788     6.6045     5.9783
  170.0000   140.9146     6.6497     6.0190
  170.5000   138.4846     6.6946     6.1885
  171.0000   140.0996     6.7405     6.4976
  171.5000   142.7731     6.9297     6.8222
  172.0000   144.3065     7.1245     7.1131
  172.5000   142.7911     7.3760     7.3647
  173.0000   140.9709     7.6900     7.4673
  173.5000   140.0630     7.8521     7.5709
  174.0000   140.3791     7.9599     7.5690
  174.5000   146.1808     7.9583     7.5674
  175.0000   148.9337     7.9566     7.4608
  175.5000   148.0280     7.9546     7.4554
  176.0000   145.9029     7.8976     7.3465
  176.5000   148.0460     7.7865     7.2501
  177.0000   148.3599     7.7307     7.1981
  177.5000   148.3689     7.5689     7.1465
  178.0000   148.0730     7.4104     7.0952
  178.5000   153.0011     7.2048     7.0443
  179.0000   155.4103     6.9078     6.9450
  179.5000   155.7242     6.6694     6.7050
  180.0000   154.5137     6.3944     6.3833
  180.5000   147.5105     6.1737     6.0771
  181.0000   144.7756     6.0868     5.7453
  181.5000   143.2602     6.0012     5.4697
  182.0000   141.1351     5.9999     5.1700
  182.5000   135.9611     5.9987     4.9923
  183.0000   134.1409     5.9974     5.2544
  183.5000   132.9281     6.0812     5.6199
  184.0000   137.2076     6.2109     5.9421
  184.5000   144.8386     6.4377     6.1954
