~VERSION INFORMATION
 VERS.                2.0:   CWLS LOG ASCII STANDARD - VERSION 2.0
 WRAP.                 NO:   ONE LINE PER DEPTH STEP
~WELL INFORMATION
#MNEM.UNIT      DATA TYPE    INFORMATION
#----------   ------------   ------------------------------
 STRT.F            6.0000:   START DEPTH
 STOP.F          495.0000:   STOP DEPTH
 STEP.F            0.5000:   STEP LENGTH
 NULL.          -999.2500:   NO VALUE
 COMP. FENIX & SCISSON INC:   COMPANY
 WELL. FI NPR-3 #65-25 SX3:   WELL
 FLD .  NAVAL RESERVES #3:   FIELD
 LOC .       S3 T38N R78W:   LOCATION
 CNTY.            NATRONA:   COUNTY
 STAT.            WYOMING:   STATE
 CTRY. UNITED STATES OF AMERICA:   COUNTRY
 SRVC.       Schlumberger:   SERVICE COMPANY
 DATE.        22-MAY-1980:   LOGDATE
 API .       490251080300:   API NUMBER
~CURVE INFORMATION
#MNEM.UNIT       API CODE    CURVE DESCRIPTION
#----------   ------------   ------------------------------
 DEPT.F                  :   
 SPR .MV     07 010 01 00:   SPONTANEOUS POTENTIAL
 SFL .OHMM   07 220 01 00:   SHALLOW FOCUSED LOG RESISTIVITY
 ILD .OHMM   07 120 46 00:   INDUCTION LOG DEEP RESISTIVITY
 ILM .OHMM   07 120 44 00:   INDUCTION LOG MEDIUM
 GRD .GAPI   45 310 01 00:   GAMMA RAY FROM DENSITY LOG
 CALD.IN     45 280 60 00:   CALIPER
 DPHI.DEC    45 890 12 00:   DENSITY POROSITY SANDSTONE
 RHOB.G/C3   45 350 01 00:   BULK DENSITY
 CORR.G/C3   45 356 01 00:   DENSITY CORRECTION
 NPHI.DEC    42 890 03 00:   NEUTRON POROSITY SANDSTONE
~PARAMETER INFORMATION
#MNEM.UNIT          VALUE    DESCRIPTION
#----------   ------------   ------------------------------
 PD  .                 GL:   PERMANENT DATUM
 EPD .F              5162:   ELEVATION PERMANENT DATUM
 LMF .                 KB:   LOG MEASURED FROM
 DAPD.F                 4:   FEET ABOVE PERMANENT DATUM
 DMF .                 KB:   DRILLING MEASURED FROM
 EKB .F              5166:   KELLING BUSHING
 EGL .F              5162:   GROUND LEVEL
 DATE.            5-22-80:   RUN DATE
 RUN .                  1:   RUN NUMBER
 DD  .F               500:   DEPTH DRILLER
 DL  .F               498:   DEPTH LOGGER
 BLI .F               492:   BOTTOM LOG INTERVAL
 TLI .F                10:   TOP LOG INTERVAL
 BS  .IN            9.875:   BIT SIZE
 BSD .F               500:   BIT SIZE AT DEPTH
 DFT .                KCL:   DRILLING FLUID TYPE
 DFD .                9.6:   DRILLING FLUID DENSITY
 DFV .                 45:   DRILLING FLUID VISCOSITY
 DFL .                8.9:   DRILLING FLUID LOSS
 MSS .               PITS:   MUD SAMPLE SOURCE
 RMS .OHMM            .21:   RESISTIVITY MUD SAMPLE
 MST .F                76:   MUD SAMPLE TEMPERATURE
 RMF .OHMM            .19:   RESISTIVITY MUD FILTRATE SAMPLE
 MFST.F                76:   MUD FILTRATE SAMPLE TEMPERATURE
 MFSS.               MEAS:   MUD FILTRATE SAMPLE SOURCE
 TLAB.HRS            0845:   TIME LOGGER AT BOTTOM
 LUN .               8035:   LOGGING UNIT NUMBER
 LUL .               CSPR:   LOGGING UNIT LOCATION
 ENGI.           C. DRAKE:   RECORDING ENGINEER
 WITN.              AMEND:   WITNESSED BY
 CLNT.            A2DTECH:   CLIENT CODE
 ORIG.           5" PRINT:   ORIGIN OF DATA
 UWI .       490251080300:   UNIQUE WELL ID
 DICO. A2D Technologies, Inc.:   DIGITIZING COMPANY
~OTHER INFORMATION
~A    DEPT     SPR        SFL        ILD        ILM         GRD       CALD      DPHI       RHOB       CORR        NPHI  
# ...
  106.5000   -85.9059    11.1626    10.1072     8.2691   110.2894    10.0997     0.1396     2.4463    -0.0020     0.2907
  107.0000   -85.7371    11.0980    10.1078     8.3353   110.0024    10.1009     0.1383     2.4487    -0.0023     0.2848
  107.5000   -85.5480    11.0337    10.1764     8.4019   109.0863    10.1064     0.1353     2.4514    -0.0025     0.2824
  108.0000   -85.3539    10.9698    10.2881     8.4691   105.9568    10.1120     0.1323     2.4621    -0.0025     0.2808
  108.5000   -85.3722    10.9062    10.4003     8.5369   103.0022    10.1175     0.1255     2.4713    -0.0011     0.2788
  109.0000   -85.4712    10.8474    10.5138     8.6051   102.0027    10.1230     0.1222     2.4737     0.0007     0.2806
  109.5000   -85.5727    10.7917    10.6286     8.6430   102.0056    10.1286     0.1222     2.4726     0.0026     0.2889
  110.0000   -85.6779    10.5350    10.7442     8.6257   100.9291    10.1341     0.1238     2.4688     0.0069     0.2972
  110.5000   -85.6306    10.2509    10.7847     8.6119    98.5398    10.1396     0.1261     2.4667     0.0054     0.3078
  111.0000   -85.5049     9.9745    10.7205     8.5981    97.6060    10.1348     0.1269     2.4666     0.0011     0.2990
  111.5000   -85.3781     9.8338    10.6488     8.5845    98.4456    10.1286     0.1251     2.4697     0.0005     0.2999
  112.0000   -85.2516     9.9333    10.5772     8.5697    99.8111    10.1223     0.1226     2.4797     0.0003     0.3007
  112.5000   -85.1257    10.0168    10.5062     8.5193   101.1671    10.1161     0.1165     2.4907     0.0059     0.3015
  113.0000   -84.9645     9.7228    10.4357     8.4327   103.2204    10.1098     0.1104     2.4982     0.0129     0.3034
  113.5000   -84.7977     9.3908    10.3657     8.3459   105.6167    10.1036     0.1074     2.4987     0.0186     0.3069
  114.0000   -84.7521     9.4761    10.2961     8.2601   107.8089    10.0998     0.1087     2.4900     0.0176     0.3074
  114.5000   -84.8729     9.7458    10.2270     8.1752   108.2858    10.0980     0.1159     2.4765     0.0115     0.3067
  115.0000   -85.2443     9.9226    10.1583     8.0912   106.7994    10.0961     0.1254     2.4631     0.0053     0.3054
  115.5000   -85.6442     9.4598    10.0902     8.0081   105.3172    10.0943     0.1326     2.4508    -0.0007     0.3042
  116.0000   -85.8793     9.2855    10.0224     7.9258   104.1995    10.0925     0.1382     2.4487    -0.0019     0.3040
  116.5000   -85.7726     9.2397     9.9552     7.8444   103.6551    10.0906     0.1352     2.4537    -0.0023     0.3038
  117.0000   -85.5902     9.1922     9.8884     7.7638   103.1006    10.0888     0.1317     2.4596    -0.0045     0.3034
  117.5000   -85.5017     9.1346     9.7436     7.6841   102.2254    10.0870     0.1305     2.4606    -0.0065     0.3034
  118.0000   -85.5005     9.1571     9.6454     7.6052   100.8729    10.0852     0.1300     2.4581    -0.0064     0.3046
  118.5000   -85.3505     9.1959     9.5464     7.5267   100.1007    10.0833     0.1325     2.4538    -0.0057     0.3070
  119.0000   -85.0784     9.2192     9.4483     7.3549   101.5873    10.0815     0.1343     2.4530    -0.0018     0.3115
  119.5000   -84.9252     8.9240     9.3512     7.2699   105.0481    10.0797     0.1352     2.4516    -0.0005     0.3161
  120.0000   -85.0065     8.7191     9.2192     7.1874   108.2634    10.0779     0.1368     2.4482    -0.0021     0.3206
  120.5000   -85.0840     8.5637     9.2901     7.1869   105.8683    10.0760     0.1395     2.4437    -0.0051     0.3230
  121.0000   -85.1629     8.5637     9.4051     7.1867   103.1161    10.0742     0.1413     2.4420    -0.0055     0.3174
  121.5000   -85.2396     8.8001     9.5215     7.3030   100.8265    10.0724     0.1400     2.4453    -0.0043     0.3109
  122.0000   -85.2345     9.0911     9.6393     7.3979   100.4453    10.0705     0.1343     2.4536    -0.0016     0.3042
  122.5000   -84.8875     9.3917     9.7586     7.4940    98.4649    10.0687     0.1178     2.4838     0.0018     0.2977
  123.0000   -84.5488     9.8269     9.8794     7.5267    95.9764    10.0669     0.1108     2.4953     0.0083     0.2893
  123.5000   -84.2106     9.4810    10.0017     7.4605    95.6600    10.0651     0.1090     2.4958     0.0127     0.2874
  124.0000   -83.9035     8.9544    10.0168     7.4151    96.6974    10.0632     0.1164     2.4805     0.0141     0.2918
  124.5000   -83.8982     8.7184     9.6833     7.3690   100.4515    10.0614     0.1295     2.4565     0.0114     0.2988
  125.0000   -83.8994     8.8015     9.5161     7.3214   104.5285    10.0679     0.1401     2.4449     0.0058     0.3009
  125.5000   -83.8952     8.8740     9.3517     7.1876   105.8634    10.0752     0.1460     2.4337     0.0002     0.3030
  126.0000   -84.1311     8.9697     9.1901     7.0542   105.4778    10.0825     0.1519     2.4253    -0.0056     0.3051
  126.5000   -84.4521     8.8239     9.0163     6.8600   104.0269    10.0897     0.1501     2.4261    -0.0084     0.3095
  127.0000   -84.7747     8.5086     8.7413     6.8686   105.0727    10.0970     0.1467     2.4328    -0.0071     0.3166
  127.5000   -85.0932     8.1044     8.4747     6.5758   106.8286    10.1042     0.1426     2.4386    -0.0049     0.3223
  128.0000   -85.2603     7.7213     8.2162     6.4105   107.5552    10.1115     0.1402     2.4423    -0.0035     0.3271
  128.5000   -85.1370     7.3554     7.9656     6.2471   105.9687    10.1189     0.1403     2.4437    -0.0043     0.3359
  129.0000   -85.0197     7.0094     7.8095     6.1449   104.8623    10.1202     0.1422     2.4416    -0.0058     0.3483
  129.5000   -84.8934     6.8638     7.8095     6.2030   102.5573    10.1197     0.1447     2.4355    -0.0072     0.3571
  130.0000   -84.5824     7.1223     7.7783     6.2533   101.2080    10.1192     0.1469     2.4321    -0.0087     0.3543
  130.5000   -84.2638     7.3983     7.7378     6.3040   100.1432    10.1187     0.1454     2.4335    -0.0095     0.3496
  131.0000   -83.9436     7.4759     7.7835     6.3552   100.9864    10.1181     0.1420     2.4389    -0.0083     0.3471
  131.5000   -83.9808     7.4991     7.8614     6.3845   103.8236    10.1176     0.1392     2.4447    -0.0065     0.3409
  132.0000   -84.0770     7.5224     7.9401     6.4279   108.6983    10.1171     0.1378     2.4478    -0.0053     0.3308
  132.5000   -84.1739     7.6064     8.0195     6.4717   111.4404    10.1166     0.1344     2.4517    -0.0034     0.3207
  133.0000   -84.2747     7.7050     8.0996     6.5156   112.2733    10.1160     0.1319     2.4557    -0.0021     0.3170
  133.5000   -84.1523     7.8050     8.1782     6.5600   113.0402    10.1155     0.1306     2.4595    -0.0015     0.3166
  134.0000   -83.9473     7.8818     8.2592     6.6046   113.8213    10.1150     0.1303     2.4599    -0.0023     0.3150
  134.5000   -83.7386     7.8314     8.3387     6.6495   114.6205    10.1144     0.1349     2.4546    -0.0034     0.3088
  135.0000   -83.5300     7.7911     8.4189     6.6947   114.6545    10.1139     0.1398     2.4476    -0.0045     0.3008
  135.5000   -83.3213     7.7378     8.4998     6.7402   114.6511    10.1134     0.1429     2.4395    -0.0053     0.3013
  136.0000   -83.1113     7.8349     8.5815     6.7860   113.7398    10.1129     0.1434     2.4378    -0.0020     0.3055
  136.5000   -82.9094     7.9818     8.6640     6.8155   110.1179    10.1123     0.1433     2.4377     0.0013     0.3131
  137.0000   -82.9874     8.1316     8.8039     6.8462   107.2188    10.1118     0.1431     2.4376     0.0018     0.3121
  137.5000   -83.0759     8.2841     8.8039     6.8771   105.4024    10.1113     0.1399     2.4415     0.0002     0.3060
  138.0000   -83.3742     8.4396     8.8039     6.9081   104.7165    10.1107     0.1343     2.4514    -0.0006     0.3022
  138.5000   -83.4274     8.6421     8.8039     6.9392   106.3380    10.1102     0.1244     2.4721     0.0033     0.3078
  139.0000   -83.3186     8.5850     8.8039     6.9705   109.1154    10.1097     0.1222     2.4736     0.0058     0.3074
  139.5000   -83.2061     8.5064     8.8040     6.9915   112.0267    10.1091     0.1237     2.4697     0.0032     0.3039
