~VERSION INFORMATION
 VERS.                2.0:   CWLS LOG ASCII STANDARD - VERSION 2.0
 WRAP.                 NO:   ONE LINE PER DEPTH STEP
~WELL INFORMATION
#MNEM.UNIT      DATA TYPE    INFORMATION
#----------   ------------   ------------------------------
 STRT.F           43.0000:   START DEPTH
 STOP.F          620.0000:   STOP DEPTH
 STEP.F            0.5000:   STEP LENGTH
 NULL.          -999.2500:   NO VALUE
 COMP. FENIX & SCISSON INC:   COMPANY
 WELL.      16 SX 2 #16-2:   WELL
 FLD .             TEAPOT:   FIELD
 LOC .       S2 T38N R78W:   LOCATION
 CNTY.            NATRONA:   COUNTY
 STAT.            WYOMING:   STATE
 CTRY. UNITED STATES OF AMERICA:   COUNTRY
 SRVC.            Unknown:   SERVICE COMPANY
 DATE.        11-OCT-1978:   LOGDATE
 API .       490251071400:   API NUMBER
~CURVE INFORMATION
#MNEM.UNIT       API CODE    CURVE DESCRIPTION
#----------   ------------   ------------------------------
 DEPT.F                  :   
 SPR .MV     05 010 01 00:   SPONTANEOUS POTENTIAL FROM RES.
 SN  .OHMM   05 040 16 00:   SHORT NORMAL 16"
 ILD .OHMM   05 120 46 00:   INDUCTION LOG DEEP
 CALD.IN     45 280 60 00:   CALIPER
 GRD .GAPI   45 310 01 00:   GAMMA RAY FROM DENSITY LOG
 DPHI.DEC    45 890 12 00:   DENSITY POROSITY SANDSTONE
 RHOB.G/C3   45 350 01 00:   BULK DENSITY
 DRHO.G/C3   45 356 01 00:   DENSITY CORRECTION
~PARAMETER INFORMATION
#MNEM.UNIT          VALUE    DESCRIPTION
#----------   ------------   ------------------------------
 PD  .                 GL:   PERMANENT DATUM
 EPD .F              5135:   ELEVATION PERMANENT DATUM
 LMF .                 KB:   LOG MEASURED FROM
 DAPD.F                 4:   FEET ABOVE PERMANENT DATUM
 DMF .                 KB:   DRILLING MEASURED FROM
 EKB .F              5139:   KELLING BUSHING
 EGL .F              5135:   GROUND LEVEL
 DATE.           10-11-78:   RUN DATE
 RUN .                  1:   RUN NUMBER
 DD  .F               620:   DEPTH DRILLER
 DL  .F               620:   DEPTH LOGGER
 BLI .F               614:   BOTTOM LOG INTERVAL
 TLI .F                40:   TOP LOG INTERVAL
 CS  .IN            8.625:   CASING SIZE
 CBD .F                40:   CASING BOTTOM DRILLER
 CBL .F                40:   CASING BOTTOM LOGGER
 BS  .IN            7.875:   BIT SIZE
 BSD .F               620:   BIT SIZE AT DEPTH
 DFT .                KCL:   DRILLING FLUID TYPE
 RMS .OHMM            .16:   RESISTIVITY MUD SAMPLE
 MST .F                66:   MUD SAMPLE TEMPERATURE
 RMF .OHMM            .16:   RESISTIVITY MUD FILTRATE SAMPLE
 MFST.F                70:   MUD FILTRATE SAMPLE TEMPERATURE
 RMC .OHMM             .2:   RESISTIVITY MUD CAKE
 MCST.F                71:   MUD CAKE SAMPLE TEMPERATURE
 TCS .HRS               1:   TIME CURCULATED STOPPED
 MRT .F                70:   MAXIMUM RECORDED TEMPERATURE
 LUN .               2958:   LOGGING UNIT NUMBER
 LUL .               CASP:   LOGGING UNIT LOCATION
 ENGI.             MILLER:   RECORDING ENGINEER
 WITN.              AMEND:   WITNESSED BY
 CLNT.            A2DTECH:   CLIENT CODE
 ORIG.           5" PRINT:   ORIGIN OF DATA
 UWI .       490251071400:   UNIQUE WELL ID
 DICO. A2D Technologies, Inc.:   DIGITIZING COMPANY
~OTHER INFORMATION
~A   DEPT      SPR         SN        ILD       CALD         GRD      DPHI       RHOB       DRHO   
# ...
  448.0000   -34.9073    10.2659    14.7031     7.6283    94.0502     0.1394     2.4484     0.0692
  448.5000   -34.9339    10.2529    14.5252     7.6240    98.0546     0.1305     2.4599     0.0793
  449.0000   -34.9657    10.2399    14.3495     7.6193   102.3764     0.1287     2.4717     0.0892
  449.5000   -35.0944    10.2270    14.1759     7.6405   100.7480     0.1274     2.4753     0.0965
  450.0000   -35.2215    10.2140    14.0708     7.6639    98.3555     0.1261     2.4758     0.0874
  450.5000   -35.3479    10.2011    14.0340     7.6876    95.9071     0.1249     2.4755     0.0750
  451.0000   -35.4741    10.1882    13.9976     7.6877    93.3980     0.1274     2.4704     0.0624
  451.5000   -35.6003    10.1753    13.9612     7.6657    94.0240     0.1302     2.4670     0.0494
  452.0000   -35.7266    10.1624    13.9249     7.6433    95.0955     0.1329     2.4637     0.0454
  452.5000   -35.8528    10.1496    13.8886     7.6206    96.0966     0.1357     2.4621     0.0440
  453.0000   -35.9791    10.1368    13.8525     7.6217   102.4589     0.1348     2.4628     0.0426
  453.5000   -36.1053    10.1239    13.7881     7.6244   110.6629     0.1313     2.4642     0.0446
  454.0000   -36.2317    10.1111    13.6850     7.6270   117.7160     0.1322     2.4656     0.0477
  454.5000   -36.3579    10.0983    13.5826     7.6296   112.9655     0.1333     2.4671     0.0521
  455.0000   -36.4837    10.0856    13.4810     7.6321   102.5205     0.1302     2.4726     0.0648
  455.5000   -36.5543    10.0728    13.3807     7.6347    99.5476     0.1231     2.4784     0.0775
  456.0000   -36.5537    10.0601    13.3293     7.6372    98.7108     0.1181     2.4842     0.0884
  456.5000   -36.5539    10.0474    13.3297     7.6436    96.6767     0.1191     2.4874     0.0806
  457.0000   -36.5538    10.0347    13.4426     7.6723    94.2140     0.1202     2.4854     0.0723
  457.5000   -36.5538    10.0220    13.5633     7.7006    93.7362     0.1213     2.4834     0.0641
  458.0000   -36.5538    10.0093    13.6851     7.7152    98.8060     0.1196     2.4860     0.0559
  458.5000   -36.5538     9.9966    13.8312     7.7027   102.4911     0.1160     2.4899     0.0524
  459.0000   -36.5538     9.9840    13.8144     7.6908   101.9526     0.1140     2.4938     0.0523
  459.5000   -36.5538     9.9714    13.7939     7.6788   101.1869     0.1164     2.4969     0.0523
  460.0000   -36.5538     9.9587    13.7728     7.6669    99.6950     0.1204     2.4881     0.0523
  460.5000   -36.5538     9.9461    13.7518     7.6642    97.6949     0.1244     2.4790     0.0557
  461.0000   -36.5538     9.9337    13.7313     7.6778    95.6710     0.1284     2.4697     0.0615
  461.5000   -36.5538     9.9247    13.7104     7.6911    95.3361     0.1317     2.4682     0.0673
  462.0000   -36.5538     9.9249    13.5788     7.7045    98.9489     0.1214     2.4870     0.0734
  462.5000   -36.5538     9.9249    13.3718     7.7178   101.6209     0.1152     2.4937     0.0685
  463.0000   -36.5538     9.9249    12.8254     7.7309   102.1133     0.1184     2.4899     0.0611
  463.5000   -36.5538     9.9249    12.3829     7.7322   100.4760     0.1217     2.4869     0.0645
  464.0000   -36.5538     9.9249    12.3829     7.7147    97.5207     0.1249     2.4872     0.0744
  464.5000   -36.5538     9.9249    12.3829     7.6974    94.5838     0.1179     2.4931     0.0846
  465.0000   -36.5538     9.9249    12.3829     7.6801    93.0058     0.1110     2.4990     0.0877
  465.5000   -36.5538     9.9249    12.3829     7.6628    96.8641     0.1086     2.5024     0.0746
  466.0000   -36.5539     9.9249    12.3829     7.6455   100.8249     0.1072     2.5058     0.0610
  466.5000   -36.5544     9.9249    12.3829     7.6282   105.1284     0.1058     2.5070     0.0475
  467.0000   -36.5513     9.9247    12.3828     7.6109   110.9669     0.1052     2.5066     0.0341
  467.5000   -36.4508     9.9249    12.3829     7.5934   114.9504     0.1057     2.5034     0.0205
  468.0000   -36.3450     9.9249    12.3829     7.5757   104.9261     0.1113     2.4958     0.0149
  468.5000   -36.2373    10.0808    12.6133     7.5625    96.6010     0.1178     2.4884     0.0131
  469.0000   -36.0465    10.2477    12.8481     7.6203    92.1668     0.1215     2.4810     0.0174
  469.5000   -35.5034    10.4158    13.2745     7.6797    94.7517     0.1237     2.4733     0.0214
  470.0000   -34.9709    10.5880    14.2602     7.7023    97.9227     0.1318     2.4575     0.0255
  470.5000   -34.4323    11.1036    15.3191     7.7076   100.4864     0.1570     2.4281     0.0298
  471.0000   -33.7614    11.6390    16.4566     7.7125   100.6346     0.1822     2.3862     0.0360
  471.5000   -32.9234    12.1982    18.1907     7.7175    98.7033     0.2074     2.3434     0.0420
  472.0000   -32.0897    12.7843    20.7775     7.7225    95.7221     0.2325     2.3074     0.0480
  472.5000   -31.2534    13.3985    23.7327     7.7275    92.3179     0.2448     2.2775     0.0524
  473.0000   -30.4154    14.0422    27.1073     7.7325    88.8649     0.2552     2.2636     0.0511
  473.5000   -29.5725    14.7169    30.9935     7.7379    86.3685     0.2556     2.2525     0.0459
  474.0000   -29.1176    15.4525    32.3027     7.7223    85.1987     0.2523     2.2625     0.0409
  474.5000   -29.0386    15.5901    30.8901     7.6989    84.7951     0.2439     2.2779     0.0363
  475.0000   -29.1649    15.5906    28.5661     7.6751    87.0464     0.2361     2.2933     0.0348
  475.5000   -29.1439    15.5927    26.5583     7.6512    92.1484     0.2287     2.3087     0.0334
  476.0000   -29.1145    15.5927    25.1929     7.6184    86.7864     0.2163     2.3333     0.0320
  476.5000   -29.0853    15.5927    24.4044     7.5760    82.7642     0.2030     2.3590     0.0304
  477.0000   -29.0564    15.5927    23.9208     7.5339    82.3565     0.1871     2.3842     0.0261
  477.5000   -29.0276    15.5926    23.4445     7.4901    81.6441     0.1767     2.3836     0.0214
  478.0000   -28.9996    15.5746    22.7555     7.4801    79.3662     0.1799     2.3798     0.0167
  478.5000   -29.0324    15.4034    22.9687     7.4801    81.7035     0.1831     2.3761     0.0164
  479.0000   -29.1312    15.2343    23.3870     7.4895    86.2125     0.1878     2.3724     0.0165
  479.5000   -29.2294    15.0670    23.8290     7.5196    90.6557     0.1937     2.3630     0.0164
  480.0000   -29.3281    14.9015    23.7876     7.5494    93.3166     0.1996     2.3517     0.0210
  480.5000   -29.4266    14.7378    23.7447     7.5791    91.9675     0.2081     2.3395     0.0293
  481.0000   -29.5252    14.5758    23.7019     7.6088    90.6932     0.2015     2.3495     0.0362
  481.5000   -29.6238    14.4555    23.6592     7.6386    89.3753     0.1890     2.3657     0.0331
  482.0000   -29.7216    14.3886    23.6165     7.6687    89.3728     0.1822     2.3815     0.0301
  482.5000   -29.7815    14.3223    23.0644     7.6972    91.2081     0.1855     2.3749     0.0270
  483.0000   -29.7808    14.2563    22.4416     7.6675    93.0184     0.1888     2.3669     0.0260
  483.5000   -29.7809    14.1904    22.0282     7.6422    93.1102     0.1922     2.3656     0.0254
  484.0000   -29.7809    14.1249    21.8153     7.6652    93.0483     0.1895     2.3718     0.0249
  484.5000   -29.7809    14.0597    21.6045     7.6876    91.4223     0.1866     2.3743     0.0247
  485.0000   -29.7809    13.9948    21.3957     7.7101    89.7859     0.1846     2.3735     0.0263
  485.5000   -29.7809    13.9302    21.1891     7.7079    91.0655     0.1868     2.3719     0.0279
  486.0000   -29.7809    13.8659    20.9833     7.6892    95.0459     0.1880     2.3703     0.0295
  486.5000   -29.7809    13.8019    20.8964     7.6703   102.3276     0.1844     2.3738     0.0312
  487.0000   -29.7809    13.7382    20.8377     7.6514   110.8873     0.1809     2.3782     0.0328
  487.5000   -29.7807    13.6748    20.7791     7.6324   105.3228     0.1789     2.3826     0.0343
  488.0000   -29.7810    13.6117    20.7207     7.6134    95.9542     0.1779     2.3882     0.0322
