~VERSION INFORMATION
 VERS.                2.0:   CWLS LOG ASCII STANDARD - VERSION 2.0
 WRAP.                 NO:   ONE LINE PER DEPTH STEP
~WELL INFORMATION
#MNEM.UNIT      DATA TYPE    INFORMATION
#----------   ------------   ------------------------------
 STRT.F          717.0000:   START DEPTH
 STOP.F         2448.0000:   STOP DEPTH
 STEP.F            0.5000:   STEP LENGTH
 NULL.          -999.2500:   NO VALUE
 COMP.   FLUOR DANIEL INC:   COMPANY
 WELL. NAVAL PETROLEUM RESERVE 3X27 #34-27:   WELL
 FLD .             TEAPOT:   FIELD
 LOC .      S27 T39N R78W:   LOCATION
 CNTY.            NATRONA:   COUNTY
 STAT.            WYOMING:   STATE
 CTRY. UNITED STATES OF AMERICA:   COUNTRY
 SRVC.            Unknown:   SERVICE COMPANY
 DATE.        17-MAY-1996:   LOGDATE
 API .       490252279300:   API NUMBER
~CURVE INFORMATION
#MNEM.UNIT       API CODE    CURVE DESCRIPTION
#----------   ------------   ------------------------------
 DEPT.F                  :   
 TGAS.TC/CC  91 830 01 00:   TOTAL GAS UNIT
 ROP .FT/HR  91 810 01 00:   RAT OF DRILLING PENETRATION
~PARAMETER INFORMATION
#MNEM.UNIT          VALUE    DESCRIPTION
#----------   ------------   ------------------------------
 EPD .F              5039:   ELEVATION PERMANENT DATUM
 EKB .F              5049:   KELLING BUSHING
 EGL .F              5039:   GROUND LEVEL
 DATE.        17-MAY-1996:   RUN DATE
 RUN .                  1:   RUN NUMBER
 ENGI.     R.HUSK/C.TOWER:   RECORDING ENGINEER
 CLNT.            A2DTECH:   CLIENT CODE
 ORIG.           5" PRINT:   ORIGIN OF DATA
 UWI .       490252279300:   UNIQUE WELL ID
 DICO. A2D Technologies, Inc.:   DIGITIZING COMPANY
~OTHER INFORMATION
~A   DEPT       TGAS        ROP 
# ...
 1446.0000     1.0590     0.5327
 1446.5000     1.0683     0.5331
 1447.0000     1.0777     0.5335
 1447.5000     1.0890     0.5339
 1448.0000     1.0983     0.5343
 1448.5000     1.1075     0.5346
 1449.0000     1.1167     0.5350
 1449.5000     1.1260     0.5354
 1450.0000     1.1006     0.5357
 1450.5000     0.9018     0.5361
 1451.0000     0.7031     0.5365
 1451.5000     0.6069     0.5368
 1452.0000     0.6202     0.5372
 1452.5000     0.6360     0.5376
 1453.0000     0.6489     0.5380
 1453.5000     0.6618     0.5384
 1454.0000     0.6747     0.6516
 1454.5000     0.6875     0.6989
 1455.0000     0.7004     0.7087
 1455.5000     0.9024     0.6996
 1456.0000     0.9153     0.7000
 1456.5000     0.9284     0.7004
 1457.0000     0.9416     0.7008
 1457.5000     0.9572     0.7011
 1458.0000     0.7778     0.7016
 1458.5000     0.7939     0.5140
 1459.0000     0.8068     0.5143
 1459.5000     0.6274     0.5147
 1460.0000     0.6435     0.5157
 1460.5000     0.4670     0.5179
 1461.0000     0.2912     0.5200
 1461.5000     0.1150     0.5221
 1462.0000     0.1311     0.5243
 1462.5000     0.1418     0.5264
 1463.0000     0.1550     0.5286
 1463.5000     0.1697     0.5307
 1464.0000     0.1826     0.5328
 1464.5000     0.3838     0.5350
 1465.0000     0.3971     0.5371
 1465.5000     0.4104     0.5380
 1466.0000     0.4235     0.5477
 1466.5000     0.4394     0.5482
 1467.0000     0.4500     0.5486
 1467.5000     0.3970     0.5489
 1468.0000     0.2858     0.5493
 1468.5000     0.3019     0.5402
 1469.0000     0.5038     0.5406
 1469.5000     0.3271     0.5410
 1470.0000     0.5296     0.5320
 1470.5000     0.7393     0.5323
 1471.0000     1.1231     0.5233
 1471.5000     1.5169     0.5238
 1472.0000     0.9626     0.8813
 1472.5000     0.5941     0.8816
 1473.0000     0.4179     0.8820
 1473.5000     0.4340     0.8824
 1474.0000     0.2546     0.8827
 1474.5000     0.2707     0.8831
 1475.0000     0.2836     0.8835
 1475.5000     0.1074     0.8838
 1476.0000     0.1235     0.8090
 1476.5000     0.1364     0.8094
 1477.0000     0.1493     0.8098
 1477.5000     0.3513     0.8102
 1478.0000     0.1719     0.9891
 1478.5000     0.1880     1.0083
 1479.0000     0.2009     1.0087
 1479.5000     0.2138     1.0091
 1480.0000     0.0376     1.1692
 1480.5000     0.0510     1.1696
 1481.0000     0.0643     1.1700
 1481.5000     0.2666     1.1703
 1482.0000     0.2815     1.1707
 1482.5000     0.1021     1.0019
 1483.0000     0.1182     1.0023
 1483.5000     0.1311     1.0026
 1484.0000     0.1440     1.5482
 1484.5000     0.1569     1.5486
 1485.0000     0.1702     1.5489
 1485.5000     0.1859     1.5398
 1486.0000     0.1987     1.5403
 1486.5000     0.0193     0.5537
 1487.0000     0.0340     0.5635
 1487.5000     0.0473     0.5639
 1488.0000     0.0612     0.5643
 1488.5000     0.0737     0.5552
 1489.0000     0.0870     0.5557
 1489.5000     0.1002     0.5561
 1490.0000     0.1134     0.5564
 1490.5000     0.1289     0.5568
 1491.0000     0.1399     0.5477
 1491.5000     0.1547     0.5387
 1492.0000     0.1687     0.5391
 1492.5000     0.1796     0.5395
 1493.0000     0.1929     0.5398
 1493.5000     0.2063     0.5497
 1494.0000     0.2193     0.5501
 1494.5000     0.2326     0.5504
 1495.0000     0.2458     0.5508
 1495.5000     0.2611     0.5417
 1496.0000     0.2739     0.5421
 1496.5000     0.2868     0.5425
 1497.0000     0.2987     0.5429
 1497.5000     0.3126     0.5432
 1498.0000     0.3255     0.5437
 1498.5000     0.3384     0.5440
 1499.0000     0.3517     0.5444
 1499.5000     0.5565     0.5448
 1500.0000     0.0000     0.5451
 1500.5000     1.4938     0.5455
 1501.0000     1.3071     0.5459
 1501.5000     2.2407     0.5556
 1502.0000     4.1079     0.5466
 1502.5000     1.3071     0.5471
 1503.0000     1.1203     0.5568
 1503.5000     1.1203     0.5477
 1504.0000     1.1203     0.5482
 1504.5000     1.1203     0.5485
 1505.0000     1.1203     0.5395
 1505.5000     1.1203     0.5399
 1506.0000     1.1203     0.5402
 1506.5000     1.1203     0.5312
 1507.0000     1.1203     0.5410
 1507.5000     1.1203     0.5414
 1508.0000     1.1203     0.7674
 1508.5000     1.1203     0.7771
 1509.0000     1.1203     0.7775
 1509.5000     1.1203     0.7778
 1510.0000     1.1203     0.7876
 1510.5000     1.3071     0.7880
 1511.0000     1.3071     0.7977
 1511.5000     1.3071     0.7981
 1512.0000     1.4938     0.6481
 1512.5000     1.4938     0.6486
 1513.0000     1.3071     0.6583
 1513.5000     1.3071     0.6587
 1514.0000     1.3071     0.6591
 1514.5000     1.3071     0.6499
 1515.0000     1.3071     0.6504
 1515.5000     1.3071     0.6508
 1516.0000     1.3071     0.6544
 1516.5000     1.4938     0.6590
 1517.0000     1.4938     0.6643
 1517.5000     1.4938     0.6645
 1518.0000     1.4938     0.5237
 1518.5000     1.4938     0.5239
 1519.0000     1.4938     0.5146
 1519.5000     1.4938     0.5149
 1520.0000     1.4938     0.5056
 1520.5000     1.4938     0.5058
 1521.0000     1.4938     0.5060
 1521.5000     1.6805     0.5062
 1522.0000     1.4938     0.5064
 1522.5000     1.3071     0.5066
 1523.0000     1.3071     0.5162
 1523.5000     1.4938     0.5164
 1524.0000     1.3071     0.6669
 1524.5000     1.3071     0.6671
 1525.0000     1.1203     0.6673
 1525.5000     1.1203     0.6675
 1526.0000     1.3071     0.9872
 1526.5000     1.3071     0.9968
 1527.0000     1.3071     0.9876
 1527.5000     1.3071     0.9878
 1528.0000     1.3195     0.9974
 1528.5000     1.4938     1.5615
 1529.0000     1.4938     1.5523
 1529.5000     1.4938     1.5618
 1530.0000     1.6805     1.5620
 1530.5000     1.6805     0.6506
 1531.0000     1.6805     0.6602
 1531.5000     1.6805     0.6698
 1532.0000     1.8672     0.6793
 1532.5000     1.6805     0.6701
 1533.0000     1.6805     0.6703
 1533.5000     1.6805     0.6705
 1534.0000     1.4938     0.3981
 1534.5000     1.4938     0.3889
 1535.0000     1.4938     0.3891
 1535.5000     1.6805     0.3893
 1536.0000     1.6805     0.3989
 1536.5000     1.6805     0.3991
 1537.0000     1.8672     0.4087
 1537.5000     1.8672     0.3994
 1538.0000     1.8672     0.3996
 1538.5000     1.8672     0.3904
 1539.0000     2.0539     0.3906
 1539.5000     2.0539     0.3908
 1540.0000     2.2407     0.3910
 1540.5000     2.2407     0.3912
 1541.0000     2.2407     0.3914
 1541.5000     2.4274     0.3915
 1542.0000     2.4274     0.3917
 1542.5000     2.2407     0.3919
 1543.0000     2.0539     0.3921
 1543.5000     1.8672     0.3923
 1544.0000     1.8672     0.4019
 1544.5000     1.8672     0.4115
 1545.0000     1.8672     0.4117
 1545.5000     1.6805     0.4119
 1546.0000     1.6805     0.7880
 1546.5000     1.6805     0.7882
 1547.0000     1.4938     0.7978
 1547.5000     1.4938     0.7979
 1548.0000     1.4938     0.7887
 1548.5000     1.4938     0.7889
 1549.0000     1.3071     0.7891
 1549.5000     1.3071     0.7893
 1550.0000     1.1203     0.7895
 1550.5000     1.1203     0.6205
 1551.0000     1.1203     0.6301
 1551.5000     0.9336     0.6397
 1552.0000     0.7469     0.6399
 1552.5000     1.1203     0.6401
 1553.0000     1.3071     0.6403
 1553.5000     1.4938     0.6404
 1554.0000     1.6805     0.6500
 1554.5000     1.8672     0.6408
 1555.0000     1.6805     0.6410
 1555.5000     1.6805     0.6412
 1556.0000     1.4938     0.6414
 1556.5000     1.4938     0.6415
 1557.0000     1.4938     0.6417
 1557.5000     1.4938     0.6419
 1558.0000     1.4852     0.6421
 1558.5000     1.4683     1.2814
 1559.0000     1.8333     1.2910
 1559.5000     1.8315     1.3006
 1560.0000     1.4562     1.2819
 1560.5000     1.4543     0.8686
 1561.0000     1.2658     0.8594
 1561.5000     1.2639     0.8471
 1562.0000     1.2621     0.8385
 1562.5000     1.2603     0.6567
 1563.0000     1.2584     0.6661
 1563.5000     1.0699     0.6660
 1564.0000     1.0680     0.6660
 1564.5000     1.0662     0.6659
 1565.0000     1.0643     0.6659
 1565.5000     1.0624     0.6658
 1566.0000     1.0606     0.6564
 1566.5000     1.0583     0.5436
 1567.0000     1.0565     0.5529
