~VERSION INFORMATION
 VERS.                2.0:   CWLS LOG ASCII STANDARD - VERSION 2.0
 WRAP.                 NO:   ONE LINE PER DEPTH STEP
~WELL INFORMATION
#MNEM.UNIT      DATA TYPE    INFORMATION
#----------   ------------   ------------------------------
 STRT.F           31.0000:   START DEPTH
 STOP.F          521.0000:   STOP DEPTH
 STEP.F            0.5000:   STEP LENGTH
 NULL.          -999.2500:   NO VALUE
 COMP. FENIX & SCISSON INC:   COMPANY
 WELL.      NPR-3 #52SX-3:   WELL
 FLD .             TEAPOT:   FIELD
 LOC .       S3 T38N R78W:   LOCATION
 CNTY.            NATRONA:   COUNTY
 STAT.            WYOMING:   STATE
 CTRY. UNITED STATES OF AMERICA:   COUNTRY
 SRVC.            Unknown:   SERVICE COMPANY
 DATE.        03-OCT-1978:   LOGDATE
 API .       490251071800:   API NUMBER
~CURVE INFORMATION
#MNEM.UNIT       API CODE    CURVE DESCRIPTION
#----------   ------------   ------------------------------
 DEPT.F                  :   
 SPR .MV     05 010 01 00:   SPONTANEOUS POTENTIAL FROM RES.
 GRD .GAPI   45 310 01 00:   GAMMA RAY FROM DENSITY LOG
 CALD.IN     45 280 60 00:   CALIPER
 RHOB.G/C3   45 350 01 00:   BULK DENSITY
 DPHI.DEC    45 890 12 00:   DENSITY POROSITY SANDSTONE
 CORR.G/C3   45 356 01 00:   DENSITY CORRECTION
 SN  .OHMM   05 040 16 00:   SHORT NORMAL 16"
 IL  .OHMM   05 120 00 00:   INDUCTION LOG
~PARAMETER INFORMATION
#MNEM.UNIT          VALUE    DESCRIPTION
#----------   ------------   ------------------------------
 PD  .                 GL:   PERMANENT DATUM
 EPD .F              5129:   ELEVATION PERMANENT DATUM
 LMF .                 KB:   LOG MEASURED FROM
 DAPD.F                 4:   FEET ABOVE PERMANENT DATUM
 DMF .                 KB:   DRILLING MEASURED FROM
 EKB .F              5133:   KELLING BUSHING
 EGL .F              5129:   GROUND LEVEL
 DATE.            10-3-78:   RUN DATE
 RUN .                  1:   RUN NUMBER
 DD  .F               521:   DEPTH DRILLER
 DL  .F               520:   DEPTH LOGGER
 BLI .F               514:   BOTTOM LOG INTERVAL
 TLI .F                46:   TOP LOG INTERVAL
 CS  .IN            8.625:   CASING SIZE
 CBL .F                44:   CASING BOTTOM LOGGER
 BS  .IN            7.875:   BIT SIZE
 BSD .F               521:   BIT SIZE AT DEPTH
 DFT .                KCL:   DRILLING FLUID TYPE
 DFD .                8.7:   DRILLING FLUID DENSITY
 DFV .                 34:   DRILLING FLUID VISCOSITY
 DFPH.                  9:   DRILLING FLUID PH
 DFL .               10.8:   DRILLING FLUID LOSS
 MSS .            MUD PIT:   MUD SAMPLE SOURCE
 RMS .OHMM            .24:   RESISTIVITY MUD SAMPLE
 MST .F                54:   MUD SAMPLE TEMPERATURE
 RMF .OHMM            .22:   RESISTIVITY MUD FILTRATE SAMPLE
 MFST.F                60:   MUD FILTRATE SAMPLE TEMPERATURE
 RMC .OHMM             .3:   RESISTIVITY MUD CAKE
 MCST.F                64:   MUD CAKE SAMPLE TEMPERATURE
 MFSS.               MEAS:   MUD FILTRATE SAMPLE SOURCE
 MCSS.               MEAS:   MUD CAKE SAMPLE SOURCE
 BHT .F                60:   BOTTOM HOLE TEMPERATURE
 TCS .HRS               3:   TIME CURCULATED STOPPED
 MRT .F                60:   MAXIMUM RECORDED TEMPERATURE
 LUN .               2958:   LOGGING UNIT NUMBER
 LUL .               CASP:   LOGGING UNIT LOCATION
 ENGI.             MILLER:   RECORDING ENGINEER
 WITN.           DINSMORE:   WITNESSED BY
 CLNT.            A2DTECH:   CLIENT CODE
 ORIG.       2", 5" PRINT:   ORIGIN OF DATA
 UWI .       490251071800:   UNIQUE WELL ID
 DICO. A2D Technologies, Inc.:   DIGITIZING COMPANY
~OTHER INFORMATION
~A   DEPT      SPR         GRD      CALD       RHOB       DPHI       CORR         SN         IL   
# ...
  112.0000   -29.7837   105.1297     7.7764     2.4716     0.1303     0.0092     7.9009     8.3433
  112.5000   -29.6411   106.5506     7.8005     2.4802     0.1234     0.0117     7.9086     8.3493
  113.0000   -29.4936   106.7424     7.8245     2.4846     0.1179     0.0141     7.9163     8.3553
  113.5000   -29.5183   105.3567     7.8484     2.4853     0.1183     0.0166     7.9240     8.3614
  114.0000   -29.5900   105.1786     7.8571     2.4858     0.1187     0.0190     7.9318     8.3674
  114.5000   -29.6553   105.2805     7.8476     2.4863     0.1189     0.0215     7.9395     8.3735
  115.0000   -29.4444   105.4891     7.8382     2.4893     0.1174     0.0234     7.9471     8.3795
  115.5000   -29.2156   105.7608     7.8287     2.4930     0.1151     0.0212     7.9549     8.3856
  116.0000   -29.0420   110.9479     7.8193     2.4968     0.1128     0.0190     7.9791     8.3918
  116.5000   -28.9776   116.1417     7.8099     2.4992     0.1104     0.0169     8.0030     8.3976
  117.0000   -28.9100   119.6061     7.8005     2.5006     0.1095     0.0137     8.0270     8.4038
  117.5000   -28.7721   120.6802     7.7910     2.5012     0.1097     0.0086     8.0509     8.4996
  118.0000   -28.5026   118.6669     7.7816     2.5002     0.1102     0.0040     8.0747     8.7141
  118.5000   -28.2350   111.4304     7.7722     2.4993     0.1102     0.0002     8.0979     8.9339
  119.0000   -27.9666   106.7104     7.7628     2.4984     0.1092    -0.0007     8.2249     9.0092
  119.5000   -27.6994   100.1928     7.7534     2.4974     0.1109    -0.0009     8.3699     9.0584
  120.0000   -27.4802   100.0997     7.7439     2.4965     0.1123    -0.0010     8.5184     9.1079
  120.5000   -27.5212    99.7840     7.7345     2.4956     0.1125    -0.0012     8.6692     9.2736
  121.0000   -27.5575    97.0718     7.7248     2.4946     0.1126    -0.0014     8.8228     9.5815
  121.5000   -27.5931    94.1737     7.7212     2.4952     0.1116    -0.0016     8.9684     9.8997
  122.0000   -27.6284    93.7723     7.7190     2.4962     0.1110    -0.0018     9.0607    10.2032
  122.5000   -27.6655    94.6832     7.7169     2.4944     0.1127    -0.0020     9.1487    10.2495
  123.0000   -27.6063    94.7902     7.7148     2.4916     0.1141    -0.0022     9.2373    10.2927
  123.5000   -27.4711    94.7087     7.7127     2.4964     0.1129    -0.0024     9.3268    10.3361
  124.0000   -27.0259    94.3856     7.7106     2.5070     0.1047    -0.0015     9.4330    10.3797
  124.5000   -26.5682    93.7943     7.7084     2.5174     0.1000     0.0005     9.5797    10.6192
  125.0000   -26.2635    90.7866     7.7063     2.5175     0.0988     0.0025     9.7286    10.9621
  125.5000   -26.2091    87.9508     7.7044     2.5164     0.0985     0.0045     9.8338    11.3126
  126.0000   -26.1531    87.7744     7.7164     2.5150     0.0996     0.0066     9.8338    11.6741
  126.5000   -26.0722    87.8111     7.7498     2.5133     0.1007     0.0086     9.8338    12.0474
  127.0000   -25.4290    89.6052     7.7827     2.5063     0.1033     0.0103     9.8338    12.1818
  127.5000   -24.7579    91.6679     7.7957     2.4993     0.1092     0.0117     9.8342    12.2170
  128.0000   -24.4785    93.7399     7.7800     2.4922     0.1154     0.0132     9.7624    12.2524
  128.5000   -24.4271    94.1945     7.7644     2.4861     0.1188     0.0147     9.6640    12.2879
  129.0000   -24.3800    95.3740     7.7786     2.4852     0.1190     0.0193     9.5666    12.3235
  129.5000   -24.3330    96.7779     7.8033     2.4863     0.1194     0.0302     9.4702    12.3592
  130.0000   -24.2876    96.5497     7.8281     2.4815     0.1199     0.0409     9.3748    12.3829
  130.5000   -24.2449    95.1645     7.8417     2.4818     0.1204     0.0505     9.2796    12.1034
  131.0000   -24.2021    93.6916     7.8416     2.4775     0.1243     0.0537     9.2192    11.8983
  131.5000   -24.1594    92.5285     7.8417     2.4736     0.1261     0.0570     9.2192    11.6099
  132.0000   -24.1166    91.4278     7.8422     2.4740     0.1259     0.0603     9.2192    11.6296
  132.5000   -24.0739    89.8290     7.8216     2.4752     0.1248     0.0706     9.1998    11.6718
  133.0000   -24.0311    87.6545     7.7990     2.4803     0.1232     0.0823     9.1795    11.7123
  133.5000   -23.9883    86.1016     7.7763     2.4894     0.1187     0.0838     9.1593    11.7531
  134.0000   -23.9456    86.1289     7.7536     2.4983     0.1107     0.0855     9.1392    11.7939
  134.5000   -23.9028    86.8437     7.7435     2.5068     0.1046     0.0871     9.1191    11.8349
  135.0000   -23.8601    88.2422     7.7448     2.5250     0.0960     0.0916     9.0990    11.8761
  135.5000   -23.8173    88.2915     7.7462     2.5444     0.0890     0.0974     9.0789    11.9345
  136.0000   -23.7746    87.5652     7.7477     2.5538     0.0826     0.1032     9.0590    11.8539
  136.5000   -23.7318    88.3624     7.7492     2.5484     0.0814     0.1021     9.0390    11.7176
  137.0000   -23.6891    89.2882     7.7506     2.5310     0.0907     0.1000     9.0191    11.6090
  137.5000   -23.6463    89.9957     7.7521     2.5139     0.0980     0.0980     8.9993    11.6090
  138.0000   -23.6035    89.5880     7.7536     2.4998     0.1053     0.0959     8.9795    11.6090
  138.5000   -23.5601    88.9400     7.7550     2.4863     0.1218     0.0940     8.8914    11.6090
  139.0000   -23.5138    89.4194     7.7565     2.4693     0.1277     0.1066     8.7063    11.3561
  139.5000   -23.6534    91.4316     7.7580     2.4590     0.1355     0.1205     8.5526    11.0512
  140.0000   -23.8188    93.2270     7.7595     2.4670     0.1330     0.1320     8.5011    10.7543
  140.5000   -23.9222    93.9559     7.7610     2.4706     0.1291     0.1353     8.4500    10.5544
  141.0000   -23.9502    94.5642     7.7618     2.4757     0.1267     0.1332     8.3991    10.4787
  141.5000   -23.9787    94.7960     7.7437     2.4910     0.1156     0.1311     8.3485    10.4035
  142.0000   -24.0070    95.7593     7.7246     2.4984     0.1105     0.1260     8.2983    10.3289
  142.5000   -24.0353    96.6586     7.7056     2.4957     0.1115     0.1151     8.2484    10.2548
  143.0000   -24.0638    96.2349     7.6866     2.4979     0.1110     0.1043     8.1987    10.1812
  143.5000   -24.0939    95.7045     7.6677     2.5021     0.1072     0.0876     8.1494    10.1082
  144.0000   -24.2045    95.5827     7.6487     2.4981     0.1077     0.0611     8.1027    10.0357
  144.5000   -24.4110    95.8988     7.6297     2.4815     0.1169     0.0350     8.0671     9.9637
  145.0000   -24.6161    96.2255     7.6106     2.4706     0.1269     0.0177     8.0331     9.8899
  145.5000   -24.8220    95.4107     7.6041     2.4689     0.1289     0.0132     7.9994     9.8139
  146.0000   -25.0272    94.4053     7.6039     2.4631     0.1305     0.0031     7.9658     9.7385
  146.5000   -25.2386    95.2243     7.6039     2.4567     0.1365     0.0017     7.9323     9.6636
  147.0000   -25.1406    97.0095     7.6035     2.4503     0.1407     0.0020     7.8990     9.5894
  147.5000   -24.9207   101.2434     7.6186     2.4494     0.1392     0.0023     7.8658     9.5157
  148.0000   -24.6964   105.4906     7.6356     2.4494     0.1391     0.0026     7.8327     9.4424
  148.5000   -24.4723   106.4498     7.6526     2.4494     0.1397     0.0029     7.7998     9.3871
  149.0000   -24.2484   105.3285     7.6696     2.4494     0.1404     0.0032     7.7670     9.3747
  149.5000   -24.0245   101.8517     7.6866     2.4493     0.1402     0.0034     7.7344     9.3624
  150.0000   -23.8002    99.1409     7.7035     2.4499     0.1393     0.0068     7.7019     9.3500
  150.5000   -23.5637    98.1425     7.7205     2.4596     0.1357     0.0115     7.6695     9.3376
  151.0000   -23.6845    97.2392     7.7375     2.4690     0.1281     0.0153     7.6373     9.3251
  151.5000   -23.9236    96.4962     7.7545     2.4739     0.1250     0.0120     7.6052     9.3128
  152.0000   -24.1659    97.0653     7.7631     2.4690     0.1293     0.0088     7.5680     9.2795
