~VERSION INFORMATION
 VERS.                2.0:   CWLS LOG ASCII STANDARD - VERSION 2.0
 WRAP.                 NO:   ONE LINE PER DEPTH STEP
~WELL INFORMATION
#MNEM.UNIT      DATA TYPE    INFORMATION
#----------   ------------   ------------------------------
 STRT.F           22.0000:   START DEPTH
 STOP.F          533.0000:   STOP DEPTH
 STEP.F            0.5000:   STEP LENGTH
 NULL.          -999.2500:   NO VALUE
 COMP. FENIX & SCISSON INC:   COMPANY
 WELL.        NPR 3 #32-3:   WELL
 FLD .        TEAPOT DOME:   FIELD
 LOC .       S3 T38N R78W:   LOCATION
 CNTY.            NATRONA:   COUNTY
 STAT.            WYOMING:   STATE
 CTRY. UNITED STATES OF AMERICA:   COUNTRY
 SRVC.            Unknown:   SERVICE COMPANY
 DATE.        19-JUL-1978:   LOGDATE
 API .       490251067200:   API NUMBER
~CURVE INFORMATION
#MNEM.UNIT       API CODE    CURVE DESCRIPTION
#----------   ------------   ------------------------------
 DEPT.F                  :   
 SPR .MV     05 010 01 00:   SPONTANEOUS POTENTIAL FROM RES.
 SN  .OHMM   05 040 16 00:   SHORT NORMAL 16"
 IL  .OHMM   05 120 00 00:   INDUCTION LOG
 RHOB.G/C3   45 350 01 00:   BULK DENSITY
 DPHI.DEC    45 890 12 00:   DENSITY POROSITY SANDSTONE
 CORR.G/C3   45 356 01 00:   DENSITY CORRECTION
 CALD.IN     45 280 60 00:   CALIPER
 GRD .GAPI   45 310 01 00:   GAMMA RAY FROM DENSITY LOG
~PARAMETER INFORMATION
#MNEM.UNIT          VALUE    DESCRIPTION
#----------   ------------   ------------------------------
 PD  .                 GL:   PERMANENT DATUM
 EPD .F              5179:   ELEVATION PERMANENT DATUM
 LMF .                 KB:   LOG MEASURED FROM
 DAPD.F                 4:   FEET ABOVE PERMANENT DATUM
 DMF .                 KB:   DRILLING MEASURED FROM
 EKB .F              5183:   KELLING BUSHING
 EGL .F              5179:   GROUND LEVEL
 DATE.            7-19-78:   RUN DATE
 RUN .                  1:   RUN NUMBER
 DD  .F               520:   DEPTH DRILLER
 DL  .F               533:   DEPTH LOGGER
 BLI .F               527:   BOTTOM LOG INTERVAL
 TLI .F                50:   TOP LOG INTERVAL
 CS  .IN            8.625:   CASING SIZE
 CBD .F                40:   CASING BOTTOM DRILLER
 BS  .IN            7.875:   BIT SIZE
 BSD .F               520:   BIT SIZE AT DEPTH
 DFT .                KCL:   DRILLING FLUID TYPE
 DFD .                8.7:   DRILLING FLUID DENSITY
 DFV .                 33:   DRILLING FLUID VISCOSITY
 DFPH.                  9:   DRILLING FLUID PH
 DFL .               12.4:   DRILLING FLUID LOSS
 MSS .          FLOW LINE:   MUD SAMPLE SOURCE
 RMS .OHMM            .28:   RESISTIVITY MUD SAMPLE
 MST .F                70:   MUD SAMPLE TEMPERATURE
 RMF .OHMM            .24:   RESISTIVITY MUD FILTRATE SAMPLE
 MFST.F                76:   MUD FILTRATE SAMPLE TEMPERATURE
 RMC .OHMM             .5:   RESISTIVITY MUD CAKE
 MCST.F                78:   MUD CAKE SAMPLE TEMPERATURE
 MFSS.               MEAS:   MUD FILTRATE SAMPLE SOURCE
 MCSS.               MEAS:   MUD CAKE SAMPLE SOURCE
 TCS .HRS               2:   TIME CURCULATED STOPPED
 LUN .               2958:   LOGGING UNIT NUMBER
 LUL .               CASP:   LOGGING UNIT LOCATION
 ENGI.             MILLER:   RECORDING ENGINEER
 WITN.           MCGINLEY:   WITNESSED BY
 CLNT.            A2DTECH:   CLIENT CODE
 ORIG.           5" PRINT:   ORIGIN OF DATA
 UWI .       490251067200:   UNIQUE WELL ID
 DICO. A2D Technologies, Inc.:   DIGITIZING COMPANY
~OTHER INFORMATION
~A   DEPT      SPR         SN         IL       RHOB       DPHI       CORR       CALD         GRD  
# ...
  224.5000   -27.2277     7.2772     8.2765     2.4670     0.1336     0.0082     8.0453    76.7411
  225.0000   -27.2277     7.1543     8.2974     2.4640     0.1360     0.0112     8.0687    79.0435
  225.5000   -27.2277     7.0334     7.9927     2.4601     0.1379     0.0141     8.0923    77.6053
  226.0000   -27.2277     6.9146     7.7816     2.4562     0.1420     0.0169     8.1264    75.3554
  226.5000   -27.2278     6.7978     7.5761     2.4521     0.1476     0.0205     8.1255    74.1049
  227.0000   -27.2277     6.6830     7.3757     2.4437     0.1571     0.0288     8.1254    75.2220
  227.5000   -27.2279     6.5701     7.1809     2.4271     0.1631     0.0494     8.1440    76.0065
  228.0000   -27.1991     6.4591     7.0347     2.4108     0.1336     0.0839     8.2195    75.7185
  228.5000   -27.1467     6.4023     7.0874     2.4428     0.1454     0.0022     8.2137    75.6646
  229.0000   -27.0942     6.3755     7.1379     2.4718     0.1579    -0.0023     8.2177    78.8804
  229.5000   -27.0416     6.3609     7.1866     2.4342     0.1352    -0.0033     8.2629    80.4112
  230.0000   -26.9891     6.4502     7.2701     2.4187     0.1405    -0.0046     8.2826    79.1274
  230.5000   -26.9365     6.5124     7.3544     2.4597     0.1449    -0.0060     8.2774    78.2311
  231.0000   -26.8840     6.5753     7.4326     2.4526     0.1494    -0.0044     8.2718    78.2079
  231.5000   -26.8315     6.6387     7.4965     2.4412     0.1535    -0.0013     8.2659    77.0340
  232.0000   -26.7790     6.6593     7.5696     2.4296     0.1548     0.0018     8.2650    76.2567
  232.5000   -26.7269     6.6592     7.6434     2.4269     0.1447     0.0027     8.3037    75.9820
  233.0000   -26.6738     6.6592     7.7108     2.4340     0.1471     0.0010     8.3441    75.8558
  233.5000   -26.5856     6.6591     7.6053     2.4412     0.1531    -0.0007     8.3845    75.8589
  234.0000   -26.3491     6.6309     7.4893     2.4329     0.1585    -0.0024     8.4249    76.0130
  234.5000   -26.1216     6.5753     7.3642     2.4237     0.1643     0.0029     8.4617    76.1602
  235.0000   -25.7310     6.5195     7.3662     2.4146     0.1620     0.0089     8.4625    75.8186
  235.5000   -25.2692     6.4592     7.3655     2.4149     0.1594     0.0148     8.4626    74.9052
  236.0000   -24.7972     6.4001     7.3206     2.4206     0.1623     0.0304     8.5272    74.1033
  236.5000   -24.7177     6.3412     7.2317     2.4187     0.1531     0.0538     8.6510    74.0703
  237.0000   -24.7994     6.2791     7.0732     2.4113     0.1499     0.0637     8.4722    74.4570
  237.5000   -24.5466     6.1159     6.8644     2.4299     0.1574     0.0650     8.4986    75.7083
  238.0000   -23.9264     5.9569     6.6618     2.4365     0.1580     0.0651     8.5492    76.2429
  238.5000   -23.2969     5.8020     6.4651     2.4133     0.1723     0.0647     8.6000    76.3477
  239.0000   -23.1109     5.6465     6.3861     2.4034     0.1915     0.0648     8.6131    76.4494
  239.5000   -22.9473     5.6579     6.3029     2.3963     0.1859     0.0539     8.9938    76.1445
  240.0000   -22.8724     5.6698     6.3702     2.3648     0.1901     0.0258     8.7756    75.6499
  240.5000   -22.8695     5.6817     6.4888     2.3937     0.1591     0.0314     8.6555    75.2602
  241.0000   -22.8702     5.6936     6.6095     2.3725     0.1647     0.0363     8.5306    74.9293
  241.5000   -22.9838     5.7623     6.8082     2.3983     0.1621     0.0605     8.5351    74.6661
  242.0000   -23.7415     5.9269     7.0664     2.4321     0.1596     0.0210     8.6245    74.6549
  242.5000   -24.2316     6.0963     7.3345     2.4733     0.1504     0.0047     8.3636    74.6198
  243.0000   -24.5414     6.2705     7.6127     2.4314     0.1488    -0.0030     8.2666    76.1762
  243.5000   -24.8608     6.4496     7.9015     2.4250     0.1470    -0.0039     8.2045    78.9825
  244.0000   -25.4930     6.6339     8.1084     2.4520     0.1455    -0.0032     8.1853    82.1075
  244.5000   -26.1397     6.8234     8.1938     2.4485     0.1400    -0.0024     8.1854    82.5447
  245.0000   -26.7918     6.9970     8.2801     2.4478     0.1390    -0.0016     8.1862    82.1128
  245.5000   -27.0264     7.1053     8.3673     2.4562     0.1416    -0.0008     8.1871    82.2017
  246.0000   -27.0304     7.2154     8.4508     2.4532     0.1417     0.0003     8.1880    83.3101
  246.5000   -27.0301     7.2983     8.4508     2.4512     0.1356     0.0016     8.1888    84.1403
  247.0000   -27.0297     7.2983     8.4509     2.4577     0.1340     0.0029     8.1897    83.7418
  247.5000   -27.0296     7.2983     8.4508     2.4637     0.1324     0.0043     8.1906    83.0512
  248.0000   -27.0301     7.2983     8.4508     2.4679     0.1207     0.0052     8.1915    82.1915
  248.5000   -27.0091     7.2983     8.4508     2.4801     0.1095    -0.0024     8.1923    81.3348
  249.0000   -26.9792     7.3347     8.4508     2.4952     0.0992    -0.0102     8.1932    81.0317
  249.5000   -26.9489     7.3686     8.4494     2.5105     0.1110    -0.0182     8.1941    80.7175
  250.0000   -26.9186     7.4026     8.4768     2.5244     0.1124     0.0084     8.1949    78.7362
  250.5000   -26.8881     7.4333     8.5292     2.5015     0.1052     0.0111     8.1958    76.7496
  251.0000   -26.8578     7.3910     8.5820     2.5071     0.1206     0.0104     8.1967    76.2967
  251.5000   -26.8369     7.3521     8.6072     2.4932     0.1236     0.0097     8.1976    76.9191
  252.0000   -26.8851     7.3114     8.5078     2.4812     0.1271     0.0091     8.1984    79.1459
  252.5000   -26.9328     7.2709     8.4208     2.4721     0.1340     0.0084     8.1993    79.4921
  253.0000   -26.9797     7.2306     8.3346     2.4664     0.1243     0.0078     8.2002    78.6888
  253.5000   -27.0328     7.1906     8.2383     2.4770     0.1347     0.0082     8.2010    79.7528
  254.0000   -27.2442     7.1431     8.1352     2.4686     0.1384     0.0093     8.2019    82.9786
  254.5000   -27.4670     7.0832     8.0332     2.4599     0.1308     0.0105     8.2025    82.9997
  255.0000   -27.6916     7.0239     7.9324     2.4630     0.1389     0.0117     8.2037    81.4501
  255.5000   -28.0237     6.9655     7.8252     2.4601     0.1435     0.0128     8.2251    80.1983
  256.0000   -28.5278     6.9075     7.6905     2.4554     0.1388     0.0145     8.3372    80.8102
  256.5000   -28.9989     6.7643     7.5630     2.4507     0.1509     0.0168     8.4244    82.2775
  257.0000   -29.0128     6.6059     7.4405     2.4415     0.1614     0.0186     8.4240    83.7322
  257.5000   -29.0101     6.3789     7.3199     2.4277     0.1720     0.0370     8.4427    85.1976
  258.0000   -29.0082     6.1617     7.2013     2.4139     0.1824     0.0577     8.4611    85.8591
  258.5000   -29.0202     5.9502     7.0847     2.4031     0.1921     0.0832     8.5027    83.2252
  259.0000   -29.2458     5.7330     6.9699     2.3793     0.1976     0.1078     8.5439    80.8438
  259.5000   -29.4690     5.4673     6.8569     2.3616     0.2154     0.1363     8.5812    80.5324
  260.0000   -29.6921     5.1532     6.4221     2.3422     0.2375     0.1863     8.5804    83.3919
  260.5000   -29.8000     4.8252     5.9788     2.2928     0.2562     0.2365     8.5599    84.4234
  261.0000   -29.8020     4.5181     5.4097     2.2652     0.2950     0.2695     8.6417    79.5861
  261.5000   -29.8022     4.2113     4.8148     2.2039     0.2992     0.2638     8.7533    75.9549
  262.0000   -29.8020     3.8360     4.2688     2.1888     0.3084     0.2241     8.7986    73.5816
  262.5000   -29.8020     3.4700     3.7870     2.1716     0.3236     0.1699     9.1419    73.6817
  263.0000   -29.8020     3.1390     3.4243     2.1267     0.3326     0.1596     9.3394    73.6782
  263.5000   -29.8020     2.8822     3.2053     2.1400     0.3076     0.1148     8.8470    73.4241
  264.0000   -29.8020     2.7125     3.0002     2.1262     0.2869     0.1235     8.8630    70.3685
  264.5000   -29.8020     2.7657     2.9188     2.2029     0.2662     0.1012     9.1430    66.8641
