~VERSION INFORMATION
 VERS.                2.0:   CWLS LOG ASCII STANDARD - VERSION 2.0
 WRAP.                 NO:   ONE LINE PER DEPTH STEP
~WELL INFORMATION
#MNEM.UNIT      DATA TYPE    INFORMATION
#----------   ------------   ------------------------------
 STRT.F            0.0000:   START DEPTH
 STOP.F          530.0000:   STOP DEPTH
 STEP.F            0.5000:   STEP LENGTH
 NULL.          -999.2500:   NO VALUE
 COMP. FENIX & SCISSON INC:   COMPANY
 WELL.      74 SX 3 #74-3:   WELL
 FLD .             TEAPOT:   FIELD
 LOC .       S3 T38N R78W:   LOCATION
 CNTY.            NATRONA:   COUNTY
 STAT.            WYOMING:   STATE
 CTRY. UNITED STATES OF AMERICA:   COUNTRY
 SRVC.            Unknown:   SERVICE COMPANY
 DATE.        20-SEP-1978:   LOGDATE
 API .       490251072200:   API NUMBER
~CURVE INFORMATION
#MNEM.UNIT       API CODE    CURVE DESCRIPTION
#----------   ------------   ------------------------------
 DEPT.F                  :   
 CALD.IN     45 280 60 00:   CALIPER
 GRD .GAPI   45 310 01 00:   GAMMA RAY FROM DENSITY LOG
 RHOB.G/C3   45 350 01 00:   BULK DENSITY
 DPHI.DEC    45 890 12 00:   DENSITY POROSITY SANDSTONE
 CORR.G/C3   45 356 01 00:   DENSITY CORRECTION
 SPR .MV     05 010 01 00:   SPONTANEOUS POTENTIAL FROM RES.
 SN  .OHMM   05 040 16 00:   SHORT NORMAL 16"
 ILD .OHMM   05 120 46 00:   INDUCTION LOG DEEP
~PARAMETER INFORMATION
#MNEM.UNIT          VALUE    DESCRIPTION
#----------   ------------   ------------------------------
 PD  .                 GL:   PERMANENT DATUM
 EPD .F              5139:   ELEVATION PERMANENT DATUM
 LMF .                 KB:   LOG MEASURED FROM
 DAPD.F                 4:   FEET ABOVE PERMANENT DATUM
 DMF .                 KB:   DRILLING MEASURED FROM
 EKB .F              5143:   KELLING BUSHING
 EGL .F              5139:   GROUND LEVEL
 DATE.            9-20-78:   RUN DATE
 RUN .                  1:   RUN NUMBER
 DD  .F               532:   DEPTH DRILLER
 DL  .F               530:   DEPTH LOGGER
 BLI .F               524:   BOTTOM LOG INTERVAL
 TLI .F                40:   TOP LOG INTERVAL
 CS  .IN            8.625:   CASING SIZE
 CBD .F                40:   CASING BOTTOM DRILLER
 CBL .F                40:   CASING BOTTOM LOGGER
 BS  .IN            7.875:   BIT SIZE
 BSD .F               532:   BIT SIZE AT DEPTH
 DFT .                KCL:   DRILLING FLUID TYPE
 DFD .                8.8:   DRILLING FLUID DENSITY
 DFV .                 38:   DRILLING FLUID VISCOSITY
 DFPH.                  9:   DRILLING FLUID PH
 DFL .                6.2:   DRILLING FLUID LOSS
 MSS .                PIT:   MUD SAMPLE SOURCE
 BHT .F                69:   BOTTOM HOLE TEMPERATURE
 TCS .HRS               3:   TIME CURCULATED STOPPED
 MRT .F                69:   MAXIMUM RECORDED TEMPERATURE
 LUN .               2958:   LOGGING UNIT NUMBER
 LUL .             CASPER:   LOGGING UNIT LOCATION
 ENGI.           REYNOLDS:   RECORDING ENGINEER
 WITN.           DINSMORE:   WITNESSED BY
 CLNT.            A2DTECH:   CLIENT CODE
 ORIG.       2", 5" PRINT:   ORIGIN OF DATA
 UWI .       490251072200:   UNIQUE WELL ID
 DICO. A2D Technologies, Inc.:   DIGITIZING COMPANY
~OTHER INFORMATION
~A    DEPT    CALD         GRD      RHOB       DPHI       CORR        SPR         SN        ILD   
# ...
   40.5000     8.5100    42.9651     1.7487     0.2986    -0.0839  -999.2500  -999.2500  -999.2500
   41.0000     8.3764    41.6145     2.0015     0.2986    -0.0607  -999.2500  -999.2500  -999.2500
   41.5000     8.2491    40.1960     1.7864     0.2986    -0.0410  -999.2500  -999.2500  -999.2500
   42.0000     8.0303    39.7105     1.9257     0.2986    -0.0042  -999.2500  -999.2500  -999.2500
   42.5000     8.2583    39.3373     2.0574     0.2086     0.0532  -999.2500  -999.2500  -999.2500
   43.0000     8.1181    39.3446     2.2147     0.1356     0.1103  -999.2500  -999.2500  -999.2500
   43.5000     7.9527    39.9547     2.3515     0.1084     0.1617  -999.2500  -999.2500  -999.2500
   44.0000     7.8213    45.2152     2.4498     0.1052     0.1713  -999.2500  -999.2500  -999.2500
   44.5000     7.7207    68.4352     2.4961     0.1019     0.1617  -999.2500  -999.2500  -999.2500
   45.0000     7.6385    73.2268     2.5105     0.1015     0.1455  -999.2500  -999.2500  -999.2500
   45.5000     7.6056    77.6289     2.5107     0.1136     0.1243  -999.2500  -999.2500  -999.2500
   46.0000     7.5713    79.3819     2.4875     0.1255     0.1028  -999.2500     9.4311     2.5747
   46.5000     7.5367    80.8983     2.4708     0.1375     0.0993  -999.2500    10.0446     2.5511
   47.0000     7.5298    82.1257     2.4541     0.1495     0.1040  -999.2500    10.8280    10.0590
   47.5000     7.5480    83.3426     2.4374     0.1575     0.1315  -999.2500    10.9383     9.5395
   48.0000     7.5780    84.3442     2.4205     0.1598     0.1775  -999.2500     8.8583     8.0646
   48.5000     7.6084    84.8679     2.4132     0.1467     0.2224  -999.2500     8.1764     7.8449
   49.0000     7.6266    84.5156     2.4236     0.1315     0.2674  -999.2500     8.0646     7.8449
   49.5000     7.5381    82.3158     2.4441     0.1072     0.3122  -999.2500     8.1217     7.8449
   50.0000     7.4516    79.3984     2.5032     0.0322     0.3712  -999.2500     8.1765     7.8449
   50.5000     7.3892    78.3254     2.5656     0.0599     0.3223  -999.2500     8.2145     7.8449
   51.0000     7.4307    77.5716     2.6330     0.0906     0.2263  -999.2500     8.2905     7.9415
   51.5000     7.4708    77.2845     2.5777     0.1213     0.1213  -999.2500     8.4446     8.1295
   52.0000     7.4433    77.0760     2.5162     0.1354     0.0618  -999.2500     8.6554     8.3560
   52.5000     7.4136    76.3754     2.4514     0.1408     0.0608  -999.2500     8.8832     8.6172
   53.0000     7.3838    75.4846     2.4391     0.1429     0.0585  -999.2500     9.1171     8.8865
   53.5000     7.3686    74.7423     2.4369     0.1409     0.0586  -999.2500     9.3571     9.1642
   54.0000     7.4494    74.1109     2.4377     0.1351     0.0609  -999.2500     9.6035     9.4506
   54.5000     7.5572    73.9355     2.4433     0.1293     0.0633  -999.2500     9.8563     9.7459
   55.0000     7.6521    73.8007     2.4535     0.1236     0.0648  -999.2500    10.1158    10.0505
   55.5000     7.6068    73.8094     2.4667     0.1190     0.0573  -999.2500    10.3821    10.3408
   56.0000     7.4736    74.0205     2.4750     0.1195     0.0470  -999.2500    10.6554    10.4614
   56.5000     7.3350    74.6133     2.4750     0.1225     0.0355  -999.2500    10.9360    10.5750
   57.0000     7.4694    74.9196     2.4700     0.1273     0.0295  -999.2500    11.2239    10.6899
   57.5000     7.5661    74.9129     2.4639     0.1302     0.0267  -999.2500    11.5194    10.8067
   58.0000     7.3848    74.3417     2.4615     0.1303     0.0249   -37.7228    12.1897    10.9276
   58.5000     7.4741    73.9883     2.4609     0.1294     0.0244   -38.0540    13.2292    10.8223
   59.0000     7.5199    74.0303     2.4611     0.1285     0.0238   -38.4200    14.3610    10.7128
   59.5000     7.3121    75.0985     2.4612     0.1276     0.0233   -38.5760    15.5839    10.6045
   60.0000     7.2792    76.6112     2.4613     0.1279     0.0228   -38.6971    16.0944    10.4972
   60.5000     7.3086    78.1353     2.4615     0.1287     0.0223   -38.8159    15.3054    10.4246
   61.0000     7.2903    79.6417     2.4616     0.1296     0.0218   -38.9635    14.5749    10.3971
   61.5000     7.2698    80.3278     2.4617     0.1302     0.0212   -39.2493    13.8793    10.3697
   62.0000     7.3432    79.8085     2.4618     0.1304     0.0216   -39.5327    13.2169    10.3424
   62.5000     7.3606    79.2745     2.4628     0.1302     0.0222   -39.8159    12.7335    10.3151
   63.0000     7.3174    80.0306     2.4638     0.1289     0.0229   -40.0987    12.3324    10.2879
   63.5000     7.2649    82.0441     2.4648     0.1268     0.0237   -40.3817    11.9440    10.2607
   64.0000     7.5544    84.0370     2.4659     0.1228     0.0249   -40.6810    11.5489    10.2337
   64.5000     7.6347    86.0354     2.4717     0.1187     0.0261   -41.2990    11.5161    10.2067
   65.0000     7.3462    87.8608     2.4779     0.1147     0.0274   -41.9745    11.4816    10.1798
   65.5000     7.4340    89.2864     2.4842     0.1128     0.0286   -42.6429    11.4472    10.1529
   66.0000     7.4647    89.9761     2.4906     0.1117     0.0298   -42.5354    11.4129    10.1262
   66.5000     7.4322    89.8124     2.4924     0.1105     0.0310   -42.3795    11.3788    10.0995
   67.0000     7.4629    88.5395     2.4931     0.1090     0.0322   -42.2253    11.3447    10.0728
   67.5000     7.6842    86.3023     2.4937     0.1064     0.0334   -42.0909    11.3107    10.0463
   68.0000     7.4116    84.7046     2.4965     0.1037     0.0347   -42.3129    11.2769    10.0198
   68.5000     7.4972    83.2321     2.5007     0.1016     0.0352   -42.5463    11.2431     9.9934
   69.0000     7.5535    82.3197     2.5040     0.1071     0.0353   -42.6511    11.2094     9.9670
   69.5000     7.5172    82.2164     2.4975     0.1127     0.0355   -42.5996    11.1759     9.9407
   70.0000     7.5557    82.2597     2.4905     0.1183     0.0356   -42.5496    11.1424     9.9145
   70.5000     7.7080    83.0516     2.4834     0.1195     0.0357   -42.4985    11.1090     9.8884
   71.0000     7.4716    83.9518     2.4806     0.1192     0.0359   -42.4763    11.0758     9.8623
   71.5000     7.3813    81.4044     2.4799     0.1182     0.0360   -42.5867    11.0427     9.8363
   72.0000     7.5006    78.3623     2.4799     0.1171     0.0361   -42.9902    10.9389     9.8103
   72.5000     7.4773    76.4219     2.4800     0.1160     0.0363   -43.7245    10.7886     9.7850
   73.0000     7.3630    75.0419     2.4809     0.1150     0.0364   -43.8357    10.6404     9.6960
   73.5000     7.7188    74.5701     2.4820     0.1168     0.0365   -43.8053    10.4942     9.5890
   74.0000     7.5042    74.3814     2.4763     0.1253     0.0366   -43.7712    10.3500     9.4831
   74.5000     7.3741    74.7230     2.4699     0.1295     0.0368   -43.7383    10.2078     9.3785
   75.0000     7.4070    75.2826     2.4634     0.1333     0.0369   -43.7062    10.0675     9.2750
   75.5000     7.5378    76.2786     2.4570     0.1361     0.0370   -43.6708     9.9292     9.1726
   76.0000     7.5747    78.3523     2.4500     0.1388     0.0379   -43.7912     9.7928     9.0713
   76.5000     7.6122    79.1285     2.4421     0.1415     0.0442   -43.9725     9.6582     8.9712
   77.0000     7.5621    78.6919     2.4363     0.1442     0.0520   -44.1102     9.5255     8.8722
   77.5000     7.5522    76.7829     2.4333     0.1480     0.0612   -44.2153     9.3946     8.7743
   78.0000     7.5936    74.5096     2.4287     0.1522     0.0703   -43.9485     9.2656     8.6774
   78.5000     7.6501    73.9414     2.4241     0.1574     0.0795   -43.4062     9.1383     8.6015
   79.0000     7.7805    73.6769     2.4194     0.1503     0.0919   -43.0657     9.0068     8.5193
   79.5000     7.5660    73.7496     2.4162     0.1410     0.1104   -43.0699     9.0999     8.6382
   80.0000     7.4664    73.8392     2.4388     0.1317     0.1292   -43.0692     9.2133     8.7513
   80.5000     7.4024    73.9661     2.4627     0.1224     0.1495   -43.0694     9.3281     8.8663
