~VERSION INFORMATION
 VERS.                2.0:   CWLS LOG ASCII STANDARD - VERSION 2.0
 WRAP.                 NO:   ONE LINE PER DEPTH STEP
~WELL INFORMATION
#MNEM.UNIT      DATA TYPE    INFORMATION
#----------   ------------   ------------------------------
 STRT.F            2.0000:   START DEPTH
 STOP.F          548.0000:   STOP DEPTH
 STEP.F            0.1000:   STEP LENGTH
 NULL.          -999.2500:   NO VALUE
 COMP.       F D SERV INC:   COMPANY
 WELL. NAVAL PETROLEUM RESERVE 3 SX-3 #88-10-3:   WELL
 FLD .             TEAPOT:   FIELD
 LOC .       S3 T38N R78W:   LOCATION
 CNTY.            NATRONA:   COUNTY
 STAT.            WYOMING:   STATE
 CTRY. UNITED STATES OF AMERICA:   COUNTRY
 SRVC.     Atlas Wireline:   SERVICE COMPANY
 DATE.        19-OCT-1992:   LOGDATE
 API .       490252254600:   API NUMBER
~CURVE INFORMATION
#MNEM.UNIT       API CODE    CURVE DESCRIPTION
#----------   ------------   ------------------------------
 DEPT.F                  :   
 GRR .GAPI   07 310 01 00:   GAMMA RAY
 ILD .OHMM   07 120 46 00:   INDUCTION LOG DEEP
 ILM .OHMM   07 120 44 00:   INDUCTION LOG MEDIUM
~PARAMETER INFORMATION
#MNEM.UNIT          VALUE    DESCRIPTION
#----------   ------------   ------------------------------
 PD  .                 GL:   PERMANENT DATUM
 EPD .F              5126:   ELEVATION PERMANENT DATUM
 LMF .                 KB:   LOG MEASURED FROM
 DAPD.F                10:   FEET ABOVE PERMANENT DATUM
 DMF .                 KB:   DRILLING MEASURED FROM
 EKB .F              5136:   KELLING BUSHING
 EDF .F              5135:   DRILLING FLOOR
 EGL .F              5126:   GROUND LEVEL
 DATE.        19-OCT-1992:   RUN DATE
 RUN .                  1:   RUN NUMBER
 DD  .F               566:   DEPTH DRILLER
 DL  .F               558:   DEPTH LOGGER
 BLI .F               550:   BOTTOM LOG INTERVAL
 TLI .F                98:   TOP LOG INTERVAL
 CS  .IN            8.625:   CASING SIZE
 CBD .F                85:   CASING BOTTOM DRILLER
 CBL .F                98:   CASING BOTTOM LOGGER
 BS  .IN            7.875:   BIT SIZE
 BSD .F               566:   BIT SIZE AT DEPTH
 DFT .           AIR FOAM:   DRILLING FLUID TYPE
 TCS .HRS               2:   TIME CURCULATED STOPPED
 MRT .F                73:   MAXIMUM RECORDED TEMPERATURE
 LUN .            HL-6274:   LOGGING UNIT NUMBER
 LUL .             CASPER:   LOGGING UNIT LOCATION
 ENGI.             RAUTIO:   RECORDING ENGINEER
 WITN.        GARY STRONG:   WITNESSED BY
 CLNT.            A2DTECH:   CLIENT CODE
 ORIG.           5" PRINT:   ORIGIN OF DATA
 UWI .       490252254600:   UNIQUE WELL ID
 DICO. A2D Technologies, Inc.:   DIGITIZING COMPANY
~OTHER INFORMATION
~A    DEPT     GRR        ILD        ILM   
# ...
  184.0000   118.1293     7.8657     7.8341
  184.1000   117.5615     7.9087     7.8338
  184.2000   117.3519     7.9085     7.8333
  184.3000   116.9541     7.9083     7.8329
  184.4000   116.6473     7.9081     7.8402
  184.5000   116.7162     7.9078     7.8869
  184.6000   117.2495     7.9076     7.8864
  184.7000   117.6943     7.9074     7.9185
  184.8000   118.3491     7.9072     7.9408
  184.9000   118.9755     7.9375     7.9404
  185.0000   119.5151     7.9621     7.9399
  185.1000   120.2709     7.9619     7.9394
  185.2000   121.2227     7.9617     7.9760
  185.3000   121.8410     8.0068     7.9942
  185.4000   122.4533     8.0523     7.9938
  185.5000   123.2535     8.0981     7.9933
  185.6000   124.2335     8.1441     7.9929
  185.7000   125.2135     8.1861     8.0339
  185.8000   126.1935     8.1858     8.1109
  185.9000   127.0351     8.2260     8.1820
  186.0000   127.6889     8.2728     8.2282
  186.1000   128.1780     8.3198     8.2748
  186.2000   128.7355     8.3670     8.3692
  186.3000   128.9451     8.4165     8.4272
  186.4000   129.3422     8.4624     8.4749
  186.5000   129.7354     8.5105     8.5386
  186.6000   129.9790     8.5588     8.6310
  186.7000   130.2417     8.6074     8.6861
  186.8000   130.4663     8.6537     8.6857
  186.9000   130.7099     8.6534     8.6852
  187.0000   130.9535     8.6532     8.6847
  187.1000   131.1972     8.6530     8.6748
  187.2000   131.4448     8.6345     8.6233
  187.3000   131.4430     8.5781     8.5288
  187.4000   131.2574     8.4729     8.5028
  187.5000   131.0101     8.4727     8.5023
  187.6000   130.6942     8.4391     8.5018
  187.7000   130.1903     8.4357     8.5042
  187.8000   129.3124     8.4720     8.5604
  187.9000   128.1169     8.4731     8.6006
  188.0000   127.2081     8.5700     8.6493
  188.1000   126.6315     8.5904     8.6794
  188.2000   125.9459     8.6177     8.6789
  188.3000   125.6670     8.6501     8.6784
  188.4000   125.2372     8.6499     8.6779
  188.5000   124.9010     8.6496     8.6774
  188.6000   124.6537     8.6494     8.6770
  188.7000   124.4064     8.6491     8.6765
  188.8000   124.1429     8.6489     8.6760
  188.9000   124.1412     8.6486     8.6755
  189.0000   123.9677     8.6484     8.6750
  189.1000   123.7204     8.6482     8.6745
  189.2000   123.4166     8.6112     8.6573
  189.3000   122.9218     8.5875     8.6132
  189.4000   122.1867     8.5873     8.6127
  189.5000   121.8222     8.5836     8.6122
  189.6000   121.5749     8.5270     8.5795
  189.7000   121.4711     8.5268     8.5303
  189.8000   121.7148     8.5266     8.4914
  189.9000   122.0015     8.5075     8.4909
  190.0000   122.2020     8.4668     8.4432
  190.1000   122.4457     8.4665     8.4309
  190.2000   122.7761     8.4663     8.4304
  190.3000   123.2652     8.4660     8.4299
  190.4000   123.8107     8.4426     8.4295
  190.5000   124.0263     8.4067     8.4289
  190.6000   124.4295     8.4064     8.3879
  190.7000   124.8166     8.4061     8.3694
  190.8000   125.1047     8.4060     8.3502
  190.9000   125.6199     8.4057     8.3102
  191.0000   126.0828     8.4055     8.3098
  191.1000   126.5719     8.3993     8.2649
  191.2000   127.0610     8.3465     8.2510
  191.3000   127.4905     8.3463     8.2506
  191.4000   127.7362     8.3142     8.2501
  191.5000   128.2253     8.2878     8.2497
  191.6000   128.5244     8.2772     8.2491
  191.7000   128.6358     8.2296     8.2487
  191.8000   128.6339     8.2294     8.2483
  191.9000   128.6321     8.2292     8.2478
  192.0000   128.6300     8.2037     8.2412
  192.1000   128.8335     8.1715     8.1895
  192.2000   128.9297     8.1712     8.1890
  192.3000   128.9279     8.1710     8.1886
  192.4000   128.9261     8.1708     8.1881
  192.5000   128.9241     8.1705     8.1877
  192.6000   128.9224     8.1514     8.1872
  192.7000   128.9206     8.1132     8.1868
  192.8000   128.9188     8.1130     8.1863
  192.9000   128.9170     8.1128     8.1858
  193.0000   128.9151     8.0791     8.1854
  193.1000   128.6780     8.0559     8.1849
  193.2000   128.6085     8.0431     8.1844
  193.3000   128.3662     7.9994     8.1840
  193.4000   127.9361     7.9991     8.1836
  193.5000   127.6845     7.9989     8.1831
  193.6000   127.2224     7.9987     8.1826
  193.7000   126.7604     7.9985     8.1822
  193.8000   126.2983     7.9983     8.1817
  193.9000   125.4564     7.9980     8.1813
  194.0000   124.4728     7.9978     8.1808
  194.1000   123.7436     7.9976     8.1804
  194.2000   123.7357     7.9974     8.1799
  194.3000   123.4885     7.9971     8.1794
  194.4000   123.4352     7.9969     8.1790
  194.5000   123.4333     7.9967     8.1785
  194.6000   123.3527     7.9965     8.1781
  194.7000   123.1055     7.9962     8.1776
  194.8000   122.8215     7.9960     8.1771
  194.9000   122.8200     8.0005     8.1767
  195.0000   122.9697     8.0516     8.1762
  195.1000   123.2133     8.0917     8.1758
  195.2000   123.4570     8.1076     8.1866
  195.3000   123.7217     8.1073     8.2322
  195.4000   123.9443     8.1163     8.2317
  195.5000   124.3545     8.1637     8.2312
  195.6000   124.7345     8.1635     8.2308
  195.7000   125.0297     8.1632     8.2461
  195.8000   125.5309     8.1630     8.2927
  195.9000   126.2473     8.1764     8.3451
  196.0000   126.8000     8.2198     8.3447
  196.1000   127.2891     8.2195     8.3755
  196.2000   127.7782     8.2587     8.4022
  196.3000   128.2582     8.3056     8.4017
  196.4000   128.5499     8.3344     8.4013
  196.5000   128.7455     8.3418     8.4008
  196.6000   128.8497     8.3923     8.4003
  196.7000   128.9297     8.3921     8.3999
  196.8000   129.1493     8.3919     8.3994
  196.9000   129.1470     8.3916     8.3989
  197.0000   129.1454     8.4036     8.3984
  197.1000   129.1436     8.4500     8.3980
  197.2000   129.1418     8.4497     8.3975
  197.3000   129.1400     8.4495     8.3970
  197.4000   129.1380     8.4493     8.3966
  197.5000   129.1364     8.4490     8.3961
  197.6000   129.1346     8.4488     8.3956
  197.7000   129.1327     8.4485     8.3612
  197.8000   129.0764     8.4054     8.3363
  197.9000   128.8260     8.3893     8.3358
  198.0000   128.8242     8.3891     8.3338
  198.1000   128.6376     8.3888     8.2768
  198.2000   128.5176     8.3886     8.2386
  198.3000   128.4461     8.3413     8.2184
  198.4000   128.1988     8.2937     8.2014
  198.5000   127.9057     8.2464     8.1603
  198.6000   127.5042     8.2138     8.1598
  198.7000   127.1539     8.2097     8.1594
  198.8000   126.6521     8.1561     8.1277
  198.9000   125.5866     8.1559     8.1017
  199.0000   123.6543     8.1557     8.1012
  199.1000   123.6527     8.1555     8.1008
  199.2000   123.6509     8.1471     8.0546
  199.3000   123.6491     8.0983     8.0435
  199.4000   123.6897     8.0981     8.0431
  199.5000   123.9484     8.0646     8.0282
  199.6000   124.1770     8.0186     7.9862
  199.7000   124.4206     7.9851     7.9857
  199.8000   124.8946     7.9829     7.9853
  199.9000   125.5715     7.9290     7.9849
  200.0000   126.0606     7.9844     7.9290
  200.1000   126.3042     7.9756     7.8469
  200.2000   126.3600     7.9277     7.8020
  200.3000   126.4885     7.8842     7.7635
  200.4000   126.6594     7.8389     7.7632
  200.5000   126.6482     7.7939     7.7225
  200.6000   126.4713     7.7612     7.7085
  200.7000   126.4708     7.7585     7.7082
  200.8000   126.1668     7.7061     7.7079
  200.9000   125.7694     7.7056     7.7070
  201.0000   125.4462     7.7051     7.6629
  201.1000   124.6529     7.7045     7.6533
  201.2000   124.4248     7.7040     7.6285
  201.3000   124.0075     7.7034     7.5994
  201.4000   123.5151     7.7029     7.5991
  201.5000   123.1377     7.7024     7.5987
  201.6000   123.1363     7.7018     7.6369
  201.7000   122.8898     7.7013     7.6227
  201.8000   122.8333     7.7008     7.5978
  201.9000   122.9660     7.7002     7.5975
  202.0000   123.2113     7.6997     7.5971
  202.1000   123.4566     7.6992     7.5968
