~VERSION INFORMATION
 VERS.                2.0:   CWLS LOG ASCII STANDARD - VERSION 2.0
 WRAP.                 NO:   ONE LINE PER DEPTH STEP
~WELL INFORMATION
#MNEM.UNIT      DATA TYPE    INFORMATION
#----------   ------------   ------------------------------
 STRT.F           39.5000:   START DEPTH
 STOP.F          591.0000:   STOP DEPTH
 STEP.F            0.5000:   STEP LENGTH
 NULL.          -999.2500:   NO VALUE
 COMP. FENIX & SCISSON INC:   COMPANY
 WELL.      26 SX 3 #26-3:   WELL
 FLD .             TEAPOT:   FIELD
 LOC .       S3 T38N R78W:   LOCATION
 CNTY.            NATRONA:   COUNTY
 STAT.            WYOMING:   STATE
 CTRY. UNITED STATES OF AMERICA:   COUNTRY
 SRVC.           BIRDWELL:   SERVICE COMPANY
 DATE.        01-OCT-1978:   LOGDATE
 API .       490251071500:   API NUMBER
~CURVE INFORMATION
#MNEM.UNIT       API CODE    CURVE DESCRIPTION
#----------   ------------   ------------------------------
 DEPT.F                  :   
 SPR .MV     05 010 01 00:   SPONTANEOUS POTENTIAL FROM RES.
 SN  .OHMM   05 040 16 00:   SHORT NORMAL 16"
 ILD .OHMM   05 120 46 00:   INDUCTION LOG DEEP
 RHOB.G/C3   45 350 01 00:   BULK DENSITY
 CORR.G/C3   45 356 01 00:   DENSITY CORRECTION
 DPHI.DEC    45 890 12 00:   DENSITY POROSITY SANDSTONE
 GRD .GAPI   45 310 01 00:   GAMMA RAY FROM DENSITY LOG
 CALD.IN     45 280 60 00:   CALIPER
~PARAMETER INFORMATION
#MNEM.UNIT          VALUE    DESCRIPTION
#----------   ------------   ------------------------------
 PD  .                 GL:   PERMANENT DATUM
 EPD .F              5225:   ELEVATION PERMANENT DATUM
 LMF .                 KB:   LOG MEASURED FROM
 DAPD.F                 4:   FEET ABOVE PERMANENT DATUM
 DMF .                 KB:   DRILLING MEASURED FROM
 EKB .F              5229:   KELLING BUSHING
 EGL .F              5225:   GROUND LEVEL
 DATE.            10-1-78:   RUN DATE
 RUN .                  1:   RUN NUMBER
 DD  .F               600:   DEPTH DRILLER
 DL  .F               597:   DEPTH LOGGER
 BLI .F               591:   BOTTOM LOG INTERVAL
 TLI .F                60:   TOP LOG INTERVAL
 CS  .IN            8.625:   CASING SIZE
 CBD .F                40:   CASING BOTTOM DRILLER
 BS  .IN            7.875:   BIT SIZE
 BSD .F               600:   BIT SIZE AT DEPTH
 DFT .                KCL:   DRILLING FLUID TYPE
 DFD .                8.7:   DRILLING FLUID DENSITY
 DFV .                 34:   DRILLING FLUID VISCOSITY
 DFPH.                  9:   DRILLING FLUID PH
 DFL .                 10:   DRILLING FLUID LOSS
 MSS .            MUD PIT:   MUD SAMPLE SOURCE
 RMS .OHMM            .24:   RESISTIVITY MUD SAMPLE
 MST .F                65:   MUD SAMPLE TEMPERATURE
 RMF .OHMM            .45:   RESISTIVITY MUD FILTRATE SAMPLE
 MFST.F                65:   MUD FILTRATE SAMPLE TEMPERATURE
 RMC .OHMM             .4:   RESISTIVITY MUD CAKE
 MCST.F                65:   MUD CAKE SAMPLE TEMPERATURE
 MFSS.               MEAS:   MUD FILTRATE SAMPLE SOURCE
 TCS .HRS               3:   TIME CURCULATED STOPPED
 LUN .               2958:   LOGGING UNIT NUMBER
 LUL .               CASP:   LOGGING UNIT LOCATION
 ENGI.             MILLER:   RECORDING ENGINEER
 WITN.           DINSMORE:   WITNESSED BY
 CLNT.            A2DTECH:   CLIENT CODE
 ORIG.       2", 5" PRINT:   ORIGIN OF DATA
 UWI .       490251071500:   UNIQUE WELL ID
 DICO. A2D Technologies, Inc.:   DIGITIZING COMPANY
~OTHER INFORMATION
~A   DEPT      SPR         SN        ILD       RHOB       CORR       DPHI        GRD         CALD 
   39.5000  -999.2500  -999.2500  -999.2500  -999.2500  -999.2500  -999.2500  -999.2500     7.9520
   40.0000  -999.2500  -999.2500  -999.2500  -999.2500  -999.2500  -999.2500  -999.2500     7.9888
   40.5000  -999.2500  -999.2500  -999.2500  -999.2500  -999.2500  -999.2500  -999.2500     8.0255
   41.0000  -999.2500  -999.2500  -999.2500  -999.2500  -999.2500  -999.2500  -999.2500     8.0550
   41.5000  -999.2500  -999.2500  -999.2500  -999.2500  -999.2500  -999.2500  -999.2500     8.0595
   42.0000  -999.2500  -999.2500  -999.2500  -999.2500  -999.2500  -999.2500  -999.2500     8.0595
   42.5000  -999.2500  -999.2500  -999.2500  -999.2500  -999.2500  -999.2500    61.3869     8.0594
   43.0000  -999.2500  -999.2500  -999.2500  -999.2500  -999.2500  -999.2500    61.5512     8.0595
   43.5000  -999.2500  -999.2500  -999.2500  -999.2500  -999.2500  -999.2500    60.9274     8.0600
   44.0000  -999.2500  -999.2500  -999.2500  -999.2500  -999.2500  -999.2500    61.3702     8.0635
   44.5000  -999.2500  -999.2500  -999.2500  -999.2500  -999.2500  -999.2500    62.9824     7.8794
   45.0000  -999.2500  -999.2500  -999.2500  -999.2500  -999.2500  -999.2500    66.6184     7.8287
   45.5000  -999.2500  -999.2500  -999.2500  -999.2500  -999.2500  -999.2500    76.9081     7.8064
   46.0000  -999.2500  -999.2500  -999.2500  -999.2500     0.1388  -999.2500    96.3366     7.7710
   46.5000  -999.2500  -999.2500  -999.2500  -999.2500     0.1216  -999.2500   124.9884     7.7319
   47.0000  -999.2500  -999.2500  -999.2500  -999.2500     0.0785  -999.2500   132.7633     7.6926
   47.5000  -999.2500  -999.2500  -999.2500     2.5051     0.0442  -999.2500   136.6068     7.6519
   48.0000  -999.2500  -999.2500  -999.2500     2.4762     0.0123  -999.2500   140.1404     7.6521
   48.5000  -999.2500  -999.2500  -999.2500     2.4416     0.0127  -999.2500   143.6508     7.6632
   49.0000  -999.2500  -999.2500  -999.2500     2.4458     0.0125  -999.2500   151.6011     7.6747
   49.5000  -999.2500  -999.2500  -999.2500     2.4269     0.0123  -999.2500   160.4829     7.6859
   50.0000  -999.2500  -999.2500  -999.2500     2.4315     0.0121  -999.2500   162.8360     7.6975
   50.5000  -999.2500  -999.2500  -999.2500     2.4408     0.0119  -999.2500   161.1868     7.7127
   51.0000  -999.2500  -999.2500  -999.2500     2.4499     0.0116  -999.2500   159.2581     7.7467
   51.5000  -999.2500  -999.2500  -999.2500     2.4583     0.0114  -999.2500   154.4616     7.7801
   52.0000  -999.2500  -999.2500  -999.2500     2.4589     0.0112  -999.2500   148.6248     7.8145
   52.5000  -999.2500  -999.2500  -999.2500     2.4568     0.0110     0.1339   146.2806     7.8238
   53.0000  -999.2500  -999.2500  -999.2500     2.4544     0.0108     0.1294   144.1019     7.8266
   53.5000  -999.2500  -999.2500  -999.2500     2.4532     0.0105     0.1259   143.1997     7.8292
   54.0000  -999.2500  -999.2500  -999.2500     2.4638     0.0103     0.1224   143.5405     7.8319
   54.5000  -999.2500  -999.2500  -999.2500     2.4717     0.0101     0.1200   146.3320     7.8347
   55.0000  -999.2500  -999.2500  -999.2500     2.4746     0.0099     0.1176   148.9829     7.8374
   55.5000  -999.2500  -999.2500  -999.2500     2.4828     0.0097     0.1178   150.1911     7.8401
   56.0000  -999.2500  -999.2500  -999.2500     2.4834     0.0095     0.1217   151.0082     7.8416
   56.5000  -999.2500  -999.2500  -999.2500     2.4778     0.0093     0.1256   151.6520     7.8416
   57.0000  -999.2500  -999.2500  -999.2500     2.4723     0.0090     0.1272   152.2976     7.8416
   57.5000  -999.2500  -999.2500  -999.2500     2.4679     0.0102     0.1284   153.1172     7.8416
   58.0000  -999.2500  -999.2500  -999.2500     2.4635     0.0115     0.1314   154.9027     7.8416
   58.5000  -999.2500  -999.2500  -999.2500     2.4590     0.0129     0.1346   157.9758     7.8416
   59.0000  -999.2500  -999.2500  -999.2500     2.4551     0.0142     0.1331   159.8301     7.8416
   59.5000  -999.2500  -999.2500  -999.2500     2.4565     0.0156     0.1319   159.9138     7.8416
   60.0000  -999.2500  -999.2500  -999.2500     2.4580     0.0170     0.1288   158.0821     7.8416
   60.5000  -999.2500  -999.2500  -999.2500     2.4613     0.0183     0.1239   158.5186     7.8416
   61.0000   -17.6647  -999.2500  -999.2500     2.4691     0.0182     0.1197   158.0668     7.8416
   61.5000   -17.6647  -999.2500  -999.2500     2.4771     0.0168     0.1164   158.5806     7.8416
   62.0000   -17.6771    15.6082  -999.2500     2.4813     0.0154     0.1139   158.8321     7.8416
   62.5000   -17.6881     4.5834  -999.2500     2.4844     0.0140     0.1130   155.8709     7.8416
   63.0000   -17.7019     1.7228  -999.2500     2.4869     0.0160     0.1147   150.4766     7.8416
   63.5000   -17.7158     5.6727  -999.2500     2.4861     0.0249     0.1153   144.1488     7.8416
   64.0000   -17.7296    11.4225  -999.2500     2.4853     0.0336     0.1141   142.8585     7.8416
   64.5000   -17.7434     7.2462     7.8450     2.4867     0.0388     0.1107   143.8923     7.8417
   65.0000   -17.7573     5.2348     7.8502     2.4912     0.0379     0.1075   144.9337     7.8416
   65.5000   -17.7711     4.7432     7.9044     2.4937     0.0373     0.1084   144.7599     7.8366
   66.0000   -17.7849     7.3615     7.8563     2.4956     0.0295     0.1097   143.8273     7.8144
   66.5000   -17.7987     8.8414     7.8645     2.4940     0.0203     0.1127   142.0312     7.7929
   67.0000   -17.8126     8.9964     7.8697     2.4908     0.0111     0.1136   140.4866     7.7714
   67.5000   -17.8264     7.4155     7.8748     2.4891     0.0019     0.1132   141.0437     7.7499
   68.0000   -17.8403     6.4806     7.8800     2.4894    -0.0054     0.1122   143.8394     7.7276
   68.5000   -17.8540     6.3464     7.8851     2.4898    -0.0068     0.1137   154.2497     7.7261
   69.0000   -17.8562     6.5523     7.8903     2.4896     0.0030     0.1183   154.6592     7.7305
   69.5000   -17.8179     6.8825     7.8955     2.4817     0.0174     0.1243   152.5558     7.7351
   70.0000   -17.7810     7.3508     7.9006     2.4738     0.0320     0.1278   150.1358     7.7396
   70.5000   -17.7441     7.2212     7.9058     2.4684     0.0455     0.1280   150.3054     7.7441
   71.0000   -17.7070     7.0296     7.9110     2.4651     0.0532     0.1221   150.8343     7.7486
   71.5000   -17.6695     6.8431     7.9161     2.4692     0.0617     0.1161   156.5167     7.7531
   72.0000   -17.6854     6.6616     7.9213     2.4801     0.0622     0.1128   157.9807     7.7576
   72.5000   -17.7099     6.4640     7.9265     2.4867     0.0598     0.1127   155.5239     7.7621
   73.0000   -17.7346     6.5134     7.9317     2.4899     0.0517     0.1143   152.6303     7.7666
   73.5000   -17.7592     6.5699     7.9369     2.4898     0.0448     0.1201   152.3808     7.7711
   74.0000   -17.7838     6.6270     7.9421     2.4815     0.0450     0.1212   152.2464     7.7756
   74.5000   -17.8083     6.9075     7.9472     2.4761     0.0450     0.1209   150.9887     7.7801
   75.0000   -17.8329     7.3051     7.9524     2.4766     0.0450     0.1207   149.2287     7.7846
   75.5000   -17.8575     7.7672     7.9577     2.4768     0.0452     0.1226   149.5180     7.7891
   76.0000   -17.8821     7.5783     7.9629     2.4719     0.0524     0.1260   155.4328     7.7937
   76.5000   -17.9067     7.2183     7.9681     2.4669     0.0598     0.1202   156.4447     7.7982
   77.0000   -17.9312     6.8755     7.9732     2.4739     0.0610     0.1132   157.0229     7.8015
   77.5000   -17.9558     6.5236     7.9784     2.4831     0.0611     0.1092   159.4656     7.7973
   78.0000   -17.9804     6.6055     7.9842     2.4918     0.0596     0.1052   163.7914     7.7933
   78.5000   -18.0053     6.8251     8.0171     2.4993     0.0579     0.1029   164.6019     7.7892
   79.0000   -18.0288     7.7672     8.0529     2.5067     0.0426     0.1005   163.7388     7.7851
   79.5000   -18.0591     7.5319     8.0890     2.5127     0.0217     0.0982   162.6440     7.7811
