~VERSION INFORMATION
 VERS.                2.0:   CWLS LOG ASCII STANDARD - VERSION 2.0
 WRAP.                 NO:   ONE LINE PER DEPTH STEP
~WELL INFORMATION
#MNEM.UNIT      DATA TYPE    INFORMATION
#----------   ------------   ------------------------------
 STRT.F           26.0000:   START DEPTH
 STOP.F         1071.0000:   STOP DEPTH
 STEP.F            0.5000:   STEP LENGTH
 NULL.          -999.2500:   NO VALUE
 COMP. FENIX & SCISSON INC:   COMPANY
 WELL.       NRP 3 #61-14:   WELL
 FLD .        TEAPOT DOME:   FIELD
 LOC .      S14 T38N R78W:   LOCATION
 CNTY.            NATRONA:   COUNTY
 STAT.            WYOMING:   STATE
 CTRY. UNITED STATES OF AMERICA:   COUNTRY
 SRVC.            Unknown:   SERVICE COMPANY
 DATE.        09-JAN-1979:   LOGDATE
 API .       490251076300:   API NUMBER
~CURVE INFORMATION
#MNEM.UNIT       API CODE    CURVE DESCRIPTION
#----------   ------------   ------------------------------
 DEPT.F                  :   
 SPR .MV     05 010 01 00:   SPONTANEOUS POTENTIAL FROM RES.
 SN  .OHMM   05 040 16 00:   SHORT NORMAL 16"
 IL  .OHMM   05 120 00 00:   INDUCTION LOG
 CALD.IN     45 280 60 00:   CALIPER
 GRD .GAPI   45 310 01 00:   GAMMA RAY FROM DENSITY LOG
 RHOB.G/C3   45 350 01 00:   BULK DENSITY
 DPHI.DEC    45 890 12 00:   DENSITY POROSITY SANDSTONE
 CORR.G/C3   45 356 01 00:   DENSITY CORRECTION
~PARAMETER INFORMATION
#MNEM.UNIT          VALUE    DESCRIPTION
#----------   ------------   ------------------------------
 PD  .                 GL:   PERMANENT DATUM
 EPD .F              5240:   ELEVATION PERMANENT DATUM
 LMF .                 KB:   LOG MEASURED FROM
 DAPD.F                 4:   FEET ABOVE PERMANENT DATUM
 DMF .                 KB:   DRILLING MEASURED FROM
 EKB .F              5244:   KELLING BUSHING
 EGL .F              5240:   GROUND LEVEL
 DATE.             1-9-79:   RUN DATE
 RUN .                  1:   RUN NUMBER
 DD  .F              1061:   DEPTH DRILLER
 DL  .F              1071:   DEPTH LOGGER
 BLI .F              1064:   BOTTOM LOG INTERVAL
 TLI .F                50:   TOP LOG INTERVAL
 CS  .IN            8.625:   CASING SIZE
 CBD .F                40:   CASING BOTTOM DRILLER
 CBL .F                38:   CASING BOTTOM LOGGER
 BS  .IN            7.875:   BIT SIZE
 BSD .F              1061:   BIT SIZE AT DEPTH
 DFT .                KCL:   DRILLING FLUID TYPE
 DFD .                8.8:   DRILLING FLUID DENSITY
 DFV .                 36:   DRILLING FLUID VISCOSITY
 DFPH.                9.2:   DRILLING FLUID PH
 MSS .           FLOWLINE:   MUD SAMPLE SOURCE
 RMS .OHMM             .3:   RESISTIVITY MUD SAMPLE
 MST .F                58:   MUD SAMPLE TEMPERATURE
 RMF .OHMM             .3:   RESISTIVITY MUD FILTRATE SAMPLE
 MFST.F                58:   MUD FILTRATE SAMPLE TEMPERATURE
 RMC .OHMM            .34:   RESISTIVITY MUD CAKE
 MCST.F                62:   MUD CAKE SAMPLE TEMPERATURE
 MFSS.           MEASURED:   MUD FILTRATE SAMPLE SOURCE
 MCSS.           MEASURED:   MUD CAKE SAMPLE SOURCE
 RMB .OHMM            .29:   RESISTIVITY MUD AT BHT
 BHT .F                61:   BOTTOM HOLE TEMPERATURE
 TCS .HRS               4:   TIME CURCULATED STOPPED
 MRT .F                61:   MAXIMUM RECORDED TEMPERATURE
 LUN .               3006:   LOGGING UNIT NUMBER
 LUL .             CASPER:   LOGGING UNIT LOCATION
 ENGI.            ROLLINS:   RECORDING ENGINEER
 WITN.           DINSMORE:   WITNESSED BY
 CLNT.            A2DTECH:   CLIENT CODE
 ORIG.           5" PRINT:   ORIGIN OF DATA
 UWI .       490251076300:   UNIQUE WELL ID
 DICO. A2D Technologies, Inc.:   DIGITIZING COMPANY
~OTHER INFORMATION
~A   DEPT      SPR         SN         IL       CALD         GRD      RHOB       DPHI       CORR   
# ...
  107.0000   -31.8060     6.0530     6.0620     7.7970   100.9610     2.4440     0.1830     0.1210
  107.5000   -31.9040     6.1620     6.1770     7.8360   101.3740     2.3970     0.1880     0.1210
  108.0000   -32.0030     6.2830     6.2910     7.8600   100.9680     2.3740     0.1810     0.1210
  108.5000   -32.1020     6.4030     6.4060     7.8830    99.6090     2.3760     0.1760     0.1210
  109.0000   -32.2150     6.5240     6.5200     7.9060    98.3650     2.3820     0.1760     0.1210
  109.5000   -32.3830     6.6440     6.6340     7.9270    98.2220     2.3850     0.1820     0.1210
  110.0000   -32.5460     6.7620     6.7000     7.9260    98.0500     2.3790     0.1890     0.1210
  110.5000   -32.5690     6.6910     6.6560     7.8960    98.1410     2.3690     0.1950     0.1210
  111.0000   -32.5690     6.6210     6.5480     7.8630    98.2930     2.3590     0.2020     0.1230
  111.5000   -32.5690     6.5510     6.4400     7.8290    98.7370     2.3500     0.2040     0.1250
  112.0000   -32.5690     6.4820     6.3320     7.7700    99.1830     2.3480     0.2030     0.1320
  112.5000   -32.5370     6.4120     6.2240     7.6340    99.6320     2.3500     0.1970     0.1510
  113.0000   -32.4560     6.3420     6.1090     7.5010   100.1040     2.3570     0.1920     0.1700
  113.5000   -32.3760     6.2790     6.1000     7.3690    99.9760     2.3650     0.1870     0.2010
  114.0000   -32.2950     6.2620     6.0900     7.2370    99.6880     2.3730     0.1880     0.2640
  114.5000   -32.2140     6.2460     6.0800     7.1160   102.3410     2.3740     0.1880     0.3260
  115.0000   -32.1340     6.2290     6.0700     7.1180   107.9070     2.3740     0.1850     0.3870
  115.5000   -32.0530     6.2130     6.0600     7.1230   109.6920     2.3760     0.1820     0.4180
  116.0000   -31.9720     6.1960     6.0500     7.1280   109.4590     2.3800     0.1790     0.3690
  116.5000   -31.8920     6.1790     6.0400     7.1370   107.1790     2.3910     0.1450     0.2940
  117.0000   -31.8110     6.1630     6.0300     7.2440   106.2940     2.4110     0.1050     0.2180
  117.5000   -31.7300     6.1460     6.0200     7.3520   106.0470     2.4640     0.0540     0.1450
  118.0000   -31.6490     6.1300     6.0100     7.4600   105.4160     2.5160     0.0680     0.1240
  118.5000   -31.5910     6.1100     5.9980     7.5670   105.3440     2.5690     0.0970     0.1200
  119.0000   -31.9380     6.1190     6.0230     7.6750   105.6050     2.5890     0.1260     0.1200
  119.5000   -32.2870     6.1330     6.0560     7.7830   105.4630     2.5090     0.1540     0.1190
  120.0000   -32.6370     6.1460     6.0890     7.8310   104.6600     2.4430     0.1840     0.1180
  120.5000   -32.8310     6.1590     6.1220     7.8390   104.0120     2.3750     0.1910     0.1180
  121.0000   -32.9350     6.1720     6.1550     7.8460   104.1850     2.3720     0.1880     0.1170
  121.5000   -33.0400     6.1850     6.1880     7.8540   104.9730     2.3730     0.1860     0.1170
  122.0000   -33.1410     6.1980     6.2210     7.8610   108.6550     2.3740     0.1890     0.1160
  122.5000   -33.3030     6.2110     6.2540     7.8690   110.2740     2.3740     0.1900     0.1150
  123.0000   -33.4760     6.2240     6.2860     7.8760   108.9610     2.3740     0.1860     0.1150
  123.5000   -33.6510     6.2370     6.3190     7.8830   107.6060     2.3770     0.1820     0.1140
  124.0000   -33.8250     6.2500     6.3520     7.8750   105.6430     2.3810     0.1820     0.1140
  124.5000   -34.0000     6.2630     6.3930     7.8530   103.1120     2.3840     0.1810     0.1130
  125.0000   -34.1750     6.2810     6.3690     7.8310   100.5130     2.3840     0.1800     0.1130
  125.5000   -34.3490     6.2490     6.3230     7.8080   100.1290     2.3840     0.1790     0.1140
  126.0000   -34.5240     6.1960     6.2760     7.7850   102.4810     2.3850     0.1780     0.1190
  126.5000   -34.6980     6.1420     6.2290     7.7260   104.5410     2.3850     0.1770     0.1310
  127.0000   -34.8730     6.0890     6.1820     7.6690   104.5100     2.3850     0.1770     0.1540
  127.5000   -35.0470     6.0350     6.1360     7.6120   104.4310     2.3830     0.1820     0.1770
  128.0000   -35.2200     5.9810     6.0890     7.5550   104.3580     2.3770     0.1870     0.1990
  128.5000   -35.3620     5.9280     6.0420     7.4990   104.2880     2.3720     0.1910     0.2220
  129.0000   -35.3590     5.8740     5.9950     7.4420   104.2110     2.3720     0.1880     0.2450
  129.5000   -35.3580     5.8210     5.9430     7.3850   104.4660     2.3730     0.1840     0.2660
  130.0000   -35.3580     5.7670     5.9460     7.3280   105.0990     2.3810     0.1800     0.2610
  130.5000   -35.3590     5.7270     5.9500     7.2740   106.5730     2.3890     0.1710     0.2480
  131.0000   -35.3590     5.7650     5.9530     7.2860   108.0380     2.3970     0.1590     0.2340
  131.5000   -35.3590     5.7960     5.9570     7.3000   108.9490     2.4170     0.1470     0.2020
  132.0000   -35.3600     5.8260     5.9610     7.3260   108.1480     2.4360     0.1340     0.1660
  132.5000   -35.3600     5.8570     5.9640     7.4010   106.6440     2.4560     0.1280     0.1300
  133.0000   -35.4700     5.8880     5.9680     7.4770   105.3150     2.4700     0.1230     0.1150
  133.5000   -35.6820     5.8760     5.9720     7.5110   105.2410     2.4730     0.1200     0.1140
  134.0000   -35.8940     5.8650     5.9760     7.5140   104.8380     2.4770     0.1300     0.1140
  134.5000   -36.1060     5.8530     5.9790     7.5170   103.8290     2.4750     0.1470     0.1130
  135.0000   -36.3190     5.8410     5.9830     7.5200   103.2860     2.4460     0.1650     0.1130
  135.5000   -36.5320     5.8290     5.9870     7.5230   103.5380     2.4090     0.1700     0.1130
  136.0000   -36.7450     5.8180     5.9900     7.5260   103.9840     2.4080     0.1610     0.1130
  136.5000   -36.9460     5.8060     5.9950     7.5290   104.3920     2.4140     0.1540     0.1130
  137.0000   -36.9520     5.7940     5.9980     7.5300   104.4970     2.4200     0.1550     0.1130
  137.5000   -36.9520     5.7820     5.9470     7.5530   104.5780     2.4200     0.1600     0.1140
  138.0000   -36.9510     5.7320     5.8990     7.6000   104.2940     2.4140     0.1690     0.1150
  138.5000   -36.9520     5.6740     5.8510     7.6460   102.4030     2.4010     0.1780     0.1150
  139.0000   -36.8380     5.6170     5.8030     7.6890   100.5720     2.3870     0.1870     0.1160
  139.5000   -36.6420     5.5700     5.7550     7.7250    99.0420     2.3740     0.1930     0.1160
  140.0000   -36.5550     5.5640     5.7080     7.7590    99.3190     2.3610     0.1940     0.1160
  140.5000   -36.5550     5.5580     5.6600     7.7940    99.9450     2.3570     0.1950     0.1140
  141.0000   -36.5540     5.5520     5.6120     7.8280   100.4700     2.3570     0.1970     0.1120
  141.5000   -36.5540     5.5470     5.5710     7.8470   100.6310     2.3570     0.1980     0.1110
  142.0000   -36.5540     5.5410     5.5710     7.8470   100.8060     2.3570     0.1980     0.1090
  142.5000   -36.5540     5.5350     5.5710     7.8470   100.9910     2.3570     0.1980     0.1110
  143.0000   -36.5540     5.5300     5.5710     7.8470   100.7620     2.3570     0.1960     0.1140
  143.5000   -36.5540     5.5240     5.5890     7.8480    99.0910     2.3630     0.1900     0.1180
  144.0000   -36.5540     5.5200     5.6530     7.8100    97.3660     2.3690     0.1890     0.1220
  144.5000   -36.5540     5.5930     5.7180     7.7640    97.0320     2.3720     0.1880     0.1250
  145.0000   -36.5540     5.6510     5.7820     7.7200   100.5140     2.3730     0.1860     0.1290
  145.5000   -36.5540     5.7090     5.8460     7.6380   103.2540     2.3770     0.1810     0.1330
  146.0000   -36.5540     5.7670     5.9110     7.5490   105.8500     2.3830     0.1760     0.1370
  146.5000   -36.5540     5.8250     5.9750     7.4590   106.1880     2.3960     0.1730     0.1460
  147.0000   -36.5540     5.8830     6.0530     7.3690   106.7110     2.3990     0.1740     0.1590
