~VERSION INFORMATION
 VERS.                2.0:   CWLS LOG ASCII STANDARD - VERSION 2.0
 WRAP.                 NO:   ONE LINE PER DEPTH STEP
~WELL INFORMATION
#MNEM.UNIT      DATA TYPE    INFORMATION
#----------   ------------   ------------------------------
 STRT.F         1379.5000:   START DEPTH
 STOP.F         2168.0000:   STOP DEPTH
 STEP.F            0.5000:   STEP LENGTH
 NULL.          -999.2500:   NO VALUE
 COMP.   FLUOR DANIEL INC:   COMPANY
 WELL. NAVAL PETROLEUM RESERVE 3  83-5-STX-10 #83-5-10:   WELL
 FLD .            WILDCAT:   FIELD
 LOC .      S10 T38N R78W:   LOCATION
 CNTY.            NATRONA:   COUNTY
 STAT.            WYOMING:   STATE
 CTRY. UNITED STATES OF AMERICA:   COUNTRY
 SRVC.            Unknown:   SERVICE COMPANY
 DATE.        20-JAN-1995:   LOGDATE
 API .       490252265500:   API NUMBER
~CURVE INFORMATION
#MNEM.UNIT       API CODE    CURVE DESCRIPTION
#----------   ------------   ------------------------------
 DEPT.F                  :   
 C1  .VF     91 831 01 00:   METHANE
 C2  .VF     91 832 01 00:   ETHANE
 ROP .FT/HR  91 810 01 00:   RAT OF DRILLING PENETRATION
 TGAS.TC/CC  91 830 01 00:   TOTAL GAS UNIT
~PARAMETER INFORMATION
#MNEM.UNIT          VALUE    DESCRIPTION
#----------   ------------   ------------------------------
 DATE.        20-JAN-1995:   RUN DATE
 BLI .F              2165:   BOTTOM LOG INTERVAL
 TLI .F              1380:   TOP LOG INTERVAL
 CLNT.            A2DTECH:   CLIENT CODE
 ORIG.         2.5" PRINT:   ORIGIN OF DATA
 UWI .       490252265500:   UNIQUE WELL ID
 DICO. A2D Technologies, Inc.:   DIGITIZING COMPANY
~OTHER INFORMATION
~A  DEPT        C1         C2        ROP        TGAS  
# ...
 1963.5000  -999.2500  -999.2500     0.5896   599.5378
 1964.0000  -999.2500  -999.2500     0.5890   599.6208
 1964.5000  -999.2500  -999.2500     0.5885   599.6919
 1965.0000  -999.2500  -999.2500     0.5879   599.7630
 1965.5000  -999.2500  -999.2500     0.5874   599.8341
 1966.0000  -999.2500  -999.2500     0.5868   599.9052
 1966.5000  -999.2500  -999.2500     0.5863   592.6111
 1967.0000  -999.2500  -999.2500     0.5857   592.6822
 1967.5000  -999.2500  -999.2500     0.5852   592.7533
 1968.0000  -999.2500  -999.2500     0.5846   592.8244
 1968.5000  -999.2500  -999.2500     0.5841   592.9073
 1969.0000  -999.2500  -999.2500     0.5835   592.9785
 1969.5000  -999.2500  -999.2500     0.5830   593.0410
 1970.0000  -999.2500  -999.2500     0.5824   593.1207
 1970.5000  -999.2500  -999.2500     0.5819   593.1918
 1971.0000  -999.2500  -999.2500     0.5813   600.6518
 1971.5000  -999.2500  -999.2500     0.7091   600.7229
 1972.0000  -999.2500  -999.2500     0.7083   600.7940
 1972.5000  -999.2500  -999.2500     0.7262   600.8651
 1973.0000  -999.2500  -999.2500     0.7256   600.9481
 1973.5000  -999.2500  -999.2500     0.7250   601.0192
 1974.0000  -999.2500  -999.2500     0.7245   601.0903
 1974.5000  -999.2500  -999.2500     0.7239   601.1614
 1975.0000  -999.2500  -999.2500     0.7234   601.2325
 1975.5000  -999.2500  -999.2500     0.7412   601.3154
 1976.0000  -999.2500  -999.2500     0.7590   601.3865
 1976.5000  -999.2500  -999.2500     0.7584   601.4576
 1977.0000  -999.2500  -999.2500     0.7578   601.5287
 1977.5000  -999.2500  -999.2500     0.7573   601.6117
 1978.0000  -999.2500  -999.2500     0.7017   594.2820
 1978.5000  -999.2500  -999.2500     0.6463   601.7539
 1979.0000  -999.2500  -999.2500     0.6457   601.8250
 1979.5000  -999.2500  -999.2500     0.6635   601.9080
 1980.0000  -999.2500  -999.2500     0.5530   601.9791
 1980.5000  -999.2500  -999.2500     0.5525   609.4272
 1981.0000  -999.2500  -999.2500     0.5519   609.4983
 1981.5000  -999.2500  -999.2500     0.5514   609.5694
 1982.0000  -999.2500  -999.2500     0.5509   609.6523
 1982.5000  -999.2500  -999.2500     0.5503   609.7234
 1983.0000  -999.2500  -999.2500     0.5497   602.4175
 1983.5000  -999.2500  -999.2500     0.5492   602.4886
 1984.0000  -999.2500  -999.2500     0.5487   602.5716
 1984.5000  -999.2500  -999.2500     0.5481   602.6427
 1985.0000  -999.2500  -999.2500     0.5475   595.3249
 1985.5000  -999.2500  -999.2500     0.5470   595.4078
 1986.0000  -999.2500  -999.2500     0.6197   595.4754
 1986.5000  -999.2500  -999.2500     0.6374   595.5500
 1987.0000  -999.2500  -999.2500     0.6369   595.6229
 1987.5000  -999.2500  -999.2500     0.6364   588.3197
 1988.0000  -999.2500  -999.2500     0.6543   588.3982
 1988.5000  -999.2500  -999.2500     0.6720   588.4811
 1989.0000  -999.2500  -999.2500     0.6713   588.5522
 1989.5000  -999.2500  -999.2500     0.6525   588.6147
 1990.0000  -999.2500  -999.2500     0.7619   588.6945
 1990.5000  -999.2500  -999.2500     0.8347   588.7656
 1991.0000  -999.2500  -999.2500     0.8340   588.8485
 1991.5000  -999.2500  -999.2500     0.8334   588.9196
 1992.0000  -999.2500  -999.2500     0.5948   588.9907
 1992.5000  -999.2500  -999.2500     0.6127   589.0618
 1993.0000  -999.2500  -999.2500     0.6120   589.1448
 1993.5000  -999.2500  -999.2500     0.5382   589.2159
 1994.0000  -999.2500  -999.2500     0.4644   589.2870
 1994.5000  -999.2500  -999.2500     0.4639   581.9692
 1995.0000  -999.2500  -999.2500     0.4633   582.0521
 1995.5000  -999.2500  -999.2500     0.4627   582.1351
 1996.0000  -999.2500  -999.2500     0.4622   582.2062
 1996.5000  -999.2500  -999.2500     0.4617   582.2773
 1997.0000  -999.2500  -999.2500     0.4611   589.7255
 1997.5000  -999.2500  -999.2500     0.6986   589.8084
 1998.0000  -999.2500  -999.2500     0.6981   589.8795
 1998.5000  -999.2500  -999.2500     0.6976   589.9506
 1999.0000  -999.2500  -999.2500     0.6970   590.0217
 1999.5000  -999.2500  -999.2500     0.6964   590.1047
 2000.0000  -999.2500  -999.2500     1.1722   590.1639
 2000.5000  -999.2500  -999.2500     1.1719   590.2008
 2001.0000  -999.2500  -999.2500     1.1899   590.1844
 2001.5000  -999.2500  -999.2500     1.2079   590.1473
 2002.0000  -999.2500  -999.2500     1.2076   590.1101
 2002.5000  -999.2500  -999.2500     1.2074   590.0729
 2003.0000  -999.2500  -999.2500     1.2255   590.0357
 2003.5000  -999.2500  -999.2500     1.2252   589.9985
 2004.0000  -999.2500  -999.2500     0.8769   589.9614
 2004.5000  -999.2500  -999.2500     0.8034   589.9242
 2005.0000  -999.2500  -999.2500     0.8031   589.8870
 2005.5000  -999.2500  -999.2500     0.8028   589.8498
 2006.0000  -999.2500  -999.2500     0.6377   589.8126
 2006.5000  -999.2500  -999.2500     0.6374   589.7755
 2007.0000  -999.2500  -999.2500     0.6372   589.7383
 2007.5000  -999.2500  -999.2500     0.6368   589.7011
 2008.0000  -999.2500  -999.2500     0.7098   589.6639
 2008.5000  -999.2500  -999.2500     0.7829   589.6267
 2009.0000  -999.2500  -999.2500     0.8009   589.5895
 2009.5000  -999.2500  -999.2500     0.8006   589.5524
 2010.0000  -999.2500  -999.2500     0.9835   589.5152
 2010.5000  -999.2500  -999.2500     0.9832   589.4780
 2011.0000  -999.2500  -999.2500     1.0013   589.4408
 2011.5000  -999.2500  -999.2500     0.9460   589.4036
 2012.0000  -999.2500  -999.2500     0.8542   589.3665
 2012.5000  -999.2500  -999.2500     0.8539   589.3293
 2013.0000  -999.2500  -999.2500     0.8536   589.2921
 2013.5000  -999.2500  -999.2500     0.8350   589.2549
 2014.0000  -999.2500  -999.2500     0.9997   589.2177
 2014.5000  -999.2500  -999.2500     0.9993   589.1805
 2015.0000  -999.2500  -999.2500     0.9991   589.1434
 2015.5000  -999.2500  -999.2500     0.9988   589.1062
 2016.0000  -999.2500  -999.2500     0.7970   589.0690
 2016.5000  -999.2500  -999.2500     0.7968   589.0318
 2017.0000  -999.2500  -999.2500     0.7965   588.9946
 2017.5000  -999.2500  -999.2500     0.7962   588.9575
 2018.0000  -999.2500  -999.2500     0.8510   588.9203
 2018.5000  -999.2500  -999.2500     0.8506   588.8831
 2019.0000  -999.2500  -999.2500     0.8503   588.8459
 2019.5000  -999.2500  -999.2500     0.9966   588.8087
 2020.0000  -999.2500  -999.2500     1.0147   588.7715
 2020.5000  -999.2500  -999.2500     0.9961   588.7344
 2021.0000  -999.2500  -999.2500     0.9958   588.6972
 2021.5000  -999.2500  -999.2500     0.9955   588.6600
 2022.0000  -999.2500  -999.2500     0.9952   588.6228
 2022.5000  -999.2500  -999.2500     0.9949   588.5856
 2023.0000  -999.2500  -999.2500     0.9947   588.5485
 2023.5000  -999.2500  -999.2500     0.9944   588.5113
 2024.0000  -999.2500  -999.2500     0.9941   588.4741
 2024.5000  -999.2500  -999.2500     0.9938   588.4369
 2025.0000  -999.2500  -999.2500     0.9936   588.3997
 2025.5000  -999.2500  -999.2500     0.9933   588.3625
 2026.0000  -999.2500  -999.2500     0.9930   588.3254
 2026.5000  -999.2500  -999.2500     0.9927   588.2881
 2027.0000  -999.2500  -999.2500     0.9925   588.2510
 2027.5000  -999.2500  -999.2500     1.2120   588.2138
 2028.0000  -999.2500  -999.2500     1.2117   588.1766
 2028.5000  -999.2500  -999.2500     1.2114   588.1395
 2029.0000  -999.2500  -999.2500     1.2112   588.1023
 2029.5000  -999.2500  -999.2500     1.2109   588.0651
 2030.0000  -999.2500  -999.2500     1.2106   588.0279
 2030.5000  -999.2500  -999.2500     1.2103   587.9907
 2031.0000  -999.2500  -999.2500     1.2101   587.9536
 2031.5000  -999.2500  -999.2500     1.7409   587.9164
 2032.0000  -999.2500  -999.2500     1.7406   587.8792
 2032.5000  -999.2500  -999.2500     1.7404   587.8420
 2033.0000  -999.2500  -999.2500     1.7401   587.8048
 2033.5000  -999.2500  -999.2500     0.8973   587.7676
 2034.0000  -999.2500  -999.2500     0.5674   587.7305
 2034.5000  -999.2500  -999.2500     0.5671   587.6932
 2035.0000  -999.2500  -999.2500     0.5668   587.6561
 2035.5000  -999.2500  -999.2500     0.5482   587.6189
 2036.0000  -999.2500  -999.2500     0.5479   587.5817
