~VERSION INFORMATION
 VERS.                2.0:   CWLS LOG ASCII STANDARD - VERSION 2.0
 WRAP.                 NO:   ONE LINE PER DEPTH STEP
~WELL INFORMATION
#MNEM.UNIT      DATA TYPE    INFORMATION
#----------   ------------   ------------------------------
 STRT.F           30.0000:   START DEPTH
 STOP.F          510.0000:   STOP DEPTH
 STEP.F            0.5000:   STEP LENGTH
 NULL.          -999.2500:   NO VALUE
 COMP. FENIX & SCISSON INC:   COMPANY
 WELL.    66-SX 3FP #54-3:   WELL
 FLD .             TEAPOT:   FIELD
 LOC .       S3 T38N R78W:   LOCATION
 CNTY.            NATRONA:   COUNTY
 STAT.            WYOMING:   STATE
 CTRY. UNITED STATES OF AMERICA:   COUNTRY
 SRVC.              Welex:   SERVICE COMPANY
 DATE.        25-JUN-1980:   LOGDATE
 API .       490251081400:   API NUMBER
~CURVE INFORMATION
#MNEM.UNIT       API CODE    CURVE DESCRIPTION
#----------   ------------   ------------------------------
 DEPT.F                  :   
 SGRD.OHMM   07 220 05 00:   SHALLOW GUARD RESISTIVITY
 ILD .OHMM   07 120 46 00:   INDUCTION LOG DEEP RESISTIVITY
 ILM .OHMM   07 120 44 00:   INDUCTION LOG MEDIUM
 CALD.IN     45 280 60 00:   CALIPER
 GRD .GAPI   45 310 01 00:   GAMMA RAY FROM DENSITY LOG
 CORR.G/C3   45 356 01 00:   DENSITY CORRECTION
 NPHI.DEC    42 890 03 00:   NEUTRON POROSITY SANDSTONE
 DPHI.DEC    45 890 12 00:   DENSITY POROSITY SANDSTONE
 SPR .MV     07 010 01 00:   SPONTANEOUS POTENTIAL
 RHOB.G/C3   45 350 01 00:   BULK DENSITY
~PARAMETER INFORMATION
#MNEM.UNIT          VALUE    DESCRIPTION
#----------   ------------   ------------------------------
 PD  .                 GL:   PERMANENT DATUM
 EPD .F              5158:   ELEVATION PERMANENT DATUM
 LMF .                 KB:   LOG MEASURED FROM
 DAPD.F                 5:   FEET ABOVE PERMANENT DATUM
 DMF .                 KB:   DRILLING MEASURED FROM
 EKB .F              5163:   KELLING BUSHING
 EGL .F              5158:   GROUND LEVEL
 DATE.            6-25-80:   RUN DATE
 RUN .                  1:   RUN NUMBER
 DD  .F               516:   DEPTH DRILLER
 DL  .F               512:   DEPTH LOGGER
 BLI .F               510:   BOTTOM LOG INTERVAL
 TLI .F                30:   TOP LOG INTERVAL
 BS  .IN            9.875:   BIT SIZE
 BSD .F               516:   BIT SIZE AT DEPTH
 DFT .            KCL MUD:   DRILLING FLUID TYPE
 DFD .                9.2:   DRILLING FLUID DENSITY
 DFV .                 52:   DRILLING FLUID VISCOSITY
 DFPH.                 12:   DRILLING FLUID PH
 DFL .                  6:   DRILLING FLUID LOSS
 MSS .           FLOWLINE:   MUD SAMPLE SOURCE
 RMB .OHMM            .35:   RESISTIVITY MUD AT BHT
 BHT .F                75:   BOTTOM HOLE TEMPERATURE
 TCS .HRS               1:   TIME CURCULATED STOPPED
 MRT .F                75:   MAXIMUM RECORDED TEMPERATURE
 LUN .               1892:   LOGGING UNIT NUMBER
 LUL .             CASPER:   LOGGING UNIT LOCATION
 ENGI.            TOTHILL:   RECORDING ENGINEER
 WITN.              AMEND:   WITNESSED BY
 CLNT.            A2DTECH:   CLIENT CODE
 ORIG.           5" PRINT:   ORIGIN OF DATA
 UWI .       490251081400:   UNIQUE WELL ID
 DICO. A2D Technologies, Inc.:   DIGITIZING COMPANY
~OTHER INFORMATION
~A   DEPT       SGRD        ILD        ILM     CALD        GRD       CORR       NPHI       DPHI        SPR       RHOB   
# ...
  432.0000     9.9889     8.4449     8.3137    10.0635    85.4400     0.0864     0.2422     0.1115   -35.1973     2.5024
  432.5000     9.9496     8.3704     8.3137    10.0628    83.2885     0.0781     0.2447     0.1098   -35.4288     2.4990
  433.0000     9.9106     8.2966     8.3137    10.0622    83.6058     0.0756     0.2475     0.1114   -35.3480     2.4962
  433.5000     9.8716     8.2235     8.3137    10.0616    85.2421     0.0728     0.2469     0.1138   -35.3954     2.4969
  434.0000     9.8328     8.1510     8.3137    10.0609    86.8553     0.0706     0.2464     0.1069   -35.7007     2.5011
  434.5000     9.7942     8.0791     8.3139    10.0603    88.2596     0.0764     0.2482     0.1052   -36.0072     2.5052
  435.0000     9.7557     8.0079     8.3128    10.0597    87.6582     0.0819     0.2453     0.1038   -35.9148     2.5078
  435.5000     9.7174     7.9402     8.3919    10.0590    86.7611     0.0768     0.2418     0.1014   -35.7041     2.5063
  436.0000     9.6792     7.8614     8.4855    10.0584    85.8953     0.0718     0.2465     0.1027   -35.4824     2.5093
  436.5000     9.6412     7.7861     8.5803    10.0578    86.7895     0.0854     0.2510     0.1073   -35.8388     2.5170
  437.0000     9.6033     7.7115     8.6763    10.0571    88.5209     0.0850     0.2483     0.1118   -36.2867     2.5148
  437.5000     9.5656     7.6387     8.7732    10.0565    89.2054     0.0748     0.2454     0.1167   -36.6416     2.5038
  438.0000     9.5281     7.5835     8.8662    10.0559    88.0860     0.0641     0.2429     0.1222   -36.9452     2.4928
  438.5000     9.4906     7.8226     8.7739    10.0552    87.7221     0.0603     0.2404     0.1276   -37.2252     2.4820
  439.0000     9.4554     8.0190     8.6668    10.0546    89.1987     0.0532     0.2380     0.1327   -37.2284     2.4750
  439.5000     9.3883     8.1044     8.5610    10.0540    88.6526     0.0447     0.2355     0.1374   -37.0515     2.4628
  440.0000     9.3247     8.1302     8.4407    10.0533    86.7875     0.0361     0.2336     0.1285   -36.6554     2.4495
  440.5000     9.2617     8.1561     8.2832    10.0527    86.6123     0.0339     0.2330     0.1206   -36.2623     2.4500
  441.0000     9.1992     8.1820     8.1286    10.0521    88.3700     0.0431     0.2330     0.1168   -35.8687     2.4687
  441.5000     9.1371     8.2080     7.9762    10.0514    90.1339     0.0523     0.2352     0.1131   -35.4772     2.4845
  442.0000     9.0755     8.2376     7.8287    10.0508    91.8951     0.0613     0.2383     0.1108   -35.3497     2.4964
  442.5000     8.9480     8.2123     7.6803    10.0502    93.6171     0.0654     0.2414     0.1097   -35.5353     2.4990
  443.0000     8.7999     8.1745     7.5362    10.0496    92.6572     0.0670     0.2442     0.1090   -35.7208     2.4990
  443.5000     8.6326     8.0916     7.3946    10.0489    91.3535     0.0632     0.2493     0.1053   -35.9867     2.5006
  444.0000     8.4860     7.9876     7.3597    10.0483    90.8753     0.0643     0.2538     0.1057   -36.5568     2.5105
  444.5000     8.3609     7.8850     7.3398    10.0477    91.4753     0.0733     0.2515     0.1130   -37.1150     2.5115
  445.0000     8.2376     7.7838     7.3200    10.0470    91.5112     0.0719     0.2489     0.1181   -37.3956     2.4999
  445.5000     8.1162     7.6838     7.3003    10.0464    90.8767     0.0685     0.2526     0.1242   -37.6707     2.4885
  446.0000     7.9967     7.5851     7.2806    10.0457    90.7239     0.0650     0.2478     0.1200   -37.6826     2.4771
  446.5000     7.8772     7.4877     7.2606    10.0451    92.2934     0.0615     0.2520     0.1182   -37.4318     2.4763
  447.0000     7.7127     7.3915     7.2429    10.0445    94.0763     0.0588     0.2585     0.1201   -37.5148     2.4826
  447.5000     7.4311     7.2966     7.0963    10.0438    95.9304     0.0582     0.2634     0.1213   -37.5906     2.4849
  448.0000     7.1597     7.2029     6.8542    10.0432    96.2926     0.0642     0.2694     0.1194   -38.0387     2.4779
  448.5000     6.8983     7.1104     6.7528    10.0426    96.1692     0.0723     0.2714     0.1127   -38.6231     2.4812
  449.0000     6.6465     7.0459     6.6612    10.0420    96.0278     0.0804     0.2679     0.1050   -39.0905     2.4899
  449.5000     6.4271     6.8542     6.5712    10.0413    96.0340     0.0886     0.2638     0.0971   -39.4979     2.4984
  450.0000     6.0605     6.6120     6.4825    10.0407    98.1683     0.0965     0.2672     0.0925   -39.7708     2.5058
  450.5000     5.7448     6.2677     6.3940    10.0401    99.1745     0.1028     0.2706     0.0909   -39.4309     2.5240
  451.0000     5.4455     5.9168     6.1041    10.0394    99.0923     0.1051     0.2718     0.0902   -39.2491     2.5394
  451.5000     5.1618     5.5830     5.7456    10.0388    98.9473     0.1051     0.2730     0.0949   -39.4474     2.5351
  452.0000     4.8669     5.2681     5.4092    10.0382    99.8354     0.0977     0.2749     0.1040   -39.4180     2.5176
  452.5000     4.4056     4.9710     5.0924    10.0375   100.8942     0.0904     0.2778     0.1123   -39.0138     2.5008
  453.0000     3.9881     4.6907     4.7942    10.0369   102.0291     0.0832     0.2856     0.1233   -39.0990     2.4840
  453.5000     3.6101     4.4517     4.5742    10.0363   103.5049     0.0759     0.2942     0.1343   -39.1719     2.4675
  454.0000     3.2554     4.2317     4.6779    10.0356   104.9609     0.0698     0.2942     0.1453   -39.4383     2.4510
  454.5000     3.4731     4.0960     4.9757    10.0350   106.4174     0.0670     0.2880     0.1493   -39.7662     2.4340
  455.0000     4.4206     4.1643     5.4392    10.0344   107.6904     0.0640     0.2819     0.1526   -39.6191     2.4257
  455.5000     5.9802     4.2158     5.9685    10.0337   106.9778     0.0609     0.2729     0.1471   -39.4374     2.4237
  456.0000     6.2884     4.3446     6.0942    10.0331   104.4545     0.0604     0.2639     0.1370   -39.2578     2.4537
  456.5000     6.4631     4.6299     6.2214    10.0325   101.0586     0.0629     0.2574     0.1128   -39.0772     2.4853
  457.0000     6.6426     4.9339     6.3541    10.0318    98.3750     0.0655     0.2589     0.1119   -39.0497     2.4980
  457.5000     6.8271     5.2580     6.4895    10.0312    99.3471     0.0680     0.2602     0.1102   -39.1347     2.5027
  458.0000     7.0168     5.6033     6.6279    10.0306   100.5953     0.0713     0.2579     0.1067   -39.0902     2.5070
  458.5000     7.2117     5.9712     6.7692    10.0299    98.5609     0.0765     0.2537     0.1038   -38.7943     2.5099
  459.0000     7.4120     6.3633     6.9176    10.0293    97.1064     0.0707     0.2534     0.1075   -38.6576     2.5062
  459.5000     7.6179     6.7915     7.0054    10.0287    98.6725     0.0632     0.2541     0.1111   -38.8148     2.5029
  460.0000     7.8295     6.8943     7.0961    10.0280   100.7751     0.0635     0.2503     0.1116   -38.9801     2.5034
  460.5000     8.0469     7.0011     7.1883    10.0274   102.2110     0.0685     0.2480     0.1039   -38.4961     2.5113
  461.0000     8.2705     7.1282     7.2818    10.0268   100.6739     0.0738     0.2507     0.0986   -38.0202     2.5191
  461.5000     8.5002     7.2393     7.3773    10.0261   101.6436     0.0755     0.2506     0.0978   -37.5716     2.5225
  462.0000     8.7363     7.3482     7.5050    10.0255   103.5888     0.0583     0.2481     0.0988   -37.4161     2.5131
  462.5000     8.9031     7.4591     7.6360    10.0249   105.5334     0.0477     0.2551     0.1084   -36.9369     2.5040
  463.0000     9.1041     7.5718     7.7693    10.0242   104.7173     0.0432     0.2621     0.1100   -36.4408     2.4956
  463.5000     9.3096     7.6862     7.9049    10.0236   103.5606     0.0399     0.2691     0.1061   -35.9383     2.5061
  464.0000     9.5199     7.8024     8.0429    10.0230   102.4151     0.0560     0.2734     0.1026   -35.9182     2.5228
  464.5000     9.7350     7.9202     8.1833    10.0223   101.7168     0.0744     0.2675     0.0959   -35.9960     2.5397
  465.0000     9.9554     8.0189     8.3261    10.0217   102.2985     0.0764     0.2596     0.0896   -36.0761     2.5460
