~VERSION INFORMATION
 VERS.                2.0:   CWLS LOG ASCII STANDARD - VERSION 2.0
 WRAP.                 NO:   ONE LINE PER DEPTH STEP
~WELL INFORMATION
#MNEM.UNIT      DATA TYPE    INFORMATION
#----------   ------------   ------------------------------
 STRT.F         1596.0000:   START DEPTH
 STOP.F         3210.0000:   STOP DEPTH
 STEP.F            0.5000:   STEP LENGTH
 NULL.          -999.2500:   NO VALUE
 COMP.   FLUOR DANIEL INC:   COMPANY
 WELL. NAVAL PETROLEUM RESERVE 3 X-23 #73-23:   WELL
 FLD .             TEAPOT:   FIELD
 LOC .      S23 T38N R78W:   LOCATION
 CNTY.            NATRONA:   COUNTY
 STAT.            WYOMING:   STATE
 CTRY. UNITED STATES OF AMERICA:   COUNTRY
 SRVC.            Unknown:   SERVICE COMPANY
 DATE.        29-JAN-1995:   LOGDATE
 API .       490252265000:   API NUMBER
~CURVE INFORMATION
#MNEM.UNIT       API CODE    CURVE DESCRIPTION
#----------   ------------   ------------------------------
 DEPT.F                  :   
 TGAS.TC/CC  91 830 01 00:   TOTAL GAS UNIT
 ROP .FT/HR  91 810 01 00:   RAT OF DRILLING PENETRATION
~PARAMETER INFORMATION
#MNEM.UNIT          VALUE    DESCRIPTION
#----------   ------------   ------------------------------
 EKB .F              5433:   KELLING BUSHING
 EGL .F              5423:   GROUND LEVEL
 DATE.        29-JAN-1995:   RUN DATE
 RUN .                  1:   RUN NUMBER
 BLI .F              3210:   BOTTOM LOG INTERVAL
 TLI .F              1600:   TOP LOG INTERVAL
 WITN.     C.TOWER/R.HUSK:   WITNESSED BY
 CLNT.            A2DTECH:   CLIENT CODE
 ORIG.           5" PRINT:   ORIGIN OF DATA
 UWI .       490252265000:   UNIQUE WELL ID
 DICO. A2D Technologies, Inc.:   DIGITIZING COMPANY
~OTHER INFORMATION
~A  DEPT        TGAS        ROP 
# ...
 3054.0000    10.0846     0.6693
 3054.5000    10.0846     0.6595
 3055.0000    10.0846     0.6592
 3055.5000    10.0846     0.6588
 3056.0000    10.0846     0.6584
 3056.5000    10.0846     0.6676
 3057.0000    10.0846     0.6672
 3057.5000    10.0846     0.6763
 3058.0000    10.2748     0.6854
 3058.5000    10.2748     0.6850
 3059.0000    10.2748     0.6752
 3059.5000    10.0846     0.4862
 3060.0000    10.0846     0.4953
 3060.5000    10.0360     0.4949
 3061.0000     9.8943     0.4945
 3061.5000     9.9062     0.4942
 3062.0000     9.9312     0.5034
 3062.5000     9.9561     0.5029
 3063.0000     9.9810     0.5026
 3063.5000    10.0059     0.5022
 3064.0000    10.0308     0.5019
 3064.5000    10.0557     0.5015
 3065.0000    10.0608     0.5011
 3065.5000    10.0584     0.5951
 3066.0000    10.0560     0.6043
 3066.5000    10.0536     0.6039
 3067.0000    10.0513     0.6035
 3067.5000    10.0485     0.5937
 3068.0000    10.0461     0.5840
 3068.5000    10.0438     0.6025
 3069.0000    10.0414     0.6116
 3069.5000    10.0391     0.6206
 3070.0000    10.0368     0.6298
 3070.5000    10.0344     0.6389
 3071.0000    10.2229     0.6384
 3071.5000    10.2200     0.6475
 3072.0000    10.4080     0.7233
 3072.5000    10.5959     0.7412
 3073.0000    10.7838     0.7407
 3073.5000    10.9717     0.7404
 3074.0000    10.9693     0.7401
 3074.5000    10.9670     0.7492
 3075.0000    10.9641     0.7205
 3075.5000    10.9618     0.6258
 3076.0000    10.9598     0.6349
 3076.5000    10.9571     0.6251
 3077.0000    10.9548     0.6247
 3077.5000    10.9527     0.6244
 3078.0000    10.8948     0.6240
 3078.5000    10.7577     0.6237
 3079.0000    10.7553     0.6139
 3079.5000    10.7528     0.6230
 3080.0000    10.7504     0.6132
 3080.5000    10.7481     0.6129
 3081.0000    10.5555     0.6124
 3081.5000    10.5531     0.6121
 3082.0000    10.5349     0.7533
 3082.5000    10.3581     0.7624
 3083.0000    10.1650     0.7620
 3083.5000    10.1626     0.7900
 3084.0000    10.1603     0.9972
 3084.5000     9.9677     0.9968
 3085.0000     9.9653     1.0059
 3085.5000     9.7727     0.7127
 3086.0000     9.7704     0.7321
 3086.5000     9.7682     0.7325
 3087.0000     9.7659     0.7321
 3087.5000     9.7633     0.6580
 3088.0000     9.7611     0.6585
 3088.5000     9.5684     0.6590
 3089.0000     9.5660     0.6594
 3089.5000     9.5637     0.6599
 3090.0000     9.5613     0.6604
 3090.5000     9.5589     0.6609
 3091.0000     9.5561     0.6613
 3091.5000     9.5537     0.6618
 3092.0000     9.5514     0.5396
 3092.5000     9.3588     0.5307
 3093.0000     8.9759     0.5406
 3093.5000     7.6416     0.5411
 3094.0000     6.4976     0.5415
 3094.5000     5.5439     0.5420
 3095.0000     4.9708     0.5425
 3095.5000     4.3976     0.5429
 3096.0000     4.0147     0.5340
 3096.5000     4.0124     0.5439
 3097.0000     4.0100     0.5444
 3097.5000     4.0077     0.5543
 3098.0000     4.1956     0.5547
 3098.5000     4.3835     0.5552
 3099.0000     4.5709     0.5557
 3099.5000     4.5685     0.5562
 3100.0000     4.7571     0.5566
 3100.5000     4.7169     0.5476
 3101.0000     4.5615     0.5482
 3101.5000     4.5592     0.5486
 3102.0000     4.7477     0.5491
 3102.5000     4.7448     0.5590
 3103.0000     4.9327     0.5595
 3103.5000     4.7401     0.5600
 3104.0000     4.7377     0.6453
 3104.5000     4.7355     0.6458
 3105.0000     4.7331     0.6557
 3105.5000     4.7307     0.6562
 3106.0000     4.7239     0.6567
 3106.5000     4.7172     0.6571
 3107.0000     4.7104     0.6576
 3107.5000     4.5181     0.6675
 3108.0000     4.7176     0.6680
 3108.5000     4.7291     0.6685
 3109.0000     4.7384     0.6689
 3109.5000     4.9379     0.6789
 3110.0000     4.9471     0.6793
 3110.5000     4.9567     0.6798
 3111.0000     4.9662     0.6803
 3111.5000     4.9772     0.6712
 3112.0000     4.9864     0.6472
 3112.5000     4.9957     0.6569
 3113.0000     5.0049     0.6571
 3113.5000     5.0142     0.6668
 3114.0000     5.0233     0.6670
 3114.5000     5.2230     0.6578
 3115.0000     5.2326     0.6580
 3115.5000     5.4340     0.6583
 3116.0000     5.4419     0.8472
 3116.5000     5.6405     0.8474
 3117.0000     5.4594     0.8477
 3117.5000     5.4710     0.8385
 3118.0000     5.2896     0.6500
 3118.5000     5.2992     0.6503
 3119.0000     5.3087     0.6505
 3119.5000     5.1274     0.6601
 3120.0000     4.9487     0.6604
 3120.5000     4.9579     0.6512
 3121.0000     4.9122     0.6515
 3121.5000     4.9757     0.6517
 3122.0000     4.9857     0.6519
 3122.5000     4.8046     0.6616
 3123.0000     4.8140     0.6618
 3123.5000     4.8235     0.6620
 3124.0000     4.6421     0.6623
 3124.5000     4.6536     0.5116
 3125.0000     4.4703     0.5106
 3125.5000     4.4819     0.4932
 3126.0000     4.3008     0.4934
 3126.5000     4.3101     0.4842
 3127.0000     4.3193     0.4845
 3127.5000     4.3288     0.4847
 3128.0000     4.3401     0.4755
 3128.5000     4.3494     0.4851
 3129.0000     4.2051     0.4854
 3129.5000     4.1938     0.4856
 3130.0000     4.1845     0.4858
 3130.5000     4.1752     0.4861
 3131.0000     4.1670     0.4863
 3131.5000     4.3491     0.4866
 3132.0000     4.5278     0.4868
 3132.5000     4.5190     0.4965
 3133.0000     4.5095     0.4967
 3133.5000     4.4998     0.5064
 3134.0000     4.4905     0.5160
 3134.5000     4.6712     0.6767
 3135.0000     4.6617     0.6958
 3135.5000     4.4602     0.7054
 3136.0000     4.6435     0.8579
 3136.5000     4.6318     0.8757
 3137.0000     4.6237     0.8760
 3137.5000     4.6132     0.8857
 3138.0000     4.6039     0.8010
 3138.5000     4.4043     0.8201
 3139.0000     4.2051     0.8108
 3139.5000     4.0051     0.8206
 3140.0000     3.9958     0.6509
 3140.5000     3.9863     0.6417
 3141.0000     3.9767     0.6420
 3141.5000     3.9910     0.6422
 3142.0000     4.1480     0.6425
 3142.5000     4.1371     0.6427
 3143.0000     4.3181     0.6429
 3143.5000     4.3088     0.6432
 3144.0000     4.1115     0.6434
 3144.5000     4.2924     0.6436
 3145.0000     4.2808     0.6439
 3145.5000     4.2601     0.6347
 3146.0000     4.2344     0.7534
 3146.5000     4.2087     1.4276
 3147.0000     4.1830     1.4278
 3147.5000     4.1573     1.4375
 3148.0000     4.1316     0.8627
 3148.5000     4.1050     0.5701
 3149.0000     3.9101     0.5797
 3149.5000     3.9052     0.5891
 3150.0000     3.9004     0.8255
 3150.5000     3.8957     0.8257
 3151.0000     3.8909     0.8165
 3151.5000     3.8861     0.8262
 3152.0000     4.0719     0.8170
 3152.5000     4.1424     0.8267
 3153.0000     4.2536     0.8269
 3153.5000     4.2476     0.8272
 3154.0000     4.4331     0.5915
 3154.5000     4.3565     0.5823
 3155.0000     4.2336     0.5731
 3155.5000     4.1185     0.5639
 3156.0000     4.0335     0.5642
 3156.5000     3.8385     0.5644
 3157.0000     3.8340     0.5646
 3157.5000     3.8289     0.5743
 3158.0000     3.8420     0.5745
 3158.5000     3.8632     0.5748
 3159.0000     3.8843     0.5750
 3159.5000     3.9055     0.5752
 3160.0000     3.9266     0.5660
 3160.5000     3.9477     0.5757
 3161.0000     3.9689     0.5832
 3161.5000     3.9900     0.5762
 3162.0000     3.9958     0.5858
 3162.5000     4.1860     0.5766
 3163.0000     4.2924     0.5769
 3163.5000     4.3763     0.5677
 3164.0000     4.3763     0.5680
 3164.5000     4.3763     0.5682
 3165.0000     4.3763     0.5684
 3165.5000     4.3763     0.5687
 3166.0000     4.5666     0.6161
 3166.5000     4.5666     0.6257
 3167.0000     4.5666     0.6354
 3167.5000     4.6043     0.6356
 3168.0000     4.7569     0.6359
 3168.5000     4.7569     0.6398
 3169.0000     4.7569     0.6552
 3169.5000     4.7569     0.6554
 3170.0000     4.7569     0.6651
 3170.5000     4.7569     0.6626
 3171.0000     4.5666     0.6513
 3171.5000     4.4528     0.6401
 3172.0000     4.3763     0.6288
 3172.5000     4.3763     0.6176
 3173.0000     4.3763     0.6070
 3173.5000     4.3763     0.6163
 3174.0000     4.3763     0.6160
 3174.5000     4.3763     0.6158
 3175.0000     4.3763     0.6155
