~VERSION INFORMATION
 VERS.                2.0:   CWLS LOG ASCII STANDARD - VERSION 2.0
 WRAP.                 NO:   ONE LINE PER DEPTH STEP
~WELL INFORMATION
#MNEM.UNIT      DATA TYPE    INFORMATION
#----------   ------------   ------------------------------
 STRT.F           45.5000:   START DEPTH
 STOP.F          740.0000:   STOP DEPTH
 STEP.F            0.5000:   STEP LENGTH
 NULL.          -999.2500:   NO VALUE
 COMP. FENIX & SCISSON INC:   COMPANY
 WELL.       NPR 3 #22-14:   WELL
 FLD .             TEAPOT:   FIELD
 LOC .      S14 T38N R78W:   LOCATION
 CNTY.            NATRONA:   COUNTY
 STAT.            WYOMING:   STATE
 CTRY. UNITED STATES OF AMERICA:   COUNTRY
 SRVC.           BIRDWELL:   SERVICE COMPANY
 DATE.        23-DEC-1978:   LOGDATE
 API .       490251075800:   API NUMBER
~CURVE INFORMATION
#MNEM.UNIT       API CODE    CURVE DESCRIPTION
#----------   ------------   ------------------------------
 DEPT.F                  :   
 SPR .MV     05 010 01 00:   SPONTANEOUS POTENTIAL FROM RES.
 SN  .OHMM   05 040 16 00:   SHORT NORMAL 16"
 IL  .OHMM   05 120 00 00:   INDUCTION LOG
 CALD.IN     45 280 60 00:   CALIPER
 GRD .GAPI   45 310 01 00:   GAMMA RAY FROM DENSITY LOG
 RHOB.G/C3   45 350 01 00:   BULK DENSITY
 DPHI.DEC    45 890 12 00:   DENSITY POROSITY SANDSTONE
 CORR.G/C3   45 356 01 00:   DENSITY CORRECTION
~PARAMETER INFORMATION
#MNEM.UNIT          VALUE    DESCRIPTION
#----------   ------------   ------------------------------
 PD  .                 GL:   PERMANENT DATUM
 EPD .F              5212:   ELEVATION PERMANENT DATUM
 LMF .                 KB:   LOG MEASURED FROM
 DAPD.F                 4:   FEET ABOVE PERMANENT DATUM
 DMF .                 KB:   DRILLING MEASURED FROM
 EKB .F              5216:   KELLING BUSHING
 EGL .F              5212:   GROUND LEVEL
 DATE.           12-23-78:   RUN DATE
 RUN .                  1:   RUN NUMBER
 DD  .F               735:   DEPTH DRILLER
 DL  .F               740:   DEPTH LOGGER
 BLI .F               733:   BOTTOM LOG INTERVAL
 TLI .F                50:   TOP LOG INTERVAL
 CS  .IN            8.625:   CASING SIZE
 CBD .F                40:   CASING BOTTOM DRILLER
 CBL .F                40:   CASING BOTTOM LOGGER
 BS  .IN            7.875:   BIT SIZE
 BSD .F               735:   BIT SIZE AT DEPTH
 DFT .                KCL:   DRILLING FLUID TYPE
 DFD .                8.7:   DRILLING FLUID DENSITY
 DFV .                 35:   DRILLING FLUID VISCOSITY
 DFPH.               10.5:   DRILLING FLUID PH
 DFL .               11.6:   DRILLING FLUID LOSS
 MSS .           FLOWLINE:   MUD SAMPLE SOURCE
 RMS .OHMM             .5:   RESISTIVITY MUD SAMPLE
 MST .F                60:   MUD SAMPLE TEMPERATURE
 RMF .OHMM             .5:   RESISTIVITY MUD FILTRATE SAMPLE
 MFST.F                60:   MUD FILTRATE SAMPLE TEMPERATURE
 RMC .OHMM             .7:   RESISTIVITY MUD CAKE
 MCST.F                60:   MUD CAKE SAMPLE TEMPERATURE
 MFSS.           MEASURED:   MUD FILTRATE SAMPLE SOURCE
 MCSS.           MEASURED:   MUD CAKE SAMPLE SOURCE
 RMB .OHMM           .518:   RESISTIVITY MUD AT BHT
 BHT .F                58:   BOTTOM HOLE TEMPERATURE
 TCS .HRS               5:   TIME CURCULATED STOPPED
 MRT .F                58:   MAXIMUM RECORDED TEMPERATURE
 LUN .               2958:   LOGGING UNIT NUMBER
 LUL .             CASPER:   LOGGING UNIT LOCATION
 ENGI.         B. ROLLINS:   RECORDING ENGINEER
 WITN.              IMMEL:   WITNESSED BY
 CLNT.            A2DTECH:   CLIENT CODE
 ORIG.           5" PRINT:   ORIGIN OF DATA
 UWI .       490251075800:   UNIQUE WELL ID
 DICO. A2D Technologies, Inc.:   DIGITIZING COMPANY
~OTHER INFORMATION
~A   DEPT      SPR         SN         IL       CALD         GRD      RHOB       DPHI       CORR   
# ...
  612.5000   -47.1530    17.6560    21.7680     7.4870    64.1700     2.3970     0.1700     0.1650
  613.0000   -46.4550    17.5720    21.3910     7.5000    65.6350     2.3990     0.1640     0.1940
  613.5000   -45.9830    17.3490    21.0150     7.5140    65.8210     2.4030     0.1560     0.1990
  614.0000   -45.9920    17.0910    20.6380     7.5270    66.0440     2.4130     0.1490     0.1910
  614.5000   -45.9920    16.8330    20.2620     7.5410    66.2860     2.4320     0.1410     0.1540
  615.0000   -45.9920    16.5740    19.8850     7.5540    65.9680     2.4520     0.1350     0.1100
  615.5000   -45.9920    16.3160    19.5090     7.5670    64.0970     2.4600     0.1560     0.0720
  616.0000   -45.9920    16.0580    19.1320     7.5800    60.8910     2.4470     0.1760     0.0770
  616.5000   -45.9920    15.8000    18.8840     7.5920    61.2920     2.4120     0.1950     0.0840
  617.0000   -45.9920    15.5410    18.8540     7.6320    64.4840     2.3770     0.2090     0.0920
  617.5000   -45.9920    15.2830    18.8240     7.6700    67.5680     2.3390     0.2010     0.1020
  618.0000   -45.9920    15.0130    18.7950     7.7090    69.5530     2.3460     0.1940     0.1130
  618.5000   -45.9920    14.9500    18.7650     7.7470    70.3190     2.3560     0.1900     0.1260
  619.0000   -45.9920    14.8850    18.7350     7.7850    70.2180     2.3660     0.1880     0.1400
  619.5000   -45.9920    14.8190    18.6860     7.8020    70.0570     2.3700     0.1850     0.1460
  620.0000   -45.9940    14.7530    18.6210     7.8350    70.5460     2.3750     0.1810     0.1680
  620.5000   -45.9840    14.6870    18.5550     7.8930    71.8030     2.3790     0.1840     0.1970
  621.0000   -45.7600    14.6210    18.4900     7.9000    72.7310     2.3790     0.1830     0.2230
  621.5000   -45.5380    14.5550    18.4250     7.8860    72.4750     2.3770     0.1770     0.1990
  622.0000   -45.3180    14.4890    18.3040     7.8720    71.7490     2.3840     0.1640     0.1750
  622.5000   -45.1910    14.3800    18.0680     7.8580    69.3970     2.4040     0.1520     0.1550
  623.0000   -45.1910    14.2550    17.8320     7.8440    65.7230     2.4260     0.1660     0.1950
  623.5000   -45.1900    14.1290    17.5960     7.8320    63.5330     2.4120     0.1840     0.2390
  624.0000   -45.1900    14.0040    17.3600     7.8850    63.4880     2.3900     0.1890     0.2460
  624.5000   -45.1900    13.8780    17.1240     7.9400    63.4160     2.3650     0.1810     0.2560
  625.0000   -45.1900    13.7530    16.8880     7.9240    63.3230     2.3890     0.1660     0.2860
  625.5000   -45.1900    13.6270    16.6520     7.8940    62.5680     2.4260     0.1670     0.3140
  626.0000   -45.1900    13.5020    16.4160     7.8630    61.7920     2.4180     0.1650     0.3100
  626.5000   -45.1900    13.3760    16.1810     7.8440    61.1190     2.4060     0.1470     0.2780
  627.0000   -45.1900    13.2510    16.0000     7.8330    61.2150     2.4180     0.1390     0.2320
  627.5000   -45.1900    13.1250    15.9590     7.8230    63.5710     2.4360     0.1390     0.1840
  628.0000   -45.1900    13.0000    15.9180     7.8120    66.0570     2.4510     0.1390     0.1360
  628.5000   -45.1900    12.8740    15.8770     7.8010    68.5290     2.4510     0.1560     0.1380
  629.0000   -45.1900    12.7490    15.8360     7.7910    70.4240     2.4440     0.1710     0.1430
  629.5000   -45.1900    12.6230    15.7950     7.8290    70.5380     2.4200     0.1760     0.1440
  630.0000   -45.1900    12.5940    15.7540     7.8710    70.6870     2.3960     0.1720     0.1290
  630.5000   -45.1900    12.5810    15.7140     7.8670    71.1210     2.3920     0.1640     0.1140
  631.0000   -45.1900    12.5670    15.6730     7.8260    71.8000     2.4000     0.1700     0.1080
  631.5000   -45.1900    12.5530    15.6320     7.7950    71.9900     2.4060     0.1780     0.1000
  632.0000   -45.1900    12.5400    15.5910     7.8320    72.0410     2.3890     0.1700     0.0890
  632.5000   -45.1920    12.5260    15.5320     7.8480    72.0860     2.3950     0.1640     0.0820
  633.0000   -45.2070    12.5120    15.4620     7.8440    72.1300     2.4080     0.1590     0.0810
  633.5000   -45.2220    12.4990    15.3930     7.8400    72.1110     2.4190     0.1640     0.0790
  634.0000   -45.2370    12.4850    15.3240     7.8350    71.9050     2.4160     0.1630     0.0780
  634.5000   -45.2510    12.4710    15.2550     7.8310    71.7070     2.4130     0.1630     0.0770
  635.0000   -45.2660    12.4580    15.1850     7.8270    71.5120     2.4150     0.1630     0.0800
  635.5000   -45.2810    12.4440    15.1160     7.8230    71.3130     2.4170     0.1680     0.0940
  636.0000   -45.2960    12.4300    15.0470     7.8190    71.1350     2.4150     0.1780     0.1200
  636.5000   -45.3110    12.4170    14.9780     7.8150    72.4850     2.3980     0.1920     0.1700
  637.0000   -45.3260    12.4030    14.9080     7.8110    74.1680     2.3820     0.1880     0.2330
  637.5000   -45.3410    12.3890    14.8390     7.8110    74.5700     2.3630     0.1830     0.1970
  638.0000   -45.3560    12.3760    14.7700     7.8120    74.2200     2.3710     0.1770     0.1380
  638.5000   -45.3710    12.3620    14.7010     7.8140    71.1960     2.3980     0.1720     0.0800
  639.0000   -45.3870    12.3480    14.6310     7.8150    68.6400     2.4250     0.1650     0.0720
  639.5000   -45.3890    12.3350    14.5620     7.8170    68.4130     2.4350     0.1770     0.0950
  640.0000   -45.3080    12.3210    14.4930     7.8180    69.6640     2.3970     0.1810     0.1190
  640.5000   -44.9060    12.3070    14.4240     7.8200    70.9400     2.3840     0.1800     0.1440
  641.0000   -44.5770    12.2940    14.3540     7.8210    71.1550     2.3830     0.1750     0.1560
  641.5000   -44.5790    12.2800    14.3160     7.8220    71.7140     2.3840     0.1670     0.1500
  642.0000   -44.5720    12.2660    14.2860     7.8240    72.6030     2.3980     0.1600     0.1690
  642.5000   -44.5640    12.2520    14.2560     7.8250    72.9740     2.4130     0.1530     0.2030
  643.0000   -44.5560    12.2380    14.2260     7.8270    71.8700     2.4240     0.1780     0.2240
  643.5000   -44.5480    12.2240    14.1960     7.8280    70.3790     2.4060     0.1740     0.1770
  644.0000   -44.5400    12.2090    14.1660     7.8300    69.6310     2.3920     0.1690     0.1370
  644.5000   -44.5320    12.1950    14.1360     7.8250    69.3990     2.4610     0.1650     0.0970
  645.0000   -44.5240    12.1810    14.1060     7.8180    69.1630     2.4830     0.1600     0.0920
  645.5000   -44.5160    12.1670    14.0760     7.8120    68.9310     2.4880     0.1550     0.0950
  646.0000   -44.5080    12.1520    14.0460     7.8050    68.7000     2.4500     0.1470     0.0990
  646.5000   -44.5000    12.1380    14.0170     7.7980    68.4720     2.4260     0.1390     0.1010
  647.0000   -44.4930    12.1240    13.9870     7.7920    68.6260     2.4490     0.1290     0.0960
  647.5000   -44.4850    12.1090    13.9570     7.7900    70.4960     2.4690     0.1280     0.0910
  648.0000   -44.4770    12.0950    13.9480     7.7900    72.0430     2.4710     0.1260     0.0860
  648.5000   -44.4690    12.0810    13.9480     7.7900    71.2570     2.4720     0.1300     0.1100
  649.0000   -44.4610    12.0670    13.9480     7.7900    70.4370     2.4700     0.1360     0.1430
  649.5000   -44.4530    12.0520    13.9480     7.7900    69.5920     2.4620     0.1370     0.1750
  650.0000   -44.4450    12.1480    13.9480     7.7900    69.0210     2.4550     0.1350     0.2010
  650.5000   -44.4370    12.1350    13.9480     7.7900    69.9650     2.4630     0.1130     0.1540
  651.0000   -44.4290    12.1170    13.9480     7.7900    70.8590     2.4820     0.0920     0.1070
  651.5000   -44.4210    12.0990    13.9480     7.7900    73.8010     2.5030     0.1040     0.0670
  652.0000   -44.4130    12.0810    13.9480     7.7900    76.7430     2.5240     0.1210     0.0670
  652.5000   -44.4050    12.0630    13.7460     7.7900    79.0520     2.5020     0.1360     0.1010
