~VERSION INFORMATION
 VERS.                2.0:   CWLS LOG ASCII STANDARD - VERSION 2.0
 WRAP.                 NO:   ONE LINE PER DEPTH STEP
~WELL INFORMATION
#MNEM.UNIT      DATA TYPE    INFORMATION
#----------   ------------   ------------------------------
 STRT.F            0.0000:   START DEPTH
 STOP.F          497.0000:   STOP DEPTH
 STEP.F            0.1000:   STEP LENGTH
 NULL.          -999.2500:   NO VALUE
 COMP.       F D SERV INC:   COMPANY
 WELL. NAVAL PETROLEUM RESERVE 3 SX-1 #81-1-10:   WELL
 FLD .             NPR #3:   FIELD
 LOC .      S10 T38N R78W:   LOCATION
 CNTY.            NATRONA:   COUNTY
 STAT.            WYOMING:   STATE
 CTRY. UNITED STATES OF AMERICA:   COUNTRY
 SRVC.     Atlas Wireline:   SERVICE COMPANY
 DATE.        14-DEC-1997:   LOGDATE
 API .       490252257400:   API NUMBER
~CURVE INFORMATION
#MNEM.UNIT       API CODE    CURVE DESCRIPTION
#----------   ------------   ------------------------------
 DEPT.F                  :   
 GRR .GAPI   07 310 01 00:   GAMMA RAY
 RILD.OHMM   07 120 46 00:   INDUCTION LOG DEEP RESISTIVITY
 RILM.OHMM   07 120 44 00:   INDUCTION LOG MEDIUM RESISTIVITY
~PARAMETER INFORMATION
#MNEM.UNIT          VALUE    DESCRIPTION
#----------   ------------   ------------------------------
 PD  .                 GL:   PERMANENT DATUM
 EPD .F              5132:   ELEVATION PERMANENT DATUM
 LMF .                 KB:   LOG MEASURED FROM
 DAPD.F                10:   FEET ABOVE PERMANENT DATUM
 DMF .                 KB:   DRILLING MEASURED FROM
 EKB .F              5142:   KELLING BUSHING
 EDF .F              5141:   DRILLING FLOOR
 EGL .F              5132:   GROUND LEVEL
 DATE.        14-DEC-1992:   RUN DATE
 RUN .                  1:   RUN NUMBER
 DD  .F               513:   DEPTH DRILLER
 DL  .F               505:   DEPTH LOGGER
 BLI .F               497:   BOTTOM LOG INTERVAL
 CS  .IN            8.625:   CASING SIZE
 CBD .F                53:   CASING BOTTOM DRILLER
 CBL .F                54:   CASING BOTTOM LOGGER
 BS  .IN            7.875:   BIT SIZE
 BSD .F               513:   BIT SIZE AT DEPTH
 DFT .           AIR FOAM:   DRILLING FLUID TYPE
 BHT .F                68:   BOTTOM HOLE TEMPERATURE
 MRT .F                68:   MAXIMUM RECORDED TEMPERATURE
 LUN .           HL- 6274:   LOGGING UNIT NUMBER
 LUL .             CASPER:   LOGGING UNIT LOCATION
 ENGI.             RAUTIO:   RECORDING ENGINEER
 WITN.          G. STRONG:   WITNESSED BY
 CLNT.            A2DTECH:   CLIENT CODE
 ORIG.           5" PRINT:   ORIGIN OF DATA
 UWI .       490252257400:   UNIQUE WELL ID
 DICO. A2D Technologies, Inc.:   DIGITIZING COMPANY
~OTHER INFORMATION
~A    DEPT      GRR      RILD       RILM   
# ...
  418.6000    79.1109    23.9211    22.7900
  418.7000    79.5651    23.9215    22.7904
  418.8000    79.7060    23.9218    22.7102
  418.9000    79.7054    23.9221    22.6338
  419.0000    79.7048    23.9225    22.6341
  419.1000    79.7042    23.9228    22.6345
  419.2000    79.7036    23.9231    22.6348
  419.3000    79.9048    23.9235    22.6351
  419.4000    80.0036    23.7589    22.6354
  419.5000    80.1185    23.7591    22.6357
  419.6000    80.3036    23.7595    22.5782
  419.7000    80.3030    23.6893    22.4449
  419.8000    80.3024    23.5963    22.3124
  419.9000    80.5458    23.5966    22.1719
  420.0000    80.8032    23.5969    22.0499
  420.1000    81.2183    23.4346    22.0196
  420.2000    81.7337    23.4349    21.9417
  420.3000    82.3918    23.4352    21.8122
  420.4000    83.4234    23.4355    21.7178
  420.5000    84.5150    23.4358    21.7052
  420.6000    85.0005    23.4362    21.5687
  420.7000    85.3161    23.4365    21.5690
  420.8000    85.5735    23.2752    21.5693
  420.9000    85.7175    23.2755    21.5696
  421.0000    85.7169    23.2758    21.5699
  421.1000    85.7163    23.2762    21.5702
  421.2000    85.7156    23.2765    21.5836
  421.3000    85.4731    23.2768    21.7206
  421.4000    85.4133    23.2771    21.7208
  421.5000    85.2570    23.4391    21.7211
  421.6000    84.9984    23.4394    21.7995
  421.7000    84.7398    23.4397    21.8726
  421.8000    84.5073    23.4401    21.8729
  421.9000    84.8078    23.4404    21.8597
  422.0000    85.0482    23.4407    21.7227
  422.1000    85.3056    23.4410    21.7229
  422.2000    85.5631    23.4414    21.7233
  422.3000    85.8205    23.4417    21.6458
  422.4000    86.2145    23.4420    21.5740
  422.5000    87.0131    23.4423    21.5396
  422.6000    88.1168    23.3985    21.4258
  422.7000    88.5962    23.2813    21.4262
  422.8000    89.1117    23.2816    21.4265
  422.9000    89.3199    23.2820    21.4268
  423.0000    89.4297    23.2823    21.3502
  423.1000    89.6199    23.2826    21.2796
  423.2000    89.6433    23.2166    21.2799
  423.3000    89.9198    23.0796    21.2802
  423.4000    89.9193    22.9435    21.2805
  423.5000    90.1144    22.8055    21.1624
  423.6000    90.2193    22.6486    21.1343
  423.7000    90.1092    22.6489    21.1346
  423.8000    89.7844    22.6492    21.1349
  423.9000    89.3139    22.5855    21.1352
  424.0000    89.3132    22.4936    21.1355
  424.1000    89.0747    22.4939    21.1358
  424.2000    88.6213    22.4942    21.1361
  424.3000    88.2562    22.4946    21.0394
  424.4000    88.1060    22.4949    20.9909
  424.5000    88.0401    22.4952    20.9912
  424.6000    87.7815    22.5590    20.9915
  424.7000    87.5018    22.6520    20.9918
  424.8000    87.5012    22.6523    20.9921
  424.9000    87.3068    22.6526    20.9923
  425.0000    87.1988    22.6530    20.8961
  425.1000    87.1982    22.6533    20.8482
  425.2000    87.1976    22.6536    20.8484
  425.3000    87.1970    22.5908    20.8487
  425.4000    87.1963    22.4980    20.8490
  425.5000    87.1958    22.4983    20.8493
  425.6000    87.1952    22.4986    20.8496
  425.7000    87.1946    22.3438    20.7539
  425.8000    87.0876    22.2383    20.7064
  425.9000    86.8289    22.1071    20.7067
  426.0000    86.5703    21.9768    20.6727
  426.1000    86.2885    21.8472    20.5507
  426.2000    85.8181    21.7183    20.4229
  426.3000    85.6849    21.5857    20.4232
  426.4000    85.3871    21.5245    20.3292
  426.5000    84.8704    21.4610    20.2829
  426.6000    84.4783    21.3579    20.2832
  426.7000    84.4395    21.2319    20.2497
  426.8000    83.8746    21.1067    20.1439
  426.9000    83.4062    20.9822    20.1442
  427.0000    83.0803    20.8536    20.0315
  427.1000    82.8217    20.8539    19.9133
  427.2000    82.5631    20.7564    19.7958
  427.3000    82.3044    20.6341    19.7314
  427.4000    82.0458    20.5124    19.6986
  427.5000    81.7620    20.3914    19.5824
  427.6000    81.5285    20.2860    19.4610
  427.7000    81.0801    20.2863    19.2434
  427.8000    80.8566    20.2866    19.1941
  427.9000    80.8560    20.1922    19.1243
  428.0000    80.8554    20.0731    19.0114
  428.1000    80.8719    19.9548    18.8992
  428.2000    81.1554    19.8371    18.7876
  428.3000    81.1548    19.7341    18.6714
  428.4000    81.3430    19.7344    18.6716
  428.5000    81.6004    19.7347    18.5852
  428.6000    81.8579    19.6433    18.4755
  428.7000    82.1153    19.5275    18.4157
  428.8000    82.3888    19.4642    18.3848
  428.9000    82.9584    19.3994    18.2892
  429.0000    83.1888    19.1972    18.2895
  429.1000    83.6339    19.1975    18.2898
  429.2000    84.0048    19.1978    18.2049
  429.3000    84.2622    19.1094    18.1641
  429.4000    84.5197    19.0659    18.1644
  429.5000    84.7621    19.0158    18.1646
  429.6000    84.7614    18.9036    18.1649
  429.7000    84.9908    18.8046    18.1652
  429.8000    85.2482    18.8049    18.0629
  429.9000    85.3620    18.7001    18.0404
  430.0000    85.3614    18.6757    18.0074
  430.1000    85.6621    18.6760    17.9544
  430.2000    85.6475    18.6763    17.9167
  430.3000    85.3596    18.6460    17.9040
  430.4000    85.3590    18.5480    17.7937
  430.5000    85.3584    18.5483    17.7939
  430.6000    85.2152    18.4453    17.7110
  430.7000    85.0560    18.4208    17.6717
  430.8000    85.0554    18.3550    17.6719
  430.9000    85.0548    18.2468    17.6418
  431.0000    85.0541    18.1684    17.5376
  431.1000    85.0536    18.1574    17.4298
  431.2000    85.0530    18.0436    17.4300
  431.3000    85.1939    18.0439    17.3487
  431.4000    85.3530    18.0441    17.2463
  431.5000    85.3524    17.9801    17.1912
  431.6000    85.3638    17.9202    17.1617
  431.7000    85.6523    17.9204    17.0730
  431.8000    85.6518    17.9153    17.0733
  431.9000    85.8349    17.8626    17.0735
  432.0000    86.2329    17.8100    16.9937
  432.1000    86.6510    17.7172    16.9563
  432.2000    86.8542    17.6754    16.9565
  432.3000    86.8756    17.6756    16.9567
  432.4000    87.4553    17.6758    16.9570
  432.5000    87.6807    17.6660    16.9572
  432.6000    87.9382    17.5545    16.9575
  432.7000    88.3352    17.5547    16.9577
  432.8000    88.7542    17.5549    16.9579
  432.9000    88.9584    17.4934    17.0048
  433.0000    88.9679    17.4343    17.1062
  433.1000    89.2584    17.4077    17.1950
  433.2000    89.2578    17.3146    17.1952
  433.3000    89.4389    17.3149    17.2940
  433.4000    89.6964    17.3151    17.3972
  433.5000    89.8584    17.3153    17.5009
  433.6000    89.9100    17.3156    17.6053
  433.7000    90.1585    17.3595    17.7103
  433.8000    90.1577    17.4897    17.8298
  433.9000    90.1572    17.6889    18.0504
  434.0000    90.1566    17.8025    18.1542
  434.1000    90.1560    17.9988    18.3495
  434.2000    90.1554    18.1322    18.4990
  434.3000    90.1548    18.3686    18.6094
  434.4000    90.1542    18.6046    18.7538
  434.5000    90.1535    18.7155    18.9778
  434.6000    89.9301    18.8270    19.2121
  434.7000    89.6715    18.9484    19.5461
  434.8000    89.5494    19.1563    19.7090
  434.9000    89.4554    19.2129    19.9015
  435.0000    89.2470    19.3471    20.1393
  435.1000    89.2464    19.4812    20.3434
  435.2000    89.2457    19.5103    20.4647
  435.3000    89.0233    19.6266    20.5907
  435.4000    88.7647    19.7535    20.7340
  435.5000    88.3705    19.7538    20.8331
  435.6000    87.8539    19.7541    20.8785
  435.7000    87.2880    19.8225    20.8788
  435.8000    86.5133    19.8918    20.8790
  435.9000    85.6270    19.8921    20.8962
  436.0000    84.7430    19.8923    21.0246
  436.1000    83.7102    19.8926    21.0250
  436.2000    82.8120    19.8929    21.0252
  436.3000    82.0374    19.8932    21.0255
  436.4000    81.1666    19.8934    21.0258
  436.5000    79.8758    19.8937    21.0261
  436.6000    78.3939    19.8940    21.0093
  436.7000    77.2938    19.8943    20.8817
