~VERSION INFORMATION
 VERS.                2.0:   CWLS LOG ASCII STANDARD - VERSION 2.0
 WRAP.                 NO:   ONE LINE PER DEPTH STEP
~WELL INFORMATION
#MNEM.UNIT      DATA TYPE    INFORMATION
#----------   ------------   ------------------------------
 STRT.F            0.0000:   START DEPTH
 STOP.F          497.0000:   STOP DEPTH
 STEP.F            0.1000:   STEP LENGTH
 NULL.          -999.2500:   NO VALUE
 COMP.       F D SERV INC:   COMPANY
 WELL. NAVAL PETROLEUM RESERVE 3 SX-1 #81-1-10:   WELL
 FLD .             NPR #3:   FIELD
 LOC .      S10 T38N R78W:   LOCATION
 CNTY.            NATRONA:   COUNTY
 STAT.            WYOMING:   STATE
 CTRY. UNITED STATES OF AMERICA:   COUNTRY
 SRVC.     Atlas Wireline:   SERVICE COMPANY
 DATE.        14-DEC-1997:   LOGDATE
 API .       490252257400:   API NUMBER
~CURVE INFORMATION
#MNEM.UNIT       API CODE    CURVE DESCRIPTION
#----------   ------------   ------------------------------
 DEPT.F                  :   
 GRR .GAPI   07 310 01 00:   GAMMA RAY
 RILD.OHMM   07 120 46 00:   INDUCTION LOG DEEP RESISTIVITY
 RILM.OHMM   07 120 44 00:   INDUCTION LOG MEDIUM RESISTIVITY
~PARAMETER INFORMATION
#MNEM.UNIT          VALUE    DESCRIPTION
#----------   ------------   ------------------------------
 PD  .                 GL:   PERMANENT DATUM
 EPD .F              5132:   ELEVATION PERMANENT DATUM
 LMF .                 KB:   LOG MEASURED FROM
 DAPD.F                10:   FEET ABOVE PERMANENT DATUM
 DMF .                 KB:   DRILLING MEASURED FROM
 EKB .F              5142:   KELLING BUSHING
 EDF .F              5141:   DRILLING FLOOR
 EGL .F              5132:   GROUND LEVEL
 DATE.        14-DEC-1992:   RUN DATE
 RUN .                  1:   RUN NUMBER
 DD  .F               513:   DEPTH DRILLER
 DL  .F               505:   DEPTH LOGGER
 BLI .F               497:   BOTTOM LOG INTERVAL
 CS  .IN            8.625:   CASING SIZE
 CBD .F                53:   CASING BOTTOM DRILLER
 CBL .F                54:   CASING BOTTOM LOGGER
 BS  .IN            7.875:   BIT SIZE
 BSD .F               513:   BIT SIZE AT DEPTH
 DFT .           AIR FOAM:   DRILLING FLUID TYPE
 BHT .F                68:   BOTTOM HOLE TEMPERATURE
 MRT .F                68:   MAXIMUM RECORDED TEMPERATURE
 LUN .           HL- 6274:   LOGGING UNIT NUMBER
 LUL .             CASPER:   LOGGING UNIT LOCATION
 ENGI.             RAUTIO:   RECORDING ENGINEER
 WITN.          G. STRONG:   WITNESSED BY
 CLNT.            A2DTECH:   CLIENT CODE
 ORIG.           5" PRINT:   ORIGIN OF DATA
 UWI .       490252257400:   UNIQUE WELL ID
 DICO. A2D Technologies, Inc.:   DIGITIZING COMPANY
~OTHER INFORMATION
~A    DEPT      GRR      RILD       RILM   
# ...
  436.8000    75.6496    19.8946    20.7380
  436.9000    74.1099    19.8948    20.6397
  437.0000    72.8191    19.8951    20.4407
  437.1000    71.6700    19.8281    20.3127
  437.2000    71.1574    19.7584    20.2764
  437.3000    70.8595    19.7587    20.1240
  437.4000    70.8590    19.7590    19.7590
  437.5000    71.0341    19.7593    19.6231
  437.6000    71.4241    19.7595    19.4370
  437.7000    72.0289    19.6740    19.2807
  437.8000    72.8486    19.6238    19.1135
  437.9000    73.8801    19.6241    18.8883
  438.0000    75.0722    19.5973    18.6504
  438.1000    76.1611    19.4893    18.3126
  438.2000    77.6253    19.4896    18.0612
  438.3000    79.1728    19.3863    17.8046
  438.4000    80.6318    19.2721    17.4909
  438.5000    81.7860    19.0948    17.2304
  438.6000    82.3035    18.8699    16.9966
  438.7000    83.2005    18.6477    16.6968
  438.8000    83.6338    18.4280    16.3948
  438.9000    84.1493    18.1883    16.0583
  439.0000    84.7953    17.9969    15.9054
  439.1000    85.5688    17.7851    15.7181
  439.2000    86.2981    17.5758    15.5329
  439.3000    86.8114    17.3688    15.3778
  439.4000    86.8107    17.1870    15.2742
  439.5000    86.8102    17.0739    15.0899
  439.6000    86.9823    16.7406    14.9861
  439.7000    87.1102    16.5652    14.9862
  439.8000    87.0233    16.3703    14.9294
  439.9000    86.8078    16.2307    14.8413
  440.0000    86.8072    16.0981    14.7267
  440.1000    86.5053    15.9292    14.5779
  440.2000    86.2900    15.8302    14.5781
  440.3000    85.8596    15.6229    14.4778
  440.4000    85.3430    15.5412    14.4085
  440.5000    84.7411    15.4496    14.2690
  440.6000    84.0928    15.3585    14.1809
  440.7000    84.0922    15.2679    14.1549
  440.8000    84.0915    15.1584    14.0713
  440.9000    84.0910    14.9887    13.9866
  441.0000    84.2611    14.9890    13.8904
  441.1000    84.3910    14.9109    13.8905
  441.2000    84.3904    14.8230    13.8376
  441.3000    84.4310    14.7356    13.7951
  441.4000    84.6904    14.6487    13.7953
  441.5000    84.6897    14.5807    13.7955
  441.6000    84.9020    14.5809    13.7957
  441.7000    85.1594    14.5812    13.8917
  441.8000    85.4169    14.5814    13.8919
  441.9000    85.5910    14.5816    13.9457
  442.0000    85.5904    14.5818    14.0289
  442.1000    85.5898    14.5820    14.1125
  442.2000    85.5891    14.5822    14.1841
  442.3000    85.5886    14.5824    14.1843
  442.4000    85.5880    14.5826    14.1845
  442.5000    85.5874    14.5828    14.2536
  442.6000    85.5868    14.5830    14.2834
  442.7000    85.5861    14.5832    14.2427
  442.8000    85.5855    14.5834    14.1852
  442.9000    85.5848    14.5658    14.1728
  443.0000    85.5843    14.4832    14.0878
  443.1000    85.5837    14.4834    13.9909
  443.2000    85.7077    14.4090    13.9234
  443.3000    85.8837    14.3241    13.8412
  443.4000    85.8831    14.2396    13.7991
  443.5000    85.8825    14.1866    13.7733
  443.6000    86.1830    14.1698    13.6920
  443.7000    86.3924    14.0863    13.6100
  443.8000    86.4831    13.9922    13.5164
  443.9000    86.6060    13.9207    13.4511
  444.0000    86.7831    13.8386    13.4235
  444.1000    86.8197    13.7570    13.3851
  444.2000    87.0831    13.6759    13.3061
  444.3000    87.6848    13.5952    13.2396
  444.4000    87.8932    13.5150    13.2398
  444.5000    88.4819    13.4245    13.1487
  444.6000    89.0104    13.4247    13.0850
  444.7000    89.3471    13.3696    13.0583
  444.8000    89.8626    13.2908    13.0585
  444.9000    90.3922    13.2407    13.0338
  445.0000    91.2951    13.2256    12.9688
  445.1000    91.7103    13.1497    12.9690
  445.2000    92.0611    13.1500    12.9692
  445.3000    92.3185    13.0833    12.9694
  445.4000    92.4976    13.0596    12.9695
  445.5000    92.4970    13.0193    12.9697
  445.6000    92.4964    12.9699    12.9699
  445.7000    91.8933    12.9555    12.9701
  445.8000    91.6860    12.8808    12.9703
  445.9000    91.4273    12.8810    12.8810
  446.0000    90.9277    12.8812    12.8812
  446.1000    90.3076    12.8289    12.8814
  446.2000    89.9807    12.7927    12.9192
  446.3000    89.1789    12.7929    12.9712
  446.4000    88.6803    12.7931    12.9713
  446.5000    87.9579    12.7932    12.9715
  446.6000    87.3459    12.7934    12.9717
  446.7000    87.0681    12.7936    12.9719
  446.8000    86.9912    12.7938    12.9721
  446.9000    86.7657    12.7939    12.9722
  447.0000    87.0662    12.7941    12.9724
  447.1000    87.3137    12.7943    12.9726
  447.2000    87.5711    12.7945    12.9728
  447.3000    87.8286    12.7947    12.9730
  447.4000    88.2045    12.7948    12.9731
  447.5000    88.6446    12.7950    12.9733
  447.6000    88.9020    12.7952    12.9735
  447.7000    89.1705    12.8085    12.9737
  447.8000    89.1699    12.8468    12.9739
  447.9000    89.1693    12.8846    12.9740
  448.0000    89.1687    12.8848    12.9742
  448.1000    89.0506    12.8849    12.9744
  448.2000    88.8663    12.8851    12.9746
  448.3000    88.8657    12.8853    12.9748
  448.4000    88.8650    12.8855    12.9749
  448.5000    88.8645    12.8856    12.9751
  448.6000    89.0666    12.8858    12.9753
  448.7000    89.1645    12.8860    12.9755
  448.8000    89.1639    12.8862    12.9757
  448.9000    89.1633    12.8864    13.0271
  449.0000    89.2228    12.9253    13.0661
  449.1000    89.7644    12.9762    13.0663
  449.2000    90.0089    12.9764    13.0665
  449.3000    90.2663    12.9765    13.0667
  449.4000    90.3651    12.9768    13.1576
  449.5000    90.3645    12.9769    13.1578
  449.6000    90.3639    12.9771    13.2101
  449.7000    90.3633    12.9773    13.2889
  449.8000    90.3626    12.9774    13.3417
  449.9000    90.3620    12.9648    13.3551
  450.0000    90.7601    12.8883    13.4347
  450.1000    91.5728    13.1506    13.3824
  450.2000    92.5832    13.2285    13.3301
  450.3000    93.5368    13.3200    13.2778
  450.4000    94.2853    13.3206    13.2255
  450.5000    94.8671    13.3721    13.1732
  450.6000    94.8651    13.4150    13.1209
  450.7000    95.0287    13.4157    13.0686
  450.8000    95.0434    13.4165    13.0164
  450.9000    94.8578    13.4173    12.9778
  451.0000    94.8333    13.4180    12.9778
  451.1000    94.5516    13.4187    12.9778
  451.2000    94.0948    13.4195    12.9778
  451.3000    93.4065    13.3934    12.9778
  451.4000    92.7758    13.3279    12.9405
  451.5000    92.1837    13.3287    12.8883
  451.6000    91.3159    13.1793    12.8883
  451.7000    89.7179    13.0862    12.8883
  451.8000    88.0317    13.0558    12.8195
  451.9000    86.2568    13.0566    12.7452
  452.0000    85.0602    13.0573    12.7112
  452.1000    84.3948    13.0580    12.6855
  452.2000    83.9831    13.0588    12.6120
  452.3000    83.9801    13.0595    12.5365
  452.4000    83.6767    13.0602    12.4664
  452.5000    83.8806    13.0609    12.3942
  452.6000    84.1313    13.0397    12.3642
  452.7000    84.4919    12.9718    12.3361
  452.8000    84.9960    12.9727    12.2647
  452.9000    85.5415    12.9041    12.1942
  453.0000    86.9756    12.8294    12.1942
  453.1000    87.8497    12.7956    12.1365
  453.2000    88.6892    12.7963    12.0663
  453.3000    89.6927    12.7845    12.0266
  453.4000    90.8812    12.7091    12.0266
  453.5000    91.8916    12.7098    12.0266
  453.6000    92.9853    12.6516    12.0266
  453.7000    94.6094    12.6232    12.0266
  453.8000    95.6421    12.5929    12.0266
  453.9000    96.1267    12.5200    12.0266
  454.0000    96.2892    12.4509    12.0266
  454.1000    96.2868    12.4518    12.0200
  454.2000    96.2843    12.3898    11.9437
  454.3000    96.0363    12.3668    11.9437
  454.4000    95.3855    12.3675    11.9437
  454.5000    94.6235    12.3682    11.9437
  454.6000    94.0646    12.3689    11.9437
  454.7000    93.7017    12.3696    11.9342
  454.8000    92.9510    12.3033    11.8613
  454.9000    92.6526    12.2852    11.8613
