~VERSION INFORMATION
 VERS.                2.0:   CWLS LOG ASCII STANDARD - VERSION 2.0
 WRAP.                 NO:   ONE LINE PER DEPTH STEP
~WELL INFORMATION
#MNEM.UNIT      DATA TYPE    INFORMATION
#----------   ------------   ------------------------------
 STRT.F           39.5000:   START DEPTH
 STOP.F          591.0000:   STOP DEPTH
 STEP.F            0.5000:   STEP LENGTH
 NULL.          -999.2500:   NO VALUE
 COMP. FENIX & SCISSON INC:   COMPANY
 WELL.      26 SX 3 #26-3:   WELL
 FLD .             TEAPOT:   FIELD
 LOC .       S3 T38N R78W:   LOCATION
 CNTY.            NATRONA:   COUNTY
 STAT.            WYOMING:   STATE
 CTRY. UNITED STATES OF AMERICA:   COUNTRY
 SRVC.           BIRDWELL:   SERVICE COMPANY
 DATE.        01-OCT-1978:   LOGDATE
 API .       490251071500:   API NUMBER
~CURVE INFORMATION
#MNEM.UNIT       API CODE    CURVE DESCRIPTION
#----------   ------------   ------------------------------
 DEPT.F                  :   
 SPR .MV     05 010 01 00:   SPONTANEOUS POTENTIAL FROM RES.
 SN  .OHMM   05 040 16 00:   SHORT NORMAL 16"
 ILD .OHMM   05 120 46 00:   INDUCTION LOG DEEP
 RHOB.G/C3   45 350 01 00:   BULK DENSITY
 CORR.G/C3   45 356 01 00:   DENSITY CORRECTION
 DPHI.DEC    45 890 12 00:   DENSITY POROSITY SANDSTONE
 GRD .GAPI   45 310 01 00:   GAMMA RAY FROM DENSITY LOG
 CALD.IN     45 280 60 00:   CALIPER
~PARAMETER INFORMATION
#MNEM.UNIT          VALUE    DESCRIPTION
#----------   ------------   ------------------------------
 PD  .                 GL:   PERMANENT DATUM
 EPD .F              5225:   ELEVATION PERMANENT DATUM
 LMF .                 KB:   LOG MEASURED FROM
 DAPD.F                 4:   FEET ABOVE PERMANENT DATUM
 DMF .                 KB:   DRILLING MEASURED FROM
 EKB .F              5229:   KELLING BUSHING
 EGL .F              5225:   GROUND LEVEL
 DATE.            10-1-78:   RUN DATE
 RUN .                  1:   RUN NUMBER
 DD  .F               600:   DEPTH DRILLER
 DL  .F               597:   DEPTH LOGGER
 BLI .F               591:   BOTTOM LOG INTERVAL
 TLI .F                60:   TOP LOG INTERVAL
 CS  .IN            8.625:   CASING SIZE
 CBD .F                40:   CASING BOTTOM DRILLER
 BS  .IN            7.875:   BIT SIZE
 BSD .F               600:   BIT SIZE AT DEPTH
 DFT .                KCL:   DRILLING FLUID TYPE
 DFD .                8.7:   DRILLING FLUID DENSITY
 DFV .                 34:   DRILLING FLUID VISCOSITY
 DFPH.                  9:   DRILLING FLUID PH
 DFL .                 10:   DRILLING FLUID LOSS
 MSS .            MUD PIT:   MUD SAMPLE SOURCE
 RMS .OHMM            .24:   RESISTIVITY MUD SAMPLE
 MST .F                65:   MUD SAMPLE TEMPERATURE
 RMF .OHMM            .45:   RESISTIVITY MUD FILTRATE SAMPLE
 MFST.F                65:   MUD FILTRATE SAMPLE TEMPERATURE
 RMC .OHMM             .4:   RESISTIVITY MUD CAKE
 MCST.F                65:   MUD CAKE SAMPLE TEMPERATURE
 MFSS.               MEAS:   MUD FILTRATE SAMPLE SOURCE
 TCS .HRS               3:   TIME CURCULATED STOPPED
 LUN .               2958:   LOGGING UNIT NUMBER
 LUL .               CASP:   LOGGING UNIT LOCATION
 ENGI.             MILLER:   RECORDING ENGINEER
 WITN.           DINSMORE:   WITNESSED BY
 CLNT.            A2DTECH:   CLIENT CODE
 ORIG.       2", 5" PRINT:   ORIGIN OF DATA
 UWI .       490251071500:   UNIQUE WELL ID
 DICO. A2D Technologies, Inc.:   DIGITIZING COMPANY
~OTHER INFORMATION
~A   DEPT      SPR         SN        ILD       RHOB       CORR       DPHI        GRD         CALD 
# ...
  161.0000   -12.0758     8.6293     8.3239     2.5047     0.0156     0.1042   169.2217     7.9672
  161.5000   -12.0758     8.5862     8.2676     2.5031     0.0160     0.1031   170.5860     7.9689
  162.0000   -12.0761     8.5433     8.2118     2.5037     0.0163     0.1009   170.6110     7.9706
  162.5000   -12.0761     8.5006     8.1563     2.5053     0.0167     0.0995   170.1663     7.9723
  163.0000   -12.0732     8.4581     8.1012     2.5079     0.0166     0.0989   168.9158     7.9740
  163.5000   -11.9083     8.4158     8.0362     2.5133     0.0133     0.0982   167.3707     7.9757
  164.0000   -11.4857     8.3736     7.9305     2.5149     0.0099     0.1010   166.5143     7.9774
  164.5000   -11.0893     8.3320     7.8260     2.5161     0.0065     0.0987   167.1548     7.9790
  165.0000   -11.0952     8.2834     7.7675     2.5201     0.0031     0.0962   167.7977     7.9774
  165.5000   -11.1169     8.4012     7.8519     2.5214     0.0007     0.0947   167.2855     7.9686
  166.0000   -11.1371     8.5477     7.9127     2.5220     0.0008     0.0969   165.0001     7.9599
  166.5000   -11.1567     8.6967     7.9738     2.5182     0.0062     0.1012   157.6569     7.9512
  167.0000   -11.1764     8.8483     8.0353     2.5114     0.0115     0.1042   154.9841     7.9426
  167.5000   -11.1960     9.0026     8.0973     2.5045     0.0168     0.1048   148.3542     7.9339
  168.0000   -11.2157     9.1596     8.1598     2.4990     0.0188     0.1021   144.6602     7.9252
  168.5000   -11.2354     9.2526     8.2227     2.5039     0.0185     0.0994   144.5504     7.9165
  169.0000   -11.2561     9.2638     8.2828     2.5091     0.0182     0.0977   144.8827     7.9078
  169.5000   -11.2816     9.2746     8.2674     2.5112     0.0179     0.0975   145.9493     7.8992
  170.0000   -11.0324     9.2855     8.2528     2.5128     0.0175     0.0978   148.8230     7.8905
  170.5000   -10.7459     9.2964     8.2381     2.5113     0.0172     0.0999   152.5846     7.8818
  171.0000   -10.4807     9.3074     8.2235     2.5085     0.0169     0.0997   153.4857     7.8731
  171.5000   -10.4314     9.3184     8.2071     2.5072     0.0165     0.0991   154.2268     7.8643
  172.0000   -10.3887     9.3326     8.3998     2.5122     0.0162     0.0990   156.3590     7.8678
  172.5000   -10.3454     9.2810     8.6262     2.5173     0.0159     0.0990   157.7328     7.8773
  173.0000   -10.3018     9.2027     8.8587     2.5211     0.0155     0.0990   156.6786     7.8869
  173.5000   -10.2583     9.1259     9.0974     2.5193     0.0152     0.1002   156.5099     7.8966
  174.0000   -10.2147     9.0498     9.3426     2.5138     0.0149     0.1031   157.0865     7.9063
  174.5000   -10.1711     8.9964     9.4191     2.5079     0.0147     0.1058   155.8362     7.9159
  175.0000   -10.1276     8.9964     9.4033     2.5008     0.0146     0.1074   154.1423     7.9190
  175.5000   -10.0840     8.9964     9.3928     2.4979     0.0144     0.1076   153.8228     7.9155
  176.0000   -10.0404     8.9964     9.3822     2.4952     0.0142     0.1058   154.0461     7.9119
  176.5000    -9.9969     8.9964     9.3717     2.4975     0.0140     0.1049   154.9018     7.9083
  177.0000    -9.9533     8.9964     9.3612     2.5001     0.0138     0.1058   157.6330     7.9048
  177.5000    -9.9097     8.9964     9.3505     2.4994     0.0137     0.1132   160.4846     7.9010
  178.0000    -9.8662     8.9964     9.3397     2.4913     0.0135     0.1160   161.0413     7.8935
  178.5000    -9.8226     8.9964     9.3335     2.4849     0.0133     0.1163   159.2045     7.8855
  179.0000    -9.7791     8.9964     9.4976     2.4833     0.0131     0.1166   158.9792     7.8775
  179.5000    -9.7354     8.9964     9.6235     2.4842     0.0138     0.1130   157.7047     7.8696
  180.0000    -9.6905     8.9965     9.7511     2.4860     0.0189     0.1082   154.1703     7.8612
  180.5000    -9.6773     8.9944     9.8803     2.4919     0.0239     0.1074   150.5045     7.8413
  181.0000    -9.6726     9.0646    10.0113     2.4979     0.0290     0.1081   146.8653     7.8207
  181.5000    -9.6681     9.1908    10.2140     2.5008     0.0338     0.1088   144.7597     7.8001
  182.0000    -9.6635     9.3188    10.4449     2.4913     0.0495     0.1081   145.4083     7.7796
  182.5000    -9.6589     9.4486    10.6810     2.4941     0.0665     0.1021   147.3209     7.7590
  183.0000    -9.6544     9.5802    10.9224     2.5005     0.0666     0.0960   147.8252     7.7385
  183.5000    -9.6498     9.7136    11.1692     2.5127     0.0661     0.0913   148.3400     7.7224
  184.0000    -9.6452     9.8488    11.4217     2.5213     0.0655     0.0906   151.0948     7.7227
  184.5000    -9.6407     9.9860    11.6577     2.5217     0.0649     0.0900   150.5150     7.7228
  185.0000    -9.6361    10.1212    11.7928     2.5222     0.0693     0.0893   147.4807     7.7228
  185.5000    -9.6315    10.2554    11.9295     2.5228     0.0745     0.0866   143.7043     7.7257
  186.0000    -9.6269    10.3913    12.0678     2.5261     0.0781     0.0818   141.0312     7.7322
  186.5000    -9.6224    10.5291    12.2077     2.5394     0.0598     0.0702   139.1201     7.7386
  187.0000    -9.6178    10.6687    12.3492     2.5509     0.0415     0.0768   139.5411     7.7451
  187.5000    -9.6132    10.8102    12.4923     2.5497     0.0237     0.0853   141.6638     7.7515
  188.0000    -9.6086    11.0105    12.6365     2.5396     0.0107     0.0925   148.1655     7.7579
  188.5000    -9.6041    11.0020    12.5907     2.5292     0.0107     0.0962   151.7086     7.7625
  189.0000    -9.5995    10.9879    12.5453     2.5153     0.0103     0.0998   151.1830     7.7624
  189.5000    -9.5949    10.9738    12.5000     2.5098     0.0100     0.1023   150.3520     7.7624
  190.0000    -9.5904    10.9598    12.4549     2.5066     0.0098     0.1019   147.9563     7.7624
  190.5000    -9.5858    10.9460    12.4100     2.5063     0.0095     0.0999   140.4984     7.7624
  191.0000    -9.5812    10.9319    12.3652     2.5067     0.0092     0.1018   137.7661     7.7624
  191.5000    -9.5766    10.9177    12.3206     2.5073     0.0116     0.1029   137.2058     7.7624
  192.0000    -9.5721    10.7763    12.2761     2.5080     0.0190     0.1005   138.0339     7.7624
  192.5000    -9.5675    10.4749    12.2317     2.5109     0.0252     0.0985   138.8216     7.7625
  193.0000    -9.5629    10.1819    12.1876     2.5140     0.0250     0.0974   139.3828     7.7618
  193.5000    -9.5583    10.1371    12.1196     2.5170     0.0250     0.0989   139.0248     7.7420
  194.0000    -9.5538    10.1371    12.0476     2.5158     0.0283     0.1046   137.6493     7.7211
  194.5000    -9.5492    10.1371    11.9759     2.5063     0.0337     0.1124   134.2836     7.7003
  195.0000    -9.5446    10.1371    11.9047     2.4964     0.0389     0.1135   131.3268     7.6795
  195.5000    -9.5400    10.1371    11.8339     2.4872     0.0399     0.1146   130.6048     7.6583
  196.0000    -9.5355    10.1371    11.7636     2.4860     0.0407     0.1156   130.8362     7.6348
  196.5000    -9.5309    10.1371    11.6936     2.4850     0.0383     0.1146   131.3728     7.6115
  197.0000    -9.5263    10.1371    11.6241     2.4910     0.0320     0.1131   133.2217     7.5882
  197.5000    -9.5217    10.1384    11.5550     2.4982     0.0258     0.1118   135.0179     7.5649
  198.0000    -9.5172    10.1371    11.4863     2.4942     0.0195     0.1147   136.5357     7.5417
  198.5000    -9.5126     9.9907    11.4180     2.4890     0.0147     0.1160   136.4610     7.5240
  199.0000    -9.5080     9.8277    11.3501     2.4880     0.0138     0.1157   134.9656     7.5227
  199.5000    -9.5035     9.6673    11.2826     2.4872     0.0128     0.1163   131.7197     7.5211
  200.0000    -9.4989     9.5095    11.2155     2.4830     0.0119     0.1198   129.8381     7.5195
  200.5000    -9.4943     9.3543    11.1489     2.4790     0.0109     0.1190   130.2765     7.5180
  201.0000    -9.4894     9.2477    11.0826     2.4799     0.0100     0.1181   130.9497     7.5164
