~VERSION INFORMATION
 VERS.                2.0:   CWLS LOG ASCII STANDARD - VERSION 2.0
 WRAP.                 NO:   ONE LINE PER DEPTH STEP
~WELL INFORMATION
#MNEM.UNIT      DATA TYPE    INFORMATION
#----------   ------------   ------------------------------
 STRT.F            0.0000:   START DEPTH
 STOP.F          664.0000:   STOP DEPTH
 STEP.F            0.5000:   STEP LENGTH
 NULL.          -999.2500:   NO VALUE
 COMP. Fluor Daniel (NPOSR) Inc:   COMPANY
 WELL.      71-3-X-3 #3-3:   WELL
 FLD .             N.P.R.:   FIELD
 LOC .       S3 T38N R78W:   LOCATION
 CNTY.            NATRONA:   COUNTY
 STAT.            WYOMING:   STATE
 CTRY. UNITED STATES OF AMERICA:   COUNTRY
 SRVC.      Western Atlas:   SERVICE COMPANY
 DATE.        12-APR-1996:   LOGDATE
 API .       490252277200:   API NUMBER
~CURVE INFORMATION
#MNEM.UNIT       API CODE    CURVE DESCRIPTION
#----------   ------------   ------------------------------
 DEPT.F                  :   
 GRR .GAPI   07 310 01 00:   GAMMA RAY FROM RES. LOG.
 RILD.OHMM   07 120 46 00:   INDUCTION LOG DEEP RESISTIVITY
 RILM.OHMM   07 120 44 00:   INDUCTION LOG MEDIUM RESISTIVITY
~PARAMETER INFORMATION
#MNEM.UNIT          VALUE    DESCRIPTION
#----------   ------------   ------------------------------
 PD  .                 GL:   PERMANENT DATUM
 EPD .F              5118:   ELEVATION PERMANENT DATUM
 LMF .                 KB:   LOG MEASURED FROM
 DAPD.F                10:   FEET ABOVE PERMANENT DATUM
 DMF .                 KB:   DRILLING MEASURED FROM
 EKB .F              5128:   KELLING BUSHING
 EDF .F              5127:   DRILLING FLOOR
 EGL .F              5118:   GROUND LEVEL
 DATE.        12-APR-1996:   RUN DATE
 RUN .                  1:   RUN NUMBER
 DD  .F               670:   DEPTH DRILLER
 DL  .F               672:   DEPTH LOGGER
 BLI .F               664:   BOTTOM LOG INTERVAL
 CS  .IN            9.625:   CASING SIZE
 CBD .F                56:   CASING BOTTOM DRILLER
 CBL .F                57:   CASING BOTTOM LOGGER
 BS  .IN             8.75:   BIT SIZE
 BSD .F               670:   BIT SIZE AT DEPTH
 DFT .                AIR:   DRILLING FLUID TYPE
 MRT .F                84:   MAXIMUM RECORDED TEMPERATURE
 LUN .             HL6530:   LOGGING UNIT NUMBER
 LUL .             CASPER:   LOGGING UNIT LOCATION
 ENGI.             RAUTIO:   RECORDING ENGINEER
 WITN.              HARDY:   WITNESSED BY
 CLNT.            A2DTECH:   CLIENT CODE
 ORIG.       2", 5" PRINT:   ORIGIN OF DATA
 UWI .       490252277200:   UNIQUE WELL ID
 DICO. A2D Technologies, Inc.:   DIGITIZING COMPANY
~OTHER INFORMATION
~A    DEPT      GRR      RILD       RILM   
# ...
  546.0000    99.9888    12.0626    11.7920
  546.5000    99.3983    11.9928    11.7435
  547.0000    99.1769    11.9234    11.6951
  547.5000    99.7492    11.8544    11.6160
  548.0000   100.5661    11.7858    11.5011
  548.5000   101.8317    11.7317    11.3509
  549.0000   102.2201    11.6800    11.4559
  549.5000   102.7203    11.6285    11.4131
  550.0000   104.0474    11.5610    11.3511
  550.5000   105.1051    11.5626    11.2894
  551.0000   104.0606    11.5619    11.2473
  551.5000   104.9725    11.5619    11.2621
  552.0000   106.1342    11.5619    11.2741
  552.5000   105.3434    11.5619    11.2860
  553.0000   101.8671    11.5619    11.2978
  553.5000   100.3387    11.5619    11.3097
  554.0000   102.2337    11.5620    11.3216
  554.5000   105.9121    11.5622    11.3334
  555.0000   107.6880    11.5620    11.3497
  555.5000   107.9876    11.4820    11.3036
  556.0000   108.1618    11.3972    11.2168
  556.5000   109.5206    11.3132    11.1307
  557.0000   109.9342    11.2298    11.0453
  557.5000   109.1914    11.1437    10.9605
  558.0000   106.3960    11.1126    10.8764
  558.5000   101.1757    11.0273    10.7912
  559.0000    99.9506    10.9427    10.7056
  559.5000   101.5998    10.8587    10.6206
  560.0000   104.4280    10.8400    10.5362
  560.5000   107.6917    10.8400    10.4526
  561.0000   107.7843    10.8400    10.3696
  561.5000   107.9579    10.6067    10.1742
  562.0000   108.6536    10.3758     9.9647
  562.5000   110.6885    10.1498     9.7596
  563.0000   111.1862     9.9288     9.5586
  563.5000   110.5385     9.6639     9.3503
  564.0000   110.1335     9.3947     9.1272
  564.5000   111.8294     9.1330     8.9035
  565.0000   114.8220     8.9337     8.6902
  565.5000   116.7201     8.2260     7.9264
  566.0000   116.4978     7.5259     7.1658
  566.5000   117.0746     6.8113     6.5932
  567.0000   119.4112     6.1645     5.8542
  567.5000   123.5389     5.5791     5.1979
  568.0000   128.5639     5.3297     4.8121
  568.5000   137.0150     5.3351     4.8234
  569.0000   142.9219     5.3979     5.3432
  569.5000   142.8492     5.4603     5.8036
  570.0000   132.6302     5.5339     6.3038
  570.5000   124.7704     5.8475     6.8470
  571.0000   117.7922     6.5535     7.4375
  571.5000   116.2471     7.5506     8.0781
  572.0000   116.0740     8.2806     8.5317
  572.5000   114.5938     9.0882     9.1203
  573.0000   112.2926     9.3519     9.4764
  573.5000   110.0313     9.5265     9.5401
  574.0000   109.9154     9.6949     9.5803
  574.5000   113.0953     9.8563     9.6168
  575.0000   116.5540    10.0204     9.8049
  575.5000   117.5585    10.1917     9.9797
  576.0000   115.8052    10.3677    10.1577
  576.5000   115.3749    10.5468    10.3389
  577.0000   116.9170    10.7289    10.5233
  577.5000   116.7000    10.9142    10.7110
  578.0000   113.6473    11.0415    10.8842
  578.5000   110.5052    11.1936    11.0223
  579.0000   110.4238    11.3604    11.1622
  579.5000   112.7739    11.5298    11.3039
  580.0000   114.5337    11.7016    11.4559
  580.5000   115.5976    11.8858    11.6001
  581.0000   115.5751    11.9726    11.6709
  581.5000   115.5491    12.0653    11.7421
  582.0000   113.2715    12.1441    11.8138
  582.5000   110.9391    12.2116    11.8858
  583.0000   112.4402    12.2796    11.9584
  583.5000   114.4313    12.3479    12.0314
  584.0000   115.0876    12.4166    12.1068
  584.5000   112.2291    12.5612    12.2188
  585.0000   108.3121    12.4138    12.2190
  585.5000   105.2185    12.3869    12.1727
  586.0000   104.6764    12.3592    12.1134
  586.5000   105.7414    12.3323    12.0546
  587.0000   107.9520    12.2933    11.9952
  587.5000   109.6694    12.2452    11.9963
  588.0000   111.3961    12.1971    11.9958
  588.5000   112.1865    12.1492    11.9285
  589.0000   112.2178    12.1015    11.8618
  589.5000   111.8442    12.0540    11.7956
  590.0000   111.2216    12.0066    11.7296
  590.5000   109.6153    11.9595    11.6642
  591.0000   108.6181    11.9125    11.5989
  591.5000   108.5638    11.8415    11.5046
  592.0000   109.9084    11.6424    11.3044
  592.5000   113.1089    11.4553    11.0693
  593.0000   115.9584    11.2648    10.9040
  593.5000   116.3192    11.0839    10.8383
  594.0000   115.6314    10.9060    10.6182
  594.5000   116.9968    10.7406    10.4086
  595.0000   118.3476    10.6004    10.2310
  595.5000   118.4186    10.4693    10.1298
  596.0000   116.9994    10.3398    10.0302
  596.5000   115.0787    10.2118     9.9085
  597.0000   115.3598    10.0855     9.7630
  597.5000   117.8072     9.9034     9.6196
  598.0000   120.0119     9.7166     9.4783
  598.5000   121.3620     9.5334     9.3391
  599.0000   122.6497     9.4305     9.2689
  599.5000   123.8445     9.4087     9.2596
  600.0000   124.9637     9.3869     9.2462
  600.5000   126.1133     9.3652     9.2328
  601.0000   125.1508     9.3435     9.2195
  601.5000   123.5359     9.3219     9.2062
  602.0000   122.5220     9.3003     9.1928
  602.5000   121.4196     9.2788     9.1579
  603.0000   119.8165     9.2300     9.0809
  603.5000   120.1868     9.1589     9.0025
  604.0000   122.9367     9.0883     8.9134
  604.5000   127.4555     9.0163     8.8251
  605.0000   130.6706     8.8550     8.7080
  605.5000   131.3436     8.6921     8.5442
  606.0000   130.6420     8.5322     8.3835
  606.5000   127.4650     8.3752     8.2258
  607.0000   124.2111     8.2230     8.0729
  607.5000   121.1852     8.1148     8.0477
  608.0000   120.7962     8.0367     8.0228
  608.5000   121.8203     7.9594     7.9980
  609.0000   122.7194     7.8828     7.9735
  609.5000   122.2824     7.8069     7.9499
  610.0000   122.1007     7.6452     7.9242
  610.5000   122.7243     7.4425     7.6711
  611.0000   123.3180     7.2451     7.4360
  611.5000   123.9110     7.0530     7.2096
  612.0000   124.5045     6.9356     7.0963
  612.5000   125.0971     6.9029     7.0963
  613.0000   125.6964     7.0546     7.0963
  613.5000   125.7435     7.2956     7.0963
  614.0000   124.7076     7.5846     7.1961
  614.5000   122.3761     7.9139     7.4799
  615.0000   121.9558     8.2003     7.7749
  615.5000   121.9529     8.5899     8.1906
  616.0000   122.1293     9.0163     8.6902
  616.5000   122.5580     9.1976     8.8903
  617.0000   122.9829     9.3880     9.1614
  617.5000   123.4416     9.5844     9.4408
  618.0000   123.0215     9.7275     9.6263
  618.5000   120.6662     9.7841     9.6512
  619.0000   117.9812     9.8410     9.6761
  619.5000   116.4715     9.8860     9.7011
  620.0000   115.9748     9.8400     9.7058
  620.5000   117.8899     9.8021     9.6536
  621.0000   121.3693     9.7642     9.6111
  621.5000   126.3255     9.7265     9.5687
  622.0000   126.3372     9.6833     9.5265
  622.5000   123.4031     9.6335     9.4844
  623.0000   122.8251     9.5850     9.4426
  623.5000   125.7148     9.5168     9.4009
  624.0000   126.7040     9.4413     9.3595
  624.5000   124.9488     9.5191     9.3547
  625.0000   123.1839     9.6168     9.4136
  625.5000   123.6045     9.7324     9.4413
  626.0000   125.5642     9.8623     9.3547
  626.5000   126.3808     9.9777     9.2698
  627.0000   123.7106     9.7818     9.1780
  627.5000   118.6132     9.5183     9.0364
  628.0000   114.6337     9.2619     8.5932
  628.5000   115.9689     8.8891     8.1718
  629.0000   121.2990     8.2991     7.9256
  629.5000   124.9279     7.9358     7.6643
  630.0000   125.5100     7.5758     7.2246
  630.5000   124.5769     7.1492     6.7770
  631.0000   124.1192     6.4153     6.1405
  631.5000   124.4143     5.7567     5.3957
  632.0000   124.8985     4.9145     4.6450
  632.5000   122.7972     4.1533     3.9987
  633.0000   121.9864     3.5141     3.4424
  633.5000   123.9760     3.0823     2.9772
  634.0000   128.9918     2.8039     2.6528
  634.5000   133.0433     2.6994     2.5295
  635.0000   130.9908     2.6244     2.6560
  635.5000   124.6458     2.6733     2.8254
  636.0000   117.2540     2.8318     3.0411
  636.5000   115.2883     3.0395     3.6217
