~VERSION INFORMATION
 VERS.                2.0:   CWLS LOG ASCII STANDARD - VERSION 2.0
 WRAP.                 NO:   ONE LINE PER DEPTH STEP
~WELL INFORMATION
#MNEM.UNIT      DATA TYPE    INFORMATION
#----------   ------------   ------------------------------
 STRT.F            4.0000:   START DEPTH
 STOP.F          572.0000:   STOP DEPTH
 STEP.F            0.5000:   STEP LENGTH
 NULL.          -999.2500:   NO VALUE
 COMP. FENIX & SCISSON INC:   COMPANY
 WELL.       NPR#3 #33-10:   WELL
 FLD .             TEAPOT:   FIELD
 LOC .      S10 T38N R78W:   LOCATION
 CNTY.            NATRONA:   COUNTY
 STAT.            WYOMING:   STATE
 CTRY. UNITED STATES OF AMERICA:   COUNTRY
 SRVC.              Welex:   SERVICE COMPANY
 DATE.        05-MAY-1980:   LOGDATE
 API .       490251080800:   API NUMBER
~CURVE INFORMATION
#MNEM.UNIT       API CODE    CURVE DESCRIPTION
#----------   ------------   ------------------------------
 DEPT.F                  :   
 SGRD.OHMM   07 220 05 00:   SHALLOW GUARD RESISTIVITY
 ILD .OHMM   07 120 46 00:   INDUCTION LOG DEEP RESISTIVITY
 ILM .OHMM   07 120 44 00:   INDUCTION LOG MEDIUM
 SPR .MV     07 010 01 00:   SPONTANEOUS POTENTIAL
 CALD.IN     45 280 60 00:   CALIPER
 GRD .GAPI   45 310 01 00:   GAMMA RAY FROM DENSITY LOG
 RHOB.G/C3   45 350 01 00:   BULK DENSITY
 CORR.G/C3   45 356 01 00:   DENSITY CORRECTION
 DPHI.DEC    45 890 12 00:   DENSITY POROSITY SANDSTONE
~PARAMETER INFORMATION
#MNEM.UNIT          VALUE    DESCRIPTION
#----------   ------------   ------------------------------
 PD  .                 GL:   PERMANENT DATUM
 EPD .F              5228:   ELEVATION PERMANENT DATUM
 LMF .                 KB:   LOG MEASURED FROM
 DAPD.F                 5:   FEET ABOVE PERMANENT DATUM
 DMF .                 KB:   DRILLING MEASURED FROM
 EKB .F              5233:   KELLING BUSHING
 EGL .F              5228:   GROUND LEVEL
 DATE.             5-5-80:   RUN DATE
 RUN .                  1:   RUN NUMBER
 DD  .F               572:   DEPTH DRILLER
 DL  .F               572:   DEPTH LOGGER
 BLI .F               570:   BOTTOM LOG INTERVAL
 TLI .F                30:   TOP LOG INTERVAL
 BS  .IN            7.875:   BIT SIZE
 BSD .F               572:   BIT SIZE AT DEPTH
 DFT .            KCL MUD:   DRILLING FLUID TYPE
 DFD .                8.9:   DRILLING FLUID DENSITY
 DFV .                 36:   DRILLING FLUID VISCOSITY
 DFL .               12.6:   DRILLING FLUID LOSS
 MSS .           FLOWLINE:   MUD SAMPLE SOURCE
 RMS .OHMM           1.08:   RESISTIVITY MUD SAMPLE
 MST .F                60:   MUD SAMPLE TEMPERATURE
 RMF .OHMM            .86:   RESISTIVITY MUD FILTRATE SAMPLE
 MFST.F                60:   MUD FILTRATE SAMPLE TEMPERATURE
 RMC .OHMM           1.29:   RESISTIVITY MUD CAKE
 MCST.F                60:   MUD CAKE SAMPLE TEMPERATURE
 MFSS.           MEASURED:   MUD FILTRATE SAMPLE SOURCE
 MCSS.           MEASURED:   MUD CAKE SAMPLE SOURCE
 TCS .HRS               2:   TIME CURCULATED STOPPED
 MRT .F               100:   MAXIMUM RECORDED TEMPERATURE
 LUN .               1892:   LOGGING UNIT NUMBER
 LUL .             CASPER:   LOGGING UNIT LOCATION
 ENGI.               REIN:   RECORDING ENGINEER
 WITN.              AMEND:   WITNESSED BY
 CLNT.            A2DTECH:   CLIENT CODE
 ORIG.           5" PRINT:   ORIGIN OF DATA
 UWI .       490251080800:   UNIQUE WELL ID
 DICO. A2D Technologies, Inc.:   DIGITIZING COMPANY
~OTHER INFORMATION
~A    DEPT    SGRD        ILD        ILM        SPR       CALD         GRD        RHOB       CORR     DPHI   
# ...
  551.5000    12.6133     8.9285    10.4159   -21.9171     7.8281    89.5846     2.5821     0.0094     0.0622
  552.0000    12.7418     8.7930    10.3842   -21.9028     7.8281    90.4351     2.5670     0.0026     0.0597
  552.5000    11.9337     8.6595    10.3525   -21.9669     7.8281    91.3665     2.5741    -0.0046     0.0563
  553.0000    12.1650     8.5279    10.3209   -22.0333     7.8274    92.2878     2.5951    -0.0064     0.0539
  553.5000    11.7165     8.4072    10.2475   -22.0997     7.8266    93.1995     2.6056     0.0033     0.0551
  554.0000    12.3829     8.4072    10.0945   -22.1662     7.8259  -999.2500     2.5975     0.0178     0.0513
  554.5000    11.8250     8.4397    10.0367   -22.2323     7.8252  -999.2500     2.6094     0.0319     0.0450
  555.0000    12.2579     8.4656     9.9794   -22.2101     7.8244  -999.2500     2.6210     0.0459     0.0386
  555.5000    12.4976     8.4915     9.9249   -21.9888     7.8237  -999.2500     2.6327     0.0600     0.0323
  556.0000    12.2692     8.5175     9.7832   -21.7728     7.8230  -999.2500     2.6418     0.0694     0.0321
  556.5000    12.7302     8.5436     9.6495   -21.5571     7.8222  -999.2500     2.6177     0.0575     0.0414
  557.0000    12.0451     8.5637     9.5176   -21.3418     7.8215  -999.2500     2.5940     0.0351     0.0500
  557.5000    12.2692     8.5041     9.3908   -21.1028     7.8208  -999.2500     2.5708     0.0127     0.0585
  558.0000    11.7441     8.4101     9.2811   -20.8505     7.8200  -999.2500     2.5523    -0.0095     0.0671
  558.5000    11.3929     8.3171     9.1753   -20.5977     7.8193  -999.2500     2.5601    -0.0241     0.0723
  559.0000    11.1887     8.2251     9.0697   -20.3449     7.8186  -999.2500     2.5705    -0.0174     0.0665
  559.5000    11.5024     8.1341     9.0172   -20.0921     7.8179  -999.2500     2.5780    -0.0110     0.0637
  560.0000    11.0860     8.0442     8.9610   -19.8392     7.8171  -999.2500     2.5748    -0.0069     0.0657
  560.5000    11.3969     7.9548     8.9056   -19.5864     7.8164  -999.2500     2.5749    -0.0041     0.0595
  561.0000    11.0314     7.8725     8.8506   -19.3334     7.8157  -999.2500     2.5898     0.0057     0.0513
  561.5000    10.8805     7.7700     8.7959   -19.0804     7.8149  -999.2500     2.6060     0.0258     0.0431
  562.0000    11.2967     7.6688     8.7416   -18.8302     7.8142  -999.2500     2.6222     0.0416     0.0349
  562.5000    10.9616     7.5690     8.6876   -18.6572     7.8135  -999.2500     2.6384     0.0480     0.0281
  563.0000    10.3931     7.4090     8.6426   -18.7902     7.8127  -999.2500     2.6450     0.0514     0.0311
  563.5000    10.3931     7.2079     8.6432   -18.9601     7.8120  -999.2500     2.6312     0.0484     0.0342
  564.0000    10.5531     7.0122     8.6429   -19.1315     7.8113  -999.2500     2.6207     0.0459     0.0388
  564.5000    10.6923     6.8672     8.5971   -19.3027     7.8105  -999.2500     2.6101     0.0431     0.0442
  565.0000    10.7836     6.7012     8.5153   -19.4751     7.8098  -999.2500     2.5996     0.0371     0.0496
  565.5000    10.1096     6.5393     8.4343   -19.6517     7.8091  -999.2500     2.5890     0.0256     0.0549
  566.0000     7.8618     6.4332     8.3541   -19.6624     7.8082  -999.2500     2.5790     0.0140     0.0602
  566.5000     6.2018     6.4456     8.2747   -19.6595     7.7990  -999.2500     2.5720     0.0142     0.0656
  567.0000    10.3756     6.4669     8.2458   -19.6635     7.7891  -999.2500     2.5645     0.0174     0.0704
  567.5000    11.3969     6.4886     8.2221   -19.1284     7.7792  -999.2500     2.5567     0.0073     0.0708
  568.0000    11.1887     6.5667     8.1984   -19.2543     7.7692  -999.2500     2.5514    -0.0045     0.0675
  568.5000    11.7165     6.8389     8.1644   -19.2590     7.7593  -999.2500     2.5634    -0.0144     0.0619
  569.0000    11.6090     7.2904     8.1043   -19.2617     7.7493  -999.2500     2.5805    -0.0031     0.0562
  569.5000    12.6133     7.5983     8.1026   -19.2615     7.7489  -999.2500     2.5976     0.0095     0.0475
  570.0000    12.3829     7.8838     8.1028  -999.2500     7.7490  -999.2500     2.6149     0.0220     0.0366
  570.5000  -999.2500  -999.2500  -999.2500  -999.2500  -999.2500  -999.2500     2.6322     0.0350     0.0313
  571.0000  -999.2500  -999.2500  -999.2500  -999.2500  -999.2500  -999.2500     2.6347     0.0371     0.0355
  571.5000  -999.2500  -999.2500  -999.2500  -999.2500  -999.2500  -999.2500     2.6160     0.0305     0.0381
  572.0000  -999.2500  -999.2500  -999.2500  -999.2500  -999.2500  -999.2500     2.6160     0.0296     0.0381
