~VERSION INFORMATION
 VERS.                2.0:   CWLS LOG ASCII STANDARD - VERSION 2.0
 WRAP.                 NO:   ONE LINE PER DEPTH STEP
~WELL INFORMATION
#MNEM.UNIT      DATA TYPE    INFORMATION
#----------   ------------   ------------------------------
 STRT.F           12.0000:   START DEPTH
 STOP.F          793.0000:   STOP DEPTH
 STEP.F            0.5000:   STEP LENGTH
 NULL.          -999.2500:   NO VALUE
 COMP.   FLUOR DANIEL INC:   COMPANY
 WELL.   35-1-X-10 #35-10:   WELL
 FLD .            WILDCAT:   FIELD
 LOC .      S10 T38N R78W:   LOCATION
 CNTY.            NATRONA:   COUNTY
 STAT.            WYOMING:   STATE
 CTRY. UNITED STATES OF AMERICA:   COUNTRY
 SRVC.      Western Atlas:   SERVICE COMPANY
 DATE.        20-AUG-1996:   LOGDATE
 API .       490252282200:   API NUMBER
~CURVE INFORMATION
#MNEM.UNIT       API CODE    CURVE DESCRIPTION
#----------   ------------   ------------------------------
 DEPT.F                  :   
 RFOC.OHMM   07 220 04 00:   RESISTIVITY FOCUSED LOG
 RILD.OHMM   07 120 46 00:   INDUCTION LOG DEEP RESISTIVITY
 RILM.OHMM   07 120 44 00:   INDUCTION LOG MEDIUM RESISTIVITY
 SPR .MV     07 010 01 00:   SPONTANEOUS POTENTIAL
 CALD.IN     45 280 60 00:   CALIPER FROM DENSITY LOG
 GRD .GAPI   45 310 01 00:   GAMMA RAY FROM DENSITY LOG
 ZCOR.G/C3   45 356 01 00:   DENSITY CORRECTION
 ZDEN.G/C3   45 350 01 00:   BULK DENSITY
 PORZ.DEC    45 890 12 00:   DENSITY POROSITY SANDSTONE
 CNC .DEC    42 890 03 00:   NEUTRON POROSITY SANDSTONE
~PARAMETER INFORMATION
#MNEM.UNIT          VALUE    DESCRIPTION
#----------   ------------   ------------------------------
 PD  .                 GL:   PERMANENT DATUM
 EPD .F              5228:   ELEVATION PERMANENT DATUM
 LMF .                 KB:   LOG MEASURED FROM
 DAPD.F                10:   FEET ABOVE PERMANENT DATUM
 DMF .                 KB:   DRILLING MEASURED FROM
 EKB .F              5238:   KELLING BUSHING
 EGL .F              5228:   GROUND LEVEL
 DATE.        20-AUG-1996:   RUN DATE
 RUN .                  1:   RUN NUMBER
 DD  .F               794:   DEPTH DRILLER
 DL  .F               794:   DEPTH LOGGER
 BLI .F               793:   BOTTOM LOG INTERVAL
 TLI .F                12:   TOP LOG INTERVAL
 CS  .IN           13.375:   CASING SIZE
 CBD .F                58:   CASING BOTTOM DRILLER
 CBL .F                59:   CASING BOTTOM LOGGER
 BS  .IN            12.25:   BIT SIZE
 BSD .F               794:   BIT SIZE AT DEPTH
 DFT .           SPUD MUD:   DRILLING FLUID TYPE
 DFD .                9.2:   DRILLING FLUID DENSITY
 DFV .                 50:   DRILLING FLUID VISCOSITY
 DFPH.                  9:   DRILLING FLUID PH
 DFL .               13.8:   DRILLING FLUID LOSS
 MSS .              CIRC.:   MUD SAMPLE SOURCE
 RMS .OHMM           1.14:   RESISTIVITY MUD SAMPLE
 MST .F                77:   MUD SAMPLE TEMPERATURE
 RMF .OHMM           0.90:   RESISTIVITY MUD FILTRATE SAMPLE
 MFST.F                77:   MUD FILTRATE SAMPLE TEMPERATURE
 RMC .OHMM            1.4:   RESISTIVITY MUD CAKE
 MCST.F                77:   MUD CAKE SAMPLE TEMPERATURE
 MFSS.               CALC:   MUD FILTRATE SAMPLE SOURCE
 MCSS.               CALC:   MUD CAKE SAMPLE SOURCE
 RMB .OHMM            .84:   RESISTIVITY MUD AT BHT
 BHT .F               104:   BOTTOM HOLE TEMPERATURE
 TCS .HRS               3:   TIME CURCULATED STOPPED
 MRT .F               104:   MAXIMUM RECORDED TEMPERATURE
 LUN .            HL-6530:   LOGGING UNIT NUMBER
 LUL .             CASPER:   LOGGING UNIT LOCATION
 ENGI.           BROWNLOW:   RECORDING ENGINEER
 WITN.      SCHULTE/HARDY:   WITNESSED BY
 CLNT.            A2DTECH:   CLIENT CODE
 ORIG.           5" PRINT:   ORIGIN OF DATA
 UWI .       490252282200:   UNIQUE WELL ID
 DICO. A2D Technologies, Inc.:   DIGITIZING COMPANY
~OTHER INFORMATION
~A   DEPT     RFOC       RILD       RILM        SPR       CALD        GRD       ZCOR       ZDEN       PORZ        CNC   
# ...
   45.5000  -999.2500  -999.2500  -999.2500  -999.2500  -999.2500    51.3329  -999.2500  -999.2500  -999.2500     0.6144
   46.0000  -999.2500  -999.2500  -999.2500  -999.2500  -999.2500    51.6379  -999.2500  -999.2500  -999.2500     0.6385
   46.5000  -999.2500  -999.2500  -999.2500  -999.2500  -999.2500    51.6408  -999.2500  -999.2500  -999.2500     0.6711
   47.0000  -999.2500  -999.2500  -999.2500  -999.2500  -999.2500    51.6437  -999.2500  -999.2500  -999.2500     0.6768
   47.5000  -999.2500  -999.2500  -999.2500  -999.2500  -999.2500    51.9486  -999.2500  -999.2500  -999.2500     0.6547
   48.0000  -999.2500  -999.2500  -999.2500  -999.2500  -999.2500    53.4628  -999.2500  -999.2500  -999.2500     0.6246
   48.5000  -999.2500  -999.2500  -999.2500  -999.2500  -999.2500    52.8615  -999.2500  -999.2500  -999.2500     0.6119
   49.0000  -999.2500  -999.2500  -999.2500  -999.2500  -999.2500    49.2390  -999.2500  -999.2500  -999.2500     0.5893
   49.5000  -999.2500  -999.2500  -999.2500  -999.2500  -999.2500    47.7313  -999.2500  -999.2500  -999.2500     0.5616
   50.0000  -999.2500  -999.2500  -999.2500  -999.2500  -999.2500    47.1299  -999.2500  -999.2500  -999.2500     0.5181
   50.5000  -999.2500  -999.2500  -999.2500  -999.2500  -999.2500    49.5504  -999.2500  -999.2500  -999.2500     0.4949
   51.0000  -999.2500  -999.2500  -999.2500  -999.2500  -999.2500    51.9702  -999.2500  -999.2500  -999.2500     0.4737
   51.5000  -999.2500  -999.2500  -999.2500  -999.2500  -999.2500    54.9942  -999.2500  -999.2500  -999.2500     0.4511
   52.0000  -999.2500  -999.2500  -999.2500  -999.2500  -999.2500    55.6014  -999.2500  -999.2500  -999.2500     0.4300
   52.5000  -999.2500  -999.2500  -999.2500  -999.2500  -999.2500    55.3021  -999.2500  -999.2500  -999.2500     0.4248
   53.0000  -999.2500  -999.2500  -999.2500  -999.2500  -999.2500    55.0029  -999.2500  -999.2500  -999.2500     0.4152
   53.5000  -999.2500  -999.2500  -999.2500  -999.2500  -999.2500    55.9128  -999.2500  -999.2500  -999.2500     0.3972
   54.0000  -999.2500  -999.2500  -999.2500  -999.2500  -999.2500    57.7284  -999.2500  -999.2500  -999.2500     0.3962
   54.5000  -999.2500  -999.2500  -999.2500  -999.2500  -999.2500    59.5439  -999.2500  -999.2500  -999.2500     0.4019
   55.0000  -999.2500  -999.2500  -999.2500  -999.2500  -999.2500    58.6405  -999.2500  -999.2500  -999.2500     0.4124
   55.5000  -999.2500  -999.2500  -999.2500  -999.2500  -999.2500    56.2272  -999.2500  -999.2500  -999.2500     0.4264
   56.0000  -999.2500  -999.2500  -999.2500  -999.2500  -999.2500    55.9272  -999.2500  -999.2500  -999.2500     0.4368
   56.5000  -999.2500  -999.2500  -999.2500  -999.2500  -999.2500    56.5350  -999.2500  -999.2500  -999.2500     0.4314
   57.0000  -999.2500  -999.2500  -999.2500  -999.2500  -999.2500    57.1421  -999.2500  -999.2500  -999.2500     0.4275
   57.5000  -999.2500  -999.2500  -999.2500  -999.2500  -999.2500    56.5408  -999.2500  -999.2500  -999.2500     0.4336
   58.0000  -999.2500  -999.2500  -999.2500  -999.2500  -999.2500    57.1486  -999.2500  -999.2500  -999.2500     0.4730
   58.5000  -999.2500  -999.2500  -999.2500  -999.2500  -999.2500    58.9642  -999.2500  -999.2500  -999.2500     0.4664
   59.0000  -999.2500  -999.2500  -999.2500  -999.2500  -999.2500    61.6861  -999.2500  -999.2500  -999.2500     0.4377
   59.5000     4.5570  -999.2500  -999.2500    14.3722    12.4280    66.2207     0.0700     2.4140     0.1273     0.4079
   60.0000     4.8206  -999.2500  -999.2500    10.1362    12.2538    76.4955     0.0609     2.4390     0.1327     0.3787
   60.5000     4.8867     2.6879     2.1461     7.8669    12.2540    79.8216     0.0595     2.4333     0.1416     0.3737
   61.0000     5.0957     3.1769     2.2165     5.7368    12.2541    78.9181     0.0611     2.4088     0.1592     0.3662
   61.5000     5.2767     4.3459     3.0371     3.9334    12.2693    81.9429     0.0974     2.3899     0.1704     0.3559
   62.0000     5.4642     6.7502     3.8494     2.7231    12.2695    83.1542     0.1414     2.3665     0.1839     0.3544
   62.5000     5.6224    11.9274     4.6792     1.5129    12.2696    81.3444     0.1874     2.3182     0.2044     0.4105
   63.0000     5.8190    10.5968     5.5446     0.6051    12.2396    79.2332     0.2293     2.2857     0.2253     0.4189
   63.5000     5.9840     5.9465     5.9314    -0.1772    12.2246    78.0276     0.2536     2.2759     0.2271     0.4159
   64.0000     6.1110     5.7036     5.7694    -0.9077    12.2096    77.1234     0.2522     2.3023     0.2135     0.4150
   64.5000     6.2408     5.7040     5.7299    -1.8154    12.2249    77.1270     0.1992     2.3371     0.1881     0.4228
   65.0000     6.3733     5.8248     6.3621    -2.7332    12.2553    77.1299     0.1978     2.3569     0.1751     0.4316
   65.5000     6.4634     5.6652     7.1633    -3.6309    12.3008    75.9250     0.1993     2.3590     0.1763     0.4352
   66.0000     6.5549     5.6619     7.6278    -4.0847    12.3311    75.0216     0.2119     2.3590     0.1763     0.4307
   66.5000     6.5557     6.2214     7.4710    -4.6899    12.3766    74.7216     0.2313     2.3726     0.1717     0.4198
   67.0000     6.4660     6.8860     7.0669    -4.9924    12.4070    75.9337     0.2268     2.3955     0.1498     0.4125
   67.5000     6.3335     7.3829     6.6849    -5.4665    12.4222    75.0302     0.1996     2.4247     0.1308     0.4091
   68.0000     6.2902     7.4062     6.3676    -5.9002    12.4375    75.0338     0.1194     2.4368     0.1280     0.4111
   68.5000     6.2041     6.7324     6.1934    -6.3540    12.4527    75.3388     0.1149     2.4338     0.1304     0.4209
   69.0000     6.1194     6.3800     6.1085    -6.6566    12.4529    75.9459     0.1104     2.4210     0.1431     0.4285
   69.5000     6.0778     6.3805     6.0248    -6.9592    12.4530    76.8551     0.0976     2.4089     0.1473     0.4508
   70.0000     6.0364     6.4704     6.0257    -7.2617    12.4532    78.0665     0.0545     2.4104     0.1437     0.4556
   70.5000     6.0374     6.5616     6.0265    -7.5643    12.4685    79.5806     0.0364     2.4195     0.1355     0.4544
   71.0000     6.0382     6.5621     6.0695    -8.0182    12.4837    80.4899     0.0380     2.4271     0.1319     0.4520
   71.5000     6.0814     6.5626     6.0703    -8.3207    12.4990    78.6800     0.0365     2.4325     0.1304     0.4523
   72.0000     6.0822     6.6088     6.1137    -8.6233    12.4991    76.5681     0.0305     2.4384     0.1283     0.4671
   72.5000     6.0830     6.6554     6.0719    -8.7746    12.5144    75.6646     0.0215     2.4414     0.1267     0.4839
   73.0000     6.0416     6.7025     6.0305    -8.7746    12.5145    74.7612     0.0200     2.4422     0.1273     0.5011
   73.5000     6.0005     6.7498     6.0315    -8.6233    12.5147    74.7648     0.0246     2.4414     0.1276     0.5065
   74.0000     6.0434     6.7974     6.0747    -8.4720    12.5148    75.3719     0.0550     2.4430     0.1264     0.5020
   74.5000     6.1289     6.7978     6.1179    -8.3207    12.5150    76.5832     0.0565     2.4445     0.1255     0.4896
   75.0000     6.2155     6.7984     6.2480    -8.0182    12.5151    75.9819     0.0505     2.4445     0.1255     0.4709
   75.5000     6.3063     6.7988     6.3365    -7.7156    12.5001    75.3812     0.0370     2.4452     0.1261     0.4564
   76.0000     6.3485     6.7993     6.3373    -7.4130    12.5154    75.6862     0.0461     2.4461     0.1240     0.4543
   76.5000     6.3053     6.7525     6.2507    -7.2617    12.5156    77.5018     0.0676     2.4483     0.1237     0.4485
   77.0000     6.2622     6.7530     6.2079    -8.0182    12.5308    78.4103     0.0795     2.4475     0.1239     0.4395
   77.5000     6.2198     6.7535     6.2960    -8.9259    12.5461    76.9033     0.0932     2.4445     0.1251     0.4268
   78.0000     6.1349     6.8012     6.3882    -9.2284    12.5462    76.3020     0.1175     2.4384     0.1291     0.4199
   78.5000     6.1357     6.8491     6.5667    -9.3797    12.5464    76.6077     0.1463     2.4204     0.1357     0.4180
