~VERSION INFORMATION
 VERS.                2.0:   CWLS LOG ASCII STANDARD - VERSION 2.0
 WRAP.                 NO:   ONE LINE PER DEPTH STEP
~WELL INFORMATION
#MNEM.UNIT      DATA TYPE    INFORMATION
#----------   ------------   ------------------------------
 STRT.F            0.0000:   START DEPTH
 STOP.F         4113.0000:   STOP DEPTH
 STEP.F            0.5000:   STEP LENGTH
 NULL.          -999.2500:   NO VALUE
 COMP. LAWRENCE/ALLISON INC:   COMPANY
 WELL.  NPR # #3 76 -MX-3:   WELL
 FLD .             TEAPOT:   FIELD
 LOC .       S3 T38N R78W:   LOCATION
 CNTY.            NATRONA:   COUNTY
 STAT.            WYOMING:   STATE
 CTRY. UNITED STATES OF AMERICA:   COUNTRY
 SRVC.      Dresser Atlas:   SERVICE COMPANY
 DATE.        04-SEP-1983:   LOGDATE
 API .       490251094300:   API NUMBER
~CURVE INFORMATION
#MNEM.UNIT       API CODE    CURVE DESCRIPTION
#----------   ------------   ------------------------------
 DEPT.F                  :   
 GRR .GAPI   07 310 01 00:   GAMMA RAY
 SPR .MV     07 010 01 00:   SPONTANEOUS POTENTIAL
 RILD.OHMM   07 120 46 00:   INDUCTION LOG DEEP RESISTIVITY
 RILM.OHMM   07 120 44 00:   INDUCTION LOG MEDIUM RESISTIVITY
 RFOC.OHMM   07 220 04 00:   RESISTIVITY FOCUSED LOG
 CNCF.DEC    42 890 03 00:   NEUTRON POROSITY SANDSTONE
 PORD.DEC    45 890 12 00:   POROSITY DENSITY SANDSTONE
 CALD.IN     45 280 60 00:   CALIPER FROM DENSITY LOG
 CORR.G/C3   45 356 01 00:   DENSITY CORRECTION
 DEN .G/C3   45 350 01 00:   COMPENSATED BULK DENSTIY
 AC  .US/F   60 520 00 00:   ACCOUSTIC
~PARAMETER INFORMATION
#MNEM.UNIT          VALUE    DESCRIPTION
#----------   ------------   ------------------------------
 PD  .                 GL:   PERMANENT DATUM
 EPD .F              5147:   ELEVATION PERMANENT DATUM
 LMF .                 KB:   LOG MEASURED FROM
 DAPD.F                10:   FEET ABOVE PERMANENT DATUM
 DMF .                 KB:   DRILLING MEASURED FROM
 EKB .F              5157:   KELLING BUSHING
 EGL .F              5147:   GROUND LEVEL
 DATE.        04-SEP-1983:   RUN DATE
 RUN .                  1:   RUN NUMBER
 DD  .F              4119:   DEPTH DRILLER
 DL  .F              4115:   DEPTH LOGGER
 BLI .F              4112:   BOTTOM LOG INTERVAL
 CS  .IN            9.625:   CASING SIZE
 CBD .F               491:   CASING BOTTOM DRILLER
 CBL .F               494:   CASING BOTTOM LOGGER
 BS  .IN             8.75:   BIT SIZE
 BSD .F              4119:   BIT SIZE AT DEPTH
 DFT .            KCL GEL:   DRILLING FLUID TYPE
 DFD .                8.9:   DRILLING FLUID DENSITY
 DFV .                 46:   DRILLING FLUID VISCOSITY
 DFPH.                9.0:   DRILLING FLUID PH
 DFL .               13.6:   DRILLING FLUID LOSS
 MSS .           MUD TANK:   MUD SAMPLE SOURCE
 RMS .OHMM           .315:   RESISTIVITY MUD SAMPLE
 MST .F                92:   MUD SAMPLE TEMPERATURE
 RMF .OHMM            .25:   RESISTIVITY MUD FILTRATE SAMPLE
 MFST.F                84:   MUD FILTRATE SAMPLE TEMPERATURE
 RMC .OHMM             .4:   RESISTIVITY MUD CAKE
 MCST.F                92:   MUD CAKE SAMPLE TEMPERATURE
 MFSS.               MEAS:   MUD FILTRATE SAMPLE SOURCE
 MCSS.               CALC:   MUD CAKE SAMPLE SOURCE
 RMB .OHMM            .22:   RESISTIVITY MUD AT BHT
 BHT .F               132:   BOTTOM HOLE TEMPERATURE
 TCS .HRS               4:   TIME CURCULATED STOPPED
 MRT .F               132:   MAXIMUM RECORDED TEMPERATURE
 LUN .               6274:   LOGGING UNIT NUMBER
 LUL .              GLTE.:   LOGGING UNIT LOCATION
 ENGI.             RAUTIO:   RECORDING ENGINEER
 WITN.             STRONG:   WITNESSED BY
 CLNT.            A2DTECH:   CLIENT CODE
 ORIG.        2" 5" PRINT:   ORIGIN OF DATA
 UWI .       490251094300:   UNIQUE WELL ID
 DICO. A2D Technologies, Inc.:   DIGITIZING COMPANY
~OTHER INFORMATION
~A    DEPT     GRR        SPR       RILD       RILM       RFOC       CNCF       PORD       CALD       CORR        DEN         AC   
# ...
 3355.0000   182.4420   -31.0375     1.8403     1.8699     4.1739     0.3028     0.1587    10.0317     0.0011     2.3955    88.5239
 3355.5000   202.7845   -29.6424     1.7232     1.7259     2.9460     0.3134     0.1844    10.0301     0.0136     2.3353    89.6668
 3356.0000   210.2768   -28.4041     1.6488     1.6517     1.8717     0.3275     0.2158    10.0288     0.0973     2.2871    96.4209
 3356.5000   184.4504   -27.9455     1.6123     1.6391     1.6000     0.3243     0.2393    10.0275     0.2057     2.2517   103.1184
 3357.0000   162.1462   -29.3757     1.6465     1.7864     1.6566     0.3051     0.2492    10.0243     0.1831     2.2374   107.7075
 3357.5000   136.8751   -30.9586     1.7307     2.0188     2.4206     0.2964     0.2259    10.0096     0.0686     2.2652   107.5526
 3358.0000   126.9959   -32.0714     1.8457     2.2981     3.9280     0.2754     0.1553     9.9932    -0.0263     2.3486   103.3429
 3358.5000   125.1734   -32.8707     2.0409     2.5598     4.1903     0.2715     0.1202     9.9769     0.0007     2.4321    94.0640
 3359.0000   127.4740   -33.3565     2.3061     2.8105     4.0675     0.2731     0.1121     9.9756     0.0248     2.4622    92.1019
 3359.5000   130.5475   -33.8423     2.6823     3.0634     4.0065     0.2686     0.1089     9.9740     0.0308     2.4668    92.5494
 3360.0000   135.4170   -34.4848     3.0308     3.2675     4.0329     0.2587     0.1066     9.9728     0.0337     2.4697    93.1475
 3360.5000   142.5959   -34.9706     3.2801     3.4851     4.0898     0.2578     0.1045     9.9715     0.0367     2.4727    93.3691
 3361.0000   148.2073   -35.4564     3.3748     3.6376     4.2064     0.2657     0.1030     9.9702     0.0460     2.4756    92.8367
 3361.5000   151.6245   -35.6288     3.4721     3.6625     4.3272     0.2781     0.1016     9.9689     0.0562     2.4786    92.2300
 3362.0000   146.5777   -36.1146     3.5689     3.7130     4.4193     0.2805     0.1013     9.9673     0.0561     2.4801    91.6233
 3362.5000   143.0983   -36.2869     3.5964     3.7378     4.4815     0.2628     0.1029     9.9660     0.0501     2.4786    91.0919
 3363.0000   143.0671   -36.4592     3.6677     3.7356     4.4779     0.2544     0.1044     9.9648     0.0455     2.4755    90.7100
 3363.5000   147.7382   -36.7883     3.6650     3.7335     4.4750     0.2545     0.1065     9.9635     0.0439     2.4717    90.7057
 3364.0000   153.6631   -36.8039     3.6624     3.7313     4.4721     0.2557     0.1078     9.9619     0.0409     2.4694    90.7014
 3364.5000   156.4533   -36.8194     3.6334     3.7287     4.4692     0.2567     0.1102     9.9759     0.0378     2.4662    90.5465
 3365.0000   157.6839   -36.8350     3.5787     3.6997     4.4664     0.2603     0.1139     9.9743     0.0257     2.4603    90.4669
 3365.5000   154.8236   -36.8506     3.5248     3.6445     4.4313     0.2615     0.1166     9.9881    -0.0014     2.4588    90.6133
 3366.0000   151.6577   -36.8662     3.4717     3.6162     4.3965     0.2628     0.1167     9.9868    -0.0075     2.4588    90.8338
 3366.5000   148.4918   -36.8818     3.4194     3.5623     4.3306     0.2637     0.1068     9.9852     0.0030     2.4670    91.2060
 3367.0000   145.3258   -36.7406     3.3437     3.5602     4.2348     0.2689     0.1062     9.9839     0.0421     2.4724    91.6535
 3367.5000   145.9216   -36.7562     3.3413     3.5582     4.1713     0.2797     0.1156     9.9826     0.0481     2.4700    92.4223
 3368.0000   152.4736   -36.6150     3.3148     3.5561     4.1087     0.2879     0.1201     9.9814     0.0270     2.4594    92.9993
 3368.5000   155.2638   -36.4734     3.3371     3.5804     4.1366     0.2762     0.1205     9.9798     0.0134     2.4496    93.2962
 3369.0000   156.1808   -36.4895     3.3583     3.6043     4.1650     0.2645     0.1181     9.9785    -0.0112     2.4533    93.3683
 3369.5000   153.3206   -36.3480     3.3808     3.6284     4.2519     0.2652     0.1144     9.9772    -0.0259     2.4603    93.2876
 3370.0000   151.4086   -36.3639     3.4276     3.6791     4.3151     0.2805     0.1095     9.9759    -0.0169     2.4661    92.7552
 3370.5000   151.0640   -36.5362     3.4750     3.7300     4.4028     0.2836     0.1101     9.9743    -0.0004     2.4668    92.2238
 3371.0000   150.7193   -36.5518     3.5480     3.7554     4.3992     0.2764     0.1108     9.9730     0.0162     2.4675    91.7677
 3371.5000   149.7478   -36.5674     3.6232     3.8080     4.3964     0.2674     0.1111     9.9718     0.0403     2.4667    91.3116
 3372.0000   152.2245   -36.5830     3.6476     3.8328     4.3936     0.2669     0.1109     9.9705     0.0462     2.4667    91.2319
 3372.5000   152.5078   -36.2851     3.6708     3.8306     4.3907     0.2702     0.1109     9.9842     0.0085     2.4667    91.2266
 3373.0000   152.1622   -35.9872     3.6681     3.8284     4.3879     0.2702     0.1112     9.9826     0.0009     2.4674    91.1470
 3373.5000   149.3097   -35.8460     3.6655     3.8262     4.3851     0.2694     0.1110     9.9967     0.0099     2.4681    91.2191
 3374.0000   145.5168   -35.8621     3.6629     3.7965     4.3822     0.2685     0.1098     9.9951     0.0280     2.4688    91.2138
 3374.5000   143.9183   -35.8777     3.6602     3.7943     4.3794     0.2682     0.1075     9.9938     0.0499     2.4713    91.2848
 3375.0000   146.0815   -35.8934     3.6313     3.7648     4.3450     0.2674     0.1042     9.9922     0.0670     2.4770    91.5064
 3375.5000   152.0149   -35.9091     3.6025     3.7087     4.3422     0.2602     0.1055     9.9909     0.0549     2.4755    91.5774
 3376.0000   152.6023   -35.7672     3.5999     3.6798     4.2771     0.2600     0.1088     9.9896     0.0353     2.4725    91.7979
 3376.5000   152.2571   -35.4732     3.5688     3.6249     4.2435     0.2606     0.1121    10.0037     0.0127     2.4687    91.8689
 3377.0000   153.2328   -35.4888     3.5431     3.5967     4.2408     0.2709     0.1110    10.0021    -0.0012     2.4679    92.0906
 3377.5000   155.7266   -35.3437     3.5150     3.5947     4.1772     0.2802     0.1104     9.9855    -0.0115     2.4649    92.0852
 3378.0000   157.8556   -35.0458     3.4867     3.5926     4.1444     0.2824     0.1141     9.9842    -0.0266     2.4596    91.7797
 3378.5000   158.0892   -34.9047     3.4842     3.5905     4.1119     0.2764     0.1186     9.9829    -0.0402     2.4528    91.0977
 3379.0000   149.2729   -34.6107     3.4817     3.6145     4.1092     0.2710     0.1214     9.9816    -0.0267     2.4505    90.4098
 3379.5000   146.7339   -34.3089     3.4792     3.6387     4.1065     0.2689     0.1205     9.9800    -0.0101     2.4537    89.8079
 3380.0000   145.4488   -34.1677     3.4767     3.6630     4.1039     0.2690     0.1178     9.9788     0.0123     2.4640    89.5777
 3380.5000   144.1638   -34.1872     3.4492     3.6608     4.1311     0.2693     0.1152     9.9775     0.0198     2.4707    89.7241
 3381.0000   142.8787   -34.2028     3.4219     3.6853     4.1886     0.2685     0.1089     9.9762     0.0107     2.4737    89.9458
 3381.5000   142.2206   -34.3751     3.3948     3.6827     4.2469     0.2577     0.1080     9.9749    -0.0074     2.4744    89.7826
 3382.0000   146.2647   -34.7042     3.3924     3.7078     4.2749     0.2550     0.1084     9.9733    -0.0059     2.4736    89.5595
 3382.5000   152.1897   -35.0332     3.3899     3.6784     4.2413     0.2581     0.1084     9.9720     0.0043     2.4751    89.4046
 3383.0000   157.8012   -35.0488     3.3875     3.6763     4.2080     0.2650     0.1046     9.9707     0.0362     2.4758    89.5520
 3383.5000   158.0913   -35.0644     3.3851     3.6478     4.2053     0.2690     0.1043     9.9695     0.0391     2.4735    89.9231
 3384.0000   156.4850   -35.0800     3.3826     3.5674     4.2025     0.2717     0.1059     9.9528     0.0240     2.4712    90.4449
 3384.5000   158.0212   -35.0956     3.3559     3.5397     4.1993     0.2772     0.1083     9.9669     0.0119     2.4727    90.9677
 3385.0000   161.7519   -34.9505     3.3293     3.4869     4.1966     0.2814     0.1084     9.9653     0.0058     2.4749    91.4905
