~VERSION INFORMATION
 VERS.                2.0:   CWLS LOG ASCII STANDARD - VERSION 2.0
 WRAP.                 NO:   ONE LINE PER DEPTH STEP
~WELL INFORMATION
#MNEM.UNIT      DATA TYPE    INFORMATION
#----------   ------------   ------------------------------
 STRT.F           22.0000:   START DEPTH
 STOP.F          533.0000:   STOP DEPTH
 STEP.F            0.5000:   STEP LENGTH
 NULL.          -999.2500:   NO VALUE
 COMP. FENIX & SCISSON INC:   COMPANY
 WELL.        NPR 3 #32-3:   WELL
 FLD .        TEAPOT DOME:   FIELD
 LOC .       S3 T38N R78W:   LOCATION
 CNTY.            NATRONA:   COUNTY
 STAT.            WYOMING:   STATE
 CTRY. UNITED STATES OF AMERICA:   COUNTRY
 SRVC.            Unknown:   SERVICE COMPANY
 DATE.        19-JUL-1978:   LOGDATE
 API .       490251067200:   API NUMBER
~CURVE INFORMATION
#MNEM.UNIT       API CODE    CURVE DESCRIPTION
#----------   ------------   ------------------------------
 DEPT.F                  :   
 SPR .MV     05 010 01 00:   SPONTANEOUS POTENTIAL FROM RES.
 SN  .OHMM   05 040 16 00:   SHORT NORMAL 16"
 IL  .OHMM   05 120 00 00:   INDUCTION LOG
 RHOB.G/C3   45 350 01 00:   BULK DENSITY
 DPHI.DEC    45 890 12 00:   DENSITY POROSITY SANDSTONE
 CORR.G/C3   45 356 01 00:   DENSITY CORRECTION
 CALD.IN     45 280 60 00:   CALIPER
 GRD .GAPI   45 310 01 00:   GAMMA RAY FROM DENSITY LOG
~PARAMETER INFORMATION
#MNEM.UNIT          VALUE    DESCRIPTION
#----------   ------------   ------------------------------
 PD  .                 GL:   PERMANENT DATUM
 EPD .F              5179:   ELEVATION PERMANENT DATUM
 LMF .                 KB:   LOG MEASURED FROM
 DAPD.F                 4:   FEET ABOVE PERMANENT DATUM
 DMF .                 KB:   DRILLING MEASURED FROM
 EKB .F              5183:   KELLING BUSHING
 EGL .F              5179:   GROUND LEVEL
 DATE.            7-19-78:   RUN DATE
 RUN .                  1:   RUN NUMBER
 DD  .F               520:   DEPTH DRILLER
 DL  .F               533:   DEPTH LOGGER
 BLI .F               527:   BOTTOM LOG INTERVAL
 TLI .F                50:   TOP LOG INTERVAL
 CS  .IN            8.625:   CASING SIZE
 CBD .F                40:   CASING BOTTOM DRILLER
 BS  .IN            7.875:   BIT SIZE
 BSD .F               520:   BIT SIZE AT DEPTH
 DFT .                KCL:   DRILLING FLUID TYPE
 DFD .                8.7:   DRILLING FLUID DENSITY
 DFV .                 33:   DRILLING FLUID VISCOSITY
 DFPH.                  9:   DRILLING FLUID PH
 DFL .               12.4:   DRILLING FLUID LOSS
 MSS .          FLOW LINE:   MUD SAMPLE SOURCE
 RMS .OHMM            .28:   RESISTIVITY MUD SAMPLE
 MST .F                70:   MUD SAMPLE TEMPERATURE
 RMF .OHMM            .24:   RESISTIVITY MUD FILTRATE SAMPLE
 MFST.F                76:   MUD FILTRATE SAMPLE TEMPERATURE
 RMC .OHMM             .5:   RESISTIVITY MUD CAKE
 MCST.F                78:   MUD CAKE SAMPLE TEMPERATURE
 MFSS.               MEAS:   MUD FILTRATE SAMPLE SOURCE
 MCSS.               MEAS:   MUD CAKE SAMPLE SOURCE
 TCS .HRS               2:   TIME CURCULATED STOPPED
 LUN .               2958:   LOGGING UNIT NUMBER
 LUL .               CASP:   LOGGING UNIT LOCATION
 ENGI.             MILLER:   RECORDING ENGINEER
 WITN.           MCGINLEY:   WITNESSED BY
 CLNT.            A2DTECH:   CLIENT CODE
 ORIG.           5" PRINT:   ORIGIN OF DATA
 UWI .       490251067200:   UNIQUE WELL ID
 DICO. A2D Technologies, Inc.:   DIGITIZING COMPANY
~OTHER INFORMATION
~A   DEPT      SPR         SN         IL       RHOB       DPHI       CORR       CALD         GRD  
# ...
   62.5000   -26.5664     7.5017     7.2607     2.5104     0.1216     0.0280     7.9266    70.5642
   63.0000   -26.3534     7.3421     7.2989     2.5158     0.1296     0.0295     7.9266    67.1838
   63.5000   -26.2369     7.1798     7.3372     2.4809     0.1441     0.0320     7.9266    69.5089
   64.0000   -26.2379     6.9839     7.3654     2.4541     0.1586     0.0344     7.9266    74.1195
   64.5000   -26.2376     6.7934     7.1799     2.4265     0.1547     0.0340     7.9266    78.6962
   65.0000   -26.2351     6.6081     7.0103     2.4249     0.1537     0.0315     7.9266    78.6422
   65.5000   -26.1062     6.4278     6.8447     2.4315     0.1554     0.0298     7.9266    77.5176
   66.0000   -25.8349     6.2525     6.6831     2.4334     0.1677     0.0318     7.9266    77.3323
   66.5000   -25.6489     6.0819     6.5252     2.4165     0.1702     0.0337     7.9265    80.0130
   67.0000   -25.6894     5.9160     6.2716     2.4010     0.1701     0.0351     7.9338    81.5323
   67.5000   -25.7251     5.7673     6.1692     2.4029     0.1686     0.0259     7.9482    80.2165
   68.0000   -25.7608     5.6504     6.0684     2.4071     0.1629     0.0167     7.9686    78.1054
   68.5000   -25.7964     5.5867     6.0095     2.4139     0.1775     0.0117     8.4339    77.5865
   69.0000   -25.8320     5.5610     5.9882     2.3929     0.1712     0.0175     8.7922    79.3717
   69.5000   -25.8675     5.5439     5.9670     2.3986     0.1679     0.0243     7.9269    81.3379
   70.0000   -25.9031     5.5439     5.9459     2.4067     0.1607     0.0311     7.9238    83.3081
   70.5000   -25.9387     5.5439     5.9249     2.4150     0.1574     0.0378     7.9260    83.4073
   71.0000   -25.9744     5.5440     5.9112     2.4233     0.1524     0.0442     7.9266    83.3956
   71.5000   -26.0103     5.5616     5.9188     2.4302     0.1560     0.0480     7.9266    83.4374
   72.0000   -26.0392     5.5938     5.9269     2.4253     0.1611     0.0467     7.9266    83.7072
   72.5000   -25.9800     5.6261     5.9349     2.4216     0.1526     0.0421     7.9266    83.9730
   73.0000   -25.9174     5.6586     5.9430     2.4347     0.1511     0.0382     7.9266    84.2323
   73.5000   -25.8551     5.6912     5.9510     2.4354     0.1527     0.0354     7.9267    84.1085
   74.0000   -25.7928     5.7243     5.9591     2.4336     0.1492     0.0326     7.9271    83.4769
   74.5000   -25.7306     5.7786     5.9656     2.4461     0.1501     0.0297     7.9104    82.8423
   75.0000   -25.6683     5.9293     6.1191     2.4486     0.1512     0.0320     7.8917    82.0292
   75.5000   -25.6061     6.0830     6.3079     2.4358     0.1539     0.0348     7.8730    80.5811
   76.0000   -25.5438     6.2409     6.6306     2.4267     0.1551     0.0375     7.8544    79.9586
   76.5000   -25.4816     6.4028     6.9677     2.4308     0.1530     0.0370     7.8356    82.6960
   77.0000   -25.4193     6.5689     7.2105     2.4359     0.1495     0.0294     7.8288    85.0591
   77.5000   -25.3570     6.7393     7.3917     2.4410     0.1431     0.0220     7.8325    84.2227
   78.0000   -25.2948     6.9141     7.5708     2.4442     0.1465     0.0144     7.8363    83.8195
   78.5000   -25.2325     7.0935     7.6204     2.4386     0.1507     0.0121     7.8401    84.5442
   79.0000   -25.1706     7.2359     7.6779     2.4330     0.1519     0.0129     7.8440    85.3191
   79.5000   -25.1096     7.2532     7.7541     2.4309     0.1495     0.0138     7.8478    86.1120
   80.0000   -25.0394     7.2705     7.8495     2.4382     0.1428     0.0147     7.8516    86.5097
   80.5000   -24.7873     7.2879     7.9463     2.4465     0.1473     0.0154     7.8554    85.5493
   81.0000   -24.5333     7.3053     8.0351     2.4503     0.1468     0.0147     7.8592    84.3671
   81.5000   -24.4836     7.3227     8.1115     2.4304     0.1516     0.0140     7.8629    83.1723
   82.0000   -24.5217     7.3402     8.1893     2.4272     0.1518     0.0132     7.8670    82.6147
   82.5000   -24.5619     7.3577     8.2678     2.4281     0.1523     0.0125     7.8810    82.6476
   83.0000   -24.6021     7.3753     8.3470     2.4291     0.1551     0.0118     7.8961    82.6917
   83.5000   -24.6489     7.3929     8.4270     2.4249     0.1579     0.0178     7.9109    82.7352
   84.0000   -24.4188     7.4105     8.4508     2.4194     0.1607     0.0287     7.9289    82.7864
   84.5000   -24.1271     7.4282     8.4508     2.4204     0.1504     0.0344     8.0146    82.1900
   85.0000   -23.8615     7.4981     8.4508     2.4290     0.1535     0.0316     8.0669    81.1949
   85.5000   -23.5987     7.5896     8.4509     2.4323     0.1541     0.0315     7.9577    80.4122
   86.0000   -23.3263     7.6822     8.4508     2.4325     0.1520     0.0420     8.0901    80.1051
   86.5000   -23.3182     7.7760     8.5136     2.4314     0.1527     0.0522     8.0470    80.0712
   87.0000   -23.3855     7.8709     8.6321     2.4300     0.1479     0.0584     8.0653    81.1901
   87.5000   -23.4550     7.9669     8.7955     2.4396     0.1395     0.0476     9.2095    82.3259
   88.0000   -23.5230     8.0639     9.2619     2.4518     0.1299     0.0311     8.2392    82.8124
   88.5000   -23.5885     8.1483     9.2494     2.4642     0.1215     0.0175     7.8334    83.3369
   89.0000   -23.6774     8.1517     9.2270     2.4768     0.1238     0.0099     7.8242    84.3261
   89.5000   -24.4020     8.1561     9.2046     2.4792     0.1237     0.0053     7.8289    84.8150
   90.0000   -25.1665     8.1605     9.1774     2.4770     0.1279     0.0018     7.8315    83.5809
   90.5000   -25.7597     8.1649     9.3177     2.4584     0.1377     0.0042     7.8333    82.3319
   91.0000   -26.0487     8.1692     9.5003     2.4558     0.1366     0.0065     7.8351    81.0826
   91.5000   -26.3440     8.1736     9.6865     2.4561     0.1401     0.0088     7.8368    81.0442
   92.0000   -26.6254     8.1780     9.8745     2.4512     0.1476     0.0111     7.8386    83.2007
   92.5000   -26.6355     8.1824     9.6603     2.4435     0.1445     0.0134     7.8404    83.9376
   93.0000   -26.6340     8.1868     9.4476     2.4411     0.1459     0.0158     7.8421    82.9229
   93.5000   -26.6337     8.1912     9.2405     2.4411     0.1471     0.0181     7.8440    82.5980
   94.0000   -26.6337     8.1956     9.0383     2.4422     0.1457     0.0204     7.8456    83.2079
   94.5000   -26.6337     8.2000     8.8471     2.4446     0.1440     0.0212     7.8425    83.6828
   95.0000   -26.6337     8.2044     8.6072     2.4470     0.1424     0.0207     7.8137    83.2872
   95.5000   -26.6337     8.2087     8.6357     2.4496     0.1363     0.0202     7.9357    82.9122
   96.0000   -26.6337     8.2133     8.6632     2.4603     0.1296     0.0197     7.7059    82.6810
   96.5000   -26.6337     8.2183     8.6908     2.4672     0.1368     0.0192     7.6930    83.2704
   97.0000   -26.6337     8.2220     8.7184     2.4622     0.1311     0.0187     7.6751    83.8450
   97.5000   -26.6337     8.1275     8.7462     2.4646     0.1264     0.0182     7.6584    84.1581
   98.0000   -26.6337     8.0389     8.7664     2.4699     0.1303     0.0177     7.6490    84.0710
   98.5000   -26.6337     7.9517     8.6484     2.4698     0.1312     0.0158     7.6280    83.9634
   99.0000   -26.6336     7.8656     8.5568     2.4690     0.1288     0.0132     7.5962    85.3297
   99.5000   -26.6335     7.7804     8.4663     2.4706     0.1316     0.0105     7.5641    86.7425
  100.0000   -26.6339     7.6960     8.3772     2.4706     0.1371     0.0079     7.5325    87.1881
  100.5000   -26.6583     7.6126     8.2909     2.4616     0.1423     0.0053     7.5095    87.8674
  101.0000   -26.7446     7.5301     8.2395     2.4529     0.1446     0.0046     7.5121    88.8729
  101.5000   -26.8298     7.4485     8.1870     2.4440     0.1470     0.0082     7.5160    89.8789
  102.0000   -26.9151     7.3682     8.1351     2.4409     0.1418     0.0117     7.5200    90.8749
  102.5000   -27.0003     7.2941     8.0836     2.4441     0.1385     0.0152     7.5240    91.5416
