~VERSION INFORMATION
 VERS.                2.0:   CWLS LOG ASCII STANDARD - VERSION 2.0
 WRAP.                 NO:   ONE LINE PER DEPTH STEP
~WELL INFORMATION
#MNEM.UNIT      DATA TYPE    INFORMATION
#----------   ------------   ------------------------------
 STRT.F           32.0000:   START DEPTH
 STOP.F         1006.0000:   STOP DEPTH
 STEP.F            0.5000:   STEP LENGTH
 NULL.          -999.2500:   NO VALUE
 COMP. FENIX & SCISSON INC:   COMPANY
 WELL.        NPR-3 #54-2:   WELL
 FLD .             TEAPOT:   FIELD
 LOC .       S2 T38N R78W:   LOCATION
 CNTY.            NATRONA:   COUNTY
 STAT.            WYOMING:   STATE
 CTRY. UNITED STATES OF AMERICA:   COUNTRY
 SRVC.              Welex:   SERVICE COMPANY
 DATE.        08-SEP-1977:   LOGDATE
 API .       490251041600:   API NUMBER
~CURVE INFORMATION
#MNEM.UNIT       API CODE    CURVE DESCRIPTION
#----------   ------------   ------------------------------
 DEPT.F                  :   
 CALD.IN     45 280 60 00:   CALIPER FROM DENSITY LOG
 GRD .GAPI   45 310 01 00:   GAMMA RAY FROM DENSITY LOG
 CORR.G/C3   45 356 01 00:   DENSITY CORRECTION
 DPHI.DEC    45 890 12 00:   DENSITY POROSITY SANDSTONE
 RHOB.G/C3   45 350 01 00:   BULK DENSITY
 SPR .MV     07 010 01 00:   SPONTANEOUS POTENTIAL
 ILD .OHMM   07 120 46 00:   INDUCTION LOG DEEP
 ILM .OHMM   07 120 44 00:   INDUCTION LOG MEDIUM
 SGRD.OHMM   07 221 05 00:   SHALLOW SHORT GUARD RESISTIVITY
~PARAMETER INFORMATION
#MNEM.UNIT          VALUE    DESCRIPTION
#----------   ------------   ------------------------------
 PD  .                 GL:   PERMANENT DATUM
 EPD .F              5160:   ELEVATION PERMANENT DATUM
 LMF .                 KB:   LOG MEASURED FROM
 DAPD.F                10:   FEET ABOVE PERMANENT DATUM
 DMF .                 KB:   DRILLING MEASURED FROM
 EKB .F              5170:   KELLING BUSHING
 EGL .F              5160:   GROUND LEVEL
 DATE.        08-SEP-1977:   RUN DATE
 RUN .                  1:   RUN NUMBER
 DD  .F              1000:   DEPTH DRILLER
 DL  .F              1008:   DEPTH LOGGER
 BLI .F              1006:   BOTTOM LOG INTERVAL
 TLI .F                47:   TOP LOG INTERVAL
 CS  .IN            8.625:   CASING SIZE
 BS  .IN             6.75:   BIT SIZE
 BSD .F              1000:   BIT SIZE AT DEPTH
 DFT .            KCL MUD:   DRILLING FLUID TYPE
 DFD .                9.1:   DRILLING FLUID DENSITY
 BHT .F               100:   BOTTOM HOLE TEMPERATURE
 TCS .HRS            0230:   TIME CURCULATED STOPPED
 MRT .F               100:   MAXIMUM RECORDED TEMPERATURE
 ENGI.          D. LAWSON:   RECORDING ENGINEER
 WITN.         HARRINGTON:   WITNESSED BY
 CLNT.            A2DTECH:   CLIENT CODE
 ORIG.           5" PRINT:   ORIGIN OF DATA
 UWI .       490251041600:   UNIQUE WELL ID
 DICO. A2D Technologies, Inc.:   DIGITIZING COMPANY
~OTHER INFORMATION
~A   DEPT     CALD         GRD       CORR      DPHI         RHOB      SPR        ILD        ILM       SGRD   
# ...
  652.5000     6.8042    71.4334     0.0104     0.1166     2.4605   -42.2205     7.7712    10.1488    11.7749
  653.0000     6.8063    74.3073     0.0090     0.1205     2.4486   -42.3537     7.7555    10.3681    12.5530
  653.5000     6.8084    76.1515     0.0091     0.1282     2.4300   -42.3334     7.7618    10.5191    12.8126
  654.0000     6.8105    73.9730     0.0092     0.1272     2.4391   -42.3171     7.8210    10.4530    12.4711
  654.5000     6.8126    72.1395     0.0078     0.1239     2.4481   -42.3008     7.8807     9.9649    14.5358
  655.0000     6.8147    72.7853     0.0064     0.1275     2.4460   -42.1351     7.9960     9.4995    11.9819
  655.5000     6.8168    75.4523     0.0036     0.1331     2.4251   -42.1188     8.0570     9.1821    11.4208
  656.0000     6.8189    81.4927     0.0037     0.1327     2.4155   -41.9530     8.1185     9.1230    12.5073
  656.5000     6.8210    79.0872     0.0023     0.1237     2.4373   -41.9368     7.9572     9.0046    13.2288
  657.0000     6.8231    73.6200     0.0024     0.1261     2.4486   -41.9205     7.7977     8.8863    13.3298
  657.5000     6.8402    78.7795     0.0010     0.1320     2.4300   -41.9042     7.6958     8.7682    11.9398
  658.0000     6.8423    82.9498     0.0012     0.1397     2.4257   -41.8879     7.4921     8.4181    11.1467
  658.5000     6.8444    83.7178     0.0013     0.1456     2.4250   -42.0252     7.2925     8.0250    12.2919
  659.0000     6.8615    80.0062     0.0014     0.1444     2.4251   -42.1584     7.0983     7.7033    13.3662
  659.5000     6.8636    75.9973     0.0015     0.1408     2.4267   -42.4370     6.9092     7.4460    11.8898
  660.0000     6.8657    77.8181     0.0017     0.1356     2.4321   -42.5743     6.7719     7.1972    10.4311
  660.5000     6.8678    78.1110     0.0033     0.1308     2.4389   -42.5539     6.6834     7.0536    10.0131
  661.0000     6.8849    78.1711     0.0079     0.1227     2.4488   -42.5376     6.5506     6.9609     9.2269
  661.5000     6.8870    79.3940     0.0125     0.1173     2.4579   -42.5213     6.5067     6.9172     8.2596
  662.0000     6.8891    81.3642     0.0157     0.1187     2.4617   -42.3556     6.5144     7.0180    11.0080
  662.5000     6.9062    82.1386     0.0158     0.1231     2.4446   -42.3393     6.5642     7.1202    11.2191
  663.0000     6.9083    82.6141     0.0159     0.1255     2.4379   -42.1734     6.7075     7.2367    10.6217
  663.5000     6.9104    84.5844     0.0160     0.1245     2.4410   -42.1570     6.8056     7.4313     9.7139
  664.0000     6.9125    86.0994     0.0162     0.1218     2.4501   -42.1405     6.8575     7.5929    10.4175
  664.5000     6.9291    81.9479     0.0178     0.1179     2.4585   -42.1247     6.9579     7.7034    11.3279
  665.0000     6.9462    81.2207     0.0179     0.1157     2.4631   -42.2579     7.0110     7.7617    11.4918
  665.5000     6.9483    82.5998     0.0195     0.1145     2.4677   -42.0881     7.0158     7.7665    11.1873
  666.0000     6.9504    83.9722     0.0227     0.1136     2.4700   -42.0718     7.0206     7.7713    10.9648
  666.5000     6.9525    83.5508     0.0258     0.1132     2.4716   -42.0555     7.0741     7.7761    10.7467
  667.0000     6.9546    81.0367     0.0274     0.1132     2.4725   -42.0392     7.0790     7.7809    10.1744
  667.5000     6.9567    79.8612     0.0305     0.1128     2.4726   -42.0230     7.0838     7.7857    10.4673
  668.0000     6.9588    81.3898     0.0337     0.1137     2.4697   -41.8572     7.0887     7.7905    11.3821
  668.5000     6.9609    83.0610     0.0383     0.1145     2.4638   -41.9945     7.0935     7.7953    10.5530
  669.0000     6.9630    84.7323     0.0399     0.1166     2.4579   -41.9741     7.0984     7.8542    10.9451
  669.5000     6.9497    87.4500     0.0385     0.1189     2.4550   -41.9579     7.1526     7.8591    11.5068
  670.0000     6.9523    89.4134     0.0371     0.1159     2.4626   -42.0951     7.1575     7.8085    12.3186
  670.5000     6.9395    85.4114     0.0358     0.1113     2.4725   -42.3737     7.1624     7.7071    12.6711
  671.0000     6.9261    84.0863     0.0344     0.1077     2.4846   -42.5110     7.2170     7.8193    12.0818
  671.5000     6.9133    86.2128     0.0315     0.1056     2.4899   -42.6442     7.2223     8.1558    11.2811
  672.0000     6.9010    83.3998     0.0271     0.1079     2.4840   -42.6238     7.2772     8.3899    11.2090
  672.5000     6.8876    84.9216     0.0197     0.1111     2.4766   -42.7611     7.2822     8.5120    11.5337
  673.0000     6.8748    87.3403     0.0153     0.1156     2.4693   -42.5913     7.2368     8.6360    11.3828
  673.5000     6.8774    89.7590     0.0139     0.1200     2.4596   -42.5750     7.2933     8.7014    11.0029
  674.0000     6.8795    92.3271     0.0125     0.1262     2.4440   -42.4092     7.2983     8.6466    10.1324
  674.5000     6.8667    90.4109     0.0112     0.1304     2.4231   -42.3930     7.3033     8.5923    11.2492
  675.0000     6.8688    80.4230     0.0113     0.1372     2.4060   -42.3767     7.3083     8.4115    10.8738
  675.5000     6.8709    76.8626     0.0114     0.1383     2.4069   -42.2108     7.3133     8.1974     9.8076
  676.0000     6.8730    80.0287     0.0115     0.1359     2.4107   -42.1943     7.3691     7.9785    10.4455
  676.5000     6.8752    83.4937     0.0116     0.1311     2.4191   -42.1779     7.3741     7.8194    11.4391
  677.0000     6.8767    85.6134     0.0118     0.1337     2.4251   -42.1621     7.3792     7.7167    11.5247
  677.5000     6.8490    88.4805     0.0119     0.1328     2.4185   -42.2953     7.3842     7.6670    11.4413
  678.0000     6.8361    90.6002     0.0120     0.1264     2.4336   -42.4285     7.3371     7.7798    11.3030
  678.5000     6.8233    90.9195     0.0121     0.1213     2.4487   -42.5617     7.3433     8.0587    11.3127
  679.0000     6.8254    87.8882     0.0122     0.1192     2.4548   -42.6949     7.2474     8.3475    11.3204
  679.5000     6.8126    79.2702     0.0109     0.1212     2.4526   -42.8281     7.1526     8.5871    11.4861
  680.0000     6.8147    78.5940     0.0110     0.1239     2.4468   -42.9613     7.1070     8.7121    11.0261
  680.5000     6.8168    84.9845     0.0096     0.1259     2.4371   -43.0945     7.0638     8.8390    10.8049
  681.0000     6.8189    86.7344     0.0082     0.1321     2.4215   -43.0741     7.0688     8.9045    11.1179
  681.5000     6.8360    86.7469     0.0068     0.1360     2.4118   -43.0578     7.0248     8.7269    11.4380
  682.0000     6.8381    85.5625     0.0069     0.1296     2.4270   -43.0416     7.0297     8.6136    10.6063
  682.5000     6.8551    83.9511     0.0071     0.1311     2.4248   -43.0253     7.0345     8.5592    10.2505
  683.0000     6.8573    82.4892     0.0072     0.1361     2.4092   -43.0090     6.9870     8.5055    10.4746
  683.5000     6.8594    81.3244     0.0075     0.1382     2.4040   -43.2957     6.9414     8.4521    10.6280
  684.0000     6.8615    80.4546     0.0091     0.1336     2.4191   -43.5743     6.8013     8.3991    10.7835
  684.5000     6.8487    81.5280     0.0106     0.1270     2.4327   -43.7116     6.7202     8.3463    10.9442
  685.0000     6.8508    87.2351     0.0137     0.1243     2.4426   -43.9943     6.6335     8.1217    10.7165
  685.5000     6.8529    89.6538     0.0138     0.1269     2.4352   -44.2729     6.5006     7.7898    10.4379
  686.0000     6.8550    88.3355     0.0139     0.1308     2.4269   -44.4061     6.3285     7.5313    10.5194
  686.5000     6.8571    84.6257     0.0108     0.1346     2.4240   -44.3898     6.1600     7.3280    10.5265
  687.0000     6.8592    87.7917     0.0051     0.1399     2.4220   -44.5232     5.9959     6.8985    10.2459
  687.5000     6.8759    90.6588     0.0023     0.1473     2.4221   -44.5067     5.8767     6.5763     9.7004
  688.0000     6.8784    90.9848     0.0024     0.1446     2.4230   -44.4903     5.6416     6.3128     9.3119
  688.5000     6.8801    81.7443     0.0058     0.1332     2.4284   -44.4738     5.5285     6.1859     8.4573
