~VERSION INFORMATION
 VERS.                2.0:   CWLS LOG ASCII STANDARD - VERSION 2.0
 WRAP.                 NO:   ONE LINE PER DEPTH STEP
~WELL INFORMATION
#MNEM.UNIT      DATA TYPE    INFORMATION
#----------   ------------   ------------------------------
 STRT.F          974.5000:   START DEPTH
 STOP.F         2805.0000:   STOP DEPTH
 STEP.F            0.5000:   STEP LENGTH
 NULL.          -999.2500:   NO VALUE
 COMP.   FLUOR DANIEL INC:   COMPANY
 WELL. NAVAL PETROLEUM RESERVE 3 SHX- #38-14:   WELL
 FLD .             TEAPOT:   FIELD
 LOC .      S14 T38N R78W:   LOCATION
 CNTY.            NATRONA:   COUNTY
 STAT.            WYOMING:   STATE
 CTRY. UNITED STATES OF AMERICA:   COUNTRY
 SRVC.            Unknown:   SERVICE COMPANY
 DATE.        20-AUG-1995:   LOGDATE
 API .       490252273400:   API NUMBER
~CURVE INFORMATION
#MNEM.UNIT       API CODE    CURVE DESCRIPTION
#----------   ------------   ------------------------------
 DEPT.F                  :   
 ROP .MIN/FT 91 810 01 00:   RAT OF DRILLING PENETRATION
 TGAS.UNITS  91 830 01 00:   TOTAL GAS FROM HOTWIRE
~PARAMETER INFORMATION
#MNEM.UNIT          VALUE    DESCRIPTION
#----------   ------------   ------------------------------
 EKB .F              5264:   KELLING BUSHING
 EGL .F              5254:   GROUND LEVEL
 DATE.            8-20-95:   RUN DATE
 DD  .F              2805:   DEPTH DRILLER
 CBD .F               980:   CASING BOTTOM DRILLER
 ENGI.              TOWER:   RECORDING ENGINEER
 WITN.               HUSK:   WITNESSED BY
 CLNT.            A2DTECH:   CLIENT CODE
 ORIG.           5" PRINT:   ORIGIN OF DATA
 UWI .       490252273400:   UNIQUE WELL ID
 DICO. A2D Technologies, Inc.:   DIGITIZING COMPANY
~OTHER INFORMATION
~A   DEPT      ROP         TGAS 
# ...
 1339.0000     0.5373    12.1211
 1339.5000     0.5377    12.1345
 1340.0000     0.5054    12.1408
 1340.5000     0.5059    12.1211
 1341.0000     0.5172    12.1014
 1341.5000     0.5176    12.0816
 1342.0000     0.5180    12.0619
 1342.5000     0.5292    12.0422
 1343.0000     0.5296    12.0224
 1343.5000     0.5300    12.0027
 1344.0000     0.5414    11.9829
 1344.5000     0.5418    11.9632
 1345.0000     0.5422    11.9435
 1345.5000     0.5426    11.9237
 1346.0000     0.5430    11.9040
 1346.5000     0.5434    11.8843
 1347.0000     0.5438    11.8645
 1347.5000     0.5442    11.8448
 1348.0000     0.5120    11.8250
 1348.5000     0.4797    11.8053
 1349.0000     0.4693    11.7856
 1349.5000     0.4697    11.7658
 1350.0000     0.4701    11.7475
 1350.5000     0.4705    11.7453
 1351.0000     0.4818    11.7431
 1351.5000     0.4822    11.7410
 1352.0000     0.4826    11.7388
 1352.5000     0.4831    11.7366
 1353.0000     0.4835    11.7344
 1353.5000     0.4729    11.7322
 1354.0000     0.4843    11.7300
 1354.5000     0.5608    11.7279
 1355.0000     0.5720    11.7257
 1355.5000     0.5615    11.7235
 1356.0000     0.5728    11.7213
 1356.5000     0.5733    11.7191
 1357.0000     0.5737    11.7169
 1357.5000     0.5850    11.7147
 1358.0000     0.5854    11.7126
 1358.5000     0.5858    11.7104
 1359.0000     0.5862    11.7082
 1359.5000     0.5866    11.7060
 1360.0000     0.5870    11.7038
 1360.5000     0.5868    11.7016
 1361.0000     0.5758    11.6994
 1361.5000     0.5648    11.6973
 1362.0000     0.5538    11.6951
 1362.5000     0.5537    11.6929
 1363.0000     0.5427    11.6907
 1363.5000     0.5425    11.6885
 1364.0000     0.5424    11.6863
 1364.5000     0.5422    11.6841
 1365.0000     0.5421    11.6820
 1365.5000     0.5528    11.6798
 1366.0000     0.5527    11.6776
 1366.5000     0.5526    11.6754
 1367.0000     0.5633    11.6732
 1367.5000     0.5632    11.6710
 1368.0000     0.5522    11.6688
 1368.5000     0.5520    11.6667
 1369.0000     0.5410    11.6645
 1369.5000     0.5300    11.6623
 1370.0000     0.5190    11.6560
 1370.5000     0.5189    11.6391
 1371.0000     0.5187    11.6222
 1371.5000     0.5186    11.6052
 1372.0000     0.5185    11.5883
 1372.5000     0.5075    11.5714
 1373.0000     0.5073    11.5545
 1373.5000     0.5072    11.5375
 1374.0000     0.5071    11.5206
 1374.5000     0.5069    11.5037
 1375.0000     0.5177    11.4867
 1375.5000     0.5175    11.4698
 1376.0000     0.5283    11.4529
 1376.5000     0.5281    11.4360
 1377.0000     0.5280    11.4190
 1377.5000     0.5278    11.4021
 1378.0000     0.5386    11.3852
 1378.5000     0.5384    11.3683
 1379.0000     0.5492    11.3513
 1379.5000     0.5490    11.3344
 1380.0000     0.5489    11.3175
 1380.5000     0.5488    11.3006
 1381.0000     0.5486    11.2836
 1381.5000     0.5485    11.2667
 1382.0000     0.5375    11.2498
 1382.5000     0.5265    11.2328
 1383.0000     0.5263    11.2159
 1383.5000     0.5153    11.1990
 1384.0000     0.5261    11.1821
 1384.5000     0.5259    11.1651
 1385.0000     0.5258    11.1482
 1385.5000     0.5257    11.1313
 1386.0000     0.5255    11.1144
 1386.5000     0.5363    11.0974
 1387.0000     0.5361    11.0805
 1387.5000     0.5360    11.0636
 1388.0000     0.5359    11.0466
 1388.5000     0.5466    11.0297
 1389.0000     0.5464    11.0128
 1389.5000     0.5463    10.9959
 1390.0000     0.5462    10.9789
 1390.5000     0.5460    10.9620
 1391.0000     0.5459    10.9451
 1391.5000     0.5458    10.9282
 1392.0000     0.5456    10.9112
 1392.5000     0.5455    10.8943
 1393.0000     0.5454    10.8774
 1393.5000     0.5452    10.8604
 1394.0000     0.5451    10.8435
 1394.5000     0.5450    10.8266
 1395.0000     0.5339    10.8097
 1395.5000     0.5338    10.7927
 1396.0000     0.5337    10.7758
 1396.5000     0.5335    10.7589
 1397.0000     0.5334    10.7420
 1397.5000     0.5333    10.7250
 1398.0000     0.5331    10.7081
 1398.5000     0.5330    10.6912
 1399.0000     0.5438    10.6742
 1399.5000     0.5436    10.6573
 1400.0000     0.5435    10.6404
 1400.5000     0.5217    10.6549
 1401.0000     0.5216    10.6694
 1401.5000     0.5215    10.6839
 1402.0000     0.5215    10.6984
 1402.5000     0.5214    10.7129
 1403.0000     0.5322    10.7274
 1403.5000     0.5321    10.7419
 1404.0000     0.5103    10.7564
 1404.5000     0.4342    10.7709
 1405.0000     0.4232    10.7854
 1405.5000     0.4232    10.7999
 1406.0000     0.4231    10.8145
 1406.5000     0.4230    10.8290
 1407.0000     0.4230    10.8435
 1407.5000     0.4229    10.8580
 1408.0000     0.4337    10.8725
 1408.5000     0.4336    10.8870
 1409.0000     0.4336    10.9015
 1409.5000     0.4444    10.9160
 1410.0000     0.4334    10.9305
 1410.5000     0.4334    10.9450
 1411.0000     0.4442    10.9595
 1411.5000     0.4441    10.9740
 1412.0000     0.4440    10.9885
 1412.5000     0.4439    11.0030
 1413.0000     0.4439    11.0175
 1413.5000     0.4438    11.0320
 1414.0000     0.4437    11.0465
 1414.5000     0.4437    11.0610
 1415.0000     0.4436    11.0755
 1415.5000     0.4435    11.0901
 1416.0000     0.4435    11.1046
 1416.5000     0.4434    11.1191
 1417.0000     0.4433    11.1336
 1417.5000     0.4433    11.1481
 1418.0000     0.4432    11.1626
 1418.5000     0.4431    11.1771
 1419.0000     0.4431    11.1916
 1419.5000     0.4430    11.2061
 1420.0000     0.4429    11.2167
 1420.5000     0.4429    11.2256
 1421.0000     0.4319    11.2345
 1421.5000     0.4427    11.2434
 1422.0000     0.5188    11.2522
 1422.5000     0.5187    11.2611
 1423.0000     0.5186    11.2700
 1423.5000     0.5185    11.2788
 1424.0000     0.5293    11.2877
 1424.5000     0.5293    11.2966
 1425.0000     0.5292    11.3054
 1425.5000     0.5291    11.3143
 1426.0000     0.5291    11.3232
 1426.5000     0.5290    11.3320
 1427.0000     0.5289    11.3409
 1427.5000     0.5289    11.3498
 1428.0000     0.5397    11.3586
 1428.5000     0.5396    11.3675
 1429.0000     0.5395    11.3764
 1429.5000     0.5395    11.3852
 1430.0000     0.5394    11.3941
 1430.5000     0.5393    11.4030
 1431.0000     0.5393    11.4118
 1431.5000     0.5392    11.4207
 1432.0000     0.5391    11.4296
 1432.5000     0.5391    11.4384
 1433.0000     0.5281    11.4473
 1433.5000     0.5281    11.4562
 1434.0000     0.5280    11.4650
 1434.5000     0.5279    11.4739
 1435.0000     0.5279    11.4828
 1435.5000     0.5278    11.4916
 1436.0000     0.5277    11.5005
 1436.5000     0.5385    11.5094
 1437.0000     0.5384    11.5182
 1437.5000     0.5384    11.5271
 1438.0000     0.5383    11.5360
 1438.5000     0.5382    11.5448
 1439.0000     0.5490    11.5537
 1439.5000     0.5599    11.5626
 1440.0000     0.5598    11.5559
 1440.5000     0.5597    11.5319
 1441.0000     0.5596    11.5079
 1441.5000     0.5596    11.4839
 1442.0000     0.5595    11.4599
 1442.5000     0.5594    11.4359
 1443.0000     0.5594    11.4119
 1443.5000     0.5593    11.3879
 1444.0000     0.5592    11.3639
 1444.5000     0.5592    11.3398
 1445.0000     0.5591    11.3158
 1445.5000     0.5590    11.2918
 1446.0000     0.6894    11.2678
 1446.5000     0.6893    11.2438
 1447.0000     0.6784    11.2198
 1447.5000     0.6675    11.1958
 1448.0000     0.6674    11.1718
 1448.5000     0.6673    11.1478
 1449.0000     0.6673    11.1238
 1449.5000     0.6672    11.0997
 1450.0000     0.6562    11.0750
 1450.5000     0.6562    11.0482
 1451.0000     0.6670    11.0213
 1451.5000     0.6669    10.9944
 1452.0000     0.6668    10.9675
 1452.5000     0.6668    10.9407
 1453.0000     0.6667    10.9138
 1453.5000     0.6775    10.8869
 1454.0000     0.6774    10.8600
 1454.5000     0.6774    10.8331
 1455.0000     0.6773    10.8063
 1455.5000     0.6772    10.7794
 1456.0000     0.6772    10.7525
 1456.5000     0.6662    10.7256
 1457.0000     0.6662    10.6988
 1457.5000     0.6661    10.6719
 1458.0000     0.6660    10.6450
 1458.5000     0.5029    10.6181
 1459.0000     0.4920    10.5913
 1459.5000     0.4919    10.5644
 1460.0000     0.5027    10.5517
