~VERSION INFORMATION
 VERS.                2.0:   CWLS LOG ASCII STANDARD - VERSION 2.0
 WRAP.                 NO:   ONE LINE PER DEPTH STEP
~WELL INFORMATION
#MNEM.UNIT      DATA TYPE    INFORMATION
#----------   ------------   ------------------------------
 STRT.F           24.0000:   START DEPTH
 STOP.F          472.0000:   STOP DEPTH
 STEP.F            0.5000:   STEP LENGTH
 NULL.          -999.2500:   NO VALUE
 COMP. FENIX & SCISSON INC:   COMPANY
 WELL. 55-66 SX-3-FP #55-3:   WELL
 FLD .             WLDCAT:   FIELD
 LOC .       S3 T38N R78W:   LOCATION
 CNTY.            NATRONA:   COUNTY
 STAT.            WYOMING:   STATE
 CTRY. UNITED STATES OF AMERICA:   COUNTRY
 SRVC.              Welex:   SERVICE COMPANY
 DATE.        11-JUN-1980:   LOGDATE
 API .       490251082200:   API NUMBER
~CURVE INFORMATION
#MNEM.UNIT       API CODE    CURVE DESCRIPTION
#----------   ------------   ------------------------------
 DEPT.F                  :   
 SPR .MV     07 010 01 00:   SPONTANEOUS POTENTIAL
 GURD.OHMM   07 220 05 00:   GUARD RESISTIVITY
 ILD .OHMM   07 120 46 00:   INDUCTION LOG DEEP RESISTIVITY
 ILM .OHMM   07 120 44 00:   INDUCTION LOG MEDIUM
 DPHI.DEC    45 890 12 00:   DENSITY POROSITY SANDSTONE
 NPHI.DEC    42 890 03 00:   NEUTRON POROSITY SANDSTONE
 CORR.G/C3   45 356 01 00:   DENSITY CORRECTION
 RHOB.G/C3   45 350 01 00:   BULK DENSITY
 CALD.IN     45 280 60 00:   CALIPER
 GRD .GAPI   45 310 01 00:   GAMMA RAY FROM DENSITY LOG
~PARAMETER INFORMATION
#MNEM.UNIT          VALUE    DESCRIPTION
#----------   ------------   ------------------------------
 PD  .                 GL:   PERMANENT DATUM
 EPD .F              5169:   ELEVATION PERMANENT DATUM
 LMF .                 KB:   LOG MEASURED FROM
 DAPD.F                 5:   FEET ABOVE PERMANENT DATUM
 DMF .                 KB:   DRILLING MEASURED FROM
 EKB .F              5174:   KELLING BUSHING
 EGL .F              5169:   GROUND LEVEL
 DATE.            6-11-80:   RUN DATE
 RUN .                  1:   RUN NUMBER
 DD  .F               472:   DEPTH DRILLER
 DL  .F               472:   DEPTH LOGGER
 BLI .F               470:   BOTTOM LOG INTERVAL
 TLI .F                30:   TOP LOG INTERVAL
 BS  .IN            9.875:   BIT SIZE
 BSD .F               472:   BIT SIZE AT DEPTH
 DFT .                KCL:   DRILLING FLUID TYPE
 DFD .                9.5:   DRILLING FLUID DENSITY
 DFV .                 47:   DRILLING FLUID VISCOSITY
 DFPH.                 12:   DRILLING FLUID PH
 DFL .                7.2:   DRILLING FLUID LOSS
 MSS .           MUD TANK:   MUD SAMPLE SOURCE
 RMS .OHMM            .26:   RESISTIVITY MUD SAMPLE
 MST .F                75:   MUD SAMPLE TEMPERATURE
 RMF .OHMM            .21:   RESISTIVITY MUD FILTRATE SAMPLE
 MFST.F                75:   MUD FILTRATE SAMPLE TEMPERATURE
 RMC .OHMM            .31:   RESISTIVITY MUD CAKE
 MCST.F                75:   MUD CAKE SAMPLE TEMPERATURE
 MFSS.           MEASURED:   MUD FILTRATE SAMPLE SOURCE
 MCSS.           MEASURED:   MUD CAKE SAMPLE SOURCE
 RMB .OHMM            .26:   RESISTIVITY MUD AT BHT
 BHT .F                75:   BOTTOM HOLE TEMPERATURE
 TCS .HRS             1.5:   TIME CURCULATED STOPPED
 MRT .F                75:   MAXIMUM RECORDED TEMPERATURE
 LUN .               9685:   LOGGING UNIT NUMBER
 LUL .             CASPER:   LOGGING UNIT LOCATION
 ENGI.               REIN:   RECORDING ENGINEER
 WITN.          DINSMOORE:   WITNESSED BY
 CLNT.            A2DTECH:   CLIENT CODE
 ORIG.           5" PRINT:   ORIGIN OF DATA
 UWI .       490251082200:   UNIQUE WELL ID
 DICO. A2D Technologies, Inc.:   DIGITIZING COMPANY
~OTHER INFORMATION
~A   DEPT      SPR       GURD        ILD        ILM         DPHI       NPHI     CORR       RHOB        CALD       GRD   
# ...
  392.5000   -41.1843    15.9742    11.3532    13.3415     0.1437     0.2672     0.0495     2.3802    10.0077    79.9805
  393.0000   -41.2568    15.7129    11.2384    13.3784     0.1381     0.2708     0.0598     2.3934    10.0119    80.9804
  393.5000   -41.3328    15.5687    11.1248    13.4173     0.1328     0.2748     0.0752     2.4049    10.0160    81.7515
  394.0000   -41.4970    15.3811    11.0123    13.4649     0.1275     0.2783     0.0908     2.4163    10.0201    81.7881
  394.5000   -41.6737    15.1958    10.9009    13.3896     0.1222     0.2817     0.1000     2.4278    10.0243    81.5336
  395.0000   -41.8506    15.0127    10.7907    13.2601     0.1169     0.2793     0.1060     2.4402    10.0284    81.2842
  395.5000   -42.0273    14.8318    10.6815    13.1322     0.1112     0.2769     0.1080     2.4567    10.0325    81.0864
  396.0000   -42.2041    14.7626    10.5735    13.0057     0.1119     0.2799     0.1033     2.4673    10.0367    81.3418
  396.5000   -42.3809    15.3160    10.4666    12.8804     0.1158     0.2825     0.0965     2.4465    10.0408    81.5754
  397.0000   -42.5578    14.9155    10.3844    12.8501     0.1195     0.2803     0.0988     2.4427    10.0449    82.6212
  397.5000   -42.7294    14.3046    10.3335    12.8287     0.1276     0.2756     0.0993     2.4300    10.0491    83.9912
  398.0000   -42.8460    14.0988    10.2828    12.8075     0.1298     0.2734     0.0772     2.4189    10.0532    84.0034
  398.5000   -42.9591    14.3820    10.2323    12.7864     0.1241     0.2756     0.0745     2.4234    10.0559    83.3830
  399.0000   -43.0724    14.5799    10.1821    12.7651     0.1184     0.2790     0.0801     2.4326    10.0559    82.7062
  399.5000   -43.1857    14.7626    10.1322    12.7440     0.1152     0.2823     0.0862     2.4546    10.0559    82.0659
  400.0000   -43.2990    14.7626    10.0824    12.6617     0.1177     0.2830     0.0894     2.4539    10.0559    82.2733
  400.5000   -43.4123    14.2238    10.0330    12.5017     0.1214     0.2801     0.0718     2.4434    10.0559    82.8329
  401.0000   -43.5256    14.4747     9.9838    12.3437     0.1230     0.2820     0.0687     2.4350    10.0559    83.4737
  401.5000   -43.6390    14.9782     9.9388    12.1877     0.1239     0.2836     0.0655     2.4323    10.0559    83.8758
  402.0000   -43.7523    15.4534    10.0302    12.0335     0.1273     0.2803     0.0619     2.4314    10.0559    84.0146
  402.5000   -43.8656    14.7753    10.1350    11.8813     0.1305     0.2773     0.0466     2.4195    10.0559    84.1461
  403.0000   -43.9789    14.1584    10.2409    11.7344     0.1142     0.2778     0.0618     2.4397    10.0559    84.6932
  403.5000   -44.0922    13.8422    10.3479    11.6270     0.1063     0.2804     0.0808     2.4569    10.0559    85.4237
  404.0000   -44.2055    13.9847    10.4067    11.7668     0.1061     0.2828     0.0852     2.4654    10.0559    86.1325
  404.5000   -44.3188    14.0834    10.2042    11.8060     0.1254     0.2819     0.0567     2.4374    10.0559    86.5272
  405.0000   -44.4322    14.1829    10.0456    11.8374     0.1207     0.2817     0.0524     2.4239    10.0559    86.9073
  405.5000   -44.5454    14.2830     9.8892    11.9156     0.1120     0.2840     0.0762     2.4704    10.0559    87.3058
  406.0000   -44.6585    14.3606     9.7353    12.0093     0.1034     0.2830     0.0984     2.4755    10.0559    88.5889
  406.5000   -44.7324    14.2987     9.5836    12.1039     0.0970     0.2780     0.0987     2.4847    10.0559    89.5988
  407.0000   -44.7836    14.2485     9.4348    12.1991     0.0960     0.2730     0.0986     2.4920    10.0559    89.6143
  407.5000   -44.8339    14.1984     9.3188    12.2952     0.0952     0.2695     0.1111     2.4856    10.0559    89.6002
  408.0000   -44.8839    14.1486     9.3686    12.3918     0.0896     0.2659     0.1136     2.4848    10.0559    90.3736
  408.5000   -44.9340    14.0988     9.4181    12.4894     0.0799     0.2647     0.0966     2.5139    10.0559    91.4288
  409.0000   -44.9841    14.0275     9.4681    12.5234     0.0765     0.2679     0.1041     2.5244    10.0559    90.9427
  409.5000   -45.0342    13.9564     9.5181    12.5593     0.0841     0.2732     0.1127     2.5016    10.0559    89.8083
  410.0000   -45.0843    13.8856     9.5689    12.5952     0.0959     0.2738     0.0898     2.4789    10.0559    88.6536
  410.5000   -45.1344    13.8153     9.5795    12.6313     0.1044     0.2735     0.0680     2.4746    10.0559    88.1791
  411.0000   -45.1845    13.7453     9.5797    12.6674     0.0979     0.2752     0.0771     2.4801    10.0559    88.4341
  411.5000   -45.2346    13.6755     9.5796    12.7037     0.1036     0.2777     0.0865     2.4824    10.0559    87.7308
  412.0000   -45.2847    13.5898     9.5796    12.7400     0.1068     0.2801     0.0689     2.4763    10.0559    88.6413
  412.5000   -45.3348    13.9161     9.5796    12.7765     0.0969     0.2801     0.0733     2.4630    10.0559    90.2683
  413.0000   -45.3849    14.3600     9.5796    12.8131     0.1101     0.2771     0.0795     2.4523    10.0559    91.9106
  413.5000   -45.4350    14.8186     9.5796    12.8594     0.1136     0.2757     0.0607     2.4600    10.0559    92.3184
  414.0000   -45.4851    15.0367     9.5796    12.6824     0.0994     0.2736     0.0712     2.4725    10.0559    91.7348
  414.5000   -45.5352    14.3047     9.5796    12.4458     0.0935     0.2705     0.0858     2.4852    10.0559    91.1467
  415.0000   -45.5854    13.8417     9.5797    12.2136     0.0993     0.2695     0.0784     2.4918    10.0559    92.5413
  415.5000   -45.6354    13.7511     9.5796    11.9858     0.1056     0.2743     0.0650     2.4828    10.0559    93.8885
  416.0000   -45.6845    13.6259     9.5793    11.7621     0.1084     0.2783     0.0629     2.4747    10.0559    94.6495
  416.5000   -45.7201    13.5018     9.5490    11.5426     0.1197     0.2803     0.0536     2.4392    10.0559    94.5254
  417.0000   -45.8305    13.3789     9.4895    11.3036     0.1210     0.2854     0.0616     2.4442    10.0556    93.6273
  417.5000   -45.9489    13.2571     9.4302    11.3068     0.1168     0.2899     0.0743     2.4510    10.0553    92.7399
  418.0000   -46.0669    13.1364     9.3712    11.0947     0.1222     0.2899     0.0634     2.4278    10.0550    92.1110
  418.5000   -46.1848    13.0169     9.3126    10.9344     0.1250     0.2832     0.0498     2.4478    10.0547    92.5200
  419.0000   -46.3027    12.8983     9.2543    10.7765     0.1120     0.2851     0.0719     2.4624    10.0544    92.9512
  419.5000   -46.4205    12.7809     9.1964    10.6208     0.1260     0.2864     0.0513     2.4342    10.0541    92.8318
  420.0000   -46.5384    12.6078     9.1389    10.5029     0.1302     0.2853     0.0247     2.4214    10.0538    92.0176
  420.5000   -46.6563    12.4088     9.0820    10.3307     0.1174     0.2835     0.0194     2.4477    10.0535    91.1677
  421.0000   -46.7741    12.2130     9.0242    10.1709     0.1126     0.2880     0.0587     2.4599    10.0532    91.2419
  421.5000   -46.8920    12.0203     8.9225    10.0136     0.1144     0.2923     0.0535     2.4561    10.0529    92.1533
  422.0000   -47.0099    11.8306     8.6711     9.8587     0.1080     0.2915     0.0560     2.4667    10.0527    93.7114
  422.5000   -47.1277    11.6439     8.4297     9.7062     0.0976     0.2880     0.0750     2.4782    10.0524    95.3065
  423.0000   -47.2456    11.4602     8.1962     9.5560     0.0959     0.2900     0.0940     2.4862    10.0521    95.9533
  423.5000   -47.3635    11.2794     7.9640     9.4082     0.0994     0.2947     0.1019     2.4822    10.0518    96.8136
  424.0000   -47.4813    11.1014     7.6812     9.2651     0.0899     0.2986     0.0965     2.4850    10.0515    97.5967
  424.5000   -47.5992    10.8967     7.6819     9.0647     0.0961     0.2986     0.0832     2.4904    10.0512    99.2023
  425.0000   -47.7170    10.6489     6.9357     9.0672     0.1060     0.2986     0.0701     2.4774    10.0509   100.9302
  425.5000   -47.8350    10.4081     6.5096     8.2631     0.1160     0.2986     0.0568     2.4650    10.0506   102.4725
