~VERSION INFORMATION
 VERS.                2.0:   CWLS LOG ASCII STANDARD - VERSION 2.0
 WRAP.                 NO:   ONE LINE PER DEPTH STEP
~WELL INFORMATION
#MNEM.UNIT      DATA TYPE    INFORMATION
#----------   ------------   ------------------------------
 STRT.F           34.0000:   START DEPTH
 STOP.F          616.0000:   STOP DEPTH
 STEP.F            0.5000:   STEP LENGTH
 NULL.          -999.2500:   NO VALUE
 COMP. FENIX & SCISSON INC:   COMPANY
 WELL. NAVAL PETROLEUM RESERVE 3 S-10 #86-10:   WELL
 FLD .             TEAPOT:   FIELD
 LOC .      S10 T38N R78W:   LOCATION
 CNTY.            NATRONA:   COUNTY
 STAT.            WYOMING:   STATE
 CTRY. UNITED STATES OF AMERICA:   COUNTRY
 SRVC.              Welex:   SERVICE COMPANY
 DATE.        12-APR-1977:   LOGDATE
 API .       490251033800:   API NUMBER
~CURVE INFORMATION
#MNEM.UNIT       API CODE    CURVE DESCRIPTION
#----------   ------------   ------------------------------
 DEPT.F                  :   
 CALD.IN     45 280 60 00:   CALIPER FROM DENSITY LOG
 GRD .GAPI   45 310 01 00:   GAMMA RAY FROM DENSITY LOG
 CORR.G/C3   45 356 01 00:   DENSITY CORRECTION
 DPHI.DEC    45 890 12 00:   DENSITY POROSITY SANDSTONE
 RHOB.G/C3   45 350 01 00:   BULK DENSITY
 SPR .MV     07 010 01 00:   SPONTANEOUS POTENTIAL
 ILD .OHMM   07 120 46 00:   INDUCTION LOG DEEP
 ILM .OHMM   07 120 44 00:   INDUCTION LOG MEDIUM
 SGRD.OHMM   07 221 05 00:   SHALLOW SHORT GUARD RESISTIVITY
~PARAMETER INFORMATION
#MNEM.UNIT          VALUE    DESCRIPTION
#----------   ------------   ------------------------------
 PD  .                 GL:   PERMANENT DATUM
 EPD .F              5240:   ELEVATION PERMANENT DATUM
 LMF .                 KB:   LOG MEASURED FROM
 DAPD.F                 5:   FEET ABOVE PERMANENT DATUM
 DMF .                 KB:   DRILLING MEASURED FROM
 EKB .F              5245:   KELLING BUSHING
 EGL .F              5240:   GROUND LEVEL
 DATE.        12-APR-1977:   RUN DATE
 RUN .                  1:   RUN NUMBER
 DD  .F               625:   DEPTH DRILLER
 DL  .F               617:   DEPTH LOGGER
 BLI .F               615:   BOTTOM LOG INTERVAL
 TLI .F                35:   TOP LOG INTERVAL
 CS  .IN            8.625:   CASING SIZE
 BS  .IN            7.875:   BIT SIZE
 BSD .F               625:   BIT SIZE AT DEPTH
 DFT .           KCL- GEL:   DRILLING FLUID TYPE
 DFD .                8.8:   DRILLING FLUID DENSITY
 BHT .F                68:   BOTTOM HOLE TEMPERATURE
 TCS .HRS            0100:   TIME CURCULATED STOPPED
 MRT .F                68:   MAXIMUM RECORDED TEMPERATURE
 ENGI.        E. CALLAHAN:   RECORDING ENGINEER
 WITN.            R. LYON:   WITNESSED BY
 CLNT.            A2DTECH:   CLIENT CODE
 ORIG.           5" PRINT:   ORIGIN OF DATA
 UWI .       490251033800:   UNIQUE WELL ID
 DICO. A2D Technologies, Inc.:   DIGITIZING COMPANY
~OTHER INFORMATION
~A   DEPT     CALD        GRD       CORR       DPHI         RHOB      SPR        ILD        ILM       SGRD   
   34.0000  -999.2500  -999.2500  -999.2500  -999.2500     2.0442  -999.2500  -999.2500  -999.2500  -999.2500
   34.5000     8.3417   127.6181    -0.3164  -999.2500     2.0247  -999.2500  -999.2500  -999.2500  -999.2500
   35.0000     8.3131   128.0721    -0.2157  -999.2500     2.0060  -999.2500  -999.2500  -999.2500  -999.2500
   35.5000     8.2696   129.4163    -0.1149  -999.2500     2.0007  -999.2500  -999.2500  -999.2500  -999.2500
   36.0000     8.2113   131.0572    -0.0142  -999.2500     2.0090  -999.2500  -999.2500  -999.2500  -999.2500
   36.5000     8.1530   133.8851     0.0865  -999.2500     2.1098  -999.2500  -999.2500  -999.2500  -999.2500
   37.0000     8.0947   141.0156     0.1697  -999.2500     2.4393  -999.2500  -999.2500  -999.2500  -999.2500
   37.5000     7.9918   142.2092     0.1712  -999.2500     2.4295  -999.2500  -999.2500   989.1249   160.4031
   38.0000     7.9335   139.3991     0.1051     0.1735     2.3733  -999.2500  -999.2500   435.1383  1444.8981
   38.5000     7.9346   141.3390     0.0901     0.1705     2.3703  -999.2500  -999.2500    31.4989  2000.0000
   39.0000     7.9356   142.3864     0.0811     0.1666     2.3763  -999.2500     0.7924     3.7370  2000.0000
   39.5000     7.9663   145.6594     0.0721     0.1642     2.3862  -999.2500     0.4810     4.6941  2000.0000
   40.0000     8.0129   147.3003     0.0751     0.1602     2.3975  -999.2500     0.3008     5.8556  2000.0000
   40.5000     8.0734   148.7928     0.0872     0.1483     2.4088  -999.2500     0.2495     5.8536  2000.0000
   41.0000     8.1340   149.3952     0.0962     0.1429     2.4153  -999.2500     0.2511     5.9743  2000.0000
   41.5000     8.1946   149.8492     0.0991     0.1462     2.4063  -999.2500     0.3357     6.5344  2000.0000
   42.0000     8.2700   149.8580     0.1006     0.1489     2.3996  -999.2500     0.6988     6.9039  2000.0000
   42.5000     8.3158   149.1251     0.0988     0.1513     2.3973  -999.2500     1.4052     7.0959  2000.0000
   43.0000     8.3615   148.5405     0.0871     0.1519     2.3988  -999.2500     5.1949     7.1427  2000.0000
   43.5000     8.3924   147.5104     0.0781     0.1513     2.4078  -999.2500     5.8415     7.2397  2000.0000
   44.0000     8.4208   147.6680     0.0736     0.1443     2.4190  -999.2500     5.6409     7.2366  2000.0000
   44.5000     8.4218   148.7155     0.0721     0.1319     2.4340  -999.2500     5.5231     7.2341  2000.0000
   45.0000     8.4080   149.3178     0.0676     0.1207     2.4460  -999.2500     6.5186     7.1322  2000.0000
   45.5000     8.3054   149.3267     0.0616     0.1186     2.4490  -999.2500     8.1316     7.0806  2000.0000
   46.0000     8.2174   149.0388     0.0526     0.1342     2.4310  -999.2500     8.4157     7.0294  2000.0000
   46.5000     8.2184   148.6026     0.0435     0.1387     2.4243  -999.2500     8.2965     7.0270  2000.0000
   47.0000     8.2195   148.4629     0.0435     0.1357     2.4273  -999.2500     8.1232     7.0739  2000.0000
   47.5000     8.2205   148.9171     0.0450     0.1297     2.4393  -999.2500     8.0644     7.2192  2000.0000
   48.0000     8.2216   149.6678     0.0465     0.1231     2.4363  -999.2500     8.0060     8.1740  2000.0000
   48.5000     8.2373   155.7612     0.0465     0.1213     2.4483  -999.2500     7.6249     8.5775  2000.0000
   49.0000     8.2384   156.2152     0.0465     0.1177     2.4625  -999.2500     7.0636     8.1120  2000.0000
   49.5000     8.2394   156.2241     0.0465     0.1141     2.4678  -999.2500     6.6809     7.5149  2000.0000
   50.0000     8.2404   156.0824     0.0466     0.1129     2.4660  -999.2500     6.6325     7.2068  2000.0000
   50.5000     8.2415   155.7945     0.0466     0.1164     2.4618  -999.2500     6.6769     7.2043  2000.0000
   51.0000     8.2425   154.9154     0.0467     0.1195     2.4574  -999.2500     7.0052     7.5071  2000.0000
   51.5000     8.2435   154.6253     0.0453     0.1230     2.4529  -999.2500     7.0520     7.8777  2000.0000
   52.0000     8.2295   155.5266     0.0469     0.1260     2.4477  -999.2500     7.0004     7.6593  2000.0000
   52.5000     8.2308   155.9806     0.0470     0.1293     2.4373  -999.2500     6.8542     7.2947  2000.0000
   53.0000     8.2170   155.9894     0.0501     0.1316     2.4343  -999.2500     6.7111     7.0442  2000.0000
   53.5000     8.2029   155.7016     0.0532     0.1322     2.4336  -999.2500     6.6166     6.8971  2000.0000
   54.0000     8.2042   155.5599     0.0578     0.1325     2.4329  -999.2500     6.5234     6.7999  2000.0000
   54.5000     8.2052   155.4204     0.0624     0.1331     2.4323  -999.2500     6.4762     6.6579  2000.0000
   55.0000     8.2063   155.1347     0.0655     0.1336     2.4293  -999.2500     6.3850     6.6097  2000.0000
   55.5000     8.2073   149.7142     0.0686     0.1348     2.4249  -999.2500     6.2950     6.6995  2000.0000
   56.0000     8.2084   148.9195     0.0671     0.1378     2.4189  -999.2500     6.2064     6.9811  2000.0000
   56.5000     8.2094   148.9545     0.0627     0.1456     2.4077  -999.2500     6.1190     7.0272  2000.0000
   57.0000     8.2104   149.5589     0.0553     0.1548     2.3958  -999.2500     6.0747     6.6006  2000.0000
   57.5000     8.2263   150.2814     0.0539     0.1569     2.3943  -999.2500     5.9891     6.6442  2000.0000
   58.0000     8.2867   149.8474     0.0570     0.1503     2.4064  -999.2500     5.9854     6.8283  2000.0000
   58.5000     8.4212   148.8177     0.0556     0.1506     2.4027  -999.2500     5.9437     6.9695  2000.0000
   59.0000     8.4816   148.5277     0.0467     0.1523     2.3953  -999.2500     5.9417     7.0151  2000.0000
   59.5000     8.5123   148.5388     0.0393     0.1565     2.3901  -999.2500     5.9396     6.9643  2000.0000
   60.0000     8.5282   148.2509     0.0333     0.1592     2.3886  -999.2500     5.9430     6.8157  2000.0000
   60.5000     8.5292   147.2212     0.0995     0.1352     2.4176  -999.2500     5.9768     6.6265  2000.0000
   61.0000     8.5006   146.9311     0.0936     0.1325     2.4539  -999.2500     6.0580     6.4472  2000.0000
   61.5000     8.4571   147.3873     0.0997     0.1354     2.4195  -999.2500     6.0980     6.4005  2000.0000
   62.0000     8.3543   149.0282     0.1103     0.1451     2.4052  -999.2500     6.1377     6.4428  2000.0000
   62.5000     8.2812   149.9273     0.1224     0.1576     2.3858  -999.2500     6.2643     6.5832  2000.0000
   63.0000     8.2674   149.7878     0.1239     0.1680     2.3665  -999.2500     6.3061     6.8048  2000.0000
   63.5000     8.2536   148.9065     0.0940     0.1836     2.3433  -999.2500     6.4803     6.9934  2000.0000
   64.0000     8.2243   147.2833     0.0716     0.1884     2.3395  -999.2500     6.6146     6.9422  2000.0000
   64.5000     8.1955   143.4346     0.0582     0.1563     2.3711  -999.2500     6.7504     6.9880  2000.0000
   65.0000     8.1815   141.8114     0.0447     0.1323     2.4076  -999.2500     6.7955     7.1816  2000.0000
   65.5000     8.1675   141.2268     0.0343     0.1232     2.4439  -999.2500     6.7926     7.3807  2000.0000
   66.0000     8.1549   141.0851     0.0284     0.1223     2.4477  -999.2500     6.7903     7.2767  2000.0000
   66.5000     8.1559   141.2446     0.0240     0.1217     2.4485  -999.2500     6.7879     7.1248  2000.0000
   67.0000     8.1570   141.9953     0.0271     0.1214     2.4478  -999.2500     6.7856     7.0732  2000.0000
   67.5000     8.1580   143.4878     0.0302     0.1222     2.4449  -999.2500     6.7833     7.1699  2000.0000
   68.0000     8.1591   145.4255     0.0303     0.1249     2.4374  -999.2500     6.7342     7.1668  2000.0000
   68.5000     8.1601   146.7697     0.0259     0.1288     2.4315  -999.2500     6.6393     7.1644  2000.0000
   69.0000     8.1611   146.9269     0.0214     0.1270     2.4383  -999.2500     6.5913     7.1619  2000.0000
   69.5000     8.1622   147.0842     0.0230     0.1236     2.4451  -999.2500     6.5436     7.0610  2000.0000
   70.0000     8.1634   147.5381     0.0231     0.1218     2.4511  -999.2500     6.4069     6.7715  2000.0000
