~VERSION INFORMATION
 VERS.                2.0:   CWLS LOG ASCII STANDARD - VERSION 2.0
 WRAP.                 NO:   ONE LINE PER DEPTH STEP
~WELL INFORMATION
#MNEM.UNIT      DATA TYPE    INFORMATION
#----------   ------------   ------------------------------
 STRT.F           33.0000:   START DEPTH
 STOP.F          694.0000:   STOP DEPTH
 STEP.F            0.5000:   STEP LENGTH
 NULL.          -999.2500:   NO VALUE
 COMP. FENIX & SCISSON INC:   COMPANY
 WELL.  NPR 3 #64 S 34-34:   WELL
 FLD .             TEAPOT:   FIELD
 LOC .      S34 T39N R78W:   LOCATION
 CNTY.            NATRONA:   COUNTY
 STAT.            WYOMING:   STATE
 CTRY. UNITED STATES OF AMERICA:   COUNTRY
 SRVC.              Welex:   SERVICE COMPANY
 DATE.        28-APR-1977:   LOGDATE
 API .       490251034600:   API NUMBER
~CURVE INFORMATION
#MNEM.UNIT       API CODE    CURVE DESCRIPTION
#----------   ------------   ------------------------------
 DEPT.F                  :   
 CALD.IN     45 280 60 00:   CALIPER FROM DENSITY LOG
 GRD .GAPI   45 310 01 00:   GAMMA RAY FROM DENSITY LOG
 CORR.G/C3   45 356 01 00:   DENSITY CORRECTION
 DPHI.DEC    45 890 12 00:   DENSITY POROSITY SANDSTONE
 RHOB.G/C3   45 350 01 00:   BULK DENSITY
 SPR .MV     07 010 01 00:   SPONTANEOUS POTENTIAL
 ILD .OHMM   07 120 46 00:   INDUCTION LOG DEEP
 ILM .OHMM   07 120 44 00:   INDUCTION LOG MEDIUM
 SGRD.OHMM   07 221 05 00:   SHALLOW SHORT GUARD RESISTIVITY
~PARAMETER INFORMATION
#MNEM.UNIT          VALUE    DESCRIPTION
#----------   ------------   ------------------------------
 PD  .                 GL:   PERMANENT DATUM
 EPD .F              5079:   ELEVATION PERMANENT DATUM
 LMF .                 GL:   LOG MEASURED FROM
 DMF .                 GL:   DRILLING MEASURED FROM
 EGL .F              5079:   GROUND LEVEL
 DATE.        28-APR-1977:   RUN DATE
 RUN .                  1:   RUN NUMBER
 DD  .F               735:   DEPTH DRILLER
 DL  .F               697:   DEPTH LOGGER
 BLI .F               695:   BOTTOM LOG INTERVAL
 TLI .F                32:   TOP LOG INTERVAL
 CS  .IN            8.625:   CASING SIZE
 BS  .IN               12:   BIT SIZE
 BSD .F               735:   BIT SIZE AT DEPTH
 DFT .            KCL MUD:   DRILLING FLUID TYPE
 DFD .                9.0:   DRILLING FLUID DENSITY
 BHT .F                74:   BOTTOM HOLE TEMPERATURE
 TCS .HRS            0100:   TIME CURCULATED STOPPED
 MRT .F                74:   MAXIMUM RECORDED TEMPERATURE
 ENGI.            C. DOAK:   RECORDING ENGINEER
 WITN.           ROB LYON:   WITNESSED BY
 CLNT.            A2DTECH:   CLIENT CODE
 ORIG.           5" PRINT:   ORIGIN OF DATA
 UWI .       490251034600:   UNIQUE WELL ID
 DICO. A2D Technologies, Inc.:   DIGITIZING COMPANY
~OTHER INFORMATION
~A   DEPT     CALD        GRD       CORR       DPHI       RHOB        SPR        ILD        ILM       SGRD   
# ...
  653.5000     7.7167    91.9724     0.0404     0.1540     2.4044   -40.4478    10.6946    11.7373    14.4673
  654.0000     7.7033    92.5798     0.0388     0.1671     2.3865   -40.5970    10.7027    11.5828    13.4162
  654.5000     7.6751    90.0806     0.0343     0.1599     2.4151   -40.5970    10.7093    11.5916    12.5279
  655.0000     7.6469    88.9076     0.0301     0.1493     2.4234   -40.7463    10.6419    11.5169    12.2790
  655.5000     7.6335    89.9693     0.0269     0.1554     2.4175   -40.7463    10.6484    11.4443    12.2875
  656.0000     7.6499    88.9492     0.0195     0.1559     2.4206   -40.8955    10.6536    11.2937    12.8173
  656.5000     7.6662    87.6278     0.0138     0.1400     2.4357   -40.7463    10.5863    11.3024    14.2291
  657.0000     7.6976    90.1732     0.0249     0.1316     2.4485   -40.7463    10.5929    11.2312    14.2207
  657.5000     7.7582    88.8564     0.0292     0.1262     2.4606   -40.8955    10.5261    11.2381    14.1813
  658.0000     7.7903    87.2428     0.0305     0.1214     2.4682   -40.8955    10.4599    11.1656    14.0562
  658.5000     7.8070    85.9260     0.0306     0.1157     2.4758   -40.7463    10.3940    11.2518    13.7562
  659.0000     7.8220    84.6092     0.0307     0.1105     2.4833   -40.7463    10.3285    11.3370    13.4842
  659.5000     7.8234    83.1440     0.0292     0.1102     2.4902   -40.7463    10.2636    11.4228    13.2084
  660.0000     7.8249    87.6136     0.0263     0.1219     2.4648   -40.7463    10.1988    11.5093    13.2084
  660.5000     7.7939    89.4125     0.0234     0.1236     2.4761   -40.8955    10.2053    11.5965    13.1174
  661.0000     7.7685    90.0199     0.0235     0.1209     2.4717   -40.8955    10.2825    11.6162    13.0270
  661.5000     7.7703    87.8175     0.0235     0.1242     2.4651   -40.8955    10.3603    11.6899    13.1174
  662.0000     7.7718    86.7928     0.0236     0.1190     2.4794   -40.8955    10.3667    11.6081    13.1961
  662.5000     7.7881    89.0414     0.0237     0.1184     2.4743   -41.0448    10.3730    11.3840    13.3046
  663.0000     7.8044    89.8018     0.0222     0.1238     2.4676   -41.0448    10.3794    11.3910    13.5286
  663.5000     7.8059    91.0072     0.0178     0.1237     2.4617   -41.1940    10.4579    11.3979    13.7111
  664.0000     7.7922    91.6146     0.0149     0.1310     2.4551   -41.1940    10.4643    11.4842    13.8136
  664.5000     7.7940    87.4834     0.0090     0.1386     2.4477   -41.3433    10.5435    11.5711    13.8208
  665.0000     7.7955    85.8652     0.0045     0.1442     2.4395   -41.3433    10.5499    11.5782    13.5435
  665.5000     7.7817    89.1525     0.0001     0.1480     2.4253   -41.4925    10.5564    11.6659    13.2717
  666.0000     7.7836    91.5449     0.0017     0.1436     2.4295   -41.4925    10.5628    11.7542    13.1869
  666.5000     7.7851    93.1954     0.0108     0.1355     2.4446   -41.4925    10.6428    11.7614    13.2858
  667.0000     7.7717    93.5061     0.0199     0.1307     2.4527   -41.4925    10.6493    11.6066    13.2928
  667.5000     7.7732    91.7488     0.0260     0.1247     2.4562   -41.4925    10.6558    11.6137    13.3923
  668.0000     7.7594    92.9542     0.0305     0.1196     2.4731   -41.4925    10.5871    11.6208    13.4925
  668.5000     7.7613    92.3792     0.0321     0.1106     2.4896   -41.4925    10.5205    11.6279    13.5935
  669.0000     7.7475    91.2108     0.0307     0.1052     2.5002   -41.4925    10.5271    11.7160    13.4134
  669.5000     7.7494    89.5973     0.0308     0.1111     2.4973   -41.4925    10.5335    11.8047    13.1443
  670.0000     7.7509    94.5119     0.0278     0.1159     2.4899   -41.4925    10.5399    11.9768    13.0587
  670.5000     7.7523    93.1951     0.0249     0.1182     2.4825   -41.4925    10.4735    11.9013    13.0673
  671.0000     7.7538    91.2848     0.0205     0.1227     2.4751   -41.6418    10.4076    11.6636    12.9822
  671.5000     7.7553    93.2321     0.0130     0.1307     2.4647   -41.6418    10.3419    11.5083    12.8993
  672.0000     7.7716    95.3278     0.0086     0.1337     2.4543   -41.6418    10.2770    11.5972    12.8169
  672.5000     7.7731    95.7868     0.0132     0.1217     2.4664   -41.6418    10.2124    11.6043    13.1859
  673.0000     7.7745    93.5844     0.0162     0.1172     2.4770   -41.6418    10.2186    11.5295    13.1000
  673.5000     7.7760    92.8611     0.0118     0.1169     2.4816   -41.6418    10.1528    11.4569    13.1072
  674.0000     7.7775    92.2861     0.0089     0.1204     2.4734   -41.6418    10.1605    11.6404    13.1140
  674.5000     7.7790    91.7111     0.0074     0.1240     2.4683   -41.6418    10.1668    11.9026    13.3039
  675.0000     7.7804    90.6911     0.0135     0.1255     2.4668   -41.6418    10.1012    12.2275    13.4073
  675.5000     7.7819    88.4841     0.0196     0.1194     2.4767   -41.7910    10.0377    12.5679    13.5975
  676.0000     7.7834    80.5775     0.0287     0.1140     2.4843   -41.7910     9.9745    12.6629    13.8905
  676.5000     7.7849  -999.2500     0.0333     0.1014     2.4904   -41.7910     9.8433    12.4962    13.3318
  677.0000     7.7864  -999.2500     0.0364     0.0978     2.5002   -41.7910     9.8509    12.3317    13.2464
  677.5000     7.7878  -999.2500     0.0380     0.0960     2.5108   -41.7910     9.7889    12.2539    13.3458
  678.0000     7.7745  -999.2500     0.0350     0.0956     2.5206   -41.7910     9.7949    12.2616    13.4457
  678.5000     7.7760  -999.2500     0.0306     0.0986     2.5125   -41.7910     9.6661    12.4403    13.4528
  679.0000     7.7774  -999.2500     0.0262     0.1045     2.5006   -41.7910     9.4717    12.5345    13.5517
  679.5000     7.7789  -999.2500     0.0217     0.1099     2.4894   -41.7910     9.3471    12.6294    13.4651
  680.0000     7.7655  -999.2500     0.0203     0.1117     2.4880   -41.6418     8.8187    12.5499    13.1967
  680.5000     7.7671  -999.2500     0.0219     0.1087     2.4889   -41.6418     8.2408    12.2142    13.0219
  681.0000     7.7688  -999.2500     0.0250     0.1044     2.4912   -41.3433     7.9304    11.9684    12.8494
  681.5000     7.7703  -999.2500     0.0296     0.0987     2.4977   -40.8955     7.9353    11.7311    12.5917
  682.0000     7.7718  -999.2500     0.0326     0.0957     2.5143   -39.7015     7.8853    11.5749    12.3391
  682.5000     7.7733  -999.2500     0.0357     0.0954     2.5162   -38.3582     7.8357    11.3454    12.0899
  683.0000     7.7747  -999.2500     0.0373     0.0977     2.5021   -36.2687     7.8405    11.1944    11.8474
  683.5000     7.7762  -999.2500     0.0359     0.1019     2.4924   -32.8394     7.7910    10.9725    11.6113
  684.0000     7.7625  -999.2500     0.0299     0.1078     2.4828   -26.4240     8.3549    10.7516    11.3768
  684.5000     7.7495  -999.2500     0.0255     0.1188     2.4776   -18.3293     9.5357    10.5524    11.1357
  685.0000     7.7510  -999.2500     0.0226     0.1138     2.4867    -8.8988     9.9463    10.3269    10.9916
  685.5000     7.7372  -999.2500     0.0211     0.1179     2.4823    -2.2388    10.3747    10.1910    10.8494
  686.0000     7.7242  -999.2500     0.0197     0.1269     2.4659    -2.2388    18.7026    10.1972    10.7859
  686.5000     7.7257  -999.2500     0.0198     0.1270     2.4608    -2.3881    57.0631    10.2744    10.7916
  687.0000     7.7272  -999.2500     0.0244     0.1220     2.4706    -2.3881    85.6611    10.7172    10.5021
  687.5000     7.7287  -999.2500     0.0289     0.1160     2.4804    -2.3881  -999.2500    12.7124    10.0796
  688.0000     7.7301  -999.2500     0.0320     0.1154     2.4895    -2.5373  -999.2500    38.3342     9.5410
  688.5000     7.7316  -999.2500     0.0336     0.1210     2.4724    -2.5373  -999.2500    99.3210     8.7843
  689.0000     7.7179  -999.2500     0.0322     0.1276     2.4568    -2.5373  -999.2500   101.4605     7.7581
  689.5000     7.7197  -999.2500     0.0323     0.1342     2.4456    -2.5373  -999.2500  -999.2500     4.9471
