~VERSION INFORMATION
 VERS.                2.0:   CWLS LOG ASCII STANDARD - VERSION 2.0
 WRAP.                 NO:   ONE LINE PER DEPTH STEP
~WELL INFORMATION
#MNEM.UNIT      DATA TYPE    INFORMATION
#----------   ------------   ------------------------------
 STRT.F         1379.5000:   START DEPTH
 STOP.F         2168.0000:   STOP DEPTH
 STEP.F            0.5000:   STEP LENGTH
 NULL.          -999.2500:   NO VALUE
 COMP.   FLUOR DANIEL INC:   COMPANY
 WELL. NAVAL PETROLEUM RESERVE 3  83-5-STX-10 #83-5-10:   WELL
 FLD .            WILDCAT:   FIELD
 LOC .      S10 T38N R78W:   LOCATION
 CNTY.            NATRONA:   COUNTY
 STAT.            WYOMING:   STATE
 CTRY. UNITED STATES OF AMERICA:   COUNTRY
 SRVC.            Unknown:   SERVICE COMPANY
 DATE.        20-JAN-1995:   LOGDATE
 API .       490252265500:   API NUMBER
~CURVE INFORMATION
#MNEM.UNIT       API CODE    CURVE DESCRIPTION
#----------   ------------   ------------------------------
 DEPT.F                  :   
 C1  .VF     91 831 01 00:   METHANE
 C2  .VF     91 832 01 00:   ETHANE
 ROP .FT/HR  91 810 01 00:   RAT OF DRILLING PENETRATION
 TGAS.TC/CC  91 830 01 00:   TOTAL GAS UNIT
~PARAMETER INFORMATION
#MNEM.UNIT          VALUE    DESCRIPTION
#----------   ------------   ------------------------------
 DATE.        20-JAN-1995:   RUN DATE
 BLI .F              2165:   BOTTOM LOG INTERVAL
 TLI .F              1380:   TOP LOG INTERVAL
 CLNT.            A2DTECH:   CLIENT CODE
 ORIG.         2.5" PRINT:   ORIGIN OF DATA
 UWI .       490252265500:   UNIQUE WELL ID
 DICO. A2D Technologies, Inc.:   DIGITIZING COMPANY
~OTHER INFORMATION
~A  DEPT        C1         C2        ROP        TGAS  
# ...
 1890.5000  -999.2500  -999.2500     0.9410   560.6558
 1891.0000  -999.2500  -999.2500     0.9406   568.0328
 1891.5000  -999.2500  -999.2500     0.9587   560.6558
 1892.0000  -999.2500  -999.2500     0.9582   560.6558
 1892.5000  -999.2500  -999.2500     0.9579   560.6558
 1893.0000  -999.2500  -999.2500     0.9574   553.2787
 1893.5000  -999.2500  -999.2500     1.1219   553.2787
 1894.0000  -999.2500  -999.2500     1.3964   538.5246
 1894.5000  -999.2500  -999.2500     1.3959   538.5246
 1895.0000  -999.2500  -999.2500     1.4139   538.5246
 1895.5000  -999.2500  -999.2500     1.4135   538.5246
 1896.0000  -999.2500  -999.2500     1.2300   538.5246
 1896.5000  -999.2500  -999.2500     1.2480   538.5246
 1897.0000  -999.2500  -999.2500     1.2476   538.5246
 1897.5000  -999.2500  -999.2500     1.1740   538.5246
 1898.0000  -999.2500  -999.2500     1.0270   538.5246
 1898.5000  -999.2500  -999.2500     1.0267   538.5246
 1899.0000  -999.2500  -999.2500     1.0263   538.6022
 1899.5000  -999.2500  -999.2500     1.0260   539.7102
 1900.0000  -999.2500  -999.2500     1.0256   540.8182
 1900.5000  -999.2500  -999.2500     1.0222   541.9262
 1901.0000  -999.2500  -999.2500     1.0187   543.0342
 1901.5000  -999.2500  -999.2500     1.0152   544.1422
 1902.0000  -999.2500  -999.2500     1.0117   545.2502
 1902.5000  -999.2500  -999.2500     1.0083   546.3582
 1903.0000  -999.2500  -999.2500     1.0048   547.4662
 1903.5000  -999.2500  -999.2500     1.3514   548.5742
 1904.0000  -999.2500  -999.2500     1.5341   549.6822
 1904.5000  -999.2500  -999.2500     1.5334   550.7902
 1905.0000  -999.2500  -999.2500     1.5329   551.8982
 1905.5000  -999.2500  -999.2500     2.0452   553.0062
 1906.0000  -999.2500  -999.2500     2.0446   554.1675
 1906.5000  -999.2500  -999.2500     2.0809   561.6275
 1907.0000  -999.2500  -999.2500     2.0986   561.6986
 1907.5000  -999.2500  -999.2500     2.0796   561.7697
 1908.0000  -999.2500  -999.2500     1.3099   561.8408
 1908.5000  -999.2500  -999.2500     1.3092   569.3008
 1909.0000  -999.2500  -999.2500     1.3087   598.8801
 1909.5000  -999.2500  -999.2500     0.9236   591.5623
 1910.0000  -999.2500  -999.2500     0.5201   584.2563
 1910.5000  -999.2500  -999.2500     0.5195   576.9504
 1911.0000  -999.2500  -999.2500     0.5006   577.0452
 1911.5000  -999.2500  -999.2500     0.5001   577.1163
 1912.0000  -999.2500  -999.2500     0.6278   577.1874
 1912.5000  -999.2500  -999.2500     0.6273   577.2585
 1913.0000  -999.2500  -999.2500     0.6267   577.3415
 1913.5000  -999.2500  -999.2500     0.6261   570.0355
 1914.0000  -999.2500  -999.2500     0.6256   570.1066
 1914.5000  -999.2500  -999.2500     0.6251   570.1777
 1915.0000  -999.2500  -999.2500     0.6429   570.2458
 1915.5000  -999.2500  -999.2500     0.6056   570.3318
 1916.0000  -999.2500  -999.2500     0.5318   577.7800
 1916.5000  -999.2500  -999.2500     0.5313   577.8511
 1917.0000  -999.2500  -999.2500     0.5307   577.9222
 1917.5000  -999.2500  -999.2500     0.5301   578.0051
 1918.0000  -999.2500  -999.2500     0.6396   578.0762
 1918.5000  -999.2500  -999.2500     0.6757   578.1394
 1919.0000  -999.2500  -999.2500     0.6934   578.2131
 1919.5000  -999.2500  -999.2500     0.6928   578.3014
 1920.0000  -999.2500  -999.2500     0.5640   578.3725
 1920.5000  -999.2500  -999.2500     0.5452   578.4436
 1921.0000  -999.2500  -999.2500     0.5447   578.5147
 1921.5000  -999.2500  -999.2500     0.5440   578.5858
 1922.0000  -999.2500  -999.2500     0.6169   578.6688
 1922.5000  -999.2500  -999.2500     0.6162   578.7295
 1923.0000  -999.2500  -999.2500     0.6340   578.8110
 1923.5000  -999.2500  -999.2500     0.6334   578.8821
 1924.0000  -999.2500  -999.2500     0.6329   578.9651
 1924.5000  -999.2500  -999.2500     0.6324   579.0361
 1925.0000  -999.2500  -999.2500     0.6318   579.1072
 1925.5000  -999.2500  -999.2500     0.6313   579.1783
 1926.0000  -999.2500  -999.2500     0.9788   579.2495
 1926.5000  -999.2500  -999.2500     0.9781   571.9554
 1927.0000  -999.2500  -999.2500     0.9776   572.0164
 1927.5000  -999.2500  -999.2500     0.9771   572.0975
 1928.0000  -999.2500  -999.2500     0.9765   572.1686
 1928.5000  -999.2500  -999.2500     0.9759   572.2516
 1929.0000  -999.2500  -999.2500     0.9754   572.3228
 1929.5000  -999.2500  -999.2500     0.9016   572.3939
 1930.0000  -999.2500  -999.2500     0.5896   572.4649
 1930.5000  -999.2500  -999.2500     0.5891   572.5360
 1931.0000  -999.2500  -999.2500     0.5886   572.6190
 1931.5000  -999.2500  -999.2500     0.5881   572.6901
 1932.0000  -999.2500  -999.2500     0.7708   572.7612
 1932.5000  -999.2500  -999.2500     0.7701   572.8323
 1933.0000  -999.2500  -999.2500     0.7878   572.9034
 1933.5000  -999.2500  -999.2500     0.8972   572.9863
 1934.0000  -999.2500  -999.2500     0.9517   573.0575
 1934.5000  -999.2500  -999.2500     0.9510   573.1286
 1935.0000  -999.2500  -999.2500     0.9505   573.1996
 1935.5000  -999.2500  -999.2500     0.9683   573.2708
 1936.0000  -999.2500  -999.2500     0.9677   573.3537
 1936.5000  -999.2500  -999.2500     0.9671   573.4249
 1937.0000  -999.2500  -999.2500     0.9666   573.4960
 1937.5000  -999.2500  -999.2500     1.2041   573.5789
 1938.0000  -999.2500  -999.2500     1.2036   573.6500
 1938.5000  -999.2500  -999.2500     1.2031   573.7211
 1939.0000  -999.2500  -999.2500     1.2025   573.7922
 1939.5000  -999.2500  -999.2500     1.2019   573.8752
 1940.0000  -999.2500  -999.2500     1.2014   573.9463
 1940.5000  -999.2500  -999.2500     1.2009   581.3945
 1941.0000  -999.2500  -999.2500     1.2186   588.8425
 1941.5000  -999.2500  -999.2500     1.1997   596.2907
 1942.0000  -999.2500  -999.2500     0.7413   596.3737
 1942.5000  -999.2500  -999.2500     0.7408   596.4448
 1943.0000  -999.2500  -999.2500     0.7402   596.5159
 1943.5000  -999.2500  -999.2500     0.7397   603.9640
 1944.0000  -999.2500  -999.2500     0.6659   604.0470
 1944.5000  -999.2500  -999.2500     0.5188   611.4952
 1945.0000  -999.2500  -999.2500     0.5183   618.9434
 1945.5000  -999.2500  -999.2500     0.5177   626.3915
 1946.0000  -999.2500  -999.2500     0.5171   633.8397
 1946.5000  -999.2500  -999.2500     0.5166   633.9226
 1947.0000  -999.2500  -999.2500     0.5161   633.9937
 1947.5000  -999.2500  -999.2500     0.5155   634.0648
 1948.0000  -999.2500  -999.2500     0.5149   634.1359
 1948.5000  -999.2500  -999.2500     0.5144   634.2189
 1949.0000  -999.2500  -999.2500     0.6055   626.8892
 1949.5000  -999.2500  -999.2500     0.6416   612.2180
 1950.0000  -999.2500  -999.2500     0.6409   612.3010
 1950.5000  -999.2500  -999.2500     0.6404   604.9951
 1951.0000  -999.2500  -999.2500     0.6399   605.0780
 1951.5000  -999.2500  -999.2500     0.6393   605.1491
 1952.0000  -999.2500  -999.2500     0.6204   605.2131
 1952.5000  -999.2500  -999.2500     0.6199   605.2913
 1953.0000  -999.2500  -999.2500     0.6194   605.3743
 1953.5000  -999.2500  -999.2500     0.7470   605.4454
 1954.0000  -999.2500  -999.2500     0.7832   598.1395
 1954.5000  -999.2500  -999.2500     0.8008   598.2106
 1955.0000  -999.2500  -999.2500     0.8003   598.2817
 1955.5000  -999.2500  -999.2500     0.7998   598.3646
 1956.0000  -999.2500  -999.2500     0.7992   598.4357
 1956.5000  -999.2500  -999.2500     0.7986   598.5068
 1957.0000  -999.2500  -999.2500     0.7981   598.5779
 1957.5000  -999.2500  -999.2500     0.7976   598.6609
 1958.0000  -999.2500  -999.2500     0.7970   598.7320
 1958.5000  -999.2500  -999.2500     0.7964   606.1801
 1959.0000  -999.2500  -999.2500     0.7959   606.2512
 1959.5000  -999.2500  -999.2500     0.7954   606.3342
 1960.0000  -999.2500  -999.2500     0.7948   606.4053
 1960.5000  -999.2500  -999.2500     0.8126   599.0875
 1961.0000  -999.2500  -999.2500     0.8120   599.1705
 1961.5000  -999.2500  -999.2500     0.7199   599.2416
 1962.0000  -999.2500  -999.2500     0.6095   599.3245
 1962.5000  -999.2500  -999.2500     0.5907   599.3956
 1963.0000  -999.2500  -999.2500     0.5901   599.4667
