~VERSION INFORMATION
 VERS.                2.0:   CWLS LOG ASCII STANDARD - VERSION 2.0
 WRAP.                 NO:   ONE LINE PER DEPTH STEP
~WELL INFORMATION
#MNEM.UNIT      DATA TYPE    INFORMATION
#----------   ------------   ------------------------------
 STRT.F            0.0000:   START DEPTH
 STOP.F          652.0000:   STOP DEPTH
 STEP.F            0.5000:   STEP LENGTH
 NULL.          -999.2500:   NO VALUE
 COMP.   FLUOR DANIEL INC:   COMPANY
 WELL.   68-1 X 34 #68-34:   WELL
 FLD .             TEAPOT:   FIELD
 LOC .      S34 T39N R78W:   LOCATION
 CNTY.            NATRONA:   COUNTY
 STAT.            WYOMING:   STATE
 CTRY. UNITED STATES OF AMERICA:   COUNTRY
 SRVC.      Western Atlas:   SERVICE COMPANY
 DATE.        08-APR-1995:   LOGDATE
 API .       490252269900:   API NUMBER
~CURVE INFORMATION
#MNEM.UNIT       API CODE    CURVE DESCRIPTION
#----------   ------------   ------------------------------
 DEPT.F                  :   
 GRR .GAPI   07 310 01 00:   GAMMA RAY
 RILD.OHMM   07 120 46 00:   INDUCTION LOG DEEP RESISTIVITY
 RILM.OHMM   07 120 44 00:   RESITIVITY LONG MEDIUM
~PARAMETER INFORMATION
#MNEM.UNIT          VALUE    DESCRIPTION
#----------   ------------   ------------------------------
 PD  .                 GL:   PERMANENT DATUM
 EPD .F              5106:   ELEVATION PERMANENT DATUM
 LMF .                 KB:   LOG MEASURED FROM
 DAPD.F                10:   FEET ABOVE PERMANENT DATUM
 DMF .                 KB:   DRILLING MEASURED FROM
 EKB .F              5116:   KELLING BUSHING
 EDF .F              5115:   DRILLING FLOOR
 EGL .F              5106:   GROUND LEVEL
 DATE.        08-APR-1995:   RUN DATE
 RUN .                  1:   RUN NUMBER
 DD  .F               660:   DEPTH DRILLER
 DL  .F               660:   DEPTH LOGGER
 BLI .F               652:   BOTTOM LOG INTERVAL
 TLI .F                54:   TOP LOG INTERVAL
 CS  .IN            9.625:   CASING SIZE
 CBD .F                53:   CASING BOTTOM DRILLER
 CBL .F                54:   CASING BOTTOM LOGGER
 BS  .IN             8.75:   BIT SIZE
 BSD .F               660:   BIT SIZE AT DEPTH
 DFT .                AIR:   DRILLING FLUID TYPE
 MRT .F                90:   MAXIMUM RECORDED TEMPERATURE
 LUN .            HL 6530:   LOGGING UNIT NUMBER
 LUL .             CASPER:   LOGGING UNIT LOCATION
 ENGI.      PAT RASMUSSEN:   RECORDING ENGINEER
 WITN.        GARY STRONG:   WITNESSED BY
 CLNT.            A2DTECH:   CLIENT CODE
 ORIG.           5" PRINT:   ORIGIN OF DATA
 UWI .       490252269900:   UNIQUE WELL ID
 DICO. A2D Technologies, Inc.:   DIGITIZING COMPANY
~OTHER INFORMATION
~A    DEPT      GRR      RILD       RILM   
# ...
  182.0000   125.5821    10.7656    10.8408
  182.5000   127.7016    10.6941    10.7681
  183.0000   129.8182    10.5505    10.7717
  183.5000   129.8296    10.4081    10.6210
  184.0000   125.6304    10.3390    10.4829
  184.5000   126.5444    10.3417    10.4133
  185.0000   131.6711    10.3451    10.3441
  185.5000   135.2915    10.2757    10.2761
  186.0000   133.7991    10.2791    10.2079
  186.5000   129.5999    10.2108    10.1407
  187.0000   130.2156    10.2068    10.1434
  187.5000   131.4300    10.1457    10.1461
  188.0000   131.7393    10.1490    10.0787
  188.5000   131.1520    10.1517    10.0820
  189.0000   129.9632    10.1163    10.0847
  189.5000   127.8693    10.0180    10.0170
  190.0000   127.5770     9.9508    10.0203
  190.5000   128.4935     9.8847     9.9538
  191.0000   130.7309     9.8197     9.8877
  191.5000   133.6319     9.7551     9.8909
  192.0000   136.3500     9.7577     9.8246
  192.5000   140.8727     9.6923     9.7600
  193.0000   140.8842     9.6954     9.6952
  193.5000   138.1915     9.6311     9.6984
  194.0000   132.4857     9.6342     9.7009
  194.5000   132.4999     9.6367     9.7035
  195.0000   131.6090     9.5726     9.7061
  195.5000   131.6232     9.5753     9.6970
  196.0000   134.0406     9.5784     9.6441
  196.5000   137.6610     9.5809     9.5139
  197.0000   138.5945     9.5173     9.3853
  197.5000   139.1903     9.3888     9.1956
  198.0000   141.3070     9.2554     9.0721
  198.5000   142.5213     9.1371     9.0113
  199.0000   140.4274     9.0138     8.9519
  199.5000   137.1305     8.8928     8.9474
  200.0000   138.3477     8.5924     8.6525
  200.5000   138.0555     8.2499     8.3602
  201.0000   137.7561     8.0716     8.2324
  201.5000   137.7631     7.6993     8.0895
  202.0000   139.8740     7.5434     7.7557
  202.5000   141.3835     7.4938     7.7041
  203.0000   140.7889     7.5489     7.7608
  203.5000   139.5915     7.5514     7.9269
  204.0000   139.2602     7.7130     8.0401
  204.5000   141.1080     7.8775     8.3260
  205.0000   141.7151     8.1577     8.7424
  205.5000   140.8185     8.4482     9.0541
  206.0000   137.8166     8.6286     9.2472
  206.5000   128.8010     8.7518     9.3137
  207.0000   125.4984     8.8155     9.1893
  207.5000   124.6003     8.8184     9.1930
  208.0000   123.6772     8.8219     9.1326
  208.5000   122.8085     8.8861     9.1355
  209.0000   123.4170     8.8276     9.0754
  209.5000   124.3249     8.7098     8.9535
  210.0000   123.7305     8.6517     8.8339
  210.5000   123.4339     8.4773     8.5954
  211.0000   124.6440     8.4801     8.6586
  211.5000   128.6045     8.5424     8.7216
  212.0000   131.8747     8.6046     8.7851
  212.5000   133.0833     8.7274     8.8490
  213.0000   133.6904     8.8521     8.9761
  213.5000   134.5985     8.9791     9.1042
  214.0000   133.4023     9.0444     9.1704
  214.5000   131.6034     9.0473     9.2372
  215.0000   129.5038     9.1139     9.2409
  215.5000   128.3064     9.0532     9.1801
  216.0000   128.3135     8.9937     9.1197
  216.5000   129.2213     8.9352     9.0597
  217.0000   129.5499     8.8159     9.0001
  217.5000   130.7378     8.7572     8.9409
  218.0000   134.3524     8.6995     8.8828
  218.5000   134.9595     8.6430     8.8244
  219.0000   133.7635     8.5861     8.7058
  219.5000   132.8669     8.5297     8.7092
  220.0000   133.7748     8.4742     8.7727
  220.5000   134.3820     8.4777     8.8373
  221.0000   133.4867     8.4804     8.9016
  221.5000   131.9886     8.4830     8.9664
  222.0000   125.6784     8.4273     8.9074
  222.5000   127.2231     8.4308     8.7271
  223.0000   135.6159     8.4918     8.6696
  223.5000   136.5238     8.4948     8.6732
  224.0000   135.9279     8.5567     8.6761
  224.5000   130.5214     8.6196     8.7398
  225.0000   130.8278     8.6224     8.7427
  225.5000   131.1342     8.5656     8.8063
  226.0000   131.1399     8.5691     8.8098
  226.5000   133.2521     8.5124     8.8127
  227.0000   138.6712     8.5155     8.8156
  227.5000   141.6844     8.5183     8.8184
  228.0000   141.0899     8.5217     8.7604
  228.5000   137.4865     8.4650     8.7640
  229.0000   136.5885     8.4093     8.7668
  229.5000   138.7008     8.3546     8.7091
  230.0000   139.3093     8.3580     8.6525
  230.5000   135.7059     8.3607     8.5363
  231.0000   135.4094     8.3634     8.3635
  231.5000   137.5800     8.3084     8.3085
  232.0000   141.7392     8.1975     8.3119
  232.5000   143.2486     8.1429     8.3145
  233.0000   142.6526     8.1462     8.3172
  233.5000   140.5545     8.1495     8.3784
  234.0000   140.2580     8.2088     8.4394
  234.5000   138.1597     8.2685     8.5008
  235.0000   133.6541     8.3287     8.5627
  235.5000   133.0582     8.4482     8.6856
  236.0000   132.1630     8.5688     8.8096
  236.5000   128.2588     8.7515     8.8737
  237.0000   127.9637     8.8772     9.0004
  237.5000   128.8730     9.0039     9.1296
  238.0000   130.6832     9.0694     9.1326
  238.5000   133.3955     9.1354     9.2629
  239.0000   134.3048     9.1391     9.2020
  239.5000   137.0172     9.1421     9.2057
  240.0000   137.0228     9.1450     9.1444
  240.5000   135.5247     9.0849     9.0850
  241.0000   136.7347     8.9635     9.0252
  241.5000   138.2441     8.7821     8.8433
  242.0000   137.9490     8.6043     8.7245
  242.5000   134.0462     8.5477     8.5479
  243.0000   134.3526     8.4329     8.3748
  243.5000   136.1628     8.3202     8.2630
  244.0000   142.7930     8.2055     8.1513
  244.5000   142.4912     8.0429     8.0425
  245.0000   140.3916     7.9342     7.9351
  245.5000   141.2995     7.7743     7.9376
  246.0000   145.5158     7.7774     7.9402
  246.5000   145.2205     7.7799     7.9429
  247.0000   144.3253     7.7824     7.9460
  247.5000   141.3234     7.8391     8.0038
  248.0000   129.2989     7.8967     8.0064
  248.5000   130.8097     7.9542     8.1214
  249.0000   134.7251     8.0677     8.1805
  249.5000   135.0486     8.1829     8.2972
  250.0000   140.4521     8.3004     8.3576
  250.5000   140.4577     8.4189     8.4191
  251.0000   138.9379     8.5984     8.5477
  251.5000   137.5316     8.7219     8.7030
  252.0000   136.5767     8.8530     8.8583
  252.5000   135.3843     8.8772     9.0136
  253.0000   127.8740     8.9015     9.1689
  253.5000   124.5742     8.9168     9.1579
  254.0000   126.3893     8.9198     9.0969
  254.5000   127.3000     8.9233     9.0359
  255.0000   127.9100     8.8639     8.9137
  255.5000   130.6273     8.8062     8.8539
  256.0000   131.5381     8.6880     8.6740
  256.5000   131.8473     8.5720     8.5560
  257.0000   131.8558     8.4562     8.4399
  257.5000   130.6634     8.3432     8.3837
  258.0000   130.9726     8.2883     8.3858
  258.5000   133.9886     8.2917     8.3874
  259.0000   137.9069     8.2944     8.3890
  259.5000   140.9250     8.2971     8.3907
  260.0000   141.2342     8.3005     8.4510
  260.5000   139.1374     8.3032     8.5114
  261.0000   135.2361     8.3059     8.6318
  261.5000   134.9439     8.4245     8.7539
  262.0000   135.2552     8.6646     8.8782
  262.5000   133.7599     8.9109     9.0037
  263.0000   128.0463     9.0381     9.1311
  263.5000   126.5588     9.2963     9.3246
  264.0000   129.2762     9.6263     9.5226
  264.5000   129.5854     9.8316     9.6573
  265.0000   129.2832     9.9720     9.8620
  265.5000   128.4015    10.1144    10.0715
  266.0000   126.6055    10.3309    10.2139
  266.5000   124.8073    10.4784    10.4304
  267.0000   125.4196    10.6279    10.5049
  267.5000   127.2345    10.7873    10.7280
  268.0000   128.4460    11.0104    10.9554
  268.5000   127.2515    11.1676    11.2653
  269.0000   124.1482    11.4058    11.5045
  269.5000   123.3587    11.5687    11.9122
  270.0000   124.5723    11.8163    12.0807
  270.5000   123.0770    11.9849    12.2516
  271.0000   116.4351    12.0722    12.3392
  271.5000   116.4795    12.0771    12.3421
  272.0000   118.2925    11.9966    12.2593
  272.5000   120.7070    11.9177    12.1771
