~VERSION INFORMATION
 VERS.                2.0:   CWLS LOG ASCII STANDARD - VERSION 2.0
 WRAP.                 NO:   ONE LINE PER DEPTH STEP
~WELL INFORMATION
#MNEM.UNIT      DATA TYPE    INFORMATION
#----------   ------------   ------------------------------
 STRT.F            0.0000:   START DEPTH
 STOP.F          516.0000:   STOP DEPTH
 STEP.F            0.5000:   STEP LENGTH
 NULL.          -999.2500:   NO VALUE
 COMP.       F D SERV INC:   COMPANY
 WELL. NAVAL PETROLEUM RESERVE 3 SX-3 #77-2-3:   WELL
 FLD .             TEAPOT:   FIELD
 LOC .       S3 T38N R78W:   LOCATION
 CNTY.            NATRONA:   COUNTY
 STAT.            WYOMING:   STATE
 CTRY. UNITED STATES OF AMERICA:   COUNTRY
 SRVC.      Western Atlas:   SERVICE COMPANY
 DATE.        22-OCT-1992:   LOGDATE
 API .       490252255600:   API NUMBER
~CURVE INFORMATION
#MNEM.UNIT       API CODE    CURVE DESCRIPTION
#----------   ------------   ------------------------------
 DEPT.F                  :   
 GRR .GAPI   06 310 01 00:   GAMMA RAY FROM RESISTIVITY
 RILD.OHMM   06 120 46 00:   DEEP INDUCTION RESISTIVITY
 RILM.OHMM   06 120 44 00:   INDUCTION LOG MEDIUM RESISTIVITY
~PARAMETER INFORMATION
#MNEM.UNIT          VALUE    DESCRIPTION
#----------   ------------   ------------------------------
 PD  .                 GL:   PERMANENT DATUM
 EPD .F              5139:   ELEVATION PERMANENT DATUM
 LMF .                 KB:   LOG MEASURED FROM
 DAPD.F                10:   FEET ABOVE PERMANENT DATUM
 DMF .                 KB:   DRILLING MEASURED FROM
 EKB .F              5149:   KELLING BUSHING
 EDF .F              5148:   DRILLING FLOOR
 EGL .F              5139:   GROUND LEVEL
 DATE.        22-DEC-1992:   RUN DATE
 RUN .                  1:   RUN NUMBER
 DD  .F               525:   DEPTH DRILLER
 DL  .F               524:   DEPTH LOGGER
 CS  .IN            8.625:   CASING SIZE
 CBL .F                98:   CASING BOTTOM LOGGER
 BS  .IN            9.875:   BIT SIZE
 BSD .F               525:   BIT SIZE AT DEPTH
 DFT .           AIR FOAM:   DRILLING FLUID TYPE
 TCS .HRS               2:   TIME CURCULATED STOPPED
 LUN .            HL-6274:   LOGGING UNIT NUMBER
 LUL .             CASPER:   LOGGING UNIT LOCATION
 ENGI.             RASTIC:   RECORDING ENGINEER
 WITN.        GARY STRONG:   WITNESSED BY
 CLNT.            A2DTECH:   CLIENT CODE
 ORIG.           5" PRINT:   ORIGIN OF DATA
 UWI .       490252255600:   UNIQUE WELL ID
 DICO. A2D Technologies, Inc.:   DIGITIZING COMPANY
~OTHER INFORMATION
~A    DEPT      GRR      RILD       RILM   
# ...
  273.0000   136.7078     8.4683     8.4566
  273.5000   137.0133     8.5299     8.5166
  274.0000   134.9200     8.5327     8.5768
  274.5000   136.7260     8.5361     8.6374
  275.0000   138.5307     8.5389     8.6385
  275.5000   138.5377     8.5416     8.6399
  276.0000   134.9451     8.5444     8.6410
  276.5000   136.4500     8.4882     8.6422
  277.0000   139.1556     8.4324     8.5247
  277.5000   135.5630     8.4944     8.5260
  278.0000   133.7695     8.6827     8.7057
  278.5000   131.6703     8.8610     8.9509
  279.0000   128.9845     8.9254     9.0141
  279.5000   127.1910     8.9283     9.1410
  280.0000   125.3975     8.8092     9.2056
  280.5000   123.0057     8.5123     9.0804
  281.0000   122.7100     7.7825     8.4858
  281.5000   126.3152     7.1139     6.9375
  282.0000   131.1384     6.3721     6.2553
  282.5000   137.4223     6.1569     5.7983
  283.0000   141.9256     6.1165     5.4872
  283.5000   141.6314     6.1615     5.6418
  284.0000   135.9412     6.2498     6.1304
  284.5000   129.6499     6.4273     6.8007
  285.0000   126.3572     6.8901     7.8639
  285.5000   124.8635     7.4897     8.7843
  286.0000   127.2693     8.6042     9.4792
  286.5000   129.3739     9.6147     9.8817
  287.0000   129.9792     9.9564    10.3731
  287.5000   125.7883    10.4547    10.4464
  288.0000   126.0937    10.4581    10.3755
  288.5000   128.4981    10.3885    10.2347
  289.0000   129.7031    10.3211    10.2364
  289.5000   129.7101    10.5419    10.3802
  290.0000   129.7157    10.8412    10.6725
  290.5000   129.4213    11.3830    11.1397
  291.0000   126.7298    12.3357    12.4282
  291.5000   121.6379    13.9228    13.3190
  292.0000   108.1503    15.3440    14.4723
  292.5000    96.7317    15.8894    16.0660
  293.0000    90.1719    17.3921    17.5665
  293.5000    85.3799    18.7737    19.2199
  294.0000    83.8862    20.5475    20.5975
  294.5000    74.5978    22.8167    22.6247
  295.0000    69.2061    24.4460    24.1523
  295.5000    64.7140    25.1402    24.8324
  296.0000    65.3553    26.2145    25.8868
  296.5000    71.3233    27.5457    27.3625
  297.0000    75.2269    28.9022    28.3280
  297.5000    75.5622    29.5181    28.9251
  298.0000    72.2396    29.5277    28.5318
  298.5000    74.0457    29.1336    27.7576
  299.0000    77.6495    28.9397    27.3802
  299.5000    80.3678    28.9515    27.0080
  300.0000    81.5606    29.3651    27.1997
  300.5000    81.2693    29.7782    28.1603
  301.0000    78.5791    30.8305    30.1788
  301.5000    73.5618    31.9409    32.3419
  302.0000    65.4048    33.2787    33.2526
  302.5000    66.6126    33.7469    33.7208
  303.0000    72.6181    32.8298    32.8058
  303.5000    72.6048    31.4757    30.8319
  304.0000    70.8360    30.8566    28.9768
  304.5000    76.8436    30.6468    27.8037
  305.0000    85.2479    30.2304    27.4257
  305.5000    86.1559    30.2346    27.4302
  306.0000    83.7677    30.2394    28.2025
  306.5000    82.2748    31.0921    29.8102
  307.0000    82.2854    33.0944    31.5085
  307.5000    82.8936    34.8388    33.3035
  308.0000    82.0046    36.9799    35.2008
  308.5000    79.3145    37.2415    36.4440
  309.0000    75.1250    37.2464    36.4488
  309.5000    73.9211    37.2514    36.4535
  310.0000    77.2431    36.9992    35.2202
  310.5000    82.9487    36.7488    31.7579
  311.0000    88.9542    35.7514    32.4273
  311.5000    89.0045    34.7799    32.6564
  312.0000    84.1757    33.3709    32.4357
  312.5000    79.3866    31.5778    31.7755
  313.0000    78.7932    30.5079    30.9133
  313.5000    80.0032    29.8850    28.8532
  314.0000    81.2114    29.2757    27.1172
  314.5000    81.5215    28.0888    25.3109
  315.0000    84.2287    26.7641    23.9529
  315.5000    92.0332    25.5027    22.6678
  316.0000    92.9415    24.4687    22.3596
  316.5000    91.7525    23.6389    22.2085
  317.0000    91.1591    23.1570    21.9066
  317.5000    92.3691    23.0003    21.9101
  318.0000    96.3598    22.6871    21.4634
  318.5000    99.8845    22.6908    21.4663
  319.0000    98.9934    22.6938    21.4697
  319.5000    93.9044    22.8551    21.6214
  320.0000    89.7150    22.8580    21.7741
  320.5000    90.9250    22.8610    22.0800
  321.0000    92.1329    22.8640    21.9308
  321.5000    90.3423    22.8677    21.9344
  322.0000    87.9401    23.0295    21.9372
  322.5000    89.4618    23.0325    21.9402
  323.0000    93.3683    23.1955    21.9437
  323.5000    98.7741    23.3603    21.9465
  324.0000    98.7826    23.3634    22.1016
  324.5000    95.7947    23.3664    22.2712
  325.0000    91.6053    23.3694    22.4157
  325.5000    89.2149    23.3732    22.1109
  326.0000    87.4243    23.0542    22.1138
  326.5000    88.3345    23.0580    21.9644
  327.0000    91.3415    23.0610    21.9680
  327.5000    94.6483    23.0647    21.9708
  328.0000    94.0571    22.5938    22.1260
  328.5000    93.1660    22.2862    22.1290
  329.0000    94.9757    21.6766    21.9794
  329.5000    97.6828    21.2379    21.8316
  330.0000    96.4919    20.9487    21.2393
  330.5000    92.3025    21.0976    20.9505
  331.0000    94.4120    21.2528    21.0992
  331.5000    95.9198    21.5465    21.1019
  332.0000    94.1291    21.5493    21.1047
  332.5000    92.3385    21.2552    21.1075
  333.0000    92.6490    20.8219    20.9648
  333.5000    92.0577    20.6817    20.8239
  334.0000    90.5670    20.8280    20.5407
  334.5000    90.6127    21.2676    20.4020
  335.0000    91.7855    21.2705    20.5468
  335.5000    92.6935    20.6931    20.5494
  336.0000    94.2012    20.4107    20.5521
  336.5000    97.3243    20.6985    20.5548
  337.0000   100.2173    21.1354    20.1364
  337.5000    98.7265    20.7039    20.1390
  338.0000    96.3362    20.2818    19.7284
  338.5000    91.8051    19.8677    19.3262
  339.0000    90.0563    19.7206    18.9328
  339.5000    94.8645    19.1977    18.5462
  340.0000    99.9704    18.8051    18.1687
  340.5000   101.1790    18.6783    17.9217
  341.0000    98.4889    18.5520    17.8006
  341.5000    95.2011    18.5550    17.8035
  342.0000    94.6078    18.5575    17.8058
  342.5000    95.5158    18.3047    17.5637
  343.0000    95.5264    18.0555    17.4450
  343.5000    95.2350    18.0585    17.3272
  344.0000    97.0447    17.8120    16.9745
  344.5000    99.1522    17.5700    16.8598
  345.0000    99.1606    17.3150    16.7464
  345.5000    97.8840    17.0948    16.4045
  346.0000    94.9818    16.7463    16.1814
  346.5000    95.5900    16.6330    15.8521
  347.0000    98.2971    16.4066    15.6365
  347.5000    98.9055    16.2961    15.6391
  348.0000    98.9159    16.0742    15.6411
  348.5000    99.2242    15.7459    15.7516
  349.0000   101.9314    15.7485    15.8634
  349.5000   102.2397    15.7506    15.8655
  350.0000   100.7496    15.9715    15.8675
  350.5000    99.2647    15.7559    15.5440
  351.0000    96.2777    15.5424    15.1228
  351.5000    92.0912    15.0176    15.2291
  352.0000    93.6020    14.5090    14.4125
  352.5000    99.0107    14.4118    14.2165
  353.0000    98.3327    14.4154    14.2185
  353.5000    94.2389    14.3188    14.3190
  354.0000    91.8516    14.1248    14.2222
  354.5000    91.5603    14.0302    13.9323
  355.0000    92.4742    13.9369    13.7429
  355.5000    96.1042    13.6533    13.5565
  356.0000   101.4956    13.3754    13.3723
  356.5000   105.1052    13.2858    13.1905
  357.0000   104.8168    13.2891    13.1927
  357.5000   103.9259    13.3841    13.1945
  358.0000   105.4395    13.3867    13.3798
  358.5000   107.2504    13.4824    13.4744
  359.0000   106.3648    13.6730    13.5696
  359.5000   103.9775    13.7707    13.8558
  360.0000    94.3938    13.9660    13.9537
  360.5000    93.5052    13.9688    14.0524
  361.0000    94.4367    13.9716    13.8613
  361.5000    98.0292    14.4663    14.3510
  362.0000   102.5385    14.5697    14.3529
  362.5000   103.4466    14.3730    14.3548
  363.0000    99.2630    14.0805    14.0622
  363.5000    93.8772    13.9855    13.8710
