~VERSION INFORMATION
 VERS.                2.0:   CWLS LOG ASCII STANDARD - VERSION 2.0
 WRAP.                 NO:   ONE LINE PER DEPTH STEP
~WELL INFORMATION
#MNEM.UNIT      DATA TYPE    INFORMATION
#----------   ------------   ------------------------------
 STRT.F            7.0000:   START DEPTH
 STOP.F          549.0000:   STOP DEPTH
 STEP.F            0.5000:   STEP LENGTH
 NULL.          -999.2500:   NO VALUE
 COMP. LAWRENCE-ALLISON &AS:   COMPANY
 WELL. NPR 3 #51-62-SX-10-LP3:   WELL
 FLD .             TEAPOT:   FIELD
 LOC .      S10 T38N R78W:   LOCATION
 CNTY.            NATRONA:   COUNTY
 STAT.            WYOMING:   STATE
 CTRY. UNITED STATES OF AMERICA:   COUNTRY
 SRVC.      Dresser Atlas:   SERVICE COMPANY
 DATE.        10-DEC-1984:   LOGDATE
 API .       490251099500:   API NUMBER
~CURVE INFORMATION
#MNEM.UNIT       API CODE    CURVE DESCRIPTION
#----------   ------------   ------------------------------
 DEPT.F                  :   
 SPR .MV     07 010 01 00:   SPONTANEOUS POTENTIAL
 RILD.OHMM   07 120 46 00:   INDUCTION LOG DEEP RESISTIVITY
 RILM.OHMM   07 120 44 00:   INDUCTION LOG MEDIUM RESISTIVITY
 RFOC.OHMM   07 220 04 00:   RESISTIVITY FOCUSED LOG
 DT  .US/F   60 520 00 00:   INTERVAL TRANSIT TIME
 PORD.DEC    45 890 12 00:   POROSITY DENSITY SANDSTONE
 CNCF.DEC    42 890 03 00:   NEUTRON POROSITY SANDSTONE
 CALD.IN     45 280 60 00:   CALIPER FROM DENSITY LOG
 GRD .GAPI   45 310 01 00:   GAMMA RAY FROM DENSITY LOG
 CORR.G/C3   45 356 01 00:   DENSITY CORRECTION
 DEN .G/C3   45 350 01 00:   COMPENSATED BULK DENSTIY
~PARAMETER INFORMATION
#MNEM.UNIT          VALUE    DESCRIPTION
#----------   ------------   ------------------------------
 PD  .                 GL:   PERMANENT DATUM
 EPD .F              5179:   ELEVATION PERMANENT DATUM
 LMF .                 GL:   LOG MEASURED FROM
 DMF .                 GL:   DRILLING MEASURED FROM
 EGL .F              5179:   GROUND LEVEL
 DATE.        10-DEC-1984:   RUN DATE
 RUN .                  1:   RUN NUMBER
 DD  .F               554:   DEPTH DRILLER
 DL  .F               551:   DEPTH LOGGER
 BLI .F               549:   BOTTOM LOG INTERVAL
 TLI .F                20:   TOP LOG INTERVAL
 CS  .IN            8.625:   CASING SIZE
 CBD .F                20:   CASING BOTTOM DRILLER
 CBL .F                20:   CASING BOTTOM LOGGER
 BS  .IN            7.875:   BIT SIZE
 BSD .F               554:   BIT SIZE AT DEPTH
 DFT .         KCL- WATER:   DRILLING FLUID TYPE
 MSS .           MUD TANK:   MUD SAMPLE SOURCE
 RMS .OHMM           .168:   RESISTIVITY MUD SAMPLE
 MST .F                77:   MUD SAMPLE TEMPERATURE
 RMF .OHMM           .126:   RESISTIVITY MUD FILTRATE SAMPLE
 MFST.F                77:   MUD FILTRATE SAMPLE TEMPERATURE
 RMC .OHMM            .21:   RESISTIVITY MUD CAKE
 MCST.F                77:   MUD CAKE SAMPLE TEMPERATURE
 MFSS.               CALC:   MUD FILTRATE SAMPLE SOURCE
 MCSS.               CALC:   MUD CAKE SAMPLE SOURCE
 RMB .OHMM            .15:   RESISTIVITY MUD AT BHT
 BHT .F                85:   BOTTOM HOLE TEMPERATURE
 TCS .HRS             3.5:   TIME CURCULATED STOPPED
 MRT .F               100:   MAXIMUM RECORDED TEMPERATURE
 LUN .               6270:   LOGGING UNIT NUMBER
 LUL .                 FM:   LOGGING UNIT LOCATION
 ENGI.          E. GOVETT:   RECORDING ENGINEER
 WITN.             GROOMS:   WITNESSED BY
 CLNT.            A2DTECH:   CLIENT CODE
 ORIG.           5" PRINT:   ORIGIN OF DATA
 UWI .       490251099500:   UNIQUE WELL ID
 DICO. A2D Technologies, Inc.:   DIGITIZING COMPANY
~OTHER INFORMATION
~A    DEPT     SPR       RILD       RILM       RFOC         DT       PORD         CNCF     CALD        GRD       CORR        DEN   
# ...
  373.0000   -51.1410    14.6196    11.8028    15.9892    92.6837     0.1774     0.2583     7.9349    69.9715     0.0186     2.3803
  373.5000   -51.1336    14.4245    11.7238    15.7782    92.4545     0.1789     0.2571     7.9335    72.5159     0.0065     2.3795
  374.0000   -51.1263    14.1352    11.6461    15.5697    92.1500     0.1801     0.2671     7.9319    74.3085     0.0110     2.3780
  374.5000   -51.1189    13.9466    11.5689    15.4707    91.8455     0.1780     0.2740     7.9305    77.6049     0.0155     2.3810
  375.0000   -51.1115    13.7604    11.5729    15.2664    91.4659     0.1738     0.2807     7.9142    78.9464     0.0411     2.3839
  375.5000   -51.2544    13.6711    11.4168    15.0620    91.1614     0.1714     0.2734     7.8828    80.1375     0.0457     2.3899
  376.0000   -51.3954    13.5824    11.3412    14.7631    90.7065     0.1696     0.2635     7.8665    79.3737     0.0349     2.3929
  376.5000   -51.5364    13.4940    11.3443    14.6614    90.3269     0.1717     0.2562     7.8652    77.8580     0.0274     2.3929
  377.0000   -51.6774    13.4998    11.2691    14.5761    89.8720     0.1717     0.2511     7.8788    76.7935     0.0364     2.3928
  377.5000   -51.8165    13.5992    11.2722    14.4834    89.4172     0.1711     0.2451     7.8925    74.8267     0.0469     2.3937
  378.0000   -51.8092    13.6049    11.2753    14.4917    89.0375     0.1654     0.2421     7.8912    74.0629     0.0393     2.4033
  378.5000   -51.8018    13.6105    11.2784    14.4998    88.8834     0.1588     0.2490     7.9199    77.0585     0.0317     2.4139
  379.0000   -51.6460    13.5222    11.2036    14.4073    88.8045     0.1587     0.2560     7.9186    81.5579     0.0151     2.4138
  379.5000   -51.4903    13.5278    11.2068    14.4172    88.8008     0.1639     0.2638     7.9623    81.9971     0.0135     2.4077
  380.0000   -51.1862    13.4400    11.2099    14.5253    88.7168     0.1639     0.2653     7.9609    79.9203     0.0167     2.4047
  380.5000   -51.3272    13.4455    11.2130    14.5333    88.5677     0.1593     0.2611     7.9596    76.0280     0.0288     2.4137
  381.0000   -51.4700    13.4511    11.1239    14.5413    88.8115     0.1516     0.2575     7.9583    75.3444     0.0408     2.4287
  381.5000   -51.4608    13.4568    10.9891    14.3492    89.1757     0.1426     0.2584     7.9402    75.9344     0.0527     2.4407
  382.0000   -51.4535    13.3693    10.9921    14.3571    89.3085     0.1371     0.2691     7.9079    77.4233     0.0540     2.4527
  382.5000   -51.5963    13.3749    10.9952    14.2639    89.3038     0.1429     0.2790     7.8639    78.6173     0.0458     2.4429
  383.0000   -51.5871    13.1964    10.9215    14.0755    89.3001     0.1462     0.2786     7.8475    76.4972     0.0313     2.4346
  383.5000   -51.5797    13.1003    10.8491    13.7956    89.3725     0.1480     0.2736     7.8462    76.3379     0.0147     2.4338
  384.0000   -51.7211    12.9357    10.7772    13.8032    89.2175     0.1456     0.2624     7.8448    77.6764     0.0146     2.4360
  384.5000   -52.1585    12.7631    10.7058    13.8108    88.9882     0.1435     0.2530     7.8435    79.3216     0.0297     2.4397
  385.0000   -52.4478    12.6802    10.7095    13.4408    88.9845     0.1417     0.2488     7.8422    79.3067     0.0417     2.4435
  385.5000   -52.8856    12.5980    10.4922    13.4482    88.9807     0.1390     0.2461     7.8409    79.2948     0.0507     2.4495
  386.0000   -53.1749    12.5162    10.4219    13.6433    89.0531     0.1366     0.2467     7.8395    80.6362     0.0506     2.4532
  386.5000   -53.3160    12.3504    10.2821    13.4630    89.1246     0.1390     0.2479     7.8382    81.8273     0.0491     2.4464
  387.0000   -53.7537    12.3555    10.2849    13.2833    89.1961     0.1474     0.2482     7.8369    82.8681     0.0460     2.4343
  387.5000   -54.1914    12.3606    10.2878    13.1097    89.2675     0.1523     0.2558     7.8355    84.8110     0.0339     2.4282
  388.0000   -54.4808    12.4517    10.2189    12.7585    89.4142     0.1490     0.2630     7.8342    87.0548     0.0278     2.4274
  388.5000   -54.6218    12.4568    10.2224    12.5031    89.5608     0.1438     0.2558     7.8329    85.3887     0.0127     2.4371
  389.0000   -54.6142    12.3747    10.1539    12.5100    89.7818     0.1378     0.2485     7.8315    81.3167     0.0217     2.4522
  389.5000   -54.6068    12.2957    10.1574    13.0479    89.7780     0.1330     0.2464     7.8302    81.6060     0.0337     2.4612
  390.0000   -54.5994    12.2146    10.0894    13.4217    89.6991     0.1330     0.2537     7.8288    81.5936     0.0548     2.4589
  390.5000   -54.5920    12.3059    10.0929    13.5225    89.5450     0.1416     0.2603     7.8272    81.5817     0.0623     2.4491
  391.0000   -54.5846    12.3109    10.0956    13.4362    89.2406     0.1476     0.2649     7.8409    81.7203     0.0396     2.4400
  391.5000   -54.5757    12.3160    10.0984    13.3509    89.0865     0.1487     0.2661     7.8396    82.1594     0.0230     2.4324
  392.0000   -54.5683    12.2348    10.1012    13.3585    89.0827     0.1391     0.2585     7.8382    82.9112    -0.0057     2.4309
  392.5000   -54.5610    12.2412    10.1040    13.3658    89.1591     0.1364     0.2435     7.8219    86.2157     0.0033     2.4489
  393.0000   -54.5536    12.1605    10.1068    13.2808    89.3008     0.1394     0.2423     7.8206    89.4056     0.0259     2.4519
  393.5000   -54.5462    12.0828    10.1095    13.2882    89.4475     0.1451     0.2498     7.8192    89.9313     0.0379     2.4474
  394.0000   -54.6891    12.0878    10.0425    13.2955    89.5942     0.1511     0.2622     7.8332    88.7538     0.0270     2.4413
  394.5000   -54.6799    12.0081     9.9071    13.0258    89.7399     0.1517     0.2610     7.8316    86.1451     0.0031     2.4277
  395.0000   -54.6725    11.9302     9.8414    12.9465    89.8865     0.1524     0.2538     7.8302    84.6294     0.0139     2.4261
  395.5000   -54.8153    11.8527     9.7762    12.9539    90.1093     0.1518     0.2498     7.8139    85.0686     0.0278     2.4261
  396.0000   -54.8061    11.7758     9.7114    12.9610    90.3311     0.1503     0.2523     7.8126    86.8612     0.0499     2.4268
  396.5000   -54.9490    11.7006     9.6471    12.9682    90.4026     0.1488     0.2547     7.8112    88.0553     0.0426     2.4283
  397.0000   -55.0900    11.6235     9.5170    13.0655    90.0972     0.1470     0.2550     7.8099    83.8299     0.0252     2.4305
  397.5000   -55.2291    11.5492     9.3887    12.9822    89.8679     0.1452     0.2514     7.8086    83.2165     0.0270     2.4351
  398.0000   -55.2217    11.5540     9.2627    12.8125    89.6386     0.1427     0.2452     7.8072    82.7534     0.0465     2.4398
  398.5000   -55.3646    11.4778     9.1378    12.5542    89.5597     0.1391     0.2502     7.8059    82.1400     0.0254     2.4459
  399.0000   -55.5037    11.3258     9.0766    12.3045    89.5560     0.1358     0.2671     7.8042    81.3762     0.0178     2.4545
  399.5000   -55.4964    11.0565     9.0797    12.1420    89.6284     0.1322     0.2843     7.8029    81.3643     0.0208     2.4612
  400.0000   -55.6392    10.8307     9.0189    12.0632    89.8941     0.1380     0.2909     7.8019    81.8038    -0.0034     2.4546
  400.5000   -56.0437    10.6835     9.1468    11.9585    89.9955     0.1383     0.2848     7.8072    83.4512     0.0253     2.4475
  401.0000   -56.2174    10.3211     9.0819    11.6339    89.9910     0.1431     0.2791     7.8121    83.4400     0.0267     2.4414
  401.5000   -56.5050    10.1801     8.9624    11.3471    90.0617     0.1443     0.2656     7.8115    83.5815     0.0098     2.4376
  402.0000   -56.7944     9.9723     8.7728    11.0409    90.5914     0.1480     0.2690     7.8099    86.7304    -0.0091     2.4321
  402.5000   -56.9372     9.8364     8.4655    10.8928    91.4888     0.1534     0.2714     7.8083    89.8794    -0.0156     2.4212
  403.0000   -57.0783     9.5688     8.1294    10.6716    92.2346     0.1561     0.2699     7.8067    90.3359    -0.0103     2.4187
