~VERSION INFORMATION
 VERS.                2.0:   CWLS LOG ASCII STANDARD - VERSION 2.0
 WRAP.                 NO:   ONE LINE PER DEPTH STEP
~WELL INFORMATION
#MNEM.UNIT      DATA TYPE    INFORMATION
#----------   ------------   ------------------------------
 STRT.F          432.0000:   START DEPTH
 STOP.F         1258.0000:   STOP DEPTH
 STEP.F            0.5000:   STEP LENGTH
 NULL.          -999.2500:   NO VALUE
 COMP. FENIX & SCISSON INC:   COMPANY
 WELL.   12 SHX 34 #12-34:   WELL
 FLD .            WILDCAT:   FIELD
 LOC .      S34 T39N R78W:   LOCATION
 CNTY.            NATRONA:   COUNTY
 STAT.            WYOMING:   STATE
 CTRY. UNITED STATES OF AMERICA:   COUNTRY
 SRVC.              Welex:   SERVICE COMPANY
 DATE.        23-APR-1979:   LOGDATE
 API .       490251078200:   API NUMBER
~CURVE INFORMATION
#MNEM.UNIT       API CODE    CURVE DESCRIPTION
#----------   ------------   ------------------------------
 DEPT.F                  :   
 CALD.IN     45 280 60 00:   CALIPER
 GRD .GAPI   45 310 01 00:   GAMMA RAY FROM DENSITY LOG
 RHOB.G/C3   45 350 01 00:   BULK DENSITY
 DPHI.DEC    45 890 12 00:   DENSITY POROSITY SANDSTONE
 CORR.G/C3   45 356 01 00:   DENSITY CORRECTION
~PARAMETER INFORMATION
#MNEM.UNIT          VALUE    DESCRIPTION
#----------   ------------   ------------------------------
 PD  .                 GL:   PERMANENT DATUM
 EPD .F              5092:   ELEVATION PERMANENT DATUM
 LMF .                 KB:   LOG MEASURED FROM
 DAPD.F                10:   FEET ABOVE PERMANENT DATUM
 DMF .                 KB:   DRILLING MEASURED FROM
 EKB .F              5102:   KELLING BUSHING
 EGL .F              5092:   GROUND LEVEL
 DATE.            4-23-79:   RUN DATE
 RUN .                  1:   RUN NUMBER
 DD  .F              1260:   DEPTH DRILLER
 DL  .F              1260:   DEPTH LOGGER
 BLI .F              1258:   BOTTOM LOG INTERVAL
 TLI .F               446:   TOP LOG INTERVAL
 CS  .IN            9.625:   CASING SIZE
 CBD .F               440:   CASING BOTTOM DRILLER
 BS  .IN            8.375:   BIT SIZE
 BSD .F              1260:   BIT SIZE AT DEPTH
 DFT .                OIL:   DRILLING FLUID TYPE
 DFD .                8.7:   DRILLING FLUID DENSITY
 TCS .HRS               1:   TIME CURCULATED STOPPED
 ENGI.               REIN:   RECORDING ENGINEER
 WITN.              AMEND:   WITNESSED BY
 CLNT.            A2DTECH:   CLIENT CODE
 ORIG.           5" PRINT:   ORIGIN OF DATA
 UWI .       490251078200:   UNIQUE WELL ID
 DICO. A2D Technologies, Inc.:   DIGITIZING COMPANY
~OTHER INFORMATION
~A   DEPT     CALD         GRD      RHOB       DPHI       CORR   
# ...
  493.0000     8.6950    91.5361     2.4688     0.0526     0.0191
  493.5000     8.6904    92.0795     2.4635     0.0549     0.0171
  494.0000     8.6859    91.1364     2.4585     0.0572     0.0151
  494.5000     8.6813    90.2324     2.4535     0.0595     0.0127
  495.0000     8.6768    89.6014     2.4518     0.0617     0.0110
  495.5000     8.6722    90.1656     2.4571     0.0600     0.0147
  496.0000     8.6677    93.6538     2.4659     0.0533     0.0189
  496.5000     8.6631    96.8932     2.4747     0.0458     0.0236
  497.0000     8.6585    95.3802     2.4836     0.0386     0.0252
  497.5000     8.6540    93.0805     2.4859     0.0386     0.0251
  498.0000     8.6494    91.1655     2.4848     0.0405     0.0229
  498.5000     8.6448    90.4264     2.4810     0.0426     0.0211
  499.0000     8.6412    89.1942     2.4772     0.0447     0.0227
  499.5000     8.6426    87.0185     2.4757     0.0446     0.0313
  500.0000     8.6486    85.2820     2.4819     0.0425     0.0396
  500.5000     8.6545    86.9707     2.4896     0.0403     0.0444
  501.0000     8.6603    88.9199     2.4893     0.0419     0.0408
  501.5000     8.6661    90.5817     2.4781     0.0450     0.0373
  502.0000     8.6719    88.8962     2.4670     0.0423     0.0338
  502.5000     8.6777    88.1074     2.4608     0.0384     0.0304
  503.0000     8.6836    88.1569     2.4609     0.0374     0.0294
  503.5000     8.6894    88.7733     2.4648     0.0383     0.0293
  504.0000     8.6952    89.3976     2.4736     0.0392     0.0331
  504.5000     8.7010    89.9402     2.4827     0.0402     0.0371
  505.0000     8.7069    89.8584     2.4918     0.0411     0.0410
  505.5000     8.7127    87.8887     2.4983     0.0379     0.0449
  506.0000     8.7188    85.8372     2.5010     0.0342     0.0489
  506.5000     8.7121    83.8140     2.5031     0.0322     0.0528
  507.0000     8.7037    81.3587     2.5031     0.0318     0.0568
  507.5000     8.6953    78.7660     2.4996     0.0318     0.0606
  508.0000     8.6870    77.7105     2.4950     0.0344     0.0642
  508.5000     8.6792    80.2199     2.4906     0.0377     0.0599
  509.0000     8.6744    82.8869     2.4805     0.0409     0.0512
  509.5000     8.6695    85.6039     2.4678     0.0464     0.0423
  510.0000     8.6646    84.9405     2.4546     0.0538     0.0332
  510.5000     8.6597    82.8274     2.4538     0.0600     0.0313
  511.0000     8.6548    81.7476     2.4594     0.0589     0.0310
  511.5000     8.6499    83.9706     2.4609     0.0576     0.0209
  512.0000     8.6450    86.5672     2.4467     0.0628     0.0102
  512.5000     8.6424    85.9300     2.4343     0.0710     0.0049
  513.0000     8.6479    83.8500     2.4375     0.0718     0.0069
  513.5000     8.6532    81.7361     2.4499     0.0668     0.0107
  514.0000     8.6585    79.5507     2.4576     0.0615     0.0137
  514.5000     8.6637    80.1828     2.4507     0.0625     0.0121
  515.0000     8.6690    82.1206     2.4466     0.0657     0.0084
  515.5000     8.6743    83.1916     2.4553     0.0622     0.0051
  516.0000     8.6796    83.5261     2.4653     0.0569     0.0065
  516.5000     8.6849    85.0508     2.4752     0.0516     0.0116
  517.0000     8.6902    86.6353     2.4852     0.0467     0.0166
  517.5000     8.6956    86.4739     2.4952     0.0375     0.0216
  518.0000     8.6994    82.7424     2.5051     0.0283     0.0266
  518.5000     8.6776    79.0078     2.5152     0.0212     0.0284
  519.0000     8.6546    75.8542     2.5191     0.0205     0.0246
  519.5000     8.6318    75.9980     2.5114     0.0236     0.0209
  520.0000     8.6080    79.0643     2.5030     0.0294     0.0172
  520.5000     8.6023    82.1221     2.4982     0.0308     0.0171
  521.0000     8.6187    83.7614     2.5048     0.0292     0.0183
  521.5000     8.6490    83.3562     2.5114     0.0278     0.0191
  522.0000     8.6606    83.1621     2.5059     0.0293     0.0150
  522.5000     8.6609    88.0786     2.4927     0.0317     0.0084
  523.0000     8.6608    86.5971     2.4980     0.0341     0.0077
  523.5000     8.6608    84.9133     2.5050     0.0362     0.0116
  524.0000     8.6608    86.1171     2.4917     0.0380     0.0155
  524.5000     8.6623    86.5103     2.4851     0.0386     0.0196
  525.0000     8.6721    85.1102     2.4986     0.0358     0.0204
  525.5000     8.6852    83.7635     2.5075     0.0317     0.0174
  526.0000     8.6937    83.7781     2.5008     0.0305     0.0143
  526.5000     8.6672    85.0739     2.4940     0.0326     0.0115
  527.0000     8.6408    86.3832     2.4988     0.0338     0.0089
  527.5000     8.6146    87.0443     2.5061     0.0305     0.0102
  528.0000     8.5876    83.9231     2.5135     0.0273     0.0156
  528.5000     8.5927    80.0822     2.5169     0.0253     0.0208
  529.0000     8.6052    80.1117     2.5064     0.0249     0.0253
  529.5000     8.6180    82.3199     2.4947     0.0319     0.0238
  530.0000     8.6217    84.7243     2.4831     0.0392     0.0198
  530.5000     8.6062    86.4134     2.4714     0.0465     0.0159
  531.0000     8.5886    85.5936     2.4610     0.0538     0.0120
  531.5000     8.5711    84.6835     2.4598     0.0558     0.0082
  532.0000     8.5538    87.7217     2.4622     0.0543     0.0016
  532.5000     8.5434    90.6762     2.4646     0.0528    -0.0010
  533.0000     8.5750    87.5198     2.4677     0.0513     0.0024
  533.5000     8.6209    84.2429     2.4759     0.0499     0.0080
  534.0000     8.6620    83.0462     2.4856     0.0441     0.0137
  534.5000     8.6609    82.2101     2.4955     0.0363     0.0194
  535.0000     8.6608    81.5331     2.4973     0.0326     0.0254
  535.5000     8.6606    81.2876     2.4895     0.0349     0.0251
  536.0000     8.6690    83.6111     2.4794     0.0411     0.0212
  536.5000     8.6777    85.2950     2.4693     0.0473     0.0168
  537.0000     8.6991    83.4542     2.4680     0.0508     0.0130
  537.5000     8.6940    80.9072     2.4775     0.0477     0.0141
  538.0000     8.6835    82.4558     2.4868     0.0420     0.0181
  538.5000     8.6728    87.7659     2.4962     0.0336     0.0212
  539.0000     8.6621    91.4688     2.4997     0.0314     0.0234
  539.5000     8.6514    91.9439     2.4890     0.0365     0.0231
  540.0000     8.6407    90.5168     2.4779     0.0417     0.0211
  540.5000     8.6300    89.1418     2.4668     0.0469     0.0190
  541.0000     8.6193    87.7589     2.4554     0.0520     0.0169
  541.5000     8.6087    86.3577     2.4517     0.0572     0.0148
  542.0000     8.6023    86.4887     2.4510     0.0608     0.0127
  542.5000     8.6034    88.5416     2.4507     0.0609     0.0106
  543.0000     8.6044    90.5546     2.4509     0.0608     0.0091
  543.5000     8.6054    92.5655     2.4534     0.0604     0.0110
  544.0000     8.6065    94.5988     2.4596     0.0549     0.0129
  544.5000     8.6075    96.5962     2.4743     0.0480     0.0147
  545.0000     8.6085    94.8051     2.4901     0.0411     0.0166
  545.5000     8.6095    91.3835     2.5060     0.0342     0.0184
  546.0000     8.6106    88.0316     2.5220     0.0272     0.0203
  546.5000     8.6116    87.2497     2.5231     0.0209     0.0221
  547.0000     8.6126    88.2400     2.5026     0.0233     0.0239
  547.5000     8.6136    89.3394     2.5046     0.0258     0.0252
  548.0000     8.6147    90.4401     2.5202     0.0253     0.0243
  548.5000     8.6157    91.3696     2.5127     0.0251     0.0219
  549.0000     8.6167    90.2427     2.5022     0.0257     0.0195
  549.5000     8.6177    89.1005     2.5044     0.0257     0.0170
  550.0000     8.6188    87.9791     2.5156     0.0236     0.0146
  550.5000     8.6198    88.3643     2.5232     0.0211     0.0122
  551.0000     8.6208    89.3375     2.5151     0.0205     0.0106
  551.5000     8.6218    89.8380     2.5041     0.0228     0.0091
  552.0000     8.6230    87.2528     2.5171     0.0206     0.0130
  552.5000     8.6243    84.5591     2.5293     0.0140     0.0192
  553.0000     8.6257    84.4335     2.5301     0.0167     0.0255
  553.5000     8.6271    87.4212     2.5192     0.0205     0.0318
