~VERSION INFORMATION
 VERS.                2.0:   CWLS LOG ASCII STANDARD - VERSION 2.0
 WRAP.                 NO:   ONE LINE PER DEPTH STEP
~WELL INFORMATION
#MNEM.UNIT      DATA TYPE    INFORMATION
#----------   ------------   ------------------------------
 STRT.F            2.0000:   START DEPTH
 STOP.F          592.0000:   STOP DEPTH
 STEP.F            0.1000:   STEP LENGTH
 NULL.          -999.2500:   NO VALUE
 COMP. BROWN JOHN E&C INC:   COMPANY
 WELL. NAVAL PETROLEUM RESERVE 3 SX-3 #73-3:   WELL
 FLD .             TEAPOT:   FIELD
 LOC .       S3 T38N R78W:   LOCATION
 CNTY.            NATRONA:   COUNTY
 STAT.            WYOMING:   STATE
 CTRY. UNITED STATES OF AMERICA:   COUNTRY
 SRVC.     Atlas Wireline:   SERVICE COMPANY
 DATE.        22-APR-1992:   LOGDATE
 API .       490252251000:   API NUMBER
~CURVE INFORMATION
#MNEM.UNIT       API CODE    CURVE DESCRIPTION
#----------   ------------   ------------------------------
 DEPT.F                  :   
 GRR .GAPI   07 310 01 00:   GAMMA RAY
 RILD.OHMM   07 120 46 00:   INDUCTION LOG DEEP RESISTIVITY
 RILM.OHMM   07 120 44 00:   INDUCTION LOG MEDIUM RESISTIVITY
~PARAMETER INFORMATION
#MNEM.UNIT          VALUE    DESCRIPTION
#----------   ------------   ------------------------------
 PD  .                 GL:   PERMANENT DATUM
 EPD .F              5148:   ELEVATION PERMANENT DATUM
 LMF .                 KB:   LOG MEASURED FROM
 DAPD.F                 5:   FEET ABOVE PERMANENT DATUM
 DMF .                 KB:   DRILLING MEASURED FROM
 EKB .F              5153:   KELLING BUSHING
 EDF .F              5152:   DRILLING FLOOR
 EGL .F              5148:   GROUND LEVEL
 DATE.        22-APR-1992:   RUN DATE
 RUN .                  1:   RUN NUMBER
 DD  .F               600:   DEPTH DRILLER
 DL  .F               601:   DEPTH LOGGER
 BLI .F               592:   BOTTOM LOG INTERVAL
 TLI .F                51:   TOP LOG INTERVAL
 CS  .IN            8.625:   CASING SIZE
 CBD .F                48:   CASING BOTTOM DRILLER
 CBL .F                51:   CASING BOTTOM LOGGER
 BS  .IN            7.875:   BIT SIZE
 BSD .F               600:   BIT SIZE AT DEPTH
 DFT .                AIR:   DRILLING FLUID TYPE
 LUN .            HL-5272:   LOGGING UNIT NUMBER
 LUL .             CASPER:   LOGGING UNIT LOCATION
 ENGI.       P. RAGMUSSEN:   RECORDING ENGINEER
 WITN.          G. STRONG:   WITNESSED BY
 CLNT.            A2DTECH:   CLIENT CODE
 ORIG.           5" PRINT:   ORIGIN OF DATA
 UWI .       490252251000:   UNIQUE WELL ID
 DICO. A2D Technologies, Inc.:   DIGITIZING COMPANY
~OTHER INFORMATION
~A    DEPT      GRR      RILD       RILM   
# ...
  311.4000   139.9386     5.7563     5.5364
  311.5000   140.1361     5.5953     5.4515
  311.6000   140.1392     5.4365     5.3601
  311.7000   140.3860     5.2578     5.2702
  311.8000   140.6359     5.1041     5.1836
  311.9000   141.0180     4.9469     5.1162
  312.0000   141.5147     4.7813     5.0685
  312.1000   142.0117     4.6275     5.0118
  312.2000   142.5783     4.5387     4.9664
  312.3000   142.7931     4.4950     4.9346
  312.4000   143.0430     4.4446     4.8752
  312.5000   143.3937     4.3847     4.8250
  312.6000   143.8907     4.3153     4.7711
  312.7000   144.4086     4.2648     4.7056
  312.8000   144.8842     4.2191     4.6328
  312.9000   145.3812     4.1891     4.5809
  313.0000   146.2534     4.1898     4.5298
  313.1000   147.5599     4.2140     4.4792
  313.2000   149.0575     4.2384     4.4291
  313.3000   151.0837     4.2670     4.3796
  313.4000   152.1112     4.2673     4.3330
  313.5000   153.4978     4.2677     4.3056
  313.6000   154.7014     4.2680     4.2850
  313.7000   155.3694     4.2646     4.2459
  313.8000   155.6371     4.2392     4.2178
  313.9000   155.6399     4.2172     4.2140
  314.0000   155.4695     4.1937     4.1894
  314.1000   154.9900     4.1703     4.1898
  314.2000   154.0035     4.1529     4.1731
  314.3000   152.2852     4.1532     4.1615
  314.4000   150.5119     4.1248     4.1682
  314.5000   149.1307     4.1251     4.1914
  314.6000   146.8374     4.1255     4.1919
  314.7000   144.0378     4.1258     4.2309
  314.8000   141.0787     4.1261     4.2796
  314.9000   137.8188     4.1265     4.3375
  315.0000   136.2686     4.1269     4.4153
  315.1000   134.8755     4.1272     4.5277
  315.2000   133.8650     4.1381     4.6212
  315.3000   133.2920     4.1619     4.7096
  315.4000   133.2950     4.1861     4.7789
  315.5000   133.2980     4.2103     4.8338
  315.6000   133.3010     4.2346     4.8904
  315.7000   133.5736     4.2591     4.9181
  315.8000   134.3074     4.2837     4.9465
  315.9000   135.5219     4.3108     4.9604
  316.0000   136.6418     4.3669     4.9608
  316.1000   137.0738     4.4107     4.9632
  316.2000   137.5706     4.4780     4.9966
  316.3000   138.0673     4.5443     4.9970
  316.4000   138.5642     4.5966     5.0148
  316.5000   139.0773     4.6512     5.0438
  316.6000   140.0356     4.7031     5.0730
  316.7000   141.0259     4.7371     5.1045
  316.8000   141.7616     4.7786     5.1317
  316.9000   142.2586     4.8335     5.1819
  317.0000   142.7392     4.8891     5.2414
  317.1000   143.0292     4.9544     5.3017
  317.2000   143.4464     5.0264     5.3626
  317.3000   143.6400     5.0953     5.4243
  317.4000   143.6430     5.1540     5.4867
  317.5000   143.6460     5.2133     5.5673
  317.6000   143.6492     5.2770     5.6527
  317.7000   143.6520     5.3340     5.7209
  317.8000   143.4791     5.4175     5.8326
  317.9000   143.4757     5.5265     5.8909
  318.0000   143.6611     5.6368     5.9586
  318.1000   143.6819     5.7017     6.0130
  318.2000   144.2729     5.7798     6.0415
  318.3000   144.6755     5.8338     6.0421
  318.4000   145.0278     5.9009     6.0755
  318.5000   145.3664     5.9565     6.1106
  318.6000   145.8634     6.0002     6.1459
  318.7000   146.4057     6.1133     6.1815
  318.8000   146.8571     6.1454     6.2171
  318.9000   147.1852     6.2293     6.2599
  319.0000   147.4350     6.3370     6.3183
  319.1000   147.7423     6.4550     6.3910
  319.2000   148.2375     6.6033     6.4644
  319.3000   148.4875     6.7176     6.5387
  319.4000   148.5447     6.8033     6.6216
  319.5000   148.6848     6.8598     6.7241
  319.6000   149.0163     6.9125     6.8142
  319.7000   149.5132     6.9878     6.9099
  319.8000   150.0700     7.0331     7.0119
  319.9000   150.9404     7.0688     7.0531
  320.0000   151.7699     7.1097     7.0932
  320.1000   152.5139     7.1508     7.1342
  320.2000   153.1575     7.1921     7.1755
  320.3000   153.4131     7.2346     7.2170
  320.4000   153.8986     7.2352     7.2587
  320.5000   154.0242     7.2669     7.3073
  320.6000   154.0272     7.2870     7.3079
  320.7000   153.8080     7.3001     7.3340
  320.8000   153.0515     7.3391     7.3604
  320.9000   151.9188     7.3398     7.3676
  321.0000   150.8725     7.3404     7.4133
  321.1000   149.1784     7.3410     7.4140
  321.2000   147.1077     7.3416     7.4147
  321.3000   144.9323     7.3422     7.4154
  321.4000   142.8564     7.3428     7.4162
  321.5000   140.7537     7.3434     7.4169
  321.6000   139.0692     7.3440     7.4176
  321.7000   137.4681     7.3239     7.4183
  321.8000   135.8770     7.2943     7.4190
  321.9000   134.6792     7.2949     7.4197
  322.0000   134.1004     7.2956     7.4205
  322.1000   133.6978     7.2961     7.4213
  322.2000   133.5007     7.2722     7.3855
  322.3000   133.5038     7.2316     7.3712
  322.4000   133.5424     7.1970     7.3719
  322.5000   133.8127     7.1977     7.3650
  322.6000   133.8155     7.1608     7.3222
  322.7000   133.9895     7.1209     7.2834
  322.8000   134.2394     7.0999     7.2728
  322.9000   134.5491     7.1005     7.2326
  323.0000   135.0418     7.1011     7.1626
  323.1000   135.2918     7.1017     7.1228
  323.2000   135.5416     7.1023     7.0759
  323.3000   135.9312     7.0801     7.0440
  323.4000   136.3442     7.0406     7.0049
  323.5000   136.6222     7.0013     6.9660
  323.6000   137.1743     6.9579     6.9322
  323.7000   137.6161     6.9234     6.9330
  323.8000   138.2768     6.8848     6.9336
  323.9000   138.9121     6.8633     6.9343
  324.0000   139.4088     6.8557     6.9350
  324.1000   139.9123     6.8169     6.9273
  324.2000   140.1591     6.7793     6.8882
  324.3000   140.4089     6.7707     6.8888
  324.4000   140.6588     6.7507     6.8896
  324.5000   140.8320     6.7249     6.8697
  324.6000   140.8351     6.7253     6.8315
  324.7000   140.8385     6.7260     6.7935
  324.8000   140.6290     6.6938     6.7499
  324.9000   140.2284     6.6804     6.7183
  325.0000   139.6366     6.6655     6.6810
  325.1000   138.9443     6.6351     6.6439
  325.2000   138.4328     6.6358     6.6070
  325.3000   137.9629     6.6003     6.5677
  325.4000   137.4720     6.5635     6.5338
  325.5000   136.9812     6.5456     6.4719
  325.6000   136.4905     6.5358     6.4166
  325.7000   136.0134     6.4973     6.3810
  325.8000   135.7282     6.4120     6.3450
  325.9000   135.5257     6.3823     6.2742
  326.0000   135.4311     6.3467     6.2317
  326.1000   135.6214     6.3113     6.1971
  326.2000   136.3084     6.2706     6.1513
  326.3000   138.1636     6.1952     6.0859
  326.4000   139.5418     6.1632     6.0478
  326.5000   141.1993     6.1044     5.9889
  326.6000   142.8127     6.0522     5.9220
  326.7000   144.1731     6.0099     5.8559
  326.8000   145.1377     5.9425     5.7904
  326.9000   145.1413     5.8626     5.7229
  327.0000   144.9460     5.7578     5.6312
  327.1000   144.5602     5.6109     5.5142
  327.2000   143.9830     5.4647     5.4215
  327.3000   143.2148     5.3458     5.3528
  327.4000   142.1304     5.2468     5.2629
  327.5000   141.4676     5.1415     5.1585
  327.6000   140.7299     5.0265     5.0881
  327.7000   140.3237     4.9263     5.0194
  327.8000   140.3268     4.8494     4.9633
  327.9000   140.3298     4.7948     4.9078
  328.0000   140.3328     4.7412     4.8476
  328.1000   140.5263     4.7086     4.8233
  328.2000   140.7762     4.6968     4.8148
  328.3000   140.9471     4.6887     4.8032
  328.4000   140.9735     4.6625     4.7824
  328.5000   141.2561     4.6331     4.7828
  328.6000   141.4732     4.6335     4.7833
  328.7000   141.7231     4.6339     4.8044
  328.8000   142.0763     4.6342     4.8177
  328.9000   142.5733     4.6346     4.8264
  329.0000   143.0863     4.6350     4.8543
  329.1000   143.5670     4.6610     4.8867
  329.2000   144.2468     4.7078     4.8871
  329.3000   144.9904     4.7620     4.9047
  329.4000   146.0933     4.8168     4.9331
  329.5000   148.1031     4.8685     4.9616
