~VERSION INFORMATION
 VERS.                2.0:   CWLS LOG ASCII STANDARD - VERSION 2.0
 WRAP.                 NO:   ONE LINE PER DEPTH STEP
~WELL INFORMATION
#MNEM.UNIT      DATA TYPE    INFORMATION
#----------   ------------   ------------------------------
 STRT.F          298.0000:   START DEPTH
 STOP.F         1126.0000:   STOP DEPTH
 STEP.F            0.5000:   STEP LENGTH
 NULL.          -999.2500:   NO VALUE
 COMP. BROWN JOHN E&C INC:   COMPANY
 WELL.   52 SHX 15 #52-15:   WELL
 FLD .             TEAPOT:   FIELD
 LOC .      S15 T38N R78W:   LOCATION
 CNTY.            NATRONA:   COUNTY
 STAT.            WYOMING:   STATE
 CTRY. UNITED STATES OF AMERICA:   COUNTRY
 SRVC.              Welex:   SERVICE COMPANY
 DATE.        09-AUG-1979:   LOGDATE
 API .       490251078900:   API NUMBER
~CURVE INFORMATION
#MNEM.UNIT       API CODE    CURVE DESCRIPTION
#----------   ------------   ------------------------------
 DEPT.F                  :   
 CALD.IN     45 280 60 00:   CALIPER
 GRD .GAPI   45 310 01 00:   GAMMA RAY FROM DENSITY LOG
 RHOB.G/C3   45 350 01 00:   BULK DENSITY
 CORR.G/C3   45 356 01 00:   DENSITY CORRECTION
 DPHI.DEC    45 890 12 00:   DENSITY POROSITY SANDSTONE
~PARAMETER INFORMATION
#MNEM.UNIT          VALUE    DESCRIPTION
#----------   ------------   ------------------------------
 PD  .                 GL:   PERMANENT DATUM
 EPD .F              5222:   ELEVATION PERMANENT DATUM
 LMF .                 KB:   LOG MEASURED FROM
 DAPD.F                10:   FEET ABOVE PERMANENT DATUM
 DMF .                 KB:   DRILLING MEASURED FROM
 EKB .F              5232:   KELLING BUSHING
 EGL .F              5222:   GROUND LEVEL
 DATE.             8-9-79:   RUN DATE
 RUN .                  1:   RUN NUMBER
 DD  .F              1130:   DEPTH DRILLER
 DL  .F              1128:   DEPTH LOGGER
 BLI .F              1126:   BOTTOM LOG INTERVAL
 TLI .F               300:   TOP LOG INTERVAL
 CS  .IN            9.625:   CASING SIZE
 CBD .F               676:   CASING BOTTOM DRILLER
 BS  .IN             8.75:   BIT SIZE
 BSD .F              1130:   BIT SIZE AT DEPTH
 DFT .                OIL:   DRILLING FLUID TYPE
 DFD .                9.1:   DRILLING FLUID DENSITY
 TCS .HRS             2.5:   TIME CURCULATED STOPPED
 MRT .F               102:   MAXIMUM RECORDED TEMPERATURE
 ENGI.               REIN:   RECORDING ENGINEER
 WITN.           DINSMORE:   WITNESSED BY
 CLNT.            A2DTECH:   CLIENT CODE
 ORIG.         2.5" PRINT:   ORIGIN OF DATA
 UWI .       490251078900:   UNIQUE WELL ID
 DICO. A2D Technologies, Inc.:   DIGITIZING COMPANY
~OTHER INFORMATION
~A   DEPT     CALD         GRD      RHOB       CORR       DPHI   
# ...
  969.0000     9.6416    99.5068     2.5389     0.0519    -0.0016
  969.5000     9.6473    99.3125     2.5301     0.0517     0.0056
  970.0000     9.6530    99.9129     2.5250     0.0515     0.0125
  970.5000     9.6587   100.5487     2.5229     0.0513     0.0167
  971.0000     9.6643   100.4813     2.5294     0.0512     0.0127
  971.5000     9.6700    99.8191     2.5262     0.0510     0.0089
  972.0000     9.6757    99.1908     2.5245     0.0508     0.0126
  972.5000     9.6814    98.6303     2.5300     0.0506     0.0130
  973.0000     9.6871    97.9887     2.5371     0.0505     0.0084
  973.5000     9.6928    98.6392     2.5448     0.0503     0.0015
  974.0000     9.6985    99.3786     2.5464     0.0501    -0.0057
  974.5000     9.7042   100.1767     2.5374     0.0499     0.0019
  975.0000     9.7099    99.9363     2.5292     0.0498     0.0099
  975.5000     9.7156    99.3312     2.5206     0.0496     0.0168
  976.0000     9.7213    98.7126     2.5147     0.0494     0.0197
  976.5000     9.7269    98.7398     2.5126     0.0492     0.0225
  977.0000     9.7331   100.1018     2.5104     0.0490     0.0251
  977.5000     9.7399   101.5138     2.5141     0.0489     0.0251
  978.0000     9.7465   101.3671     2.5174     0.0487     0.0226
  978.5000     9.7532   100.9780     2.5209     0.0486     0.0181
  979.0000     9.7599   100.5542     2.5246     0.0487     0.0142
  979.5000     9.7666   100.1667     2.5271     0.0487     0.0125
  980.0000     9.7733    99.7316     2.5284     0.0488     0.0107
  980.5000     9.7800    99.6764     2.5322     0.0488     0.0090
  981.0000     9.7868    99.9935     2.5343     0.0489     0.0073
  981.5000     9.7934   100.2917     2.5324     0.0489     0.0065
  982.0000     9.8000    99.9658     2.5233     0.0490     0.0113
  982.5000     9.8076    99.4377     2.5092     0.0490     0.0220
  983.0000     9.8052    98.9308     2.5046     0.0491     0.0328
  983.5000     9.7906    98.3388     2.4999     0.0492     0.0364
  984.0000     9.7768    98.8038     2.4982     0.0492     0.0342
  984.5000     9.7631    99.8830     2.5038     0.0493     0.0317
  985.0000     9.7492   101.0212     2.5089     0.0493     0.0291
  985.5000     9.7350   101.4517     2.5140     0.0494     0.0258
  986.0000     9.7309   100.8525     2.5198     0.0494     0.0213
  986.5000     9.7382   100.3408     2.5203     0.0495     0.0170
  987.0000     9.7452    99.8397     2.5192     0.0496     0.0196
  987.5000     9.7519    99.2914     2.5167     0.0496     0.0219
  988.0000     9.7589    99.2591     2.5173     0.0497     0.0214
  988.5000     9.7670    99.4681     2.5211     0.0497     0.0199
  989.0000     9.7626    99.3507     2.5251     0.0498     0.0183
  989.5000     9.7394    98.7380     2.5247     0.0498     0.0168
  990.0000     9.7178    98.1064     2.5215     0.0499     0.0154
  990.5000     9.6946    98.1183     2.5204     0.0499     0.0154
  991.0000     9.6733    98.5412     2.5286     0.0500     0.0154
  991.5000     9.6520    98.6158     2.5386     0.0500     0.0078
  992.0000     9.6451    98.0359     2.5410     0.0501     0.0009
  992.5000     9.6818    97.4980     2.5370     0.0501     0.0014
  993.0000     9.6891    96.4182     2.5326     0.0502     0.0049
  993.5000     9.6907    95.2991     2.5343     0.0503     0.0059
  994.0000     9.6888    94.1771     2.5325     0.0503     0.0073
  994.5000     9.6897    93.0528     2.5371     0.0504     0.0034
  995.0000     9.6897    91.9202     2.5438     0.0504    -0.0010
  995.5000     9.6896    91.3801     2.5522     0.0505    -0.0055
  996.0000     9.6895    92.8877     2.5591     0.0505    -0.0100
  996.5000     9.6894    94.9289     2.5622     0.0506    -0.0144
  997.0000     9.6800    96.8468     2.5596     0.0507    -0.0160
  997.5000     9.6681    99.0117     2.5571     0.0507    -0.0136
  998.0000     9.6561    99.4712     2.5552     0.0508    -0.0113
  998.5000     9.6442   100.0056     2.5605     0.0508    -0.0142
  999.0000     9.6322    99.4501     2.5659     0.0509    -0.0193
  999.5000     9.6203    98.3849     2.5687     0.0509    -0.0218
 1000.0000     9.6083    97.2406     2.5668     0.0510    -0.0194
 1000.5000     9.5963    96.8817     2.5653     0.0510    -0.0170
 1001.0000     9.5847    97.6647     2.5635     0.0511    -0.0179
 1001.5000     9.5725    97.6157     2.5651     0.0512    -0.0186
 1002.0000     9.5675    96.6542     2.5713     0.0512    -0.0247
 1002.5000     9.5761    96.6907     2.5768     0.0513    -0.0305
 1003.0000     9.5938    98.2118     2.5827     0.0513    -0.0334
 1003.5000     9.6084    99.5629     2.5831     0.0514    -0.0340
 1004.0000     9.6086    99.7272     2.5836     0.0514    -0.0333
 1004.5000     9.6091    99.3400     2.5796     0.0515    -0.0313
 1005.0000     9.6051    98.9606     2.5719     0.0515    -0.0291
 1005.5000     9.6000    98.6130     2.5635     0.0516    -0.0218
 1006.0000     9.5948    98.2241     2.5572     0.0516    -0.0154
 1006.5000     9.5897    97.8876     2.5541     0.0517    -0.0131
 1007.0000     9.5845    97.5785     2.5506     0.0518    -0.0103
 1007.5000     9.5794    98.3793     2.5467     0.0518    -0.0047
 1008.0000     9.5741    99.1770     2.5386     0.0519     0.0023
 1008.5000     9.5690   100.0194     2.5290     0.0519     0.0093
 1009.0000     9.5696   100.8513     2.5203     0.0520     0.0163
 1009.5000     9.5863   101.6769     2.5165     0.0520     0.0209
 1010.0000     9.6021   102.3762     2.5172     0.0521     0.0210
 1010.5000     9.6185   102.3778     2.5290     0.0521     0.0122
 1011.0000     9.6348   101.9803     2.5375     0.0522     0.0056
 1011.5000     9.6508   101.5176     2.5285     0.0523     0.0110
 1012.0000     9.6669   101.0433     2.5225     0.0523     0.0156
 1012.5000     9.6842   100.4990     2.5184     0.0524     0.0202
 1013.0000     9.6839    99.8095     2.5212     0.0524     0.0179
 1013.5000     9.6712    99.1253     2.5247     0.0525     0.0156
 1014.0000     9.6598    98.4534     2.5345     0.0525     0.0130
 1014.5000     9.6485    97.7041     2.5438     0.0526     0.0060
 1015.0000     9.6371    97.8679     2.5541     0.0525    -0.0023
 1015.5000     9.6258    98.5757     2.5562     0.0522    -0.0097
 1016.0000     9.6133    98.4758     2.5505     0.0519    -0.0055
 1016.5000     9.6139    97.4738     2.5449     0.0515    -0.0016
 1017.0000     9.6269    96.5658     2.5391     0.0512     0.0023
 1017.5000     9.6386    95.6294     2.5339     0.0509     0.0041
 1018.0000     9.6503    94.5608     2.5329     0.0505     0.0070
 1018.5000     9.6623    95.0312     2.5419     0.0502     0.0021
 1019.0000     9.6741    96.5724     2.5513     0.0498    -0.0087
 1019.5000     9.6861    98.2534     2.5598     0.0495    -0.0108
 1020.0000     9.6978    97.8401     2.5570     0.0492    -0.0120
 1020.5000     9.7097    96.2335     2.5467     0.0488    -0.0041
 1021.0000     9.7220    94.7922     2.5373     0.0485     0.0035
 1021.5000     9.7249    95.7440     2.5270     0.0482     0.0121
 1022.0000     9.7065    96.6432     2.5226     0.0478     0.0137
 1022.5000     9.6888    97.6384     2.5266     0.0475     0.0104
 1023.0000     9.6705    98.6108     2.5330     0.0471     0.0073
 1023.5000     9.6524    99.5591     2.5395     0.0468     0.0042
 1024.0000     9.6345   100.3269     2.5447     0.0465     0.0011
 1024.5000     9.6157   100.0073     2.5485     0.0461    -0.0020
 1025.0000     9.6089    99.7431     2.5515     0.0458    -0.0083
 1025.5000     9.6108    99.4329     2.5545     0.0455    -0.0089
 1026.0000     9.6120    99.1402     2.5510     0.0451    -0.0083
 1026.5000     9.6131    98.8410     2.5475     0.0448    -0.0058
 1027.0000     9.6144    98.7302     2.5427     0.0447    -0.0013
 1027.5000     9.6157    98.7379     2.5353     0.0452     0.0043
 1028.0000     9.6169    98.7375     2.5310     0.0456     0.0104
 1028.5000     9.6181    98.7267     2.5334     0.0461     0.0092
 1029.0000     9.6194    98.7466     2.5353     0.0466     0.0079
 1029.5000     9.6206    98.7630     2.5393     0.0471     0.0065
