~VERSION INFORMATION
 VERS.                2.0:   CWLS LOG ASCII STANDARD - VERSION 2.0
 WRAP.                 NO:   ONE LINE PER DEPTH STEP
~WELL INFORMATION
#MNEM.UNIT      DATA TYPE    INFORMATION
#----------   ------------   ------------------------------
 STRT.F           27.0000:   START DEPTH
 STOP.F          713.0000:   STOP DEPTH
 STEP.F            0.5000:   STEP LENGTH
 NULL.          -999.2500:   NO VALUE
 COMP. FENIX & SCISSON INC:   COMPANY
 WELL.       NPR 3 #44-34:   WELL
 FLD .        TEAPOT DOME:   FIELD
 LOC .      S34 T39N R78W:   LOCATION
 CNTY.            NATRONA:   COUNTY
 STAT.            WYOMING:   STATE
 CTRY. UNITED STATES OF AMERICA:   COUNTRY
 SRVC.           BIRDWELL:   SERVICE COMPANY
 DATE.        24-AUG-1978:   LOGDATE
 API .       490251070000:   API NUMBER
~CURVE INFORMATION
#MNEM.UNIT       API CODE    CURVE DESCRIPTION
#----------   ------------   ------------------------------
 DEPT.F                  :   
 SPR .MV     05 010 01 00:   SPONTANEOUS POTENTIAL FROM RES.
 ILD .OHMM   05 120 46 00:   INDUCTION LOG DEEP
 SN  .OHMM   05 040 16 00:   SHORT NORMAL 16"
 CALD.IN     45 280 60 00:   CALIPER
 GRD .GAPI   45 310 01 00:   GAMMA RAY FROM DENSITY LOG
 DEN .G/C3   45 350 01 00:   COMPENSATED BULK DENSTIY
 DPHI.DEC    45 890 12 00:   DENSITY POROSITY SANDSTONE
 CORR.G/C3   45 356 01 00:   DENSITY CORRECTION
~PARAMETER INFORMATION
#MNEM.UNIT          VALUE    DESCRIPTION
#----------   ------------   ------------------------------
 PD  .                 GL:   PERMANENT DATUM
 EPD .F              5124:   ELEVATION PERMANENT DATUM
 LMF .                 KB:   LOG MEASURED FROM
 DAPD.F                 4:   FEET ABOVE PERMANENT DATUM
 DMF .                 KB:   DRILLING MEASURED FROM
 EKB .F              5128:   KELLING BUSHING
 EGL .F              5124:   GROUND LEVEL
 DATE.            8-24-78:   RUN DATE
 RUN .                  1:   RUN NUMBER
 DD  .F               716:   DEPTH DRILLER
 DL  .F               713:   DEPTH LOGGER
 BLI .F               707:   BOTTOM LOG INTERVAL
 TLI .F                50:   TOP LOG INTERVAL
 CS  .IN            8.625:   CASING SIZE
 CBD .F                40:   CASING BOTTOM DRILLER
 BS  .IN            7.875:   BIT SIZE
 BSD .F               716:   BIT SIZE AT DEPTH
 DFT .            MUD KCL:   DRILLING FLUID TYPE
 DFD .                8.6:   DRILLING FLUID DENSITY
 DFV .                 34:   DRILLING FLUID VISCOSITY
 DFL .                7.4:   DRILLING FLUID LOSS
 MSS .          FLOW LINE:   MUD SAMPLE SOURCE
 RMS .OHMM            .18:   RESISTIVITY MUD SAMPLE
 MST .F                76:   MUD SAMPLE TEMPERATURE
 RMF .OHMM            .16:   RESISTIVITY MUD FILTRATE SAMPLE
 MFST.F                92:   MUD FILTRATE SAMPLE TEMPERATURE
 RMC .OHMM             .3:   RESISTIVITY MUD CAKE
 MCST.F                86:   MUD CAKE SAMPLE TEMPERATURE
 MFSS.               MEAS:   MUD FILTRATE SAMPLE SOURCE
 TCS .HRS               3:   TIME CURCULATED STOPPED
 MRT .F                72:   MAXIMUM RECORDED TEMPERATURE
 LUN .               2958:   LOGGING UNIT NUMBER
 LUL .               CASP:   LOGGING UNIT LOCATION
 ENGI.           REYNOLDS:   RECORDING ENGINEER
 WITN.              AMEND:   WITNESSED BY
 CLNT.            A2DTECH:   CLIENT CODE
 ORIG.           5" PRINT:   ORIGIN OF DATA
 UWI .       490251070000:   UNIQUE WELL ID
 DICO. A2D Technologies, Inc.:   DIGITIZING COMPANY
~OTHER INFORMATION
~A   DEPT      SPR        ILD         SN       CALD         GRD       DEN       DPHI       CORR   
# ...
  594.0000   -58.8376    12.4953    11.1826     8.5465    71.1744     2.4524     0.1426     0.1268
  594.5000   -59.0686    12.2548    11.1689     8.5555    72.7267     2.4646     0.1364     0.1340
  595.0000   -59.0640    12.2548    11.1223     8.5659    78.9177     2.4700     0.1377     0.1423
  595.5000   -59.0639    12.2548    11.0759     8.5764    85.1754     2.4701     0.1398     0.1387
  596.0000   -59.0638    12.2548    11.0296     8.5869    86.5927     2.4686     0.1412     0.1191
  596.5000   -59.0637    12.2548    10.9835     8.5970    84.0639     2.4669     0.1351     0.1004
  597.0000   -59.0634    12.1539    10.9377     8.6011    77.6886     2.4752     0.1216     0.0855
  597.5000   -59.0642    12.0578    10.8797     8.6050    75.3095     2.4981     0.1280     0.0762
  598.0000   -59.1141    11.9232    10.8985     8.6088    73.6815     2.4857     0.1244     0.0725
  598.5000   -59.2709    11.9542    10.9244     8.6127    72.1883     2.4689     0.1393     0.0706
  599.0000   -59.4259    12.0119    10.9503     8.6165    68.7793     2.4685     0.1378     0.0687
  599.5000   -59.5808    12.0689    10.9761     8.6268    67.6105     2.4695     0.1364     0.0668
  600.0000   -59.6615    12.1440    10.9965     8.6417    73.2814     2.4763     0.1315     0.0628
  600.5000   -59.6614    12.1361    11.0159     8.6567    77.6657     2.4822     0.1277     0.0520
  601.0000   -59.6615    12.1232    11.0353     8.6559    77.6586     2.4818     0.1288     0.0415
  601.5000   -59.6614    12.1101    11.0548     8.6530    77.6892     2.4811     0.1314     0.0375
  602.0000   -59.6614    12.0971    11.0802     8.6502    76.5712     2.4781     0.1348     0.0374
  602.5000   -59.6614    12.0840    11.0747     8.6475    75.4223     2.4717     0.1430     0.0400
  603.0000   -59.6614    12.0710    11.0660     8.6447    74.5589     2.4602     0.1505     0.0430
  603.5000   -59.6614    12.0580    11.0570     8.6419    73.4899     2.4469     0.1581     0.0408
  604.0000   -59.6614    12.0450    11.0481     8.6392    72.4733     2.4337     0.1623     0.0375
  604.5000   -59.6614    12.0302    11.0392     8.6404    72.3068     2.4321     0.1594     0.0342
  605.0000   -59.6615    11.9478    11.0303     8.6516    72.2819     2.4374     0.1567     0.0309
  605.5000   -59.6617    11.8669    11.0214     8.6626    73.3691     2.4411     0.1540     0.0301
  606.0000   -59.6507    11.7867    11.0126     8.6738    74.7368     2.4418     0.1558     0.0311
  606.5000   -59.5647    11.7069    11.0037     8.6744    75.7428     2.4392     0.1588     0.0322
  607.0000   -59.4785    11.6277    10.9948     8.6701    75.5449     2.4349     0.1619     0.0332
  607.5000   -59.3926    11.5998    10.9860     8.6657    75.2760     2.4331     0.1585     0.0340
  608.0000   -59.3053    11.5868    10.9796     8.6617    73.4037     2.4349     0.1528     0.0376
  608.5000   -59.1990    11.5428    10.9797     8.6568    73.1034     2.4444     0.1510     0.0415
  609.0000   -59.0699    11.4990    10.9797     8.6209    73.1378     2.4463     0.1500     0.0460
  609.5000   -58.9412    11.4553    10.9797     8.4882    74.7569     2.4454     0.1528     0.0502
  610.0000   -58.8118    11.4119    10.9797     8.3553    74.7140     2.4411     0.1565     0.0704
  610.5000   -58.6825    11.3894    10.9797     8.2561    74.7075     2.4362     0.1602     0.0941
  611.0000   -58.6649    11.3894    10.9797     8.3479    75.3761     2.4311     0.1640     0.0964
  611.5000   -58.6652    11.3893    10.9797     8.5399    77.0425     2.4260     0.1667     0.0774
  612.0000   -58.6662    11.3894    10.9797     8.5228    78.1244     2.4219     0.1647     0.0774
  612.5000   -58.6616    11.3895    10.9797     8.4304    78.8359     2.4347     0.1566     0.0773
  613.0000   -58.5287    11.3893    10.9795     8.4169    79.6791     2.4549     0.1448     0.0844
  613.5000   -58.3905    11.4259    10.9779     8.4064    81.0889     2.4524     0.1472     0.0955
  614.0000   -58.2379    11.7315    11.0164     8.3278    82.4515     2.4477     0.1512     0.1294
  614.5000   -58.0045    12.0670    11.1216     8.2488    83.8367     2.4432     0.1543     0.1406
  615.0000   -57.7672    12.8359    11.2779     8.1711    85.7492     2.4428     0.1550     0.1273
  615.5000   -57.3962    13.6490    11.5058     8.1093    88.3495     2.4425     0.1567     0.1242
  616.0000   -56.9537    14.4999    11.7383     8.0962    90.9321     2.4424     0.1532     0.1252
  616.5000   -56.1867    15.4039    11.9755     8.0961    88.9230     2.4514     0.1434     0.1234
  617.0000   -55.4351    16.3642    12.5402     8.0961    85.6125     2.4676     0.1397     0.1069
  617.5000   -55.0022    17.3844    13.2372     8.0990    78.1401     2.4337     0.1744     0.0879
  618.0000   -53.3369    18.4681    13.9631     8.1250    70.2283     2.3680     0.1991     0.0718
  618.5000   -52.7292    19.7272    14.7303     8.1511    63.8057     2.3135     0.2348     0.0614
  619.0000   -51.1175    19.7394    15.2904     8.1778    59.4283     2.3054     0.2370     0.0509
  619.5000   -50.3590    19.5487    15.3632     8.2308    58.7550     2.3032     0.2377     0.0484
  620.0000   -50.0418    19.1659    15.4067     8.2750    57.1851     2.3024     0.2400     0.0470
  620.5000   -49.7417    18.7839    15.2064     8.3122    53.8418     2.3069     0.2411     0.0454
  621.0000   -49.5240    18.4095    15.0430     8.3491    50.6850     2.3139     0.2285     0.0413
  621.5000   -49.6878    18.0418    14.8815     8.3848    50.5679     2.3336     0.2045     0.0377
  622.0000   -49.8435    17.6747    14.7173     8.4179    51.6032     2.3698     0.1879     0.0419
  622.5000   -49.9966    17.6328    14.7173     8.4166    54.6546     2.3854     0.1935     0.0451
  623.0000   -50.1010    17.5899    14.6241     8.4169    57.9382     2.3728     0.2037     0.0418
  623.5000   -50.0996    17.5471    14.4759     8.4168    61.2279     2.3500     0.2139     0.0397
  624.0000   -50.1108    17.5044    14.3186     8.4169    64.5160     2.3307     0.2229     0.0409
  624.5000   -50.1380    17.4618    14.3186     8.4169    67.3491     2.3347     0.2208     0.0435
  625.0000   -50.1651    17.4193    14.3186     8.4190    66.0641     2.3379     0.2187     0.0498
  625.5000   -50.1923    17.3769    14.3186     8.3319    64.7563     2.3278     0.2245     0.0519
  626.0000   -50.2194    17.3540    14.3186     8.3348    63.4017     2.3220     0.2328     0.0434
  626.5000   -50.2465    18.0909    14.3186     8.4135    62.2581     2.3249     0.2267     0.0424
  627.0000   -50.2729    18.3340    14.3186     8.4175    60.1597     2.3609     0.2001     0.0437
  627.5000   -50.3035    18.3340    14.3186     8.4264    57.1193     2.3976     0.1719     0.0450
  628.0000   -50.4153    18.3322    14.3188     8.4500    56.0089     2.4349     0.1396     0.0449
  628.5000   -50.5250    18.3409    14.3199     8.4349    55.6458     2.4662     0.1514     0.0437
  629.0000   -50.6312    17.6312    14.2444     8.3911    56.3218     2.4472     0.1687     0.0424
  629.5000   -50.6110    16.9882    14.1604     8.3578    58.3316     2.4125     0.1859     0.0415
  630.0000   -50.3940    16.3714    14.0765     8.4154    59.7500     2.3776     0.1957     0.0426
  630.5000   -50.1795    15.7774    13.7746     8.4533    60.8558     2.3720     0.1963     0.0437
  631.0000   -49.9639    15.2049    13.4221     8.4107    61.9561     2.3707     0.1975     0.0447
  631.5000   -49.7416    15.0322    13.2792     8.3688    63.0350     2.3644     0.2031     0.0458
  632.0000   -49.7836    14.9227    13.2372     8.3458    65.1253     2.3544     0.2084     0.0533
  632.5000   -49.8899    14.8527    13.1953     8.3963    67.4275     2.3454     0.2157     0.0605
  633.0000   -49.9974    14.9091    13.0886     8.4466    67.7594     2.3375     0.2207     0.0676
  633.5000   -50.1039    14.9508    12.9238     8.4572    65.0236     2.3362     0.2207     0.0670
  634.0000   -50.2107    14.9927    12.7610     8.4347    65.0780     2.3385     0.2159     0.0666
