~VERSION INFORMATION
 VERS.                2.0:   CWLS LOG ASCII STANDARD - VERSION 2.0
 WRAP.                 NO:   ONE LINE PER DEPTH STEP
~WELL INFORMATION
#MNEM.UNIT      DATA TYPE    INFORMATION
#----------   ------------   ------------------------------
 STRT.F           10.0000:   START DEPTH
 STOP.F          485.0000:   STOP DEPTH
 STEP.F            0.5000:   STEP LENGTH
 NULL.          -999.2500:   NO VALUE
 COMP. FENIX & SCISSON INC:   COMPANY
 WELL.    56 S 3 SX #56-3:   WELL
 FLD .             TEAPOT:   FIELD
 LOC .       S3 T38N R78W:   LOCATION
 CNTY.            NATRONA:   COUNTY
 STAT.            WYOMING:   STATE
 CTRY. UNITED STATES OF AMERICA:   COUNTRY
 SRVC.            Unknown:   SERVICE COMPANY
 DATE.        09-OCT-1978:   LOGDATE
 API .       490251071900:   API NUMBER
~CURVE INFORMATION
#MNEM.UNIT       API CODE    CURVE DESCRIPTION
#----------   ------------   ------------------------------
 DEPT.F                  :   
 SPR .MV     05 010 01 00:   SPONTANEOUS POTENTIAL FROM RES.
 SN  .OHMM   05 040 16 00:   SHORT NORMAL 16"
 ILD .OHMM   05 120 46 00:   INDUCTION LOG DEEP
 CALD.IN     45 280 60 00:   CALIPER
 GRD .GAPI   45 310 01 00:   GAMMA RAY FROM DENSITY LOG
 CORR.G/C3   45 356 01 00:   DENSITY CORRECTION
 RHOB.G/C3   45 350 01 00:   BULK DENSITY
 DPHI.DEC    45 890 12 00:   DENSITY POROSITY SANDSTONE
~PARAMETER INFORMATION
#MNEM.UNIT          VALUE    DESCRIPTION
#----------   ------------   ------------------------------
 PD  .                 GL:   PERMANENT DATUM
 EPD .F              5188:   ELEVATION PERMANENT DATUM
 LMF .                 KB:   LOG MEASURED FROM
 DAPD.F                 4:   FEET ABOVE PERMANENT DATUM
 DMF .                 KB:   DRILLING MEASURED FROM
 EKB .F              5192:   KELLING BUSHING
 EGL .F              5188:   GROUND LEVEL
 DATE.            10-9-78:   RUN DATE
 RUN .                  1:   RUN NUMBER
 DD  .F               485:   DEPTH DRILLER
 DL  .F               485:   DEPTH LOGGER
 BLI .F               479:   BOTTOM LOG INTERVAL
 TLI .F                32:   TOP LOG INTERVAL
 CS  .IN            8.625:   CASING SIZE
 BS  .IN            7.875:   BIT SIZE
 BSD .F               485:   BIT SIZE AT DEPTH
 DFT .                KCL:   DRILLING FLUID TYPE
 DFD .                8.8:   DRILLING FLUID DENSITY
 DFV .                 41:   DRILLING FLUID VISCOSITY
 DFPH.                  9:   DRILLING FLUID PH
 DFL .                7.6:   DRILLING FLUID LOSS
 MSS .          FLOW LINE:   MUD SAMPLE SOURCE
 RMS .OHMM            .18:   RESISTIVITY MUD SAMPLE
 MST .F                60:   MUD SAMPLE TEMPERATURE
 RMF .OHMM            .16:   RESISTIVITY MUD FILTRATE SAMPLE
 MFST.F                70:   MUD FILTRATE SAMPLE TEMPERATURE
 RMC .OHMM            .26:   RESISTIVITY MUD CAKE
 MCST.F                70:   MUD CAKE SAMPLE TEMPERATURE
 MFSS.               MEAS:   MUD FILTRATE SAMPLE SOURCE
 MCSS.               MEAS:   MUD CAKE SAMPLE SOURCE
 TCS .HRS             1.5:   TIME CURCULATED STOPPED
 LUN .               2958:   LOGGING UNIT NUMBER
 LUL .               CASP:   LOGGING UNIT LOCATION
 ENGI.             MILLER:   RECORDING ENGINEER
 WITN.              AMEND:   WITNESSED BY
 CLNT.            A2DTECH:   CLIENT CODE
 ORIG.           5" PRINT:   ORIGIN OF DATA
 UWI .       490251071900:   UNIQUE WELL ID
 DICO. A2D Technologies, Inc.:   DIGITIZING COMPANY
~OTHER INFORMATION
~A   DEPT      SPR         SN        ILD       CALD         GRD      CORR       RHOB       DPHI   
# ...
  374.5000   -24.0795    14.0739    20.6648     8.0687    79.8750     0.0209     2.3310     0.2088
  375.0000   -24.0693    14.0585    20.4875     8.0683    80.5156     0.0209     2.3357     0.2050
  375.5000   -24.0592    14.0431    20.3109     8.0680    81.1741     0.0209     2.3439     0.1989
  376.0000   -24.0492    14.0277    20.1348     8.0677    81.2824     0.0209     2.3557     0.1938
  376.5000   -24.0391    14.0108    19.9596     8.0674    81.4978     0.0209     2.3663     0.1891
  377.0000   -24.0291    13.8800    19.7853     8.0670    80.3838     0.0209     2.3667     0.1890
  377.5000   -24.0190    13.7551    19.4704     8.0667    76.2813     0.0209     2.3669     0.1889
  378.0000   -24.0089    13.6318    18.9739     8.0664    74.0868     0.0209     2.3668     0.1887
  378.5000   -23.9988    13.2612    18.4901     8.0661    74.1322     0.0209     2.3668     0.1886
  379.0000   -23.9888    13.2612    18.1823     8.0657    74.3370     0.0209     2.3669     0.1885
  379.5000   -23.9787    13.2612    17.9965     8.0654    74.4855     0.0219     2.3669     0.1884
  380.0000   -23.9687    13.2126    17.8125     8.0651    78.4084     0.0229     2.3702     0.1883
  380.5000   -23.9586    12.8756    17.6304     8.0648    80.9191     0.0239     2.3745     0.1863
  381.0000   -23.9485    12.7350    17.4336     8.0644    80.4266     0.0249     2.3788     0.1832
  381.5000   -23.9385    12.6721    17.1062     8.0641    76.7553     0.0259     2.3794     0.1802
  382.0000   -23.9284    12.5809    16.7850     8.0638    74.5600     0.0270     2.3739     0.1805
  382.5000   -23.9187    12.4867    16.4698     8.0635    74.4604     0.0280     2.3691     0.1840
  383.0000   -23.9067    12.3930    16.1605     8.0631    74.8025     0.0287     2.3674     0.1864
  383.5000   -23.9015    12.2999    15.8571     8.0628    75.1821     0.0276     2.3686     0.1833
  384.0000   -23.9681    12.2075    15.5593     8.0625    75.3704     0.0266     2.3792     0.1769
  384.5000   -24.8942    12.1160    15.2671     8.0622    76.8945     0.0256     2.3957     0.1706
  385.0000   -26.0055    12.0700    14.9804     8.0618    79.4451     0.0243     2.4013     0.1660
  385.5000   -26.3941    12.0360    14.6991     8.0615    81.3438     0.0221     2.4013     0.1664
  386.0000   -26.4804    12.0020    14.4230     8.0612    82.0282     0.0211     2.4018     0.1668
  386.5000   -26.5007    11.8892    14.1523     8.0609    81.6460     0.0225     2.4023     0.1668
  387.0000   -27.0381    11.7114    13.8865     8.0605    80.8022     0.0237     2.4034     0.1655
  387.5000   -27.9669    11.5539    13.7433     8.0602    79.8858     0.0249     2.4052     0.1643
  388.0000   -28.5389    11.4394    13.7151     8.0599    79.6040     0.0262     2.4102     0.1614
  388.5000   -29.0591    11.3365    13.6869     8.0596    79.7415     0.0274     2.4199     0.1560
  389.0000   -29.0698    11.2344    13.6588     8.0592    79.8148     0.0287     2.4258     0.1509
  389.5000   -29.0676    11.1370    13.6318     8.0589    79.9154     0.0299     2.4282     0.1504
  390.0000   -29.0674    11.0761    13.3787     8.0586    79.1544     0.0311     2.4308     0.1501
  390.5000   -29.0675    11.0036    13.1399     8.0583    76.0091     0.0324     2.4398     0.1450
  391.0000   -29.0675    10.9314    13.0495     8.0580    74.3384     0.0336     2.4468     0.1405
  391.5000   -29.0675    10.8598    12.9600     8.0576    74.7003     0.0348     2.4552     0.1359
  392.0000   -29.0674    10.7886    12.8712     8.0573    79.0332     0.0362     2.4635     0.1314
  392.5000   -29.0674    10.7179    12.7829     8.0570    84.6862     0.0362     2.4634     0.1270
  393.0000   -29.0681    10.6477    12.6953     8.0567    85.1011     0.0345     2.4625     0.1292
  393.5000   -29.0684    10.5779    12.6083     8.0563    83.7363     0.0329     2.4622     0.1310
  394.0000   -29.1614    10.5085    12.5218     8.0560    79.7328     0.0313     2.4622     0.1305
  394.5000   -29.3465    10.4397    12.4360     8.0557    79.5740     0.0297     2.4622     0.1301
  395.0000   -29.5312    10.3713    12.3507     8.0554    79.5213     0.0280     2.4624     0.1296
  395.5000   -29.7221    10.3150    12.3037     8.0550    80.3245     0.0265     2.4606     0.1310
  396.0000   -30.0994    10.2652    12.2766     8.0547    82.5694     0.0249     2.4574     0.1337
  396.5000   -31.2191    10.2156    12.2495     8.0544    82.2394     0.0238     2.4562     0.1355
  397.0000   -31.6987    10.1662    12.2225     8.0541    82.4380     0.0228     2.4597     0.1342
  397.5000   -31.7950    10.1171    12.1956     8.0537    82.5272     0.0218     2.4637     0.1262
  398.0000   -31.8894    10.0664    12.1687     8.0534    82.6139     0.0209     2.4678     0.1257
  398.5000   -31.9817    10.0571    12.1419     8.0531    82.7994     0.0214     2.4719     0.1238
  399.0000   -32.0447    10.0471    12.1152     8.0528    84.3652     0.0219     2.4759     0.1215
  399.5000   -32.0435    10.0373    12.0607     8.0524    86.1376     0.0224     2.4799     0.1192
  400.0000   -32.0436    10.0275    11.9483     8.0521    86.2387     0.0228     2.4795     0.1194
  400.5000   -32.0437    10.0177    11.8369     8.0518    86.3597     0.0233     2.4791     0.1214
  401.0000   -32.0435    10.0079    11.7265     8.0515    85.4663     0.0238     2.4783     0.1224
  401.5000   -32.0426     9.9981    11.6172     8.0511    84.3376     0.0243     2.4799     0.1194
  402.0000   -32.0492     9.9883    11.5089     8.0508    83.5702     0.0248     2.4858     0.1164
  402.5000   -32.2267     9.9786    11.4015     8.0505    83.3900     0.0242     2.4860     0.1135
  403.0000   -32.4113     9.9688    11.2952     8.0502    83.1386     0.0233     2.4860     0.1147
  403.5000   -32.5970     9.9591    11.1899     8.0498    83.2564     0.0225     2.4818     0.1165
  404.0000   -32.4418     9.9493    11.0856     8.0495    83.5612     0.0216     2.4782     0.1183
  404.5000   -30.9669     9.9396    11.0250     8.0492    87.8943     0.0208     2.4782     0.1202
  405.0000   -29.7962     9.9299    11.0052     8.0489    90.2342     0.0200     2.4782     0.1209
  405.5000   -31.9010     9.9202    10.9854     8.0485    89.9580     0.0192     2.4815     0.1189
  406.0000   -32.2994     9.9106    10.9660     8.0482    89.6410     0.0183     2.4839     0.1169
  406.5000   -29.7337     9.9009    10.9467     8.0479    89.3758     0.0174     2.4831     0.1151
  407.0000   -29.7843     9.8917    10.9074     8.0476    89.0396     0.0169     2.4823     0.1165
  407.5000   -31.1927     9.8637    10.7680     8.0472    88.9551     0.0178     2.4816     0.1177
  408.0000   -32.1054     9.7481    10.6302     8.0469    88.8640     0.0187     2.4808     0.1191
  408.5000   -32.4287     9.6345    10.4947     8.0466    88.7847     0.0197     2.4801     0.1191
  409.0000   -32.4475     9.5223    10.3478     8.0463    88.7009     0.0206     2.4801     0.1189
  409.5000   -32.8764     9.4113    10.3325     8.0459    88.6148     0.0216     2.4801     0.1187
  410.0000   -33.3576     9.3522    10.3156     8.0456    88.5402     0.0225     2.4801     0.1186
  410.5000   -33.5739     9.3534    10.2988     8.0453    88.4413     0.0235     2.4802     0.1184
  411.0000   -33.4435     9.3529    10.2820     8.0450    88.3630     0.0245     2.4788     0.1191
  411.5000   -33.7340     9.3529    10.2652     8.0446    88.3348     0.0250     2.4752     0.1214
  412.0000   -34.2085     9.2987    10.2485     8.0443    87.5722     0.0252     2.4714     0.1236
  412.5000   -34.6701     9.2444    10.2317     8.0440    85.3721     0.0254     2.4714     0.1255
  413.0000   -34.8719     9.1904    10.2151     8.0437    83.9468     0.0256     2.4743     0.1233
  413.5000   -35.0858     9.1367    10.1985     8.0433    85.8491     0.0258     2.4777     0.1206
  414.0000   -35.3012     9.0745    10.1817     8.0430    87.9067     0.0260     2.4813     0.1178
  414.5000   -35.4159     8.9898    10.1651     8.0427    89.7265     0.0262     2.4883     0.1146
