~VERSION INFORMATION
 VERS.                2.0:   CWLS LOG ASCII STANDARD - VERSION 2.0
 WRAP.                 NO:   ONE LINE PER DEPTH STEP
~WELL INFORMATION
#MNEM.UNIT      DATA TYPE    INFORMATION
#----------   ------------   ------------------------------
 STRT.F          371.0000:   START DEPTH
 STOP.F         1998.0000:   STOP DEPTH
 STEP.F            0.5000:   STEP LENGTH
 NULL.          -999.2500:   NO VALUE
 COMP.       ANADARKO PET:   COMPANY
 WELL. StX-21 NPR #3 #17-21:   WELL
 FLD .             TEAPOT:   FIELD
 LOC .      S21 T39N R78W:   LOCATION
 CNTY.            NATRONA:   COUNTY
 STAT.            WYOMING:   STATE
 CTRY. UNITED STATES OF AMERICA:   COUNTRY
 SRVC.            Unknown:   SERVICE COMPANY
 DATE.        11-OCT-1994:   LOGDATE
 API .       490252266400:   API NUMBER
~CURVE INFORMATION
#MNEM.UNIT       API CODE    CURVE DESCRIPTION
#----------   ------------   ------------------------------
 DEPT.F                  :   
 ROP .MIN/FT 91 810 01 00:   RATE OF DRILLING PENETRATION
 TGAS.UNITS  91 830 01 00:   TOTAL GAS FROM HOTWIRE
~PARAMETER INFORMATION
#MNEM.UNIT          VALUE    DESCRIPTION
#----------   ------------   ------------------------------
 DATE.         10-11-1994:   RUN DATE
 RUN .                  1:   RUN NUMBER
 DD  .F              1997:   DEPTH DRILLER
 BLI .F              2000:   BOTTOM LOG INTERVAL
 TLI .F               360:   TOP LOG INTERVAL
 CS  .IN                7:   CASING SIZE
 CBD .F               344:   CASING BOTTOM DRILLER
 ENGI.   C. TOWER R. HUSK:   RECORDING ENGINEER
 CLNT.            A2DTECH:   CLIENT CODE
 ORIG.         2.5" PRINT:   ORIGIN OF DATA
 UWI .       490252266400:   UNIQUE WELL ID
 DICO. A2D Technologies, Inc.:   DIGITIZING COMPANY
~OTHER INFORMATION
~A   DEPT        ROP       TGAS 
# ...
  614.0000     0.4728     0.0000
  614.5000     0.4726     0.0000
  615.0000     0.4908     0.0000
  615.5000     0.4970     0.0000
  616.0000     0.5088     0.0000
  616.5000     0.5174     0.0000
  617.0000     0.5268     0.0000
  617.5000     0.5266     0.0000
  618.0000     0.5264     0.0000
  618.5000     0.5263     0.0000
  619.0000     0.5261     0.0000
  619.5000     0.5259     0.0000
  620.0000     0.5257     0.0000
  620.5000     0.5256     0.0000
  621.0000     0.5254     0.0000
  621.5000     0.5252     0.0000
  622.0000     0.5250     0.0000
  622.5000     0.5248     0.0000
  623.0000     0.5246     0.0000
  623.5000     0.5244     0.0000
  624.0000     0.5243     0.0000
  624.5000     0.5241     0.0000
  625.0000     0.5239     0.0000
  625.5000     0.5237     0.0000
  626.0000     0.5235     0.0000
  626.5000     0.5233     0.0000
  627.0000     0.5231     0.0000
  627.5000     0.5230     0.0000
  628.0000     0.5228     0.0000
  628.5000     0.5226     0.0000
  629.0000     0.5224     0.0000
  629.5000     0.5222     0.0000
  630.0000     0.5221     0.0000
  630.5000     0.5219     0.0000
  631.0000     0.5217     0.0000
  631.5000     0.5215     0.0000
  632.0000     0.5213     0.0000
  632.5000     0.5211     0.0000
  633.0000     0.5209     0.0000
  633.5000     0.5207     0.0000
  634.0000     0.5206     0.0000
  634.5000     0.5204     0.0000
  635.0000     0.5202     0.0000
  635.5000     0.5200     0.0000
  636.0000     0.5199     0.0000
  636.5000     0.5211     0.0000
  637.0000     0.5379     0.0000
  637.5000     0.5377     0.0000
  638.0000     0.5375     0.0000
  638.5000     0.5373     0.0000
  639.0000     0.5371     0.0000
  639.5000     0.5456     0.0000
  640.0000     0.5551     0.0000
  640.5000     0.5549     0.0000
  641.0000     0.5547     0.0000
  641.5000     0.5730     0.0000
  642.0000     0.5728     0.0000
  642.5000     0.5726     0.0000
  643.0000     0.5724     0.0000
  643.5000     0.5722     0.0000
  644.0000     0.5904     0.0000
  644.5000     0.5903     0.0000
  645.0000     0.5901     0.0000
  645.5000     0.5899     0.0000
  646.0000     0.5897     0.0000
  646.5000     0.5965     0.0000
  647.0000     0.6077     0.0000
  647.5000     0.6075     0.0000
  648.0000     0.6074     0.0000
  648.5000     0.6255     0.0000
  649.0000     0.6253     0.0000
  649.5000     0.6252     0.0000
  650.0000     0.6250     0.0000
  650.5000     0.6248     0.0000
  651.0000     0.6062     0.0000
  651.5000     0.6061     0.0000
  652.0000     0.6059     0.0000
  652.5000     0.6057     0.0000
  653.0000     0.6055     0.0000
  653.5000     0.6053     0.0000
  654.0000     0.5868     0.0000
  654.5000     0.5866     0.0000
  655.0000     0.5864     0.0000
  655.5000     0.5862     0.0000
  656.0000     0.5860     0.0000
  656.5000     0.5858     0.0000
  657.0000     0.5673     0.0000
  657.5000     0.5671     0.0000
  658.0000     0.5669     0.0000
  658.5000     0.3461     0.0000
  659.0000     0.3460     0.0000
  659.5000     0.3642     0.0000
  660.0000     0.3640     0.0000
  660.5000     0.3638     0.0000
  661.0000     0.3636     0.0000
  661.5000     0.3634     0.0000
  662.0000     0.3632     0.0000
  662.5000     0.3631     0.0000
  663.0000     0.3725     0.0000
  663.5000     0.4362     0.0000
  664.0000     0.4911     0.0000
  664.5000     0.5094     0.0000
  665.0000     0.5092     0.0000
  665.5000     0.5090     0.0000
  666.0000     0.5088     0.0000
  666.5000     0.5086     0.0000
  667.0000     0.5268     0.0000
  667.5000     0.5267     0.0000
  668.0000     0.5265     0.0000
  668.5000     0.5263     0.0000
  669.0000     0.5261     0.0000
  669.5000     0.5259     0.0000
  670.0000     0.5257     0.0000
  670.5000     0.5256     0.0000
  671.0000     0.5254     0.0000
  671.5000     0.5252     0.0000
  672.0000     0.5250     0.0000
  672.5000     0.5248     0.0000
  673.0000     0.5246     0.0000
  673.5000     0.5244     0.0000
  674.0000     0.5243     0.0000
  674.5000     0.5241     0.0000
  675.0000     0.5239     0.0000
  675.5000     0.5237     0.0000
  676.0000     0.5235     0.0000
  676.5000     0.5233     0.0000
  677.0000     0.5232     0.0000
  677.5000     0.5230     0.0000
  678.0000     0.5228     0.0000
  678.5000     0.5226     0.0000
  679.0000     0.5408     0.0000
  679.5000     0.5406     0.0000
  680.0000     0.5404     0.0000
  680.5000     0.5402     0.0000
  681.0000     0.5401     0.0000
  681.5000     0.5215     0.0000
  682.0000     0.5213     0.0000
  682.5000     0.5211     0.0000
  683.0000     0.5393     0.0000
  683.5000     0.5392     0.0000
  684.0000     0.5390     0.0000
  684.5000     0.5388     0.0000
  685.0000     0.5386     0.0000
  685.5000     0.5384     0.0000
  686.0000     0.5382     0.0000
  686.5000     0.5564     0.0000
  687.0000     0.5378     0.0000
  687.5000     0.5377     0.0000
  688.0000     0.5375     0.0000
  688.5000     0.5373     0.0000
  689.0000     0.5371     0.0000
  689.5000     0.5369     0.0000
  690.0000     0.5368     0.0000
  690.5000     0.5550     0.0000
  691.0000     0.5548     0.0000
  691.5000     0.5546     0.0000
  692.0000     0.5544     0.0000
  692.5000     0.5542     0.0000
  693.0000     0.5540     0.0000
  693.5000     0.5539     0.0000
  694.0000     0.5721     0.0000
  694.5000     0.5718     0.0000
  695.0000     0.5717     0.0000
  695.5000     0.5715     0.0000
  696.0000     0.5713     0.0000
  696.5000     0.5711     0.0000
  697.0000     0.5893     0.0000
  697.5000     0.5892     0.0000
  698.0000     0.5890     0.0000
  698.5000     0.5888     0.0000
  699.0000     0.5849     0.0000
  699.5000     0.5441     0.0000
  700.0000     0.4412     0.0000
  700.5000     0.4417     0.0000
  701.0000     0.4423     0.0000
  701.5000     0.4428     0.0000
  702.0000     0.4434     0.0000
  702.5000     0.4439     0.0000
  703.0000     0.4260     0.0000
  703.5000     0.4267     0.0000
  704.0000     0.4272     0.0000
  704.5000     0.4279     0.0000
  705.0000     0.5755     0.0000
  705.5000     0.5575     0.0000
  706.0000     0.5581     0.0000
  706.5000     0.5403     0.0000
  707.0000     0.5592     0.0000
  707.5000     0.5597     0.0000
  708.0000     0.5603     0.0000
  708.5000     0.5608     0.0000
  709.0000     0.5614     0.0000
  709.5000     0.5435     0.0000
  710.0000     0.5441     0.0000
  710.5000     0.5447     0.0000
  711.0000     0.5452     0.0000
  711.5000     0.5458     0.0000
  712.0000     0.5464     0.0000
  712.5000     0.5470     0.0000
  713.0000     0.5475     0.0000
  713.5000     0.5480     0.0000
  714.0000     0.5486     0.0000
  714.5000     0.5491     0.0000
  715.0000     0.5496     0.0000
  715.5000     0.5502     0.0000
  716.0000     0.5508     0.0000
  716.5000     0.5697     0.0000
  717.0000     0.5702     0.0000
  717.5000     0.5769     0.0000
  718.0000     0.5897     0.0000
  718.5000     0.5903     0.0000
  719.0000     0.5908     0.0000
  719.5000     0.5731     0.0000
  720.0000     0.5736     0.0000
  720.5000     0.4454     0.0000
  721.0000     0.4460     0.0000
  721.5000     0.4465     0.0000
  722.0000     0.4471     0.0000
  722.5000     0.4476     0.0000
  723.0000     0.4482     0.0000
  723.5000     0.4463     0.0000
  724.0000     0.4308     0.0000
  724.5000     0.4314     0.0000
  725.0000     0.4320     0.0000
  725.5000     0.4325     0.0000
  726.0000     0.4331     0.0000
  726.5000     0.4336     0.0000
  727.0000     0.4343     0.0000
  727.5000     0.4348     0.0000
  728.0000     0.4354     0.0000
  728.5000     0.4543     0.0000
  729.0000     0.4548     0.0000
  729.5000     0.4737     0.0000
  730.0000     0.4743     0.0000
  730.5000     0.4932     0.0000
  731.0000     0.4938     0.0000
  731.5000     0.4943     0.0000
  732.0000     0.4949     0.0000
  732.5000     0.4954     0.0000
  733.0000     0.4960     0.0000
  733.5000     0.4965     0.0000
  734.0000     0.5069     0.0000
  734.5000     0.5161     0.0000
  735.0000     0.5166     0.0000
