~VERSION INFORMATION
 VERS.                2.0:   CWLS LOG ASCII STANDARD - VERSION 2.0
 WRAP.                 NO:   ONE LINE PER DEPTH STEP
~WELL INFORMATION
#MNEM.UNIT      DATA TYPE    INFORMATION
#----------   ------------   ------------------------------
 STRT.F            0.0000:   START DEPTH
 STOP.F          504.0000:   STOP DEPTH
 STEP.F            0.5000:   STEP LENGTH
 NULL.          -999.2500:   NO VALUE
 COMP.       F D SERV INC:   COMPANY
 WELL. NAVAL PETROLEUM RESERVE 3 SX-1 #72-2-10:   WELL
 FLD .      nN. P. R. NO3:   FIELD
 LOC .      S10 T38N R78W:   LOCATION
 CNTY.            NATRONA:   COUNTY
 STAT.            WYOMING:   STATE
 CTRY. UNITED STATES OF AMERICA:   COUNTRY
 SRVC.     Atlas Wireline:   SERVICE COMPANY
 DATE.        09-DEC-1992:   LOGDATE
 API .       490252257300:   API NUMBER
~CURVE INFORMATION
#MNEM.UNIT       API CODE    CURVE DESCRIPTION
#----------   ------------   ------------------------------
 DEPT.F                  :   
 GRR .GAPI   07 310 01 00:   GAMMA RAY
 RILD.OHMM   07 120 46 00:   INDUCTION LOG DEEP RESISTIVITY
 RILM.OHMM   07 120 44 00:   RESITIVITY LONG MEDIUM
~PARAMETER INFORMATION
#MNEM.UNIT          VALUE    DESCRIPTION
#----------   ------------   ------------------------------
 PD  .                 GL:   PERMANENT DATUM
 EPD .F              5169:   ELEVATION PERMANENT DATUM
 LMF .                 KB:   LOG MEASURED FROM
 DAPD.F                10:   FEET ABOVE PERMANENT DATUM
 DMF .                 KB:   DRILLING MEASURED FROM
 EKB .F              5179:   KELLING BUSHING
 EDF .F              5178:   DRILLING FLOOR
 EGL .F              5169:   GROUND LEVEL
 DATE.        09-DEC-1992:   RUN DATE
 RUN .                  1:   RUN NUMBER
 DD  .F               525:   DEPTH DRILLER
 DL  .F               519:   DEPTH LOGGER
 BLI .F               510:   BOTTOM LOG INTERVAL
 CS  .IN            8.625:   CASING SIZE
 CBD .F                83:   CASING BOTTOM DRILLER
 CBL .F                84:   CASING BOTTOM LOGGER
 BS  .IN            7.875:   BIT SIZE
 BSD .F               525:   BIT SIZE AT DEPTH
 DFT .           AIR FOAM:   DRILLING FLUID TYPE
 BHT .F                64:   BOTTOM HOLE TEMPERATURE
 MRT .F                64:   MAXIMUM RECORDED TEMPERATURE
 LUN .           HL- 6274:   LOGGING UNIT NUMBER
 LUL .             CASPER:   LOGGING UNIT LOCATION
 ENGI.       P. RASMUSSEN:   RECORDING ENGINEER
 WITN.          G. STRONG:   WITNESSED BY
 CLNT.            A2DTECH:   CLIENT CODE
 ORIG.           5" PRINT:   ORIGIN OF DATA
 UWI .       490252257300:   UNIQUE WELL ID
 DICO. A2D Technologies, Inc.:   DIGITIZING COMPANY
~OTHER INFORMATION
~A    DEPT      GRR      RILD       RILM   
# ...
  455.0000   136.7470     6.1938     6.7804
  455.5000   121.0843     6.7221     7.4696
  456.0000   115.6627     7.4559     8.0598
  456.5000   113.5381     7.9884     8.5234
  457.0000   113.6505     8.4998     9.0014
  457.5000   119.5783     9.1068     9.3173
  458.0000   126.2048     9.6230     9.6443
  458.5000   127.4096     9.8907     9.8457
  459.0000   124.3976     9.9594     9.9817
  459.5000   119.2771    10.1629    10.1196
  460.0000   115.3614    10.3019    10.1882
  460.5000   115.6627    10.4421    10.3289
  461.0000   117.4739    10.5125    10.4715
  461.5000   120.3254    10.6555    10.6161
  462.0000   123.7952    10.8012    10.7623
  462.5000   123.1928    10.9489    10.9113
  463.0000   121.9880    11.0987    11.0620
  463.5000   123.7952    11.3286    11.2923
  464.0000   124.3976    11.4178    11.4483
  464.5000   120.1807    11.6405    11.6870
  465.0000   118.9357    11.7996    11.7667
  465.5000   119.2771    11.9610    11.9355
  466.0000   117.3736    12.1245    12.1775
  466.5000   113.2530    12.2895    12.2609
  467.0000   114.1566    12.3717    12.2589
  467.5000   116.5663    12.5407    12.3428
  468.0000   119.2771    12.6245    12.5128
  468.5000   119.5783    12.7088    12.5985
  469.0000   119.8795    12.7936    12.5964
  469.5000   121.0843    12.7893    12.6822
  470.0000   121.4056    12.7859    12.6805
  470.5000   118.9759    12.6942    12.6787
  471.0000   119.6225    12.6032    12.5892
  471.5000   119.8795    12.5129    12.5875
  472.0000   118.6747    12.4232    12.4989
  472.5000   118.6747    12.4197    12.3253
  473.0000   118.6747    12.4156    12.3237
  473.5000   117.4699    12.3266    12.3220
  474.0000   115.0602    12.3233    12.3204
  474.5000   114.1566    12.3200    12.2337
  475.0000   115.9639    12.3167    12.2320
  475.5000   118.1366    12.2284    12.2300
  476.0000   120.4819    12.2251    12.1439
  476.5000   119.2771    12.0537    12.0585
  477.0000   118.6747    11.8846    11.8910
  477.5000   119.8795    11.7173    11.8074
  478.0000   121.9880    11.5530    11.2472
  478.5000   123.7952    11.2344    11.2456
  479.0000   124.6988    11.0768    11.0129
  479.5000   122.8916    10.7713    10.7850
  480.0000   121.6867    10.6203    10.6349
  480.5000   121.9880    10.5442    10.6335
  481.0000   123.4940    10.3944    10.6320
  481.5000   126.5060    10.2406    10.5572
  482.0000   129.8193    10.0364    10.4830
  482.5000   128.9157     9.9645    10.4092
  483.0000   124.0964     9.8931    10.3360
  483.5000   125.0000     9.8221    10.1221
  484.0000   127.1084     9.8195    10.0407
  484.5000   128.3132     9.7491     9.9110
  485.0000   129.0361     9.7465     9.7059
  485.5000   131.6265     9.6766     9.7046
  486.0000   131.6265     9.6739     9.6363
  486.5000   131.6265     9.6040     9.6350
  487.0000   131.6265     9.6014     9.6337
  487.5000   131.9277     9.5988     9.6324
  488.0000   131.3253     9.5962     9.6311
  488.5000   129.2169     9.5275     9.5633
  489.0000   126.8072     9.4592     9.4302
  489.5000   126.2048     9.2622     9.2351
  490.0000   127.7108     9.1323     9.1068
  490.5000   132.5301     8.9415     9.0428
  491.0000   136.8392     8.7553     8.9172
  491.5000  -999.2500     8.6926     8.7327
  492.0000  -999.2500     8.5115     8.5520
  492.5000  -999.2500     8.4505     8.4322
  493.0000  -999.2500     8.3900     8.3665
  493.5000  -999.2500     8.2723     8.3147
  494.0000  -999.2500     8.2130     8.2562
  494.5000  -999.2500     8.0930     8.1981
  495.0000  -999.2500     7.9287     8.0843
  495.5000  -999.2500     7.7636     7.8623
  496.0000  -999.2500     7.6019     7.6465
  496.5000  -999.2500     7.4436     7.4366
  497.0000  -999.2500     7.3392     7.2325
  497.5000  -999.2500     7.1864     7.1816
  498.0000  -999.2500     7.2847     7.3820
  498.5000  -999.2500     7.3333     7.4840
  499.0000  -999.2500     7.3877     7.6401
  499.5000  -999.2500     7.5347     7.8536
  500.0000  -999.2500     7.6377     7.9074
  500.5000  -999.2500     7.8502     7.9610
  501.0000  -999.2500     8.0685     8.0709
  501.5000  -999.2500     8.3505     8.4707
  502.0000  -999.2500     8.6430     8.9586
  502.5000  -999.2500     8.9444     9.2022
  503.0000  -999.2500     9.1932     9.3293
  503.5000  -999.2500     9.3918     9.4581
  504.0000  -999.2500     9.6446     9.6249
