~VERSION INFORMATION
 VERS.                2.0:   CWLS LOG ASCII STANDARD - VERSION 2.0
 WRAP.                 NO:   ONE LINE PER DEPTH STEP
~WELL INFORMATION
#MNEM.UNIT      DATA TYPE    INFORMATION
#----------   ------------   ------------------------------
 STRT.F           10.5000:   START DEPTH
 STOP.F          604.0000:   STOP DEPTH
 STEP.F            0.5000:   STEP LENGTH
 NULL.          -999.2500:   NO VALUE
 COMP. FENIX & SCISSON INC:   COMPANY
 WELL.  NPR 3 #87 S 10-10:   WELL
 FLD .             TEAPOT:   FIELD
 LOC .      S10 T38N R78W:   LOCATION
 CNTY.            NATRONA:   COUNTY
 STAT.            WYOMING:   STATE
 CTRY. UNITED STATES OF AMERICA:   COUNTRY
 SRVC.           BIRDWELL:   SERVICE COMPANY
 DATE.        11-DEC-1978:   LOGDATE
 API .       490251075400:   API NUMBER
~CURVE INFORMATION
#MNEM.UNIT       API CODE    CURVE DESCRIPTION
#----------   ------------   ------------------------------
 DEPT.F                  :   
 SPR .MV     05 010 01 00:   SPONTANEOUS POTENTIAL FROM RES.
 SN  .OHMM   05 040 16 00:   SHORT NORMAL 16"
 IL  .OHMM   05 120 00 00:   INDUCTION LOG
 CALD.IN     45 280 60 00:   CALIPER
 GRD .GAPI   45 310 01 00:   GAMMA RAY FROM DENSITY LOG
 RHOB.G/C3   45 350 01 00:   BULK DENSITY
 DPHI.DEC    45 890 12 00:   DENSITY POROSITY SANDSTONE
 CORR.G/C3   45 356 01 00:   DENSITY CORRECTION
~PARAMETER INFORMATION
#MNEM.UNIT          VALUE    DESCRIPTION
#----------   ------------   ------------------------------
 PD  .                 GL:   PERMANENT DATUM
 LMF .                 KB:   LOG MEASURED FROM
 DAPD.F                 4:   FEET ABOVE PERMANENT DATUM
 DMF .                 KB:   DRILLING MEASURED FROM
 DATE.           12-11-78:   RUN DATE
 RUN .                  1:   RUN NUMBER
 DD  .F               600:   DEPTH DRILLER
 DL  .F               602:   DEPTH LOGGER
 BLI .F               596:   BOTTOM LOG INTERVAL
 TLI .F                60:   TOP LOG INTERVAL
 CBD .F                40:   CASING BOTTOM DRILLER
 CBL .F                35:   CASING BOTTOM LOGGER
 BS  .IN            7.875:   BIT SIZE
 BSD .F               600:   BIT SIZE AT DEPTH
 DFT .                KCC:   DRILLING FLUID TYPE
 DFD .                8.7:   DRILLING FLUID DENSITY
 DFV .                 39:   DRILLING FLUID VISCOSITY
 DFPH.               10.5:   DRILLING FLUID PH
 DFL .                 10:   DRILLING FLUID LOSS
 MSS .           FLOWLINE:   MUD SAMPLE SOURCE
 RMS .OHMM              1:   RESISTIVITY MUD SAMPLE
 MST .F                62:   MUD SAMPLE TEMPERATURE
 RMF .OHMM            .85:   RESISTIVITY MUD FILTRATE SAMPLE
 MFST.F                58:   MUD FILTRATE SAMPLE TEMPERATURE
 RMC .OHMM             .8:   RESISTIVITY MUD CAKE
 MCST.F                66:   MUD CAKE SAMPLE TEMPERATURE
 MFSS.           MEASURED:   MUD FILTRATE SAMPLE SOURCE
 MCSS.           MEASURED:   MUD CAKE SAMPLE SOURCE
 BHT .F                72:   BOTTOM HOLE TEMPERATURE
 TCS .HRS               3:   TIME CURCULATED STOPPED
 MRT .F                72:   MAXIMUM RECORDED TEMPERATURE
 LUN .               2958:   LOGGING UNIT NUMBER
 LUL .             CASPER:   LOGGING UNIT LOCATION
 ENGI.            ROLLINS:   RECORDING ENGINEER
 WITN.           DINSMORE:   WITNESSED BY
 CLNT.            A2DTECH:   CLIENT CODE
 ORIG.       2", 5" PRINT:   ORIGIN OF DATA
 UWI .       490251075400:   UNIQUE WELL ID
 DICO. A2D Technologies, Inc.:   DIGITIZING COMPANY
~OTHER INFORMATION
~A   DEPT      SPR         SN         IL       CALD        GRD       RHOB       DPHI       CORR   
# ...
  496.5000   -30.4270    25.2050    27.9870     8.2970    79.4540     2.4950     0.1210     0.0790
  497.0000   -30.4590    26.1250    28.0470     8.2690    78.4740     2.5230     0.1020     0.0550
  497.5000   -30.5040    27.0460    28.1070     8.2770    77.0950     2.5070     0.0970     0.0250
  498.0000   -29.8800    27.9660    28.1680     8.2980    76.9990     2.4640     0.1310     0.0100
  498.5000   -29.0130    28.8860    28.2280     8.3210    79.8930     2.4010     0.1740     0.0100
  499.0000   -28.1400    29.8060    28.2700     8.3890    84.8010     2.3330     0.2130     0.0100
  499.5000   -27.6260    30.7260    27.5940     8.4490    83.2020     2.3210     0.2260     0.0100
  500.0000   -27.4710    31.0040    27.0720     8.4670    80.5120     2.3290     0.2190     0.0120
  500.5000   -27.3190    31.0040    26.5020     8.4800    81.5100     2.3400     0.2100     0.0140
  501.0000   -27.8500    30.8120    25.7310     8.4920    83.6940     2.3400     0.2100     0.0160
  501.5000   -28.4540    29.0950    24.8810     8.5050    85.7150     2.3380     0.2130     0.0180
  502.0000   -29.0680    27.3780    24.0310     8.5180    86.5510     2.3380     0.2150     0.0200
  502.5000   -29.0640    25.5410    23.1810     8.5300    86.1950     2.3410     0.2150     0.0210
  503.0000   -29.0230    24.8630    22.5430     8.5430    85.8290     2.3460     0.2080     0.0210
  503.5000   -28.9820    24.1330    22.4550     8.5550    85.9950     2.3500     0.2060     0.0210
  504.0000   -28.9420    23.4030    22.2440     8.5630    86.1980     2.3510     0.2060     0.0200
  504.5000   -28.9020    22.9730    22.0320     8.5700    86.4030     2.3510     0.2060     0.0200
  505.0000   -28.8620    22.7870    21.8200     8.5760    86.5300     2.3520     0.2060     0.0200
  505.5000   -28.8210    22.6010    21.6090     8.5830    86.6500     2.3520     0.2050     0.0200
  506.0000   -28.7810    22.4150    21.4140     8.5890    86.7520     2.3530     0.2040     0.0160
  506.5000   -28.7410    22.2290    21.3030     8.5960    87.9490     2.3520     0.2030     0.0100
  507.0000   -28.7010    22.0430    21.1910     8.6020    89.3400     2.3480     0.2050     0.0100
  507.5000   -28.6600    21.8570    21.0790     8.6090    89.2050     2.3340     0.2130     0.0160
  508.0000   -28.6200    21.6710    20.9680     8.6150    90.2280     2.3180     0.2220     0.0300
  508.5000   -28.5800    21.4850    20.8560     8.6200    91.5010     2.3100     0.2300     0.0450
  509.0000   -28.5390    21.2990    20.7450     8.6140    91.6810     2.3090     0.2330     0.0600
  509.5000   -28.5230    21.1130    20.6330     8.6080    87.7310     2.3130     0.2300     0.0620
  510.0000   -29.0930    20.9800    20.5220     8.6040    87.0450     2.3280     0.2230     0.0600
  510.5000   -29.6840    20.8810    20.4100     8.5250    88.7430     2.3440     0.2140     0.0570
  511.0000   -30.0230    20.7810    20.2980     8.4040    90.8460     2.3540     0.2060     0.0460
  511.5000   -30.2260    20.6820    20.1870     8.3450    91.4290     2.3640     0.1970     0.0290
  512.0000   -30.4360    20.5820    20.0750     8.3190    92.0320     2.3690     0.1920     0.0110
  512.5000   -30.5300    20.4830    19.9640     8.2920    93.0650     2.3630     0.1950     0.0070
  513.0000   -30.5820    20.3830    19.8520     8.2650    93.6610     2.3510     0.2030     0.0050
  513.5000   -30.6330    20.2840    19.7400     8.2760    92.9170     2.3450     0.2110     0.0040
  514.0000   -30.6830    20.1850    19.4530     8.2920    88.2580     2.3450     0.2090     0.0020
  514.5000   -30.7330    20.0930    19.1380     8.3090    84.9330     2.3520     0.2080     0.0010
  515.0000   -30.7830    19.7510    18.8230     8.3250    84.6920     2.3590     0.2030     0.0000
  515.5000   -30.8340    19.4330    18.5080     8.3420    86.8850     2.3650     0.2000    -0.0020
  516.0000   -30.8900    19.1140    18.1920     8.3580    88.7520     2.3750     0.1900    -0.0020
  516.5000   -30.7010    18.7960    17.8770     8.3750    90.6730     2.3850     0.1850    -0.0010
  517.0000   -30.4220    18.4780    17.6150     8.3910    91.7670     2.3890     0.1810     0.0060
  517.5000   -30.1410    18.2160    17.4770     8.4070    90.6090     2.3900     0.1810     0.0140
  518.0000   -29.8590    18.0080    17.3390     8.4240    87.8660     2.3930     0.1810     0.0170
  518.5000   -29.5710    17.8000    17.2010     8.4400    86.2540     2.4000     0.1740     0.0160
  519.0000   -29.5040    17.5920    17.0630     8.4570    88.2810     2.4350     0.1490     0.0150
  519.5000   -29.5010    17.4950    16.8610     8.4730    89.7930     2.4710     0.1280     0.0130
  520.0000   -29.5000    17.5890    16.9070     8.4810    88.8620     2.4740     0.1280     0.0250
  520.5000   -29.5000    17.6600    16.9930     8.4820    87.0550     2.4510     0.1390     0.0350
  521.0000   -29.5000    17.7300    17.0800     8.4830    86.9330     2.4330     0.1510     0.0400
  521.5000   -29.5000    17.8010    17.1660     8.4830    90.2720     2.4160     0.1650     0.0450
  522.0000   -29.5000    17.8710    17.2520     8.4840    91.4380     2.3970     0.1780     0.0570
  522.5000   -29.5010    17.9770    17.3380     8.4840    92.6690     2.3820     0.1860     0.0740
  523.0000   -29.5020    17.9350    17.4240     8.4850    92.9320     2.3770     0.1890     0.0910
  523.5000   -29.5070    17.7970    17.4950     8.4860    90.8470     2.3710     0.1910     0.0990
  524.0000   -29.6910    17.6570    16.9090     8.4860    88.6370     2.3730     0.1940     0.0930
  524.5000   -30.7740    17.3140    16.5700     8.4870    88.4550     2.3760     0.1910     0.0800
  525.0000   -31.8780    16.9670    16.3390     8.4880    91.3650     2.3800     0.1870     0.0610
  525.5000   -31.2990    16.6200    16.1080     8.4880    92.8430     2.3870     0.1840     0.0420
  526.0000   -30.4960    16.3930    15.8770     8.4890    90.2880     2.3950     0.1750     0.0230
  526.5000   -30.6920    16.1950    15.6460     8.4890    87.0020     2.3990     0.1750     0.0110
  527.0000   -31.6540    15.9970    15.4150     8.4900    83.9670     2.3990     0.1750     0.0050
  527.5000   -32.5890    15.7990    15.2220     8.4910    87.1390     2.3990     0.1760     0.0010
  528.0000   -34.2010    15.6010    14.9800     8.4910    89.8410     2.3990     0.1760    -0.0020
  528.5000   -31.8720    15.4040    14.7370     8.4920    89.5750     2.3980     0.1760    -0.0040
  529.0000   -30.1760    15.2060    14.4940     8.4930    89.1280     2.3980     0.1760    -0.0060
  529.5000   -30.1000    15.0080    14.2510     8.4930    88.6690     2.3980     0.1760    -0.0010
  530.0000   -30.0990    14.8100    14.0080     8.4940    88.6530     2.3970     0.1760     0.0030
  530.5000   -30.1010    14.6120    13.7650     8.4940    89.5690     2.3980     0.1760     0.0070
  531.0000   -30.0840    14.4480    13.5450     8.4950    91.7800     2.4230     0.1640     0.0070
  531.5000   -29.7460    14.3010    13.3510     8.4960    92.2700     2.4290     0.1580     0.0070
  532.0000   -29.8460    14.1530    13.1560     8.4960    89.9920     2.4270     0.1590     0.0070
  532.5000   -30.1470    14.0190    12.9620     8.4970    88.8850     2.4240     0.1610     0.0070
  533.0000   -30.3050    13.9040    12.8270     8.4980    92.1250     2.4230     0.1610     0.0060
  533.5000   -30.4080    13.7980    12.6660     8.4980    91.1050     2.4230     0.1610     0.0050
  534.0000   -30.5100    13.6920    12.7050     8.4990    87.7220     2.4230     0.1610     0.0050
  534.5000   -30.6110    13.5860    12.7820     8.4990    85.3450     2.4240     0.1610     0.0040
  535.0000   -30.7120    13.4800    12.8590     8.5000    86.1440     2.4270     0.1590     0.0040
  535.5000   -30.8120    13.3890    12.9370     8.5010    87.2980     2.4350     0.1560     0.0030
  536.0000   -30.9050    13.4010    13.0140     8.4950    92.3230     2.4420     0.1510     0.0030
  536.5000   -30.9460    13.4130    13.0910     8.4840    91.6700     2.4400     0.1490     0.0030
