~VERSION INFORMATION
 VERS.                2.0:   CWLS LOG ASCII STANDARD - VERSION 2.0
 WRAP.                 NO:   ONE LINE PER DEPTH STEP
~WELL INFORMATION
#MNEM.UNIT      DATA TYPE    INFORMATION
#----------   ------------   ------------------------------
 STRT.F          438.0000:   START DEPTH
 STOP.F         2175.0000:   STOP DEPTH
 STEP.F            0.5000:   STEP LENGTH
 NULL.          -999.2500:   NO VALUE
 COMP.   FLUOR DANIEL INC:   COMPANY
 WELL. NAVAL PETROLEUM RESERVE 3 X29 #74-29:   WELL
 FLD .            WLIDCAT:   FIELD
 LOC .      S29 T39N R78W:   LOCATION
 CNTY.            NATRONA:   COUNTY
 STAT.            WYOMING:   STATE
 CTRY. UNITED STATES OF AMERICA:   COUNTRY
 SRVC.            Unknown:   SERVICE COMPANY
 DATE.        05-JUN-1995:   LOGDATE
 API .       490252272900:   API NUMBER
~CURVE INFORMATION
#MNEM.UNIT       API CODE    CURVE DESCRIPTION
#----------   ------------   ------------------------------
 DEPT.F                  :   
 ROP .FT/HR  91 810 01 00:   RAT OF DRILLING PENETRATION
 TGAS.TC/CC  91 830 01 00:   TOTAL GAS UNIT
~PARAMETER INFORMATION
#MNEM.UNIT          VALUE    DESCRIPTION
#----------   ------------   ------------------------------
 EKB .F              5036:   KELLING BUSHING
 EGL .F              5026:   GROUND LEVEL
 DATE.        05-JUN-1995:   RUN DATE
 RUN .                  1:   RUN NUMBER
 BLI .F              2160:   BOTTOM LOG INTERVAL
 TLI .F               440:   TOP LOG INTERVAL
 ENGI.     R.HUSK/C.TOWER:   RECORDING ENGINEER
 CLNT.            A2DTECH:   CLIENT CODE
 ORIG.           5" PRINT:   ORIGIN OF DATA
 UWI .       490252272900:   UNIQUE WELL ID
 DICO. A2D Technologies, Inc.:   DIGITIZING COMPANY
~OTHER INFORMATION
~A   DEPT        ROP       TGAS 
# ...
  924.0000     0.5769     2.1057
  924.5000     0.5865     2.2792
  925.0000     0.5865     2.2642
  925.5000     0.5865     2.2491
  926.0000     0.5962     2.2310
  926.5000     0.5962     2.2189
  927.0000     0.5962     2.2038
  927.5000     0.5962     2.1868
  928.0000     0.5962     2.1721
  928.5000     0.5865     2.1574
  929.0000     0.5769     2.1427
  929.5000     0.5673     2.1283
  930.0000     0.5577     2.1132
  930.5000     0.5385     2.0981
  931.0000     0.5385     2.0830
  931.5000     0.5385     2.0679
  932.0000     0.5385     2.2393
  932.5000     0.5385     2.4133
  933.0000     0.5385     2.3985
  933.5000     0.5385     2.3838
  934.0000     0.5385     2.5614
  934.5000     0.5385     2.5430
  935.0000     0.5385     2.7170
  935.5000     0.5495     2.7019
  936.0000     0.5769     2.6838
  936.5000     0.5962     2.8615
  937.0000     0.5769     4.5412
  937.5000     0.5385     3.7717
  938.0000     0.5288     2.2513
  938.5000     0.5288     2.4252
  939.0000     0.5192     2.5992
  939.5000     0.5192     2.5811
  940.0000     0.5192     2.5660
  940.5000     0.5288     2.5509
  941.0000     0.5192     2.5329
  941.5000     0.5192     2.7105
  942.0000     0.5192     2.6921
  942.5000     0.5192     2.8698
  943.0000     0.5192     2.8514
  943.5000     0.5192     2.8366
  944.0000     0.5192     2.8219
  944.5000     0.5192     2.8072
  945.0000     0.5192     2.7925
  945.5000     0.5288     2.7774
  946.0000     0.5288     2.7593
  946.5000     0.5385     2.7446
  947.0000     0.5385     2.5412
  947.5000     0.5385     2.5265
  948.0000     0.5385     2.7004
  948.5000     0.5385     2.6857
  949.0000     0.5385     2.6710
  949.5000     0.5385     2.6562
  950.0000     0.5385     2.6415
  950.5000     0.5385     2.6328
  951.0000     0.5385     2.6264
  951.5000     0.5385     2.4287
  952.0000     0.5385     2.4213
  952.5000     0.5385     2.4139
  953.0000     0.5385     2.2178
  953.5000     0.5385     2.2104
  954.0000     0.5385     2.2030
  954.5000     0.5380     2.1955
  955.0000     0.5323     2.1887
  955.5000     0.5266     2.1807
  956.0000     0.5146     2.1733
  956.5000     0.5142     2.1659
  957.0000     0.5138     2.1585
  957.5000     0.5135     2.1510
  958.0000     0.5131     2.5210
  958.5000     0.5031     2.5132
  959.0000     0.4930     2.5043
  959.5000     0.4926     2.4969
  960.0000     0.4826     2.4895
  960.5000     0.4823     2.6707
  961.0000     0.4819     2.8538
  961.5000     0.4815     3.0332
  962.0000     0.4908     3.0258
  962.5000     0.4904     2.8297
  963.0000     0.5006     2.8223
  963.5000     0.5089     2.8149
  964.0000     0.5181     2.6188
  964.5000     0.5273     2.4226
  965.0000     0.5269     2.4151
  965.5000     0.5265     4.8640
  966.0000     0.5358     2.2099
  966.5000     0.5354     2.3930
  967.0000     0.5350     2.3838
  967.5000     0.5340     2.3763
  968.0000     0.5246     2.5585
  968.5000     0.5339     2.7407
  969.0000     0.5238     2.7321
  969.5000     0.5234     2.9127
  970.0000     0.5230     2.9053
  970.5000     0.5227     3.0868
  971.0000     0.5223     3.0791
  971.5000     0.5219     3.0717
  972.0000     0.5215     3.0642
  972.5000     0.5212     3.0566
  973.0000     0.5207     3.0476
  973.5000     0.5203     3.0402
  974.0000     0.5199     3.0328
  974.5000     0.5196     3.0264
  975.0000     0.5289     2.8293
  975.5000     0.5381     2.8218
  976.0000     0.5473     2.8144
  976.5000     0.5469     2.6183
  977.0000     0.5456     2.6109
  977.5000     0.5365     2.6038
  978.0000     0.5265     2.4074
  978.5000     0.5165     2.2113
  979.0000     0.5161     2.2038
  979.5000     0.5157     2.1962
  980.0000     0.5154     2.1872
  980.5000     0.5054     2.1798
  981.0000     0.5050     1.9837
  981.5000     0.4950     1.9763
  982.0000     0.4946     1.9688
  982.5000     0.5038     1.9614
  983.0000     0.5131     1.9540
  983.5000     0.5126     2.1371
  984.0000     0.5123     2.1279
  984.5000     0.5119     2.1204
  985.0000     0.5115     2.1130
  985.5000     0.5111     2.2943
  986.0000     0.5108     2.4755
  986.5000     0.5200     2.6568
  987.0000     0.5293     2.8381
  987.5000     0.5288     2.8288
  988.0000     0.5381     2.8214
  988.5000     0.5474     2.8140
  989.0000     0.5469     2.8065
  989.5000     0.5369     2.7991
  990.0000     0.5365     2.7925
  990.5000     0.5362     2.7843
  991.0000     0.5358     2.7774
  991.5000     0.5353     2.7695
  992.0000     0.5253     2.7620
  992.5000     0.5249     2.7540
  993.0000     0.5246     2.9358
  993.5000     0.5242     2.9283
  994.0000     0.5431     2.9208
  994.5000     0.5523     2.9118
  995.0000     0.5423     2.9057
  995.5000     0.5319     2.8981
  996.0000     0.5168     2.8895
  996.5000     0.5026     2.8821
  997.0000     0.5022     2.8755
  997.5000     0.4923     2.8673
  998.0000     0.4919     2.6717
  998.5000     0.4915     2.6642
  999.0000     0.4911     2.6566
  999.5000     0.5004     2.6489
 1000.0000     0.5000     2.6415
 1000.5000     0.4996     2.6340
 1001.0000     0.4895     2.6264
 1001.5000     0.4796     2.6174
 1002.0000     0.4792     2.6100
 1002.5000     0.4788     2.6026
 1003.0000     0.4784     2.5952
 1003.5000     0.4781     2.5877
 1004.0000     0.4641     2.5803
 1004.5000     0.4538     2.5729
 1005.0000     0.4335     2.5655
 1005.5000     0.4711     2.5581
 1006.0000     0.5090     2.5506
 1006.5000     0.4887     3.2979
 1007.0000     0.4916     4.6113
 1007.5000     0.4966     5.1699
 1008.0000     0.5054     5.1623
 1008.5000     0.5045     4.9645
 1009.0000     0.5035     4.9571
 1009.5000     0.5125     4.9497
 1010.0000     0.5213     4.9423
 1010.5000     0.5202     5.1245
 1011.0000     0.5194     5.1161
 1011.5000     0.5185     5.1087
 1012.0000     0.5273     4.7302
 1012.5000     0.5361     4.7154
 1013.0000     0.5350     4.7007
 1013.5000     0.5342     4.6859
 1014.0000     0.5334     4.6717
 1014.5000     0.5325     4.6566
 1015.0000     0.5317     4.6415
 1015.5000     0.5308     4.6264
 1016.0000     0.5300     4.4197
 1016.5000     0.5290     4.5973
 1017.0000     0.5185     4.7698
 1017.5000     0.5177     4.7528
 1018.0000     0.5072     4.7380
 1018.5000     0.5064     4.9157
 1019.0000     0.5055     5.0896
 1019.5000     0.5047     5.0711
 1020.0000     0.5038     5.0564
 1020.5000     0.5223     5.0415
 1021.0000     0.5310     5.0268
 1021.5000     0.5398     5.3857
 1022.0000     0.5388     5.3710
 1022.5000     0.5379     5.5449
 1023.0000     0.5371     5.5301
 1023.5000     0.5459     5.5154
 1024.0000     0.5546     5.5006
 1024.5000     0.5536     5.6782
 1025.0000     0.5527     5.6598
 1025.5000     0.5519     5.6450
 1026.0000     0.5511     5.6302
 1026.5000     0.5502     5.6151
 1027.0000     0.5494     5.5970
 1027.5000     0.5486     5.5823
 1028.0000     0.5477     5.5675
 1028.5000     0.5469     5.5527
 1029.0000     0.5556     5.3493
 1029.5000     0.5546     4.7685
 1030.0000     0.5634     4.1877
 1030.5000     0.5625     3.7956
 1031.0000     0.5617     3.4035
 1031.5000     0.5609     2.8226
 1032.0000     0.5696     2.6189
 1032.5000     0.5782     2.4121
 1033.0000     0.5774     2.2086
 1033.5000     0.5766     2.3826
 1034.0000     0.5757     2.3678
 1034.5000     0.5652     2.3530
 1035.0000     0.5644     2.5306
 1035.5000     0.5732     2.7009
 1036.0000     0.5627     2.6861
 1036.5000     0.5617     2.8600
 1037.0000     0.5512     3.0340
 1037.5000     0.5504     3.0189
 1038.0000     0.5399     3.0038
 1038.5000     0.5391     2.9860
 1039.0000     0.5382     2.9712
 1039.5000     0.5470     2.9564
 1040.0000     0.5462     2.9417
 1040.5000     0.5646     2.9283
 1041.0000     0.5635     3.1045
 1041.5000     0.5725     3.0861
 1042.0000     0.5715     3.0717
 1042.5000     0.5706     3.0566
 1043.0000     0.5698     2.8528
 1043.5000     0.5689     2.8377
 1044.0000     0.5777     2.8199
 1044.5000     0.5767     2.6164
 1045.0000     0.5758     2.6017
