~VERSION INFORMATION
 VERS.                2.0:   CWLS LOG ASCII STANDARD - VERSION 2.0
 WRAP.                 NO:   ONE LINE PER DEPTH STEP
~WELL INFORMATION
#MNEM.UNIT      DATA TYPE    INFORMATION
#----------   ------------   ------------------------------
 STRT.F           12.0000:   START DEPTH
 STOP.F          754.0000:   STOP DEPTH
 STEP.F            0.5000:   STEP LENGTH
 NULL.          -999.2500:   NO VALUE
 COMP. FENIX & SCISSON INC:   COMPANY
 WELL.    62 SX 34 #62-34:   WELL
 FLD .             TEAPOT:   FIELD
 LOC .      S34 T39N R78W:   LOCATION
 CNTY.            NATRONA:   COUNTY
 STAT.            WYOMING:   STATE
 CTRY. UNITED STATES OF AMERICA:   COUNTRY
 SRVC.            Unknown:   SERVICE COMPANY
 DATE.        20-AUG-1978:   LOGDATE
 API .       490251070200:   API NUMBER
~CURVE INFORMATION
#MNEM.UNIT       API CODE    CURVE DESCRIPTION
#----------   ------------   ------------------------------
 DEPT.F                  :   
 SPR .MV     05 010 01 00:   SPONTANEOUS POTENTIAL FROM RES.
 SN  .OHMM   05 040 16 00:   SHORT NORMAL 16"
 ILD .OHMM   05 120 46 00:   INDUCTION LOG DEEP
 GRD .GAPI   45 310 01 00:   GAMMA RAY FROM DENSITY LOG
 CALD.IN     45 280 60 00:   CALIPER
 RHOB.G/C3   45 350 01 00:   BULK DENSITY
 DPHI.DEC    45 890 12 00:   DENSITY POROSITY SANDSTONE
 CORR.G/C3   45 356 01 00:   DENSITY CORRECTION
~PARAMETER INFORMATION
#MNEM.UNIT          VALUE    DESCRIPTION
#----------   ------------   ------------------------------
 PD  .                 GL:   PERMANENT DATUM
 EPD .F              5039:   ELEVATION PERMANENT DATUM
 LMF .                 KB:   LOG MEASURED FROM
 DAPD.F                 4:   FEET ABOVE PERMANENT DATUM
 DMF .                 KB:   DRILLING MEASURED FROM
 EKB .F              5043:   KELLING BUSHING
 EGL .F              5039:   GROUND LEVEL
 DATE.            8-20-78:   RUN DATE
 RUN .                  1:   RUN NUMBER
 DD  .F               750:   DEPTH DRILLER
 DL  .F               755:   DEPTH LOGGER
 BLI .F               749:   BOTTOM LOG INTERVAL
 TLI .F                30:   TOP LOG INTERVAL
 CS  .IN            8.625:   CASING SIZE
 CBD .F                30:   CASING BOTTOM DRILLER
 CBL .F                34:   CASING BOTTOM LOGGER
 BS  .IN            7.875:   BIT SIZE
 BSD .F               750:   BIT SIZE AT DEPTH
 DFT .            KCL MUD:   DRILLING FLUID TYPE
 DFD .                8.6:   DRILLING FLUID DENSITY
 DFV .                 30:   DRILLING FLUID VISCOSITY
 DFPH.                9.5:   DRILLING FLUID PH
 DFL .               10.4:   DRILLING FLUID LOSS
 MSS .          FLOW LINE:   MUD SAMPLE SOURCE
 RMS .OHMM            .28:   RESISTIVITY MUD SAMPLE
 MST .F                76:   MUD SAMPLE TEMPERATURE
 RMF .OHMM            .24:   RESISTIVITY MUD FILTRATE SAMPLE
 MFST.F                80:   MUD FILTRATE SAMPLE TEMPERATURE
 RMC .OHMM            .34:   RESISTIVITY MUD CAKE
 MCST.F                82:   MUD CAKE SAMPLE TEMPERATURE
 MFSS.               MEAS:   MUD FILTRATE SAMPLE SOURCE
 MCSS.               MEAS:   MUD CAKE SAMPLE SOURCE
 BHT .F                72:   BOTTOM HOLE TEMPERATURE
 TCS .HRS               3:   TIME CURCULATED STOPPED
 MRT .F                72:   MAXIMUM RECORDED TEMPERATURE
 LUN .               2958:   LOGGING UNIT NUMBER
 LUL .               CASP:   LOGGING UNIT LOCATION
 ENGI.           REYNOLDS:   RECORDING ENGINEER
 WITN.              AMEND:   WITNESSED BY
 CLNT.            A2DTECH:   CLIENT CODE
 ORIG.           5" PRINT:   ORIGIN OF DATA
 UWI .       490251070200:   UNIQUE WELL ID
 DICO. A2D Technologies, Inc.:   DIGITIZING COMPANY
~OTHER INFORMATION
~A   DEPT      SPR         SN        ILD         GRD      CALD       RHOB       DPHI       CORR   
# ...
  619.5000   -46.5350    10.6069    15.6474    51.2168    10.4612     2.2778     0.2349     0.1302
  620.0000   -45.8505    10.9048    16.4995    53.3297    10.5033     2.2985     0.2219     0.1350
  620.5000   -44.5977    11.2111    17.3110    53.9241    10.5422     2.3191     0.2091     0.1230
  621.0000   -43.6105    11.4097    17.5744    54.4722    10.5807     2.3387     0.2125     0.0995
  621.5000   -43.2950    11.3740    17.8511    55.8578    10.6192     2.3279     0.2167     0.0760
  622.0000   -42.9777    11.3420    18.0206    58.5016    10.6577     2.3109     0.2210     0.0555
  622.5000   -42.6580    11.3113    18.0748    60.5295    10.6968     2.3141     0.2247     0.0492
  623.0000   -42.5023    11.2272    17.4335    59.9285    10.7025     2.3170     0.2256     0.0489
  623.5000   -42.4786    11.1331    16.8724    59.3756    10.7014     2.3092     0.2267     0.0485
  624.0000   -42.4575    11.0399    16.3292    58.8318    10.7001     2.3057     0.2270     0.0481
  624.5000   -42.4367    10.9474    15.8036    58.2850    10.6989     2.3080     0.2264     0.0476
  625.0000   -42.4156    10.8556    15.6005    58.0184    10.6978     2.3064     0.2259     0.0490
  625.5000   -42.3946    10.7647    15.7044    58.2169    10.6966     2.3101     0.2251     0.0514
  626.0000   -42.3736    10.6745    15.7739    59.6855    10.6954     2.3176     0.2191     0.0539
  626.5000   -42.3526    10.5851    15.8509    62.0525    10.6942     2.3306     0.2081     0.0544
  627.0000   -42.3315    10.4964    15.8842    62.8334    10.6930     2.3436     0.1971     0.0516
  627.5000   -42.3105    10.4069    15.5130    62.0529    10.6919     2.3567     0.1962     0.0488
  628.0000   -42.2895    10.3316    15.2119    61.2694    10.6907     2.3585     0.2066     0.0460
  628.5000   -42.2684    10.2557    14.9185    60.6810    10.6895     2.3362     0.2160     0.0432
  629.0000   -42.2474    10.1803    14.6307    60.7407    10.6883     2.3272     0.2163     0.0412
  629.5000   -42.2264    10.1055    14.3606    61.1571    10.6872     2.3274     0.2130     0.0405
  630.0000   -42.2053    10.0311    14.3606    61.5749    10.6860     2.3329     0.2080     0.0397
  630.5000   -42.1843     9.9574    14.3606    61.9905    10.6848     2.3409     0.2063     0.0398
  631.0000   -42.1633     9.8842    14.3625    62.4128    10.6836     2.3400     0.2075     0.0404
  631.5000   -42.1423     9.8115    14.2178    62.3237    10.6825     2.3387     0.2086     0.0411
  632.0000   -42.1211     9.7394    14.0613    61.8737    10.6813     2.3373     0.2087     0.0436
  632.5000   -42.1129     9.6677    13.9055    61.8104    10.6801     2.3439     0.2003     0.0492
  633.0000   -42.1122     9.5967    13.7516    61.8803    10.6789     2.3513     0.2005     0.0483
  633.5000   -42.1130     9.5334    13.7149    61.9488    10.6777     2.3515     0.2008     0.0470
  634.0000   -42.1564     9.4728    13.7150    61.9996    10.6766     2.3518     0.2011     0.0455
  634.5000   -42.3646     9.4126    13.7149    61.7445    10.6754     2.3527     0.1989     0.0535
  635.0000   -42.5668     9.3528    13.7149    60.9866    10.6742     2.3581     0.1877     0.0639
  635.5000   -42.7689     9.2934    13.7149    60.2240    10.6730     2.3688     0.1760     0.0745
  636.0000   -42.9710     9.2343    13.7149    59.5696    10.6719     2.3921     0.1644     0.0855
  636.5000   -43.1704     9.1757    13.7147    59.6403    10.6707     2.4154     0.1525     0.0813
  637.0000   -43.3098     9.1174    13.7156    59.6992    10.6695     2.4354     0.1452     0.0705
  637.5000   -43.3072     9.0651    13.7131    59.7522    10.6683     2.4342     0.1644     0.0595
  638.0000   -43.3076     9.0804    13.8826    60.1591    10.6672     2.3732     0.1913     0.0487
  638.5000   -43.3076     9.0943    14.0390    60.8453    10.6660     2.3276     0.2180     0.0414
  639.0000   -43.3078     9.1083    14.1970    61.5247    10.6648     2.2809     0.2463     0.0543
  639.5000   -43.3065     9.1222    14.3621    61.9791    10.6638     2.2812     0.2368     0.0860
  640.0000   -43.2733     9.1362    14.3343    61.9332    10.6271     2.3008     0.2259     0.0870
  640.5000   -43.2389     9.1502    14.2986    61.8975    10.5607     2.3084     0.2371     0.0860
  641.0000   -43.2047     9.1643    14.2634    61.8596    10.4939     2.2746     0.2524     0.0872
  641.5000   -43.1704     9.1783    14.2291    61.8201    10.4764     2.2354     0.2686     0.1291
  642.0000   -43.1362     9.1924    14.1439    61.7918    10.5133     2.3014     0.2521     0.1862
  642.5000   -43.1020     9.2065    14.0988    62.2885    10.6263     2.4114     0.2295     0.1630
  643.0000   -43.0678     9.2204    14.0988    62.8400     9.6921     2.3795     0.2150     0.1411
  643.5000   -43.0336     9.2324    14.0988    63.8463     9.7231     2.3228     0.2204     0.1462
  644.0000   -42.9991     9.1998    14.0987    65.0291     9.5161     2.3084     0.2263     0.1534
  644.5000   -42.9647     9.1695    14.0840    65.4171     9.4005     2.3081     0.2344     0.1431
  645.0000   -42.9339     9.1482    14.0368    64.2427     9.2932     2.2879     0.2433     0.1330
  645.5000   -43.0181     9.1489    13.9900    62.9878     9.5175     2.2671     0.2521     0.1352
  646.0000   -43.2446     9.1489    13.9699    62.3929     9.8600     2.2517     0.2611     0.1670
  646.5000   -43.2962     9.1489    14.1495    62.4204     9.5965     2.2439     0.2672     0.2011
  647.0000   -43.5152     9.1489    14.2288    62.8116     9.1765     2.2517     0.2528     0.2253
  647.5000   -43.7442     9.1489    14.2850    64.0153     8.7566     2.2626     0.2545     0.2232
  648.0000   -43.9725     9.1489    14.3406    66.8069     8.3981     2.2634     0.2569     0.2215
  648.5000   -44.2013     9.1489    14.3966    69.6970     8.2154     2.2509     0.2590     0.2326
  649.0000   -44.4264     9.1490    14.4528    70.3740     8.0300     2.2701     0.2526     0.2492
  649.5000   -44.7787     9.1491    14.4934    70.1429     7.8701     2.2880     0.2407     0.2466
  650.0000   -45.1779     9.1493    14.0804    69.1951     7.7846     2.2435     0.2866     0.2336
  650.5000   -45.5815     9.0378    13.7706    68.2340     7.6995     2.1399     0.3520     0.2200
  651.0000   -45.9948     8.8814    13.4678    68.0215     7.5387     2.0368     0.3841     0.2298
  651.5000   -46.3702     8.7280    13.1648    68.3307     7.3678     1.9622     0.3841     0.2432
  652.0000   -46.7476     8.6337    12.8556    69.6744     9.5386     1.8936     0.3837     0.2348
  652.5000   -47.1276     8.5892    12.9824    71.0844     9.3088     1.8890     0.3837     0.2290
  653.0000   -47.2486     8.5450    13.2881    70.8049     9.2751     1.8883     0.3839     0.2295
  653.5000   -47.1856     8.4997    13.7175    69.9772     9.3867     1.8884     0.3838     0.2572
  654.0000   -47.1136     8.4218    13.7162    68.6318     9.5098     1.9244     0.3693     0.3169
  654.5000   -47.4174     8.5493    14.6274    66.0625     9.6004     2.1296     0.2485     0.3527
  655.0000   -47.9502     8.8183    13.0532    65.5454     8.9935     2.3348     0.1600     0.3346
  655.5000   -48.4925     8.9821    11.8603    65.6431     9.0045     2.4625     0.1397     0.3295
  656.0000   -48.7047     8.7225    10.7969    69.7000     7.3908     2.4809     0.1202     0.3189
  656.5000   -48.7442     8.5782    10.6980    73.7188     7.3067     2.4947     0.1102     0.3028
  657.0000   -48.7805     8.9632    10.6000    73.2599     7.3149     2.4842     0.1248     0.2922
  657.5000   -48.8168     9.2350    11.5949    72.7119     7.3196     2.4789     0.1252     0.2893
  658.0000   -48.8535     9.5150    12.6250    73.7490     7.2034     2.4843     0.1136     0.2892
  658.5000   -48.8901     9.6682    12.2417    77.5297     7.0578     2.4885     0.1275     0.2892
  659.0000   -48.9268     9.3115    11.6859    81.8922     7.0147     2.4701     0.1537     0.2923
  659.5000   -48.9634     9.0675    11.5152    82.2577     6.9684     2.4224     0.1815     0.3017
