~VERSION INFORMATION
 VERS.                2.0:   CWLS LOG ASCII STANDARD - VERSION 2.0
 WRAP.                 NO:   ONE LINE PER DEPTH STEP
~WELL INFORMATION
#MNEM.UNIT      DATA TYPE    INFORMATION
#----------   ------------   ------------------------------
 STRT.F           21.0000:   START DEPTH
 STOP.F          543.0000:   STOP DEPTH
 STEP.F            0.5000:   STEP LENGTH
 NULL.          -999.2500:   NO VALUE
 COMP. FENIX & SCISSON INC:   COMPANY
 WELL.      NPR #3 #46-10:   WELL
 FLD .             TEAPOT:   FIELD
 LOC .      S10 T38N R78W:   LOCATION
 CNTY.            NATRONA:   COUNTY
 STAT.            WYOMING:   STATE
 CTRY. UNITED STATES OF AMERICA:   COUNTRY
 SRVC.              Welex:   SERVICE COMPANY
 DATE.        08-MAY-1980:   LOGDATE
 API .       490251081100:   API NUMBER
~CURVE INFORMATION
#MNEM.UNIT       API CODE    CURVE DESCRIPTION
#----------   ------------   ------------------------------
 DEPT.F                  :   
 SGRD.OHMM   07 220 05 00:   SHALLOW GUARD RESISTIVITY
 ILD .OHMM   07 120 46 00:   INDUCTION LOG DEEP RESISTIVITY
 ILM .OHMM   07 120 44 00:   INDUCTION LOG MEDIUM
 SPR .MV     07 010 01 00:   SPONTANEOUS POTENTIAL
 CALD.IN     45 280 60 00:   CALIPER
 GRD .GAPI   45 310 01 00:   GAMMA RAY FROM DENSITY LOG
 CORR.G/C3   45 356 01 00:   DENSITY CORRECTION
 RHOB.G/C3   45 350 01 00:   BULK DENSITY
 DPHI.DEC    45 890 12 00:   DENSITY POROSITY SANDSTONE
~PARAMETER INFORMATION
#MNEM.UNIT          VALUE    DESCRIPTION
#----------   ------------   ------------------------------
 PD  .                 GL:   PERMANENT DATUM
 EPD .F              5206:   ELEVATION PERMANENT DATUM
 LMF .                 KB:   LOG MEASURED FROM
 DAPD.F                 5:   FEET ABOVE PERMANENT DATUM
 DMF .                 KB:   DRILLING MEASURED FROM
 EKB .F              5211:   KELLING BUSHING
 EGL .F              5206:   GROUND LEVEL
 DATE.             5-8-80:   RUN DATE
 RUN .                  1:   RUN NUMBER
 DD  .F               530:   DEPTH DRILLER
 DL  .F               543:   DEPTH LOGGER
 BLI .F               541:   BOTTOM LOG INTERVAL
 TLI .F                30:   TOP LOG INTERVAL
 BS  .IN            7.875:   BIT SIZE
 BSD .F               530:   BIT SIZE AT DEPTH
 DFT .            KCL MUD:   DRILLING FLUID TYPE
 DFD .                9.1:   DRILLING FLUID DENSITY
 DFV .                 43:   DRILLING FLUID VISCOSITY
 MSS .                PIT:   MUD SAMPLE SOURCE
 RMS .OHMM            .89:   RESISTIVITY MUD SAMPLE
 MST .F                75:   MUD SAMPLE TEMPERATURE
 RMF .OHMM            .71:   RESISTIVITY MUD FILTRATE SAMPLE
 MFST.F                75:   MUD FILTRATE SAMPLE TEMPERATURE
 RMC .OHMM           1.08:   RESISTIVITY MUD CAKE
 MCST.F                75:   MUD CAKE SAMPLE TEMPERATURE
 MFSS.           MEASURED:   MUD FILTRATE SAMPLE SOURCE
 MCSS.           MEASURED:   MUD CAKE SAMPLE SOURCE
 BHT .F               100:   BOTTOM HOLE TEMPERATURE
 TCS .HRS               2:   TIME CURCULATED STOPPED
 MRT .F               100:   MAXIMUM RECORDED TEMPERATURE
 LUN .               9685:   LOGGING UNIT NUMBER
 LUL .             CASPER:   LOGGING UNIT LOCATION
 ENGI.            TOTHILL:   RECORDING ENGINEER
 WITN.              AMEND:   WITNESSED BY
 CLNT.            A2DTECH:   CLIENT CODE
 ORIG.           5" PRINT:   ORIGIN OF DATA
 UWI .       490251081100:   UNIQUE WELL ID
 DICO. A2D Technologies, Inc.:   DIGITIZING COMPANY
~OTHER INFORMATION
~A   DEPT     SGRD        ILD        ILM        SPR        CALD        GRD        CORR       RHOB     DPHI   
# ...
  130.5000    10.2798     6.2053     8.8826   -33.2554     7.8362   106.3272     0.0146     2.4144     0.1540
  131.0000    10.2970     6.2018     8.8855   -33.0841     7.8347   105.6964     0.0111     2.4107     0.1588
  131.5000    10.3141     6.3088     8.8854   -32.7658     7.8297   105.2569     0.0135     2.4144     0.1569
  132.0000    10.3313     6.3744     8.8854   -32.7801     7.8246   105.5525     0.0170     2.4213     0.1520
  132.5000    10.3484     6.4406     8.8855   -32.7834     7.8196   105.8840     0.0203     2.4276     0.1488
  133.0000    10.3657     6.5075     8.8818   -32.8389     7.8209   106.8385     0.0179     2.4214     0.1515
  133.5000    10.3831     6.5753     8.8766   -32.9672     7.8234   107.7749     0.0192     2.4240     0.1521
  134.0000    10.3923     6.6209     8.8715   -33.0998     7.8260   108.1560     0.0308     2.4385     0.1472
  134.5000    10.3650     6.6344     8.8663   -33.3816     7.8285   108.0290     0.0309     2.4435     0.1392
  135.0000    10.3449     6.6481     8.8612   -33.3535     7.8311   107.9333     0.0254     2.4287     0.1508
  135.5000    10.3250     6.6617     8.8560   -33.2794     7.8337   107.9343     0.0285     2.4265     0.1464
  136.0000    10.3051     6.6754     8.8509   -33.2099     7.8363   107.9335     0.0324     2.4498     0.1379
  136.5000    10.2852     6.6891     8.8457   -33.1399     7.8389   107.9277     0.0307     2.4436     0.1372
  137.0000    10.2654     6.7028     8.8406   -33.0699     7.8390   108.2127     0.0316     2.4435     0.1380
  137.5000    10.2457     6.7168     8.8355   -32.9994     7.8390   108.5894     0.0322     2.4446     0.1384
  138.0000    10.2259     6.7318     8.8303   -32.9842     7.8389   109.1236     0.0286     2.4342     0.1444
  138.5000    10.2062     6.7441     8.8252   -33.0159     7.8342   109.9698     0.0228     2.4189     0.1523
  139.0000    10.1865     6.6516     8.8201   -33.0466     7.8292   110.2211     0.0217     2.4075     0.1597
  139.5000    10.1669     6.5546     8.8150   -33.0774     7.8242   109.5659     0.0239     2.4099     0.1603
  140.0000    10.1473     6.5088     8.8098   -33.1081     7.8193   108.8745     0.0304     2.4227     0.1529
  140.5000    10.1277     6.4478     8.8047   -33.1388     7.8190   107.9279     0.0295     2.4254     0.1497
  141.0000    10.1103     6.3874     8.8039   -33.1696     7.8191   107.4155     0.0247     2.4126     0.1559
  141.5000    10.1263     6.3276     8.8039   -33.2003     7.8191   107.6116     0.0254     2.4169     0.1555
  142.0000    10.1417     6.2684     8.8039   -33.2310     7.8191   106.9895     0.0261     2.4189     0.1536
  142.5000    10.1572     6.2097     8.8039   -33.2617     7.8193   106.8337     0.0270     2.4196     0.1538
  143.0000    10.1728     6.1515     8.8039   -33.2924     7.8203   106.9783     0.0289     2.4244     0.1513
  143.5000    10.1883     6.0885     8.8039   -33.3231     7.8214   107.1272     0.0304     2.4273     0.1488
  144.0000    10.2039     6.0327     8.8039   -33.3540     7.8224   107.2868     0.0245     2.4179     0.1500
  144.5000    10.2196     6.0885     8.8039   -33.3656     7.8234   106.7235     0.0178     2.4066     0.1602
  145.0000    10.2352     6.0896     8.8039   -33.3658     7.8244   105.8926     0.0162     2.4070     0.1608
  145.5000    10.2509     6.0853     8.8039   -33.3661     7.8255   106.7001     0.0155     2.4111     0.1592
  146.0000    10.2666     6.1489     8.8039   -33.3635     7.8265   107.3722     0.0112     2.4034     0.1600
  146.5000    10.2822     6.2018     8.8024   -33.3752     7.8275   106.4340     0.0108     2.3978     0.1667
  147.0000    10.2966     6.2808     8.8122   -33.0793     7.8285   105.3700     0.0130     2.4033     0.1634
  147.5000    10.3669     6.3825     8.7147   -32.9018     7.8296   105.6298     0.0140     2.4036     0.1608
  148.0000    10.4504     6.4858     8.7231   -32.7094     7.8306   106.0843     0.0129     2.4024     0.1651
  148.5000    10.5120     6.5907     8.7510   -32.5193     7.8316   105.9593     0.0181     2.4128     0.1583
  149.0000    10.5544     6.6974     8.9331   -32.3288     7.8327   105.7542     0.0162     2.4085     0.1568
  149.5000    10.6532     6.8057     9.1191   -32.1395     7.8337   105.5471     0.0137     2.4030     0.1637
  150.0000    10.9465     6.9158     9.3090   -32.0012     7.8347   105.3397     0.0141     2.4024     0.1637
  150.5000    11.1869     7.0563     9.4778   -32.0038     7.8358   105.2648     0.0145     2.3949     0.1676
  151.0000    10.9830     7.0563     9.3811   -32.0042     7.8368   105.6877     0.0194     2.4007     0.1669
  151.5000    10.9786     7.0563     9.2786   -32.0077     7.8380   106.1613     0.0258     2.4160     0.1578
  152.0000    11.1811     7.0384     9.2192   -31.9847     7.8404   105.9128     0.0281     2.4247     0.1508
  152.5000    10.7006     7.0161     9.1346   -31.4819     7.7804   105.8530     0.0222     2.4101     0.1581
  153.0000    10.2977     6.9914     9.2611   -31.0311     7.7792   106.1345     0.0203     2.4074     0.1612
  153.5000    10.4419     6.9928     9.3497   -30.8419     7.7796   106.4175     0.0236     2.4191     0.1562
  154.0000    10.6510     6.9862     9.4778   -30.8372     7.8023   106.7034     0.0311     2.4349     0.1512
  154.5000    10.7836     7.0617     9.4434   -30.8361     7.8108   106.5142     0.0342     2.4445     0.1375
  155.0000    10.2032     7.0560     9.3908   -30.8364     7.7987   106.2517     0.0339     2.4451     0.1380
  155.5000    10.3899     7.0563     9.4345   -30.8364     7.7865   105.9845     0.0351     2.4467     0.1375
  156.0000    10.6205     7.0563     9.4873   -30.8311     7.7835   105.6263     0.0407     2.4536     0.1368
  156.5000    10.7836     7.0563     9.5676   -31.1076     7.7934   105.2298     0.0481     2.4738     0.1257
  157.0000    10.6300     7.0563     9.5618   -31.4836     7.7941   105.2410     0.0555     2.4887     0.1153
  157.5000    10.5140     7.0563     9.6583   -31.8615     7.7807   105.0814     0.0554     2.4925     0.1098
  158.0000    10.4894     7.0564     9.6823   -32.2392     7.7944   104.6101     0.0481     2.4848     0.1126
  158.5000    10.7243     7.0560     9.7315   -32.6155     7.8180   103.7709     0.0387     2.4640     0.1244
  159.0000    11.0508     7.0776     9.7803   -32.9931     7.8080   103.3754     0.0400     2.4613     0.1285
  159.5000    11.3879     7.1250     9.8338   -33.1679     7.7992   102.9203     0.0429     2.4788     0.1189
  160.0000    11.7392     7.1851     9.8338   -33.1774     7.8085   103.5644     0.0420     2.4848     0.1145
  160.5000    11.8414     7.2623     9.8179   -33.2122     7.8341   104.3235     0.0365     2.4666     0.1235
  161.0000    11.8711     7.3651     9.7967   -33.2466     7.8342   104.1447     0.0294     2.4485     0.1342
  161.5000    11.9009     7.4694     9.7751   -33.2813     7.8281   103.9821     0.0234     2.4307     0.1460
  162.0000    11.9307     7.5964     9.7544   -33.3160     7.8218   103.8188     0.0190     2.4217     0.1524
  162.5000    12.3259     8.0594     9.7436   -33.3507     7.8191   103.8965     0.0230     2.4285     0.1527
  163.0000    12.7341     8.2536    10.2279   -33.3853     7.8191   104.3110     0.0223     2.4330     0.1440
  163.5000    12.7266     8.4039    10.5865   -33.4200     7.8191   103.6229     0.0178     2.4132     0.1540
  164.0000    13.0068     8.8835    10.5435   -33.4547     7.8048   102.8505     0.0184     2.4098     0.1581
  164.5000    13.3678     9.3905    10.4894   -33.4894     7.8046   102.0806     0.0190     2.4133     0.1589
  165.0000    13.7046     9.5196    10.8887   -33.5242     7.8118   101.3128     0.0158     2.4094     0.1596
  165.5000    13.7046     9.5655    11.2922   -33.5591     7.8192   100.5439     0.0119     2.4021     0.1643
  166.0000    14.1697     9.7436    11.7105   -33.5598     7.8265    99.7429     0.0175     2.4123     0.1643
  166.5000    14.8668    10.0130    12.0579   -33.6477     7.8338    99.5525     0.0199     2.4174     0.1544
