~VERSION INFORMATION
 VERS.                2.0:   CWLS LOG ASCII STANDARD - VERSION 2.0
 WRAP.                 NO:   ONE LINE PER DEPTH STEP
~WELL INFORMATION
#MNEM.UNIT      DATA TYPE    INFORMATION
#----------   ------------   ------------------------------
 STRT.F           50.0000:   START DEPTH
 STOP.F         1152.0000:   STOP DEPTH
 STEP.F            0.5000:   STEP LENGTH
 NULL.          -999.2500:   NO VALUE
 COMP. FENIX & SCISSON INC:   COMPANY
 WELL.  NPR 3 #65 SX14-14:   WELL
 FLD .             TEAPOT:   FIELD
 LOC .      S14 T38N R78W:   LOCATION
 CNTY.            NATRONA:   COUNTY
 STAT.            WYOMING:   STATE
 CTRY. UNITED STATES OF AMERICA:   COUNTRY
 SRVC.              Welex:   SERVICE COMPANY
 DATE.        13-JAN-1979:   LOGDATE
 API .       490251073800:   API NUMBER
~CURVE INFORMATION
#MNEM.UNIT       API CODE    CURVE DESCRIPTION
#----------   ------------   ------------------------------
 DEPT.F                  :   
 SPR .MV     07 010 01 00:   SPONTANEOUS POTENTIAL
 SGRD.OHMM   07 220 05 00:   SHALLOW GUARD RESISTIVITY
 ILD .OHMM   07 120 46 00:   INDUCTION LOG DEEP
 ILM .OHMM   07 120 44 00:   INDUCTION LOG MEDIUM
 CALD.IN     45 280 60 00:   CALIPER
 GRD .GAPI   45 310 01 00:   GAMMA RAY FROM DENSITY LOG
 RHOB.G/C3   45 350 01 00:   BULK DENSITY
 DPHI.DEC    45 890 12 00:   DENSITY POROSITY SANDSTONE
 CORR.G/C3   45 356 01 00:   DENSITY CORRECTION
~PARAMETER INFORMATION
#MNEM.UNIT          VALUE    DESCRIPTION
#----------   ------------   ------------------------------
 PD  .                 GL:   PERMANENT DATUM
 EPD .F              5312:   ELEVATION PERMANENT DATUM
 LMF .                 KB:   LOG MEASURED FROM
 DAPD.F                 4:   FEET ABOVE PERMANENT DATUM
 DMF .                 KB:   DRILLING MEASURED FROM
 EKB .F              5316:   KELLING BUSHING
 EGL .F              5312:   GROUND LEVEL
 DATE.            1-13-79:   RUN DATE
 RUN .                  1:   RUN NUMBER
 DD  .F              1167:   DEPTH DRILLER
 DL  .F              1154:   DEPTH LOGGER
 BLI .F              1152:   BOTTOM LOG INTERVAL
 TLI .F                50:   TOP LOG INTERVAL
 CS  .IN            8.625:   CASING SIZE
 CBD .F                40:   CASING BOTTOM DRILLER
 CBL .F                60:   CASING BOTTOM LOGGER
 BS  .IN            7.875:   BIT SIZE
 BSD .F              1167:   BIT SIZE AT DEPTH
 DFT .            KCL MUD:   DRILLING FLUID TYPE
 DFD .                8.8:   DRILLING FLUID DENSITY
 DFV .                 42:   DRILLING FLUID VISCOSITY
 DFPH.                8.2:   DRILLING FLUID PH
 DFL .                7.7:   DRILLING FLUID LOSS
 MSS .                PIT:   MUD SAMPLE SOURCE
 RMS .OHMM            .29:   RESISTIVITY MUD SAMPLE
 MST .F                40:   MUD SAMPLE TEMPERATURE
 RMF .OHMM            .19:   RESISTIVITY MUD FILTRATE SAMPLE
 MFST.F                40:   MUD FILTRATE SAMPLE TEMPERATURE
 RMC .OHMM            .87:   RESISTIVITY MUD CAKE
 MCST.F                40:   MUD CAKE SAMPLE TEMPERATURE
 MFSS.           MEASURED:   MUD FILTRATE SAMPLE SOURCE
 MCSS.           MEASURED:   MUD CAKE SAMPLE SOURCE
 RMB .OHMM           .119:   RESISTIVITY MUD AT BHT
 BHT .F                97:   BOTTOM HOLE TEMPERATURE
 TCS .HRS              30:   TIME CURCULATED STOPPED
 MRT .F                97:   MAXIMUM RECORDED TEMPERATURE
 LUN .               8611:   LOGGING UNIT NUMBER
 LUL .             CASPER:   LOGGING UNIT LOCATION
 ENGI.            BENTSEN:   RECORDING ENGINEER
 WITN.              AMEND:   WITNESSED BY
 CLNT.            A2DTECH:   CLIENT CODE
 ORIG.       2", 5" PRINT:   ORIGIN OF DATA
 UWI .       490251073800:   UNIQUE WELL ID
 DICO. A2D Technologies, Inc.:   DIGITIZING COMPANY
~OTHER INFORMATION
~A   DEPT      SPR       SGRD        ILD        ILM       CALD        GRD       RHOB       DPHI       CORR   
# ...
 1108.5000   -25.2958    12.5282     9.0762    12.5161     7.8794   111.7964     2.5040     0.1019     0.0438
 1109.0000   -25.3531    12.5481     9.1253    12.8467     7.8633   110.3563     2.4935     0.1084     0.0293
 1109.5000   -25.4017    12.4971     9.1748    13.1860     7.8796   110.6606     2.4993     0.1060     0.0245
 1110.0000   -25.4512    12.4012     9.2245    13.5343     7.9045   111.4958     2.5070     0.1013     0.0266
 1110.5000   -25.5010    12.3060     9.3172    13.8904     7.9294   112.3409     2.5147     0.0962     0.0287
 1111.0000   -25.5507    12.2116     9.4775    13.7684     7.9554   113.1866     2.5210     0.0989     0.0309
 1111.5000   -25.6003    12.1178     9.6406    13.6191     7.9599   113.9695     2.5111     0.1019     0.0331
 1112.0000   -25.6488    12.0248     9.8065    13.3188     7.9567   113.9937     2.5013     0.1055     0.0353
 1112.5000   -25.7059    11.9326     9.9753    12.6293     7.9531   114.7011     2.4917     0.1111     0.0376
 1113.0000   -25.9661    11.8410    10.1470    11.9755     7.9496   116.5892     2.4821     0.1168     0.0330
 1113.5000   -26.2349    11.7501    10.3216    11.3555     7.9461   118.5409     2.4731     0.1230     0.0281
 1114.0000   -26.5026    11.6599    10.4353    10.7677     7.9426   122.9987     2.4682     0.1262     0.0230
 1114.5000   -26.7702    11.5704    10.2506    10.5080     7.9390   124.7442     2.4490     0.1371     0.0181
 1115.0000   -27.0377    11.4817    10.0184    10.4486     7.9355   118.3205     2.4281     0.1489     0.0141
 1115.5000   -27.3053    11.3935     9.7911    10.3895     7.9320   111.7439     2.4359     0.1349     0.0151
 1116.0000   -27.5728    11.3061     9.5693    10.3308     7.9285   104.6837     2.4851     0.1171     0.0207
 1116.5000   -27.8403    11.2193     9.3526    10.2724     7.9250   107.4990     2.5369     0.0993     0.0265
 1117.0000   -28.1079    11.1332     9.1408    10.1033     7.9240   111.3689     2.5628     0.0786     0.0318
 1117.5000   -28.3756    11.0478     8.9564     9.8310     7.9258   115.0506     2.5369     0.0810     0.0319
 1118.0000   -28.6434    10.9630     8.8205     9.5655     7.9277   114.6895     2.5268     0.0833     0.0269
 1118.5000   -28.9004    10.9271     8.6867     9.3072     7.9295   110.6223     2.5223     0.0857     0.0188
 1119.0000   -29.0467    11.4431     8.5549     9.0561     7.9314   108.6639     2.5178     0.0881     0.0103
 1119.5000   -29.1870    11.1625     8.4251     8.8117     7.9332   111.9391     2.5136     0.0905     0.0081
 1120.0000   -29.3273    10.7250     8.2973     8.5739     7.9351   115.1777     2.5060     0.0929     0.0060
 1120.5000   -29.4675    10.3373     8.1761     8.3613     7.9370   115.6001     2.4988     0.0953     0.0039
 1121.0000   -29.6100    10.2070     7.8730     8.3318     7.9388   106.3895     2.5021     0.0949     0.0024
 1121.5000   -29.8931    10.0872     7.3861     8.3047     7.9407  -999.2500     2.5058     0.0935     0.0052
 1122.0000   -30.4533     9.9694     6.9229     8.2779     7.9426  -999.2500     2.5080     0.0934     0.0079
 1122.5000   -30.9521     9.8505     6.4902     8.2510     7.9428  -999.2500     2.5056     0.0938     0.0107
 1123.0000   -31.1761     9.6935     6.0845     8.2270     7.9428  -999.2500     2.5038     0.0938     0.0133
 1123.5000   -31.4059     9.2427     5.7041     8.0112     7.9428  -999.2500     2.5110     0.0913     0.0180
 1124.0000   -31.6361     8.8161     5.3473     7.5586     7.9428  -999.2500     2.5185     0.0881     0.0231
 1124.5000   -31.8671     8.4093     5.0134     7.1316     7.9427  -999.2500     2.5263     0.0848     0.0281
 1125.0000   -32.0982     7.1842     4.8123     6.7287     7.9367  -999.2500     2.5291     0.0841     0.0333
 1125.5000   -32.3062     5.8323     4.7382     6.3485     7.9241  -999.2500     2.5302     0.0844     0.0322
 1126.0000   -32.3017     4.7349     4.6750     6.1094     7.9115  -999.2500     2.5319     0.0848     0.0265
 1126.5000   -32.1328     4.1507     4.7706     6.4371     7.8985  -999.2500     2.5576     0.0851     0.0289
 1127.0000   -31.8306     8.7279     4.8559     6.8990     7.8848  -999.2500     2.5504     0.0853     0.0372
 1127.5000   -31.5273    10.2673     4.9410     7.3941     7.8712  -999.2500     2.5356     0.0839     0.0455
 1128.0000   -31.2238    10.9461     5.3060     7.9249     7.8384  -999.2500     2.5443     0.0791     0.0540
 1128.5000   -30.9205    10.6381     5.6929     8.4951     7.7820  -999.2500     2.5601     0.0696     0.0624
 1129.0000   -30.6171    10.3397     6.1069     9.0996     7.7258  -999.2500     2.5762     0.0600     0.0708
 1129.5000   -30.3145    10.4768     6.5508     9.5655     7.6695  -999.2500     2.5923     0.0505     0.0792
 1130.0000   -30.0573    10.6080     7.0269    10.0284     7.6131  -999.2500     2.6083     0.0410     0.0877
 1130.5000   -29.9008    10.7402     7.5376    10.5136     7.5572  -999.2500     2.6172     0.0339     0.0956
 1131.0000   -29.7472    10.8730     7.8970    11.0223     7.5378  -999.2500     2.6105     0.0399     0.0958
 1131.5000   -29.5937    10.9395     8.1299    11.5556     7.5254  -999.2500     2.5946     0.0507     0.0934
 1132.0000   -29.4400    10.9601     8.3698    12.1147     7.5131  -999.2500     2.5788     0.0614     0.0871
 1132.5000   -29.2863    10.9809     8.6168    12.3191     7.5010  -999.2500     2.5630     0.0722     0.0809
 1133.0000   -29.1326    11.0017     8.8710    12.4542     7.4874  -999.2500     2.5486     0.0830     0.0747
 1133.5000   -28.9789    11.0225     9.1327    12.5907     7.4387  -999.2500     2.5483     0.0870     0.0734
 1134.0000   -28.8252    11.1566     9.4022    12.7287     7.3905  -999.2500     2.5503     0.0831     0.0876
 1134.5000   -28.6715    11.4074     9.6917    12.9018     7.3419  -999.2500     2.5682     0.0778     0.1041
 1135.0000   -28.5178    11.6639     9.9508    12.7303     7.2881  -999.2500     2.5532     0.0847     0.1117
 1135.5000   -28.3641    11.8785    10.2289    12.4342     7.2092  -999.2500     2.5285     0.0904     0.1108
 1136.0000   -28.2104    11.9041    10.5147    12.4166     7.1306  -999.2500     2.5215     0.0963     0.1070
 1136.5000   -28.0566    11.9297    10.8086    12.3949     7.0478  -999.2500     2.5171     0.1028     0.1034
 1137.0000   -27.9015    11.9553    11.0425    12.3732     6.9752  -999.2500     2.5106     0.0966     0.0997
 1137.5000   -27.7463    11.9810    11.0948    12.3516     6.9220  -999.2500     2.5026     0.1006     0.0959
 1138.0000   -27.5878    11.9391    11.1473    12.3299     6.8897  -999.2500     2.4989     0.0958     0.0942
 1138.5000   -27.3685    11.8902    11.2001    12.3202  -999.2500  -999.2500  -999.2500  -999.2500  -999.2500
 1139.0000   -27.0617    11.8412    11.2339    12.4882  -999.2500  -999.2500  -999.2500  -999.2500  -999.2500
 1139.5000   -26.7561    11.7900    11.1364    12.6153  -999.2500  -999.2500  -999.2500  -999.2500  -999.2500
 1140.0000   -26.4500    11.7656    11.0536    12.7778  -999.2500  -999.2500  -999.2500  -999.2500  -999.2500
 1140.5000   -26.1440    12.3672    10.9701    12.9649  -999.2500  -999.2500  -999.2500  -999.2500  -999.2500
 1141.0000   -25.8378    12.8134    10.9277    13.1548  -999.2500  -999.2500  -999.2500  -999.2500  -999.2500
 1141.5000   -25.5322    13.1421    11.1161    13.3475  -999.2500  -999.2500  -999.2500  -999.2500  -999.2500
 1142.0000   -25.2245    12.6658    11.2489    13.5429  -999.2500  -999.2500  -999.2500  -999.2500  -999.2500
 1142.5000   -25.0928    13.1083    11.3623    13.6506  -999.2500  -999.2500  -999.2500  -999.2500  -999.2500
 1143.0000   -25.0753    13.6079    11.4358    13.6937  -999.2500  -999.2500  -999.2500  -999.2500  -999.2500
 1143.5000   -25.0604    14.1266    11.5097    13.7390  -999.2500  -999.2500  -999.2500  -999.2500  -999.2500
 1144.0000   -25.0454    14.6651    11.5841    13.7619  -999.2500  -999.2500  -999.2500  -999.2500  -999.2500
 1144.5000   -25.0301    15.0934    11.6589    13.3328  -999.2500  -999.2500  -999.2500  -999.2500  -999.2500
