~VERSION INFORMATION
 VERS.                2.0:   CWLS LOG ASCII STANDARD - VERSION 2.0
 WRAP.                 NO:   ONE LINE PER DEPTH STEP
~WELL INFORMATION
#MNEM.UNIT      DATA TYPE    INFORMATION
#----------   ------------   ------------------------------
 STRT.F            6.0000:   START DEPTH
 STOP.F          528.0000:   STOP DEPTH
 STEP.F            0.5000:   STEP LENGTH
 NULL.          -999.2500:   NO VALUE
 COMP.       F D SERV INC:   COMPANY
 WELL.  82-3 SX-10 #82-10:   WELL
 FLD .             TEAPOT:   FIELD
 LOC .      S10 T38N R78W:   LOCATION
 CNTY.            NATRONA:   COUNTY
 STAT.            WYOMING:   STATE
 CTRY. UNITED STATES OF AMERICA:   COUNTRY
 SRVC.     Atlas Wireline:   SERVICE COMPANY
 DATE.        08-DEC-1992:   LOGDATE
 API .       490252257800:   API NUMBER
~CURVE INFORMATION
#MNEM.UNIT       API CODE    CURVE DESCRIPTION
#----------   ------------   ------------------------------
 DEPT.F                  :   
 GRR .GAPI   07 310 01 00:   GAMMA RAY
 RILD.OHMM   07 120 46 00:   INDUCTION LOG DEEP RESISTIVITY
 RILM.OHMM   07 120 44 00:   INDUCTION LOG MEDIUM RESISTIVITY
~PARAMETER INFORMATION
#MNEM.UNIT          VALUE    DESCRIPTION
#----------   ------------   ------------------------------
 PD  .                 GL:   PERMANENT DATUM
 EPD .F              5168:   ELEVATION PERMANENT DATUM
 LMF .                 KB:   LOG MEASURED FROM
 DAPD.F                10:   FEET ABOVE PERMANENT DATUM
 DMF .                 KB:   DRILLING MEASURED FROM
 EKB .F              5178:   KELLING BUSHING
 EDF .F              5177:   DRILLING FLOOR
 EGL .F              5168:   GROUND LEVEL
 DATE.        08-DEC-1992:   RUN DATE
 RUN .                  1:   RUN NUMBER
 DD  .F               530:   DEPTH DRILLER
 DL  .F               530:   DEPTH LOGGER
 BLI .F               522:   BOTTOM LOG INTERVAL
 CS  .IN            8.625:   CASING SIZE
 CBD .F                97:   CASING BOTTOM DRILLER
 CBL .F                98:   CASING BOTTOM LOGGER
 BS  .IN            7.875:   BIT SIZE
 BSD .F               530:   BIT SIZE AT DEPTH
 DFT .           AIR FOAM:   DRILLING FLUID TYPE
 MRT .F                71:   MAXIMUM RECORDED TEMPERATURE
 LUN .            HL 6321:   LOGGING UNIT NUMBER
 LUL .        RK. SPRINGS:   LOGGING UNIT LOCATION
 ENGI.        J. THOMPSON:   RECORDING ENGINEER
 WITN.          G. STRONG:   WITNESSED BY
 CLNT.            A2DTECH:   CLIENT CODE
 ORIG.           5" PRINT:   ORIGIN OF DATA
 UWI .       490252257800:   UNIQUE WELL ID
 DICO. A2D Technologies, Inc.:   DIGITIZING COMPANY
~OTHER INFORMATION
~A    DEPT     GRR       RILD       RILM   
# ...
  461.0000   182.0045     6.5924     6.2603
  461.5000   179.6071     5.6246     5.6085
  462.0000   179.3128     5.1785     4.9215
  462.5000   181.1280     5.0050     4.4654
  463.0000   187.0416     5.0079     4.3210
  463.5000   200.0947     5.0809     4.6974
  464.0000   209.1258     5.0847     5.0358
  464.5000   208.2321     5.1588     5.3986
  465.0000   198.0151     5.3071     5.8358
  465.5000   181.4845     5.4976     6.2483
  466.0000   170.6660     6.0199     6.7449
  466.5000   168.8679     6.7135     7.2308
  467.0000   175.1944     7.9552     7.6984
  467.5000   180.3258     8.5316     8.3815
  468.0000   181.5273     8.8379     8.7275
  468.5000   179.7314     8.9666     8.8535
  469.0000   180.0429     8.9722     8.9195
  469.5000   179.7504     9.0411     8.9860
  470.0000   178.2355     9.1729     8.9992
  470.5000   177.3618     9.1783     9.0590
  471.0000   177.9740     9.3769     9.3176
  471.5000   177.9826     9.5219     9.5835
  472.0000   179.1942     9.7884     9.8570
  472.5000   182.8822    10.0002    10.0793
  473.0000   184.3262    10.2165    10.2861
  473.5000   182.8311    10.2937    10.3628
  474.0000   178.0276    10.3717    10.4401
  474.5000   175.9309    10.5242    10.5908
  475.0000   171.4304    10.6038    10.6712
  475.5000   169.0308    10.6839    10.7508
  476.0000   176.2595    10.8396    10.8310
  476.5000   179.2756    10.9977    10.9873
  477.0000   171.7654    11.1594    11.0693
  477.5000   173.5806    11.1661    11.1533
  478.0000   176.2960    11.2505    11.2365
  478.5000   180.5151    11.4144    11.2424
  479.0000   181.7266    11.4272    11.2483
  479.5000   182.3368    11.5093    11.3322
  480.0000   182.3474    11.4348    11.3396
  480.5000   181.1530    11.3625    11.2660
  481.0000   175.1465    11.3710    11.1959
  481.5000   173.9519    11.2991    11.2018
  482.0000   175.7975    11.3075    11.1305
  482.5000   177.8812    11.3913    11.0598
  483.0000   179.3935    11.3193    11.0670
  483.5000   180.0036    11.1717    11.0729
  484.0000   180.9144    11.1783    10.9253
  484.5000   182.1263    11.1077    10.8573
  485.0000   180.6329    11.1933    10.8644
  485.5000   180.0379    11.1209    10.8701
  486.0000   182.4546    10.9759    10.8758
  486.5000   183.6662    10.9048    10.7323
  487.0000   180.6694    10.6899    10.6607
  487.5000   175.2644    10.4760    10.4510
  488.0000   172.8648    10.3363    10.2435
  488.5000   174.9808    10.1310    10.0387
  489.0000   176.2065     9.9974     9.8379
  489.5000   176.5038     9.9342     9.6374
  490.0000   178.3169     9.7368     9.5143
  490.5000   181.3330     9.6753     9.3900
  491.0000   184.9506     9.5477     9.3290
  491.5000   186.4630     9.4873     9.2072
  492.0000   185.5693     9.4274     9.0857
  492.5000   188.8883     9.3031     9.0279
  493.0000   191.9043     9.1804     8.9099
  493.5000   193.4546     9.0593     8.7924
  494.0000   188.4812     8.9411     8.7363
  494.5000   186.8173     8.8232     8.7412
  495.0000   189.8355     8.8298     8.7460
  495.5000   193.1524     8.7727     8.6916
  496.0000   194.6647     8.7792     8.6961
  496.5000   197.0814     8.7237     8.7007
  497.0000   197.9922     8.7291     8.7053
  497.5000   197.3993     8.6750     8.6499
  498.0000   190.4906     8.6202     8.6556
  498.5000   187.4917     8.6253     8.5414
  499.0000   190.5099     8.5707     8.4276
  499.5000   192.0222     8.4578     8.3164
  500.0000   193.2338     8.2898     8.2077
  500.5000   193.5431     7.9511     7.9837
  501.0000   195.7353     7.8901     7.8148
  501.5000   199.2767     7.7874     7.6602
  502.0000   200.4883     7.6801     7.6075
  502.5000   198.0908     7.5743     7.5031
  503.0000   192.9866     7.5220     7.4002
  503.5000   190.5072     7.4700     7.3493
  504.0000   189.3947     7.3671     7.2988
  504.5000   192.1122     7.2154     7.1987
  505.0000   193.6246     7.0668     7.0511
  505.5000   192.4301     6.8161     6.8549
  506.0000   190.3356     6.3686     6.4458
  506.5000   191.5472     5.9418     5.9744
  507.0000   191.8565     6.0248     5.8519
  507.5000   190.0605     6.1090     5.9744
  508.0000   186.7448     6.2808     6.1842
  508.5000  -999.2500     6.3686     6.2702
  509.0000  -999.2500     6.4575     6.3574
  509.5000  -999.2500     6.7788     6.6263
  510.0000  -999.2500     7.3264     7.0091
  510.5000  -999.2500     7.8416     7.5551
  511.0000  -999.2500     8.2890     8.0395
  511.5000  -999.2500     8.6412     8.3795
  512.0000  -999.2500     8.8842     8.6142
  512.5000  -999.2500     9.0083     8.8554
  513.0000  -999.2500     9.0710     8.9167
  513.5000  -999.2500     9.0710     8.9785
  514.0000  -999.2500     9.0710     8.9785
  514.5000  -999.2500     9.0651     8.9785
  515.0000  -999.2500     8.9461     8.8554
  515.5000  -999.2500     8.8842     8.7339
  516.0000  -999.2500     8.8228     8.6738
  516.5000  -999.2500     8.7013     8.7339
  517.0000  -999.2500     8.5814     8.7339
  517.5000  -999.2500     8.5221     8.7339
  518.0000  -999.2500     8.4632     8.7944
  518.5000  -999.2500     8.4632     8.7944
  519.0000  -999.2500     8.4580     8.7944
  519.5000  -999.2500     8.4047     8.6738
  520.0000  -999.2500     8.4047     8.6142
  520.5000  -999.2500     8.2890     8.5549
  521.0000  -999.2500     8.2317     8.3219
  521.5000  -999.2500     8.0064     8.0325
  522.0000  -999.2500     7.7336     7.8205
  522.5000  -999.2500     7.5220     7.7132
  523.0000  -999.2500     7.4183     7.6075
  523.5000  -999.2500     7.4183     7.5028
  524.0000  -999.2500     7.3671     7.4002
  524.5000  -999.2500     7.3671     7.4002
  525.0000  -999.2500     7.3671     7.4002
  525.5000  -999.2500     7.4183     7.4002
  526.0000  -999.2500     7.4700     7.4515
  526.5000  -999.2500     7.5220     7.4515
  527.0000  -999.2500     7.5220     7.4515
  527.5000  -999.2500     7.4700     7.4515
  528.0000  -999.2500     7.4183     7.4515
