~VERSION INFORMATION
 VERS.                2.0:   CWLS LOG ASCII STANDARD - VERSION 2.0
 WRAP.                 NO:   ONE LINE PER DEPTH STEP
~WELL INFORMATION
#MNEM.UNIT      DATA TYPE    INFORMATION
#----------   ------------   ------------------------------
 STRT.F            4.0000:   START DEPTH
 STOP.F          508.0000:   STOP DEPTH
 STEP.F            0.5000:   STEP LENGTH
 NULL.          -999.2500:   NO VALUE
 COMP. LAWRENCE-ALLISON &AS:   COMPANY
 WELL. NPR ##3 58-65-SX-3-UPI:   WELL
 FLD .             TEAPOT:   FIELD
 LOC .       S3 T38N R78W:   LOCATION
 CNTY.            NATRONA:   COUNTY
 STAT.            WYOMING:   STATE
 CTRY. UNITED STATES OF AMERICA:   COUNTRY
 SRVC.      Dresser Atlas:   SERVICE COMPANY
 DATE.        07-DEC-1984:   LOGDATE
 API .       490251102500:   API NUMBER
~CURVE INFORMATION
#MNEM.UNIT       API CODE    CURVE DESCRIPTION
#----------   ------------   ------------------------------
 DEPT.F                  :   
 SPR .MV     07 010 01 00:   SPONTANEOUS POTENTIAL
 RILD.OHMM   07 120 46 00:   INDUCTION LOG DEEP RESISTIVITY
 RILM.OHMM   07 120 44 00:   INDUCTION LOG MEDIUM RESISTIVITY
 RFOC.OHMM   07 220 04 00:   RESISTIVITY FOCUSED LOG
 CALS.IN     60 280 50 00:   CALIPER FROM SONIC LOG
 GRS .GAPI   60 310 01 00:   GAMMA RAY FROM SONIC LOG
 AC  .US/F   60 520 00 00:   ACCOUSTIC SONIC
~PARAMETER INFORMATION
#MNEM.UNIT          VALUE    DESCRIPTION
#----------   ------------   ------------------------------
 PD  .                 GL:   PERMANENT DATUM
 EPD .F              5184:   ELEVATION PERMANENT DATUM
 LMF .                 GL:   LOG MEASURED FROM
 DMF .                 GL:   DRILLING MEASURED FROM
 EGL .F              5184:   GROUND LEVEL
 DATE.        07-DEC-1984:   RUN DATE
 RUN .                  1:   RUN NUMBER
 DD  .F               510:   DEPTH DRILLER
 DL  .F               510:   DEPTH LOGGER
 BLI .F               508:   BOTTOM LOG INTERVAL
 TLI .F                20:   TOP LOG INTERVAL
 CS  .IN            8.625:   CASING SIZE
 CBD .F                20:   CASING BOTTOM DRILLER
 CBL .F                20:   CASING BOTTOM LOGGER
 BS  .IN            7.875:   BIT SIZE
 BSD .F               510:   BIT SIZE AT DEPTH
 DFT .          KCL WATER:   DRILLING FLUID TYPE
 MSS .            MUD PIT:   MUD SAMPLE SOURCE
 RMS .OHMM            .14:   RESISTIVITY MUD SAMPLE
 MST .F                55:   MUD SAMPLE TEMPERATURE
 RMF .OHMM             .1:   RESISTIVITY MUD FILTRATE SAMPLE
 MFST.F                55:   MUD FILTRATE SAMPLE TEMPERATURE
 RMC .OHMM            .17:   RESISTIVITY MUD CAKE
 MCST.F                55:   MUD CAKE SAMPLE TEMPERATURE
 MFSS.               CALC:   MUD FILTRATE SAMPLE SOURCE
 MCSS.               CALC:   MUD CAKE SAMPLE SOURCE
 RMB .OHMM            .08:   RESISTIVITY MUD AT BHT
 BHT .F                86:   BOTTOM HOLE TEMPERATURE
 TCS .HRS               3:   TIME CURCULATED STOPPED
 MRT .F               100:   MAXIMUM RECORDED TEMPERATURE
 LUN .               6270:   LOGGING UNIT NUMBER
 LUL .                 FM:   LOGGING UNIT LOCATION
 ENGI.          E. GOVETT:   RECORDING ENGINEER
 WITN.      GROOMS, LUERS:   WITNESSED BY
 CLNT.            A2DTECH:   CLIENT CODE
 ORIG.           5" PRINT:   ORIGIN OF DATA
 UWI .       490251102500:   UNIQUE WELL ID
 DICO. A2D Technologies, Inc.:   DIGITIZING COMPANY
~OTHER INFORMATION
~A    DEPT     SPR       RILD       RILM       RFOC       CALS         GRS        AC   
# ...
  368.0000   -30.8119    20.7095    13.2651    20.9659     7.5257    71.3767    99.9537
  368.5000   -30.9507    20.5758    13.1797    21.0971     7.5118    70.7914    99.6561
  369.0000   -31.0861    20.5865    12.9188    21.2587     7.5129    71.3948    99.4943
  369.5000   -31.5161    20.4516    12.8356    21.4215     7.5139    73.9298    99.1865
  370.0000   -31.8040    20.3202    12.7550    21.4363     7.5150    76.1676    98.1297
  370.5000   -32.0884    19.9137    12.8653    21.3029     7.5012    75.8795    96.3137
  371.0000   -32.3815    19.3780    13.2303    20.8787     7.5022    74.6998    95.4026
  371.5000   -32.6572    18.8566    13.6056    20.3221     7.5033    73.9659    95.0949
  372.0000   -32.9419    18.0964    13.8962    19.5075     7.4894    75.4608    95.9184
  372.5000   -33.2260    17.4878    14.0991    18.5961     7.4905    76.0641    97.4960
  373.0000   -33.5104    16.7827    14.1080    17.9749     7.4915    76.2199    98.3949
  373.5000   -33.6492    16.3312    14.0190    17.7367     7.4926    76.2288    98.6920
  374.0000   -33.9336    16.0025    13.8352    18.0002     7.4936    76.2377    98.4581
  374.5000   -34.2180    15.6805    13.7462    18.2644     7.4947    76.2467    98.0750
  375.0000   -34.5025    15.4525    13.6620    18.4045     7.4956    76.4042    97.6918
  375.5000   -34.7869    15.1587    13.6707    18.0382     7.4965    77.6019    97.1578
  376.0000   -35.0679    14.9571    13.6793    17.6760     7.4976    78.9474    96.4730
  376.5000   -35.2067    14.8592    13.6880    17.3273     7.4987    77.9179    95.7128
  377.0000   -35.4911    14.6633    13.7919    17.2196     7.4997    76.1438    94.8017
  377.5000   -35.7974    14.5688    13.8966    17.2317     7.5008    74.2212    94.0415
  378.0000   -36.2206    14.4752    13.8093    17.0986     7.5018    72.4472    93.5829
  378.5000   -36.7929    14.4825    13.4402    16.8805     7.4880    72.1567    93.5014
  379.0000   -37.2250    14.4896    12.9907    16.6654     7.4890    72.1680    94.7774
  379.5000   -37.6587    14.4968    12.6093    16.3391     7.4901    72.3256    95.1499
  380.0000   -38.0917    14.5039    12.1123    16.0193     7.4911    73.8782    94.0110
  380.5000   -38.3795    14.5110    11.6349    15.9198     7.4896    77.7019    93.6294
  381.0000   -38.6640    14.6193    11.1781    15.8206     7.4880    80.2575    94.2251
  381.5000   -38.9484    14.6265    10.8062    15.6139     7.4864    80.5318    94.1436
  382.0000   -39.2294    14.6337    10.3726    15.3031     7.4848    78.4506    93.8220
  382.5000   -39.3682    14.6409     9.9565    15.1003     7.4832    76.2408    93.3785
  383.0000   -39.6526    14.5450     9.6234    14.9027     7.4824    76.9928    93.0407
  383.5000   -39.7879    14.3533     9.2373    14.8101     7.4835    77.5961    92.0468
  384.0000   -40.0689    14.1624     8.9284    14.7181     7.4845    75.6735    92.6264
  384.5000   -40.2077    13.8774     8.6897    14.6266     7.4856    75.2368    92.9774
  385.0000   -40.4921    13.7709     8.5163    14.5358     7.4717    74.8000    92.6697
  385.5000   -40.7810    13.6031     8.4615    14.5485     7.4728    74.0661    92.3619
  386.0000   -41.2100    13.5157     8.4682    14.5587     7.4590    73.1836    92.2804
  386.5000   -41.6434    13.4288     8.5918    14.5690     7.4600    73.4898    92.1235
  387.0000   -41.9284    13.5290     8.7173    14.6807     7.4611    75.1333    92.0420
  387.5000   -42.2157    13.5356     8.9680    14.7932     7.4621    77.6683    91.7343
  388.0000   -42.3511    13.6366     9.1622    14.9253     7.4480    79.6090    91.2003
  388.5000   -42.6320    13.6433     9.4256    15.3667     7.4493    80.3609    90.5155
  389.0000   -42.7708    13.6501     9.6401    16.1196     7.4504    79.6270    89.2273
  389.5000   -42.7538    13.4668     9.9136    17.1758     7.4363    77.8530    87.7884
  390.0000   -42.8892    13.2877    10.2658    17.7756     7.4376    76.3761    86.7265
  390.5000   -42.8755    13.0219    10.5124    16.4815     7.4536    76.6823    86.2679
  391.0000   -42.8619    12.8471    10.7106    15.1760     7.4546    77.8068    86.7897
  391.5000   -42.8510    12.6763    10.7919    14.5677     7.4557    79.7641    88.1411
  392.0000   -42.9870    12.5092    10.6501    14.3766     7.4567    82.2407    89.5679
  392.5000   -43.1224    12.4273    10.5101    14.2853     7.4727    83.5612    90.3160
  393.0000   -43.2579    12.2635    10.3704    14.2978     7.4737    84.8975    90.3099
  393.5000   -43.5425    12.1832    10.2341    14.2065     7.4748    86.0952    90.2284
  394.0000   -43.6781    12.1049    10.1698    14.2190     7.4756    86.8472    90.1469
  394.5000   -43.8163    12.0271    10.1060    14.0329     7.4766    85.0732    90.1408
  395.0000   -44.0973    11.9497    10.1127    13.8494     7.4628    82.4076    90.2117
  395.5000   -44.2361    11.8729    10.2602    13.6682     7.4638    81.8200    90.3549
  396.0000   -44.3715    11.7966    10.4099    13.4894     7.4500    82.8714    90.6505
  396.5000   -44.5069    11.7208    10.5619    13.3129     7.4510    84.6635    90.9460
  397.0000   -44.6423    11.6454    10.7159    13.2302     7.4521    85.8612    91.1825
  397.5000   -44.7776    11.5706    10.8724    13.3316     7.4383    86.9103    91.4756
  398.0000   -44.9130    11.5763    10.9549    13.3391     7.4393    87.3629    91.6080
  398.5000   -44.9300    11.5016    11.0381    13.4413     7.4404    85.4425    91.5263
  399.0000   -45.0348    11.5075    11.0450    13.5441     7.4414    83.8170    91.4450
  399.5000   -45.0211    11.5132    11.0520    13.5583     7.4425    83.3780    91.2855
  400.0000   -45.1565    11.5017    11.0590    13.6566     7.4433    83.9829    90.9653
  400.5000   -45.3762    11.4084    11.0666    13.5031     7.4416    87.7092    90.8694
  401.0000   -45.5959    11.2965    11.0749    13.3947     7.4402    89.2056    90.7404
  401.5000   -45.8156    11.3022    10.8450    13.3113     7.4387    89.6593    90.5072
  402.0000   -46.0101    11.3093    10.6346    13.2268     7.4372    87.1858    90.6512
  402.5000   -46.1486    11.3190    10.5007    13.2385     7.4358    83.3600    91.9263
  403.0000   -46.1354    11.4023    10.3653    13.2478     7.4200    79.5829    92.8244
  403.5000   -46.2738    11.4890    10.2304    13.1632     7.4211    79.0030    92.6667
  404.0000   -46.2633    11.5764    10.0976    13.1748     7.4221    80.7967    91.0761
  404.5000   -46.4318    11.5837     9.9644    13.0907     7.4080    83.3332    90.1642
  405.0000   -46.7114    11.5911     9.7689    12.9195     7.4242    84.5325    90.0836
  405.5000   -47.1401    11.6792     9.5091    12.8393     7.4253    83.8001    90.6784
  406.0000   -47.5688    11.6866     9.1924    12.6542     7.4412    82.7705    90.8994
  406.5000   -48.0015    11.6940     8.8862    12.4944     7.4423    82.9296    90.9662
  407.0000   -48.4381    11.7014     8.5902    12.2567     7.4582    84.4260    91.1357
  407.5000   -48.7258    11.7089     8.2467    12.0964     7.4593    85.9225    91.6478
  408.0000   -49.0134    11.5548     7.9720    11.9381     7.4750    86.9731    92.0815
  408.5000   -49.3004    11.4009     7.7065    11.7006     7.4760    87.2809    91.9962
  409.0000   -49.4415    11.1730     7.5425    11.5476     7.4771    86.3999    90.7827
  409.5000   -49.5800    10.8598     7.2943    11.3178     7.4781    85.5189    89.4937
  410.0000   -49.8675    10.5638     7.1034    11.1678     7.4643    85.3782    89.2458
  410.5000   -50.3013    10.1527     6.9176    10.9455     7.4505    85.5400    90.9128
  411.0000   -50.7379     9.8166     6.6873    10.7296     7.4366    86.2140    93.1684
  411.5000   -51.1744     9.4887     6.5095    10.5893     7.4377    88.8910    95.1223
  412.0000   -51.6135     9.2347     6.3805    10.5216     7.4238    90.3239    95.1925
  412.5000   -52.1964     8.9254     6.2540    10.4581     7.4249    89.8886    94.8822
  413.0000   -52.6330     8.3902     6.1715    10.4655     7.4108    89.7504    94.8017
