~VERSION INFORMATION
 VERS.                2.0:   CWLS LOG ASCII STANDARD - VERSION 2.0
 WRAP.                 NO:   ONE LINE PER DEPTH STEP
~WELL INFORMATION
#MNEM.UNIT      DATA TYPE    INFORMATION
#----------   ------------   ------------------------------
 STRT.F           29.0000:   START DEPTH
 STOP.F          503.0000:   STOP DEPTH
 STEP.F            0.5000:   STEP LENGTH
 NULL.          -999.2500:   NO VALUE
 COMP. FENIX & SCISSON INC:   COMPANY
 WELL.      78 SX 3 #78-3:   WELL
 FLD .             TEAPOT:   FIELD
 LOC .       S3 T38N R78W:   LOCATION
 CNTY.            NATRONA:   COUNTY
 STAT.            WYOMING:   STATE
 CTRY. UNITED STATES OF AMERICA:   COUNTRY
 SRVC.            Unknown:   SERVICE COMPANY
 DATE.        17-OCT-1978:   LOGDATE
 API .       490251072400:   API NUMBER
~CURVE INFORMATION
#MNEM.UNIT       API CODE    CURVE DESCRIPTION
#----------   ------------   ------------------------------
 DEPT.F                  :   
 CALD.IN     45 280 60 00:   CALIPER
 GRD .GAPI   45 310 01 00:   GAMMA RAY FROM DENSITY LOG
 CORR.G/C3   45 356 01 00:   DENSITY CORRECTION
 RHOB.G/C3   45 350 01 00:   BULK DENSITY
 DPHI.DEC    45 890 12 00:   DENSITY POROSITY SANDSTONE
 SPR .MV     05 010 01 00:   SPONTANEOUS POTENTIAL FROM RES.
 IL  .OHMM   05 120 00 00:   INDUCTION LOG
 SN  .OHMM   05 040 16 00:   SHORT NORMAL 16"
~PARAMETER INFORMATION
#MNEM.UNIT          VALUE    DESCRIPTION
#----------   ------------   ------------------------------
 PD  .                 GL:   PERMANENT DATUM
 EPD .F              5154:   ELEVATION PERMANENT DATUM
 LMF .                 KB:   LOG MEASURED FROM
 DAPD.F                 4:   FEET ABOVE PERMANENT DATUM
 DMF .                 KB:   DRILLING MEASURED FROM
 EKB .F              5158:   KELLING BUSHING
 EGL .F              5154:   GROUND LEVEL
 DATE.           10-17-78:   RUN DATE
 RUN .                  1:   RUN NUMBER
 DD  .F               498:   DEPTH DRILLER
 DL  .F               503:   DEPTH LOGGER
 BLI .F               497:   BOTTOM LOG INTERVAL
 TLI .F                46:   TOP LOG INTERVAL
 CS  .IN            8.625:   CASING SIZE
 CBD .F                40:   CASING BOTTOM DRILLER
 BS  .IN            7.875:   BIT SIZE
 BSD .F               498:   BIT SIZE AT DEPTH
 DFT .                KCL:   DRILLING FLUID TYPE
 DFD .                8.7:   DRILLING FLUID DENSITY
 DFV .                 38:   DRILLING FLUID VISCOSITY
 DFPH.                  9:   DRILLING FLUID PH
 DFL .                9.6:   DRILLING FLUID LOSS
 MSS .          FLOW LINE:   MUD SAMPLE SOURCE
 RMS .OHMM             .2:   RESISTIVITY MUD SAMPLE
 MST .F                52:   MUD SAMPLE TEMPERATURE
 RMF .OHMM            .18:   RESISTIVITY MUD FILTRATE SAMPLE
 MFST.F                58:   MUD FILTRATE SAMPLE TEMPERATURE
 RMC .OHMM            .16:   RESISTIVITY MUD CAKE
 MCST.F                64:   MUD CAKE SAMPLE TEMPERATURE
 MFSS.               MEAS:   MUD FILTRATE SAMPLE SOURCE
 MCSS.               MEAS:   MUD CAKE SAMPLE SOURCE
 TCS .HRS               1:   TIME CURCULATED STOPPED
 MRT .F                72:   MAXIMUM RECORDED TEMPERATURE
 LUN .               2958:   LOGGING UNIT NUMBER
 LUL .               CASP:   LOGGING UNIT LOCATION
 ENGI.             MILLER:   RECORDING ENGINEER
 WITN.           DINSMORE:   WITNESSED BY
 CLNT.            A2DTECH:   CLIENT CODE
 ORIG.           5" PRINT:   ORIGIN OF DATA
 UWI .       490251072400:   UNIQUE WELL ID
 DICO. A2D Technologies, Inc.:   DIGITIZING COMPANY
~OTHER INFORMATION
~A   DEPT     CALD         GRD      CORR       RHOB       DPHI        SPR         IL         SN   
# ...
  110.0000     7.8492   128.2392     0.0106     2.4657     0.1217   -35.7045    11.4823     9.2016
  110.5000     7.8424   129.0159     0.0116     2.4709     0.1204   -35.7087    11.4736     9.1893
  111.0000     7.8354   129.5339     0.0126     2.4721     0.1191   -35.7130    11.4648     9.1769
  111.5000     7.8341   129.5976     0.0136     2.4727     0.1179   -35.7172    11.4561     9.1646
  112.0000     7.8341   129.6792     0.0146     2.4747     0.1166   -35.7214    11.4474     9.1523
  112.5000     7.8341   129.0984     0.0156     2.4767     0.1162   -35.7256    11.4387     9.1400
  113.0000     7.8341   128.1352     0.0166     2.4767     0.1165   -35.7298    11.4300     9.1277
  113.5000     7.8341   125.6658     0.0176     2.4762     0.1168   -35.7340    11.4214     9.1155
  114.0000     7.8341   122.8926     0.0182     2.4756     0.1171   -35.7382    11.4127     9.1032
  114.5000     7.8341   120.1297     0.0165     2.4751     0.1174   -35.7424    11.4040     9.0910
  115.0000     7.8341   118.4881     0.0149     2.4746     0.1176   -35.7466    11.3925     9.0788
  115.5000     7.8341   118.7260     0.0132     2.4741     0.1180   -35.7508    11.4264     9.0666
  116.0000     7.8341   119.0039     0.0145     2.4735     0.1185   -35.7550    11.4876     9.0544
  116.5000     7.8341   119.3064     0.0181     2.4727     0.1181   -35.7592    11.5492     9.0423
  117.0000     7.8341   119.5929     0.0212     2.4714     0.1143   -35.7634    11.6111     9.0301
  117.5000     7.8341   118.9700     0.0230     2.4807     0.1104   -35.7676    11.6734     9.0180
  118.0000     7.8341   115.3835     0.0249     2.4907     0.1064   -35.7718    11.7119     9.0059
  118.5000     7.8341   111.9237     0.0269     2.4990     0.1052   -35.7760    11.5363     8.9938
  119.0000     7.8341   109.1111     0.0285     2.4989     0.1047   -35.7802    11.4111     8.9817
  119.5000     7.8341   114.4764     0.0274     2.4914     0.1090   -35.7844    11.2888     8.9692
  120.0000     7.8341   121.6549     0.0257     2.4841     0.1134   -35.7886    11.3200     8.9060
  120.5000     7.8341   123.4787     0.0240     2.4769     0.1156   -35.7928    11.3509     8.8434
  121.0000     7.8341   124.1303     0.0223     2.4778     0.1146   -35.7970    11.3931     8.7812
  121.5000     7.8341   123.9897     0.0205     2.4816     0.1166   -35.8012    11.3115     8.7195
  122.0000     7.8341   121.9272     0.0188     2.4742     0.1234   -35.8054    11.1848     8.6582
  122.5000     7.8341   121.5531     0.0201     2.4643     0.1276   -35.8096    11.0596     8.5974
  123.0000     7.8341   121.2429     0.0246     2.4579     0.1249   -35.8134    10.9358     8.5369
  123.5000     7.8341   120.9221     0.0291     2.4636     0.1221   -35.8135    10.8134     8.4769
  124.0000     7.8341   120.4119     0.0335     2.4696     0.1210   -35.8135    10.6923     8.4173
  124.5000     7.8340   119.2603     0.0379     2.4718     0.1200   -35.8135    10.5726     8.3797
  125.0000     7.8340   117.8765     0.0424     2.4760     0.1169   -35.8135    10.4543     8.3449
  125.5000     7.8362   116.5130     0.0468     2.4876     0.1125   -35.8135    10.3372     8.3104
  126.0000     7.8557   115.1443     0.0490     2.5016     0.1081   -35.8134    10.2215     8.2760
  126.5000     7.8754   113.7748     0.0410     2.5120     0.1020   -35.8132    10.1071     8.2417
  127.0000     7.8950   112.3549     0.0332     2.5043     0.1067   -35.8143     9.9939     8.2075
  127.5000     7.9146   111.8840     0.0254     2.4919     0.1144   -35.8731     9.8822     8.1735
  128.0000     7.9343   111.9155     0.0249     2.4794     0.1164   -36.0559     9.7707     8.1397
  128.5000     7.9539   116.0091     0.0289     2.4720     0.1140   -36.2179     9.6876     8.1059
  129.0000     7.9737   120.8737     0.0329     2.4822     0.1105   -36.3844     9.6131     8.0723
  129.5000     7.9935   121.1451     0.0318     2.4891     0.1112   -36.5716     9.5391     8.0389
  130.0000     7.9946   120.6615     0.0277     2.4835     0.1145   -36.5683     9.4657     8.0057
  130.5000     7.9945   120.0483     0.0235     2.4751     0.1162   -36.5190     9.3920     7.9724
  131.0000     7.9944   119.4233     0.0193     2.4730     0.1158   -36.4684     9.2850     7.9090
  131.5000     7.9944   118.8613     0.0152     2.4757     0.1154   -36.4175     9.1781     7.8246
  132.0000     7.9944   118.7052     0.0110     2.4779     0.1165   -36.4087     9.0723     7.7413
  132.5000     7.9944   118.5303     0.0069     2.4753     0.1227   -36.4086     8.9678     7.6589
  133.0000     7.9944   118.6409     0.0044     2.4623     0.1289   -36.4087     8.8644     7.5775
  133.5000     7.9944   118.8074     0.0086     2.4477     0.1336   -36.4087     8.7622     7.4968
  134.0000     7.9944   120.5013     0.0149     2.4470     0.1270   -36.4087     8.6613     7.4170
  134.5000     7.9944   123.3263     0.0212     2.4577     0.1217   -36.4087     8.6036     7.3377
  135.0000     7.9944   124.7546     0.0276     2.4710     0.1163   -36.4087     8.5539     7.3265
  135.5000     7.9944   126.3161     0.0326     2.4843     0.1110   -36.4089     8.5044     7.3261
  136.0000     7.9944   127.6663     0.0331     2.4971     0.1076   -36.4094     8.4553     7.3540
  136.5000     7.9944   126.8467     0.0336     2.4936     0.1084   -36.4047     8.4105     7.3950
  137.0000     7.9944   123.1383     0.0342     2.4869     0.1103   -36.3191     8.6244     7.4363
  137.5000     7.9944   120.6589     0.0355     2.4835     0.1122   -36.2316     8.8266     7.4778
  138.0000     7.9944   120.7427     0.0409     2.4842     0.1141   -36.1545     8.8935     7.5195
  138.5000     7.9944   121.4616     0.0462     2.4795     0.1114   -36.0388     8.9052     7.5655
  139.0000     7.9944   122.3625     0.0514     2.4741     0.1124   -35.9954     8.9168     7.6135
  139.5000     7.9944   122.6952     0.0566     2.4691     0.1134   -35.9717     8.9285     7.6617
  140.0000     7.9944   122.7043     0.0650     2.4679     0.1130   -35.9487     8.9401     7.7103
  140.5000     7.9944   122.6998     0.0733     2.4710     0.1052   -35.9254     8.9518     7.7423
  141.0000     7.9944   122.4374     0.0815     2.4916     0.0941   -35.9022     8.9635     7.7351
  141.5000     7.9944   121.0949     0.0862     2.5120     0.0860   -35.8789     8.9752     7.7294
  142.0000     7.9944   119.9209     0.0690     2.5211     0.0937   -35.8557     8.9869     7.7239
  142.5000     7.9944   119.9298     0.0526     2.5092     0.0998   -35.8324     8.9987     7.7184
  143.0000     7.9944   120.6905     0.0364     2.4998     0.1059   -35.8045     9.0105     7.7129
  143.5000     7.9944   120.8769     0.0355     2.4913     0.1104   -35.7542     9.0222     7.7074
  144.0000     7.9944   119.8167     0.0367     2.4847     0.1093   -35.7040     9.0339     7.7019
  144.5000     7.9944   119.8712     0.0380     2.4888     0.1078   -35.6542     9.0460     7.6964
  145.0000     7.9944   123.5735     0.0329     2.4941     0.1061   -35.6180     9.0535     7.6909
  145.5000     7.9944   124.1135     0.0280     2.4938     0.1088   -35.6393     8.9752     7.6854
  146.0000     7.9944   123.5491     0.0230     2.4871     0.1120   -35.6594     8.9122     7.6800
  146.5000     7.9944   122.7234     0.0180     2.4811     0.1124   -35.6794     8.8495     7.6745
  147.0000     7.9944   121.8910     0.0152     2.4814     0.1124   -35.6994     8.7873     7.6690
  147.5000     7.9945   121.2382     0.0133     2.4820     0.1158   -35.7194     8.7255     7.6635
  148.0000     7.9943   122.9848     0.0115     2.4764     0.1195   -35.7394     8.6642     7.6581
  148.5000     7.9915   124.9170     0.0096     2.4684     0.1233   -35.7601     8.6032     7.6526
  149.0000     7.9888   126.2049     0.0078     2.4611     0.1268   -35.7833     8.5423     7.6472
  149.5000     7.9861   125.8713     0.0069     2.4593     0.1257   -35.7916     8.4885     7.6417
  150.0000     7.9833   124.5746     0.0089     2.4599     0.1220   -35.4720     8.5544     7.6363
