~VERSION INFORMATION
 VERS.                2.0:   CWLS LOG ASCII STANDARD - VERSION 2.0
 WRAP.                 NO:   ONE LINE PER DEPTH STEP
~WELL INFORMATION
#MNEM.UNIT      DATA TYPE    INFORMATION
#----------   ------------   ------------------------------
 STRT.F            6.0000:   START DEPTH
 STOP.F          522.0000:   STOP DEPTH
 STEP.F            0.5000:   STEP LENGTH
 NULL.          -999.2500:   NO VALUE
 COMP.       F D SERV INC:   COMPANY
 WELL.    88-7 SX-3 #88-3:   WELL
 FLD .             TEAPOT:   FIELD
 LOC .       S3 T38N R78W:   LOCATION
 CNTY.            NATRONA:   COUNTY
 STAT.            WYOMING:   STATE
 CTRY. UNITED STATES OF AMERICA:   COUNTRY
 SRVC.      Western Atlas:   SERVICE COMPANY
 DATE.        30-NOV-1992:   LOGDATE
 API .       490252254100:   API NUMBER
~CURVE INFORMATION
#MNEM.UNIT       API CODE    CURVE DESCRIPTION
#----------   ------------   ------------------------------
 DEPT.F                  :   
 GRR .GAPI   07 310 01 00:   GAMMA RAY
 RILD.OHMM   07 120 46 00:   INDUCTION LOG DEEP RESISTIVITY
 RILM.OHMM   07 120 44 00:   INDUCTION LOG MEDIUM RESISTIVITY
 C13 .IN     45 280 13 00:   CALIPER 13
 ZCOR.G/C3   45 356 01 00:   DENSITY CORRECTION
 ZDEN.G/C3   45 350 01 00:   BULK DENSITY
 PORZ.DEC    45 890 00 00:   DENSITY POROSITY
 NPHI.DEC    42 890 03 00:   NEUTRON POROSITY SANDSTONE
~PARAMETER INFORMATION
#MNEM.UNIT          VALUE    DESCRIPTION
#----------   ------------   ------------------------------
 PD  .                 GL:   PERMANENT DATUM
 EPD .F              5155:   ELEVATION PERMANENT DATUM
 LMF .                 KB:   LOG MEASURED FROM
 DAPD.F                10:   FEET ABOVE PERMANENT DATUM
 DMF .                 KB:   DRILLING MEASURED FROM
 EKB .F              5165:   KELLING BUSHING
 EDF .F              5164:   DRILLING FLOOR
 EGL .F              5155:   GROUND LEVEL
 DATE.        30-NOV-1992:   RUN DATE
 RUN .                  1:   RUN NUMBER
 DD  .F               525:   DEPTH DRILLER
 DL  .F               525:   DEPTH LOGGER
 BLI .F               516:   BOTTOM LOG INTERVAL
 TLI .F                 6:   TOP LOG INTERVAL
 CS  .IN            8.625:   CASING SIZE
 CBD .F                95:   CASING BOTTOM DRILLER
 CBL .F                98:   CASING BOTTOM LOGGER
 BS  .IN            7.875:   BIT SIZE
 BSD .F               525:   BIT SIZE AT DEPTH
 DFT .           AIR FOAM:   DRILLING FLUID TYPE
 MRT .F                68:   MAXIMUM RECORDED TEMPERATURE
 LUN .           HL- 6774:   LOGGING UNIT NUMBER
 LUL .             CASPER:   LOGGING UNIT LOCATION
 ENGI.             RAUTIO:   RECORDING ENGINEER
 WITN.          BOB SYLER:   WITNESSED BY
 CLNT.            A2DTECH:   CLIENT CODE
 ORIG.           5" PRINT:   ORIGIN OF DATA
 UWI .       490252254100:   UNIQUE WELL ID
 DICO. A2D Technologies, Inc.:   DIGITIZING COMPANY
~OTHER INFORMATION
~A    DEPT     GRR       RILD       RILM        C13       ZCOR       ZDEN       PORZ       NPHI   
# ...
  127.5000   136.3019     7.9816     7.9869     8.3225     0.0087     2.4791     0.1028     0.3239
  128.0000   137.8399     7.9799     7.9842     8.3204     0.0146     2.4761     0.1045     0.3229
  128.5000   141.2065     7.9783     7.9814     8.3184     0.0207     2.4738     0.1063     0.3199
  129.0000   139.0608     8.0325     8.0346     8.3163     0.0268     2.4639     0.1120     0.3181
  129.5000   138.1309     8.0919     8.0317     8.3142     0.0364     2.4563     0.1142     0.3178
  130.0000   138.4212     8.2066     8.1416     8.3273     0.0626     2.4564     0.1154     0.3190
  130.5000   136.8789     8.3229     8.2530     8.3403     0.0429     2.4646     0.1133     0.3205
  131.0000   132.9095     8.4866     8.4864     8.3382     0.0142     2.4729     0.1066     0.3208
  131.5000   131.3717     8.6638     8.6595     8.3361     0.0050     2.4805     0.1030     0.3184
  132.0000   131.6621     8.7232     8.8394     8.3313     0.0004     2.4843     0.0996     0.3159
  132.5000   132.8553     8.9058     9.0222     8.3011     0.0004     2.4880     0.0975     0.3133
  133.0000   133.7536     9.0919     9.1465     8.2839     0.0003     2.4933     0.0951     0.3120
  133.5000   134.0396     9.2823     9.3364     8.2975     0.0017     2.4956     0.0945     0.3108
  134.0000   133.4091     9.4113     9.4634     8.2948     0.0032     2.4940     0.0948     0.3108
  134.5000   130.9594     9.6078     9.6599     8.2928     0.0061     2.4902     0.0960     0.3111
  135.0000   130.6374     9.8777     9.9295     8.2907     0.0076     2.4849     0.0991     0.3118
  135.5000   130.3154    10.0846    10.2066     8.2886     0.0120     2.4826     0.1000     0.3111
  136.0000   130.2973    10.3679    10.7130     8.3168     0.0119     2.4872     0.0990     0.3069
  136.5000   127.5437    10.8089    11.1002     8.3147     0.0118     2.5008     0.0909     0.2989
  137.0000   125.3980    11.1903    11.5672     8.3278     0.0118     2.5175     0.0763     0.2831
  137.5000   123.8602    11.5047    11.7169     8.3257     0.0117     2.5313     0.0636     0.2640
  138.0000   119.8420    11.7456    11.6306     8.3236     0.0116     2.5448     0.0612     0.2562
  138.5000   115.5197    11.8254    11.7078     8.3215     0.0115     2.5461     0.0660     0.2686
  139.0000   114.3835    11.9057    11.8680     8.3194     0.0115     2.5378     0.0736     0.2787
  139.5000   115.5813    11.9866    11.8640     8.3173     0.0114     2.5181     0.0824     0.2854
  140.0000   116.7745    11.9008    11.7776     8.3152     0.0113     2.5075     0.0858     0.2869
  140.5000   117.9768    11.8062    11.6106     8.3126     0.0128     2.5029     0.0870     0.2866
  141.0000   119.1700    11.6494    11.4460     8.3105     0.0127     2.5022     0.0894     0.2863
  141.5000   119.7598    11.5655    11.3627     8.3236     0.0111     2.4999     0.0931     0.2872
  142.0000   120.0503    11.4028    11.2799     8.3215     0.0110     2.4878     0.0991     0.2875
  142.5000   120.3362    11.3212    11.1200     8.3194     0.0109     2.4824     0.1040     0.2875
  143.0000   121.2254    11.1620    11.0390     8.3476     0.0124     2.4771     0.1061     0.2872
  143.5000   121.5158    11.1597    11.0352     8.3455     0.0123     2.4718     0.1083     0.2884
  144.0000   123.0130    11.0798    10.8788     8.3591     0.0152     2.4657     0.1122     0.2902
  144.5000   126.0345    11.0005    10.7990     8.3722     0.0167     2.4604     0.1140     0.2939
  145.0000   126.3249    10.8458    10.7208     8.3847     0.0181     2.4604     0.1146     0.2945
  145.5000   121.4391    10.7682    10.6427     8.4281     0.0120     2.4596     0.1156     0.2939
  146.0000   118.6855    10.7659    10.6390     8.4260     0.0029     2.4556     0.1174     0.2919
  146.5000   117.1477    10.8396    10.7099     8.4391    -0.0063     2.4482     0.1192     0.2851
  147.0000   116.5217    10.8368    10.7053     8.4521    -0.0124     2.4444     0.1216     0.2827
  147.5000   118.0234    10.8346    10.7016     8.4500    -0.0064     2.4444     0.1232     0.2818
  148.0000   121.0449    10.8324    10.7736     8.4479     0.0016     2.4467     0.1220     0.2802
  148.5000   123.4584    10.8301    10.7690     8.4458     0.0176     2.4550     0.1150     0.2772
  149.0000   124.9601    10.8279    10.7653     8.4432     0.0190     2.4836     0.1029     0.2705
  149.5000   122.5105    10.9015    10.6869     8.4411     0.0144     2.4996     0.0944     0.2666
  150.0000   121.2766    10.8992    10.7005     8.4390     0.0098     2.5019     0.0853     0.2660
  150.5000   122.4827    10.7424    10.7570     8.4370     0.0173     2.4920     0.0939     0.2681
  151.0000   123.6895    10.4523    10.4596     8.4349     0.0112     2.4792     0.1016     0.2706
  151.5000   124.0223    10.2358    10.2418     8.4328     0.0050     2.4617     0.1101     0.2754
  152.0000   122.1519    10.1646    10.1694     8.4307     0.0080     2.4541     0.1174     0.2809
  152.5000   120.9220    10.0939    10.0973     8.4286     0.0109     2.4481     0.1212     0.2812
  153.0000   119.7021    10.0237    10.0258     8.4265     0.0124     2.4481     0.1221     0.2812
  153.5000   119.3891    10.0237    10.0242     8.4401     0.0168     2.4556     0.1166     0.2803
  154.0000   119.6844     9.9540    10.0228     8.4375     0.0198     2.4722     0.1063     0.2791
  154.5000   121.8009     9.8848    10.0215     8.4506     0.0227     2.4745     0.1075     0.2782
  155.0000   124.8314     9.8161     9.8814     8.4485     0.0226     2.4677     0.1136     0.2788
  155.5000   126.0405     9.7478     9.6757     8.4464     0.0210     2.4495     0.1203     0.2803
  156.0000   125.4214     9.6128     9.6072     8.4442     0.0104     2.4442     0.1258     0.2818
  156.5000   123.2848     9.5459     9.5392     8.4421     0.0043     2.4419     0.1255     0.2819
  157.0000   122.0600     9.4795     9.4717     8.4258     0.0072     2.4434     0.1243     0.2822
  157.5000   122.9629     9.4136     9.3394     8.4119     0.0089     2.4479     0.1222     0.2831
  158.0000   122.3460     9.3482     9.2089     8.4257     0.0101     2.4502     0.1207     0.2840
  158.5000   120.8173     9.2832     9.1437     8.4391     0.0068     2.4494     0.1210     0.2843
  159.0000   119.8965     9.2186     9.1424     8.4369     0.0127     2.4456     0.1231     0.2843
  159.5000   120.7994     9.1545     9.0774     8.4351     0.0171     2.4433     0.1246     0.2834
  160.0000   121.7023     9.0909     8.9506     8.4182     0.0186     2.4380     0.1274     0.2801
  160.5000   120.4357     9.0909     8.9494     8.4159     0.0170     2.4372     0.1274     0.2798
  161.0000   119.5545     9.0277     8.8860     8.3994     0.0154     2.4380     0.1262     0.2828
  161.5000   119.2415     9.0277     8.8848     8.3972     0.0105     2.4436     0.1232     0.2880
  162.0000   119.2326     8.9649     8.8219     8.3955     0.0061     2.4569     0.1174     0.2922
  162.5000   119.5298     8.9026     8.8207     8.3785     0.0121     2.4591     0.1174     0.2947
  163.0000   119.5186     8.9026     8.8195     8.3616     0.0225     2.4546     0.1184     0.2956
  163.5000   120.1175     8.9026     8.8183     8.3447     0.0240     2.4530     0.1184     0.2959
  164.0000   123.1481     8.9026     8.8788     8.3277     0.0178     2.4538     0.1178     0.2959
  164.5000   124.3572     8.9026     8.8775     8.3260     0.0192     2.4591     0.1171     0.2959
  165.0000   120.6986     8.9026     8.9384     8.3242     0.0282     2.4621     0.1138     0.2962
  165.5000   114.0027     8.7792     8.7520     8.3224     0.0311     2.4628     0.1127     0.2965
  166.0000   113.6616     8.5973     8.5103     8.3206     0.0220     2.4620     0.1139     0.2981
  166.5000   120.6717     8.4192     8.3914     8.3184     0.0144     2.4590     0.1154     0.2993
  167.0000   127.7101     8.3026     8.2167     8.3167     0.0097     2.4582     0.1151     0.3014
  167.5000   129.7723     8.1875     8.2156     8.3300     0.0112     2.4621     0.1124     0.3051
