~VERSION INFORMATION
 VERS.                2.0:   CWLS LOG ASCII STANDARD - VERSION 2.0
 WRAP.                 NO:   ONE LINE PER DEPTH STEP
~WELL INFORMATION
#MNEM.UNIT      DATA TYPE    INFORMATION
#----------   ------------   ------------------------------
 STRT.F            0.0000:   START DEPTH
 STOP.F          533.0000:   STOP DEPTH
 STEP.F            0.1000:   STEP LENGTH
 NULL.          -999.2500:   NO VALUE
 COMP.   FLUOR DANIEL INC:   COMPANY
 WELL.   84-4 X 10 #81-10:   WELL
 FLD .             TEAPOT:   FIELD
 LOC .      S10 T38N R78W:   LOCATION
 CNTY.            NATRONA:   COUNTY
 STAT.            WYOMING:   STATE
 CTRY. UNITED STATES OF AMERICA:   COUNTRY
 SRVC.     Atlas Wireline:   SERVICE COMPANY
 DATE.        25-SEP-1994:   LOGDATE
 API .       490252264000:   API NUMBER
~CURVE INFORMATION
#MNEM.UNIT       API CODE    CURVE DESCRIPTION
#----------   ------------   ------------------------------
 DEPT.F                  :   
 GRR .GAPI   07 310 01 00:   GAMMA RAY
 RILD.OHMM   07 120 46 00:   INDUCTION LOG DEEP RESISTIVITY
 RILM.OHMM   07 120 44 00:   INDUCTION LOG MEDIUM RESISTIVITY
~PARAMETER INFORMATION
#MNEM.UNIT          VALUE    DESCRIPTION
#----------   ------------   ------------------------------
 PD  .                 GL:   PERMANENT DATUM
 EPD .F              5150:   ELEVATION PERMANENT DATUM
 LMF .                 KB:   LOG MEASURED FROM
 DAPD.F                10:   FEET ABOVE PERMANENT DATUM
 DMF .                 KB:   DRILLING MEASURED FROM
 EKB .F              5160:   KELLING BUSHING
 EDF .F              5159:   DRILLING FLOOR
 EGL .F              5150:   GROUND LEVEL
 DATE.        25-SEP-1994:   RUN DATE
 RUN .                  1:   RUN NUMBER
 DD  .F               545:   DEPTH DRILLER
 DL  .F               541:   DEPTH LOGGER
 BLI .F               533:   BOTTOM LOG INTERVAL
 CS  .IN            9.625:   CASING SIZE
 CBD .F                76:   CASING BOTTOM DRILLER
 CBL .F                76:   CASING BOTTOM LOGGER
 BS  .IN             8.75:   BIT SIZE
 BSD .F               545:   BIT SIZE AT DEPTH
 DFT .                AIR:   DRILLING FLUID TYPE
 MRT .F                85:   MAXIMUM RECORDED TEMPERATURE
 LUN .            HL 6401:   LOGGING UNIT NUMBER
 LUL .         FT. MORGAN:   LOGGING UNIT LOCATION
 ENGI.    DAVE FREDERICKS:   RECORDING ENGINEER
 WITN.        GARY STRONG:   WITNESSED BY
 CLNT.            A2DTECH:   CLIENT CODE
 ORIG.           5' PRINT:   ORIGIN OF DATA
 UWI .       490252264000:   UNIQUE WELL ID
 DICO. A2D Technologies, Inc.:   DIGITIZING COMPANY
~OTHER INFORMATION
~A    DEPT      GRR      RILD       RILM   
# ...
  273.0000   163.9375     7.8733     7.8560
  273.1000   164.1923     7.8737     7.8820
  273.2000   164.3070     7.9150     7.9107
  273.3000   164.3998     7.9290     7.9108
  273.4000   164.6546     7.9293     7.9110
  273.5000   164.9185     7.9297     7.9557
  273.6000   164.9208     7.9300     7.9661
  273.7000   164.9233     7.9304     7.9662
  273.8000   164.9257     7.9307     7.9663
  273.9000   164.8340     7.9310     7.9664
  274.0000   164.5841     7.9065     7.9666
  274.1000   164.3288     7.8769     7.9667
  274.2000   164.0842     7.8772     7.9668
  274.3000   163.6370     7.8776     7.9399
  274.4000   163.1347     7.8779     7.9121
  274.5000   162.7301     7.8433     7.9122
  274.6000   162.4802     7.8242     7.9123
  274.7000   162.2284     7.8245     7.9124
  274.8000   162.2308     7.8163     7.9125
  274.9000   162.2332     7.7712     7.9126
  275.0000   162.3867     7.7715     7.9127
  275.1000   162.5402     7.7358     7.9128
  275.2000   162.5942     7.6914     7.9129
  275.3000   162.8471     7.6655     7.9131
  275.4000   162.8500     7.6560     7.8765
  275.5000   162.8520     7.6120     7.8587
  275.6000   162.8544     7.5611     7.8588
  275.7000   162.8568     7.5614     7.8589
  275.8000   162.7489     7.5336     7.8584
  275.9000   162.2466     7.5098     7.8049
  276.0000   161.6560     7.5101     7.8050
  276.1000   161.2419     7.5104     7.7774
  276.2000   161.0562     7.5108     7.7514
  276.3000   160.9500     7.5111     7.7515
  276.4000   160.7589     7.5114     7.7516
  276.5000   160.7613     7.5117     7.7518
  276.6000   160.7641     7.5120     7.7519
  276.7000   160.9778     7.5164     7.7240
  276.8000   161.0707     7.5648     7.6986
  276.9000   161.0731     7.5651     7.6987
  277.0000   161.0755     7.5654     7.6988
  277.1000   161.0652     7.5884     7.6989
  277.2000   160.7786     7.6187     7.6990
  277.3000   160.5654     7.6190     7.7275
  277.4000   160.1499     7.6193     7.7527
  277.5000   159.4159     7.6611     7.7528
  277.6000   158.3427     7.6729     7.7529
  277.7000   157.0831     7.6732     7.7531
  277.8000   155.6571     7.6894     7.7531
  277.9000   155.0025     7.7272     7.7532
  278.0000   154.7553     7.7275     7.7534
  278.1000   154.7577     7.7714     7.7535
  278.2000   154.8995     7.7818     7.7536
  278.3000   155.4067     7.7821     7.7537
  278.4000   155.9737     7.8001     7.7538
  278.5000   156.4210     7.8369     7.7539
  278.6000   157.2737     7.8372     7.7540
  278.7000   158.1625     7.8376     7.7426
  278.8000   158.9953     7.8747     7.7007
  278.9000   160.0073     7.8926     7.7009
  279.0000   161.1241     7.8930     7.7010
  279.1000   161.8050     7.8829     7.7011
  279.2000   162.5643     7.8391     7.7012
  279.3000   163.3238     7.8395     7.7013
  279.4000   164.0065     7.8398     7.7045
  279.5000   164.5136     7.8401     7.7550
  279.6000   165.0661     7.8198     7.7551
  279.7000   165.2981     7.7867     7.7552
  279.8000   165.1927     7.7870     7.7553
  279.9000   164.9428     7.7874     7.7554
  280.0000   164.6123     7.5552     7.7555
  280.1000   164.1408     7.4710     7.7556
  280.2000   163.8721     7.4713     7.7557
  280.3000   163.1740     7.4716     7.7866
  280.4000   162.4193     7.4675     7.8098
  280.5000   161.5306     7.4207     7.8099
  280.6000   160.6920     7.4210     7.8100
  280.7000   160.1554     7.4213     7.8101
  280.8000   159.3548     7.4216     7.8102
  280.9000   159.1200     7.4219     7.8103
  281.0000   158.6827     7.4222     7.8104
  281.1000   158.4556     7.4225     7.8105
  281.2000   158.5458     7.4228     7.8107
  281.3000   158.7625     7.3910     7.8108
  281.4000   158.7651     7.3486     7.8109
  281.5000   159.2487     7.3063     7.8110
  281.6000   159.7559     7.2643     7.8111
  281.7000   160.2631     7.2215     7.8112
  281.8000   160.6788     7.2218     7.8064
  281.9000   160.9753     7.1895     7.7576
  282.0000   161.4986     7.1482     7.7577
  282.1000   161.9894     7.1234     7.7578
  282.2000   162.4966     7.1154     7.7349
  282.3000   162.8590     7.0748     7.6904
  282.4000   163.1138     7.0752     7.6462
  282.5000   163.4140     7.0420     7.5988
  282.6000   163.9300     7.0269     7.5587
  282.7000   164.1803     7.0097     7.5152
  282.8000   164.6332     6.9790     7.4721
  282.9000   164.9919     6.9793     7.4291
  283.0000   165.2467     6.9796     7.3864
  283.1000   165.4526     6.9456     7.3410
  283.2000   165.4550     6.9057     7.3411
  283.3000   165.2058     6.8844     7.3103
  283.4000   164.9559     6.8847     7.2683
  283.5000   164.5539     6.8820     7.2265
  283.6000   163.9492     6.8378     7.1850
  283.7000   163.2471     6.8380     7.1412
  283.8000   162.7448     6.8111     7.1027
  283.9000   162.1491     6.7719     7.0619
  284.0000   162.1510     6.7330     7.0213
  284.1000   162.1535     6.6943     6.9809
  284.2000   162.1559     6.6526     6.9408
  284.3000   162.2707     6.6176     6.8989
  284.4000   162.7779     6.6072     6.8990
  284.5000   163.3720     6.5672     6.8693
  284.6000   164.0012     6.5169     6.8298
  284.7000   164.7607     6.5118     6.8044
  284.8000   165.6297     6.4725     6.8045
  284.9000   166.5818     6.4372     6.8046
  285.0000   167.3414     6.4283     6.7672
  285.1000   168.2203     6.3869     6.7579
  285.2000   168.6478     6.3404     6.7580
  285.3000   169.3180     6.3343     6.7581
  285.4000   169.9641     6.2972     6.7582
  285.5000   170.5346     6.2617     6.7583
  285.6000   171.2943     6.2257     6.7584
  285.7000   172.1623     6.1899     6.7585
  285.8000   172.5970     6.1687     6.7585
  285.9000   172.9376     6.1615     6.7586
  286.0000   173.1924     6.1261     6.7587
  286.1000   173.4472     6.0847     6.7588
  286.2000   173.6846     6.0272     6.7589
  286.3000   173.6873     6.0015     6.7287
  286.4000   173.6894     5.9866     6.6900
  286.5000   173.3515     5.9439     6.6516
  286.6000   172.8491     5.8771     6.6134
  286.7000   172.2760     5.8385     6.5749
  286.8000   171.5007     5.7811     6.5376
  286.9000   170.3785     5.7147     6.5000
  287.0000   169.7100     5.6797     6.4408
  287.1000   169.1291     5.6618     6.3813
  287.2000   168.6268     5.5993     6.3305
  287.3000   168.1988     5.5636     6.2213
  287.4000   167.9488     5.5352     6.1857
  287.5000   167.6740     5.5034     6.0661
  287.6000   167.2218     5.4559     5.8875
  287.7000   167.0743     5.4028     5.7128
  287.8000   166.9490     5.3717     5.6017
  287.9000   166.6991     5.3385     5.5695
  288.0000   166.4491     5.3387     5.5314
  288.1000   166.1778     5.3164     5.4802
  288.2000   165.9493     5.2859     5.4173
  288.3000   165.5182     5.2555     5.3678
  288.4000   165.0159     5.2298     5.3304
  288.5000   164.4320     5.2300     5.2702
  288.6000   163.5497     5.2013     5.2703
  288.7000   161.6606     5.1944     5.2455
  288.8000   160.2565     5.1775     5.2341
  288.9000   158.7446     5.1477     5.2214
  289.0000   157.5026     5.1181     5.1981
  289.1000   156.5807     5.0884     5.1982
  289.2000   155.7905     5.0886     5.1983
  289.3000   154.7264     5.0654     5.1736
  289.4000   153.7762     5.0539     5.1814
  289.5000   152.7694     5.0541     5.1985
  289.6000   151.9010     5.0543     5.2056
  289.7000   151.1463     5.0546     5.2347
  289.8000   150.3915     5.0548     5.2348
  289.9000   149.6049     5.0550     5.2603
  290.0000   148.8821     5.0739     5.2908
  290.1000   147.9354     5.1169     5.3215
  290.2000   147.2129     5.1768     5.3524
  290.3000   146.8030     5.2339     5.3821
  290.4000   146.5954     5.2342     5.3822
  290.5000   146.5983     5.2607     5.4086
  290.6000   146.8459     5.2915     5.4400
  290.7000   147.4919     5.3225     5.4716
  290.8000   148.5431     5.3537     5.5034
  290.9000   149.9035     5.3823     5.5353
  291.0000   151.4198     5.3825     5.5721
  291.1000   152.9571     5.4108     5.5722
