~VERSION INFORMATION
 VERS.                2.0:   CWLS LOG ASCII STANDARD - VERSION 2.0
 WRAP.                 NO:   ONE LINE PER DEPTH STEP
~WELL INFORMATION
#MNEM.UNIT      DATA TYPE    INFORMATION
#----------   ------------   ------------------------------
 STRT.F           29.0000:   START DEPTH
 STOP.F          507.0000:   STOP DEPTH
 STEP.F            0.5000:   STEP LENGTH
 NULL.          -999.2500:   NO VALUE
 COMP.    FENIX & SCISSON:   COMPANY
 WELL.       NPR #64-SX-3:   WELL
 FLD .            WILDCAT:   FIELD
 LOC .       S3 T38N R78W:   LOCATION
 CNTY.            NATRONA:   COUNTY
 STAT.            WYOMING:   STATE
 CTRY. UNITED STATES OF AMERICA:   COUNTRY
 SRVC.           BIRDWELL:   SERVICE COMPANY
 DATE.        28-MAR-1977:   LOGDATE
 API .       490251032200:   API NUMBER
~CURVE INFORMATION
#MNEM.UNIT       API CODE    CURVE DESCRIPTION
#----------   ------------   ------------------------------
 DEPT.F                  :   
 SPR .MV     05 010 01 00:   SPONTANEOUS POTENTIAL FROM RES.
 ILD .OHMM   05 120 46 00:   INDUCTION LOG DEEP
 SN  .OHMM   05 040 16 00:   SHORT NORMAL 16"
 GRD .GAPI   45 310 01 00:   GAMMA RAY FROM DENSITY LOG
 CALD.IN     45 280 60 00:   CALIPER FROM DENSITY LOG
 CORR.G/C3   45 356 01 00:   DENSITY CORRECTION
 RHOB.G/C3   45 350 01 00:   BULK DENSITY
 DPHI.DEC    45 890 12 00:   DENSITY POROSITY SANDSTONE
~PARAMETER INFORMATION
#MNEM.UNIT          VALUE    DESCRIPTION
#----------   ------------   ------------------------------
 PD  .                 GL:   PERMANENT DATUM
 EPD .F              5145:   ELEVATION PERMANENT DATUM
 LMF .                 GL:   LOG MEASURED FROM
 DMF .                 GL:   DRILLING MEASURED FROM
 EKB .F              5150:   KELLING BUSHING
 EDF .F              5149:   DRILLING FLOOR
 EGL .F              5145:   GROUND LEVEL
 DATE.        28-MAR-1977:   RUN DATE
 RUN .                  1:   RUN NUMBER
 DD  .F               507:   DEPTH DRILLER
 DL  .F               507:   DEPTH LOGGER
 BLI .F               501:   BOTTOM LOG INTERVAL
 TLI .F                40:   TOP LOG INTERVAL
 CS  .IN            8.625:   CASING SIZE
 CBD .F                40:   CASING BOTTOM DRILLER
 CBL .F                43:   CASING BOTTOM LOGGER
 BS  .IN            7.875:   BIT SIZE
 BSD .F               507:   BIT SIZE AT DEPTH
 DFT .                KCL:   DRILLING FLUID TYPE
 DFD .                8.5:   DRILLING FLUID DENSITY
 DFV .                 31:   DRILLING FLUID VISCOSITY
 DFPH.                 10:   DRILLING FLUID PH
 DFL .                 78:   DRILLING FLUID LOSS
 MSS .                PIT:   MUD SAMPLE SOURCE
 RMS .OHMM            .54:   RESISTIVITY MUD SAMPLE
 MST .F                60:   MUD SAMPLE TEMPERATURE
 RMF .OHMM            .46:   RESISTIVITY MUD FILTRATE SAMPLE
 MFST.F                64:   MUD FILTRATE SAMPLE TEMPERATURE
 RMC .OHMM            .52:   RESISTIVITY MUD CAKE
 MCST.F                64:   MUD CAKE SAMPLE TEMPERATURE
 MFSS.               MEAS:   MUD FILTRATE SAMPLE SOURCE
 MCSS.               MEAS:   MUD CAKE SAMPLE SOURCE
 RMB .OHMM            .51:   RESISTIVITY MUD AT BHT
 BHT .F                63:   BOTTOM HOLE TEMPERATURE
 TCS .HRS            0300:   TIME CURCULATED STOPPED
 MRT .F                63:   MAXIMUM RECORDED TEMPERATURE
 LUN .               3026:   LOGGING UNIT NUMBER
 LUL .             CASPER:   LOGGING UNIT LOCATION
 ENGI.             RAWSON:   RECORDING ENGINEER
 WITN.         STUERINCER:   WITNESSED BY
 CLNT.            A2DTECH:   CLIENT CODE
 ORIG.           5" PRINT:   ORIGIN OF DATA
 UWI .       490251032200:   UNIQUE WELL ID
 DICO. A2D Technologies, Inc.:   DIGITIZING COMPANY
~OTHER INFORMATION
~A   DEPT      SPR        ILD         SN        GRD       CALD       CORR       RHOB       DPHI   
# ...
  272.0000   -34.9887     6.4129     8.3701    74.7486     7.0190    -0.1467     2.4411     0.1256
  272.5000   -35.4449     5.9736     8.3123    74.9028     7.0803    -0.1423     2.4442     0.1297
  273.0000   -35.5998     5.6603     8.2548    73.7036     7.1416    -0.1501     2.4435     0.1330
  273.5000   -35.7547     5.5437     8.1410    74.7441     7.2179    -0.1593     2.4350     0.1336
  274.0000   -36.0603     5.5054     7.4386    73.1939     7.2792    -0.1543     2.4278     0.1393
  274.5000   -36.3660     5.5054     6.8441    74.6217     7.3705    -0.1197     2.4271     0.1498
  275.0000   -36.9736     5.5054     6.8441    73.3526     7.4468    -0.1079     2.4191     0.1483
  275.5000   -37.7310     5.5823     6.8441    74.4060     7.4632    -0.0664     2.4038     0.1389
  276.0000   -37.7353     5.7044     7.2349    76.8061     7.4495    -0.0605     2.4281     0.1216
  276.5000   -37.5889     6.1515     8.0287    73.8914     7.4509    -0.0562     2.4478     0.1092
  277.0000   -37.4387     6.6392     8.3123    72.8480     7.4522    -0.0307     2.4637     0.1056
  277.5000   -37.2965     7.1160     8.6058    73.1518     7.4536    -0.0354     2.4721     0.1019
  278.0000   -37.3019     7.5743     9.0342    73.7551     7.4549    -0.0401     2.4782     0.0998
  278.5000   -37.3062     7.8416     9.3567    71.9632     7.4562    -0.0327     2.4836     0.1010
  279.0000   -36.2563     8.0622     9.6835    72.1918     7.4576    -0.0178     2.4844     0.1085
  279.5000   -35.8087     8.1252     9.8189    73.2446     7.4589    -0.0059     2.4814     0.1166
  280.0000   -35.6626     8.2317     9.8873    71.5275     7.4603    -0.0045     2.4627     0.1186
  280.5000   -35.5163     8.2317     9.8873    70.4829     7.4616    -0.0062     2.4559     0.1183
  281.0000   -35.5217     8.2317     9.8873    72.0596     7.4630    -0.0124     2.4545     0.1158
  281.5000   -35.3744     8.2317     9.8873    70.6419     7.4643    -0.0200     2.4553     0.1103
  282.0000   -35.3798     8.2317     9.9561    71.8451     7.4507    -0.0277     2.4607     0.1067
  282.5000   -35.2334     8.2317    10.0255    72.0730     7.4520    -0.0309     2.4660     0.1055
  283.0000   -35.2379     8.2317    10.0255    71.6284     7.4534    -0.0175     2.4722     0.1067
  283.5000   -35.3939     8.2890    10.0255    72.3076     7.4397    -0.0086     2.4677     0.1103
  284.0000   -35.5488     8.2890    10.0953    74.0337     7.4410    -0.0057     2.4648     0.1101
  284.5000   -35.7037     8.2890    10.0953    72.6156     7.4102    -0.0179     2.4633     0.1013
  285.0000   -35.8587     8.2890    10.0255    71.7207     7.3838    -0.0316     2.4649     0.1021
  285.5000   -36.0136     8.2890    10.0255    71.1275     7.4001    -0.0273     2.4718     0.1068
  286.0000   -36.1687     8.2890    10.0255    69.1859     7.4018    -0.0214     2.4734     0.1158
  286.5000   -36.3245     8.4709    10.0255    68.4415     7.3431    -0.0035     2.4651     0.1230
  287.0000   -36.4795     8.7013    10.0255    69.6657     7.2845     0.0205     2.4545     0.1305
  287.5000   -36.6344     8.8228    10.0255    69.8726     7.2409     0.0339     2.4407     0.1371
  288.0000   -36.7893     8.8842    10.0255    68.0389     7.1969     0.0398     2.4203     0.1416
  288.5000   -36.9443     8.7013    10.0255    68.6102     7.2136     0.0396     2.4095     0.1382
  289.0000   -36.9497     8.2890    10.0329    68.6884     7.2149     0.0380     2.4104     0.1367
  289.5000   -36.9540     7.8962    10.0953    68.1700     7.2463     0.0409     2.4143     0.1394
  290.0000   -36.8067     7.2961    10.0953    67.8740     7.4725     0.0452     2.4181     0.1420
  290.5000   -36.6604     6.8259    10.0953    69.3765     7.4588     0.0279     2.4190     0.1447
  291.0000   -36.6658     6.6854     9.8189    70.5038     7.4449     0.0146     2.4047     0.1483
  291.5000   -36.8208     6.6392     9.4840    71.1070     7.4465     0.0129     2.4010     0.1552
  292.0000   -36.6755     6.6854     8.0847    72.3091     7.4479     0.0046     2.3928     0.1751
  292.5000   -36.6799     6.7788     6.9817    74.1848     7.4492    -0.0249     2.3725     0.1805
  293.0000   -36.3830     6.9213     6.8918    73.8899     7.4352    -0.0506     2.3529     0.1741
  293.5000   -35.9344     7.0735     6.9881    74.6429     7.4369    -0.0568     2.3492     0.1361
  294.0000   -35.9398     7.4183     7.4904    74.4131     7.4383     0.0183     2.3757     0.1252
  294.5000   -36.1089     8.0622     8.7869    72.3307     7.4396     0.0212     2.4256     0.1167
  295.0000   -36.4014     9.2617    10.0953    69.6258     7.4409     0.0015     2.4468     0.1145
  295.5000   -36.8575    10.0655    11.0517    68.5223     7.4270    -0.0017     2.4559     0.1142
  296.0000   -36.7113    10.8635    11.8692    69.8384     7.4286    -0.0048     2.4598     0.1142
  296.5000   -35.8120    11.1691    12.4322    68.9811     7.4300    -0.0095     2.4599     0.1153
  297.0000   -35.5151    11.1583    12.6938    68.0873     7.4160    -0.0172     2.4599     0.1156
  297.5000   -35.3688    10.7884    12.6938    67.4182     7.4024    -0.0279     2.4592     0.1153
  298.0000   -35.3742    10.7139    12.6938    66.9724     7.3887    -0.0401     2.4578     0.1134
  298.5000   -35.2280    10.8635    12.6938    68.1029     7.3751    -0.0613     2.4594     0.1104
  299.0000   -35.2323    11.3251    12.7822    68.4042     7.3614    -0.0735     2.4632     0.1106
  299.5000   -35.2366    12.0545    12.9609    67.8848     7.3328    -0.0706     2.4663     0.1257
  300.0000   -34.6386    12.6542    13.3025    67.3653     7.2891    -0.0467     2.4634     0.1483
  300.5000   -34.1867    13.4803    14.1596    66.6487     7.2008    -0.0273     2.4401     0.1555
  301.0000   -34.0361    14.4344    15.0167    66.0225     7.1567    -0.0244     2.4115     0.1669
  301.5000   -33.8855    16.0159    16.0652    64.5913     7.1129    -0.0245     2.3874     0.1823
  302.0000   -33.5843    18.5257    17.2176    62.5779     7.0841    -0.0217     2.3543     0.1961
  302.5000   -32.9819    20.8426    18.5811    60.6700     7.0704    -0.0128     2.3393     0.2066
  303.0000   -32.5301    24.4869    19.7762    57.8817     7.0419    -0.0039     2.3258     0.2126
  303.5000   -32.5301    26.5649    20.7580    58.7193     7.0431    -0.0071     2.3108     0.2126
  304.0000   -32.5301    26.7484    22.2801    57.4407     7.0443    -0.0133     2.2935     0.2153
  304.5000   -32.5301    26.9328    23.8420    56.3207     7.0455    -0.0195     2.2823     0.2252
  305.0000   -32.3795    27.4967    25.0256    55.9511     7.0466    -0.0379     2.2771     0.2276
  305.5000   -32.3795    27.8790    25.7267    55.5058     7.0478    -0.0651     2.2688     0.2224
  306.0000   -32.2289    28.0945    25.9033    55.2092     7.0790    -0.1002     2.2712     0.2215
  306.5000   -32.2289    28.6589    26.0806    55.7378     7.1102    -0.1361     2.2735     0.2245
  307.0000   -32.3795    28.4590    26.6237    56.3403     7.1714    -0.1453     2.2736     0.2220
  307.5000   -32.3795    28.4571    26.8065    56.7931     7.2475    -0.1574     2.2692     0.2209
  308.0000   -31.9277    28.8526    27.1767    56.9466     7.3237    -0.1403     2.2715     0.2310
  308.5000   -31.3253    29.8694    27.3632    55.1539     7.4148    -0.0830     2.2708     0.2400
  309.0000   -31.0241    30.4947    27.5493    54.9331     7.4310    -0.0463     2.2626     0.2222
  309.5000   -30.8735    30.9186    27.7374    54.3380     7.4169    -0.0434     2.2506     0.2083
  310.0000   -30.8735    31.1317    27.5410    53.6672     7.4334    -0.0326     2.2907     0.2100
  310.5000   -31.0241    31.1291    27.3469    54.3455     7.4346    -0.0136     2.2932     0.2344
  311.0000   -31.0241    31.1270    26.7798    54.8732     7.4205    -0.0093     2.2758     0.2429
  311.5000   -31.1747    31.1249    26.4071    55.6254     7.3770    -0.0111     2.2510     0.2359
  312.0000   -31.1747    30.4815    26.2210    55.7779     7.3183    -0.0190     2.2441     0.2159
