~VERSION INFORMATION
 VERS.                2.0:   CWLS LOG ASCII STANDARD - VERSION 2.0
 WRAP.                 NO:   ONE LINE PER DEPTH STEP
~WELL INFORMATION
#MNEM.UNIT      DATA TYPE    INFORMATION
#----------   ------------   ------------------------------
 STRT.F            0.0000:   START DEPTH
 STOP.F          550.0000:   STOP DEPTH
 STEP.F            0.1000:   STEP LENGTH
 NULL.          -999.2500:   NO VALUE
 COMP.       F D SERV INC:   COMPANY
 WELL. NAVAL PETROLEUM RESERVE 3 SX-3 #77-4-3:   WELL
 FLD .          N.P.R. #3:   FIELD
 LOC .       S3 T38N R78W:   LOCATION
 CNTY.            NATRONA:   COUNTY
 STAT.            WYOMING:   STATE
 CTRY. UNITED STATES OF AMERICA:   COUNTRY
 SRVC.      Western Atlas:   SERVICE COMPANY
 DATE.        28-OCT-1992:   LOGDATE
 API .       490252255100:   API NUMBER
~CURVE INFORMATION
#MNEM.UNIT       API CODE    CURVE DESCRIPTION
#----------   ------------   ------------------------------
 DEPT.F                  :   
 GRR .GAPI   07 310 01 00:   GAMMA RAY FROM RESISTIVITY
 RILD.OHMM   07 120 46 00:   DEEP INDUCTION RESISTIVITY
 RILM.OHMM   07 120 44 00:   INDUCTION LOG MEDIUM RESISTIVITY
~PARAMETER INFORMATION
#MNEM.UNIT          VALUE    DESCRIPTION
#----------   ------------   ------------------------------
 PD  .                 GL:   PERMANENT DATUM
 EPD .F              5160:   ELEVATION PERMANENT DATUM
 LMF .                 KB:   LOG MEASURED FROM
 DAPD.F                10:   FEET ABOVE PERMANENT DATUM
 DMF .                 KB:   DRILLING MEASURED FROM
 EKB .F              5170:   KELLING BUSHING
 EDF .F              5169:   DRILLING FLOOR
 EGL .F              5160:   GROUND LEVEL
 DATE.        28-OCT-1992:   RUN DATE
 RUN .                  1:   RUN NUMBER
 DD  .F               555:   DEPTH DRILLER
 DL  .F               558:   DEPTH LOGGER
 BLI .F               550:   BOTTOM LOG INTERVAL
 CS  .IN            8.625:   CASING SIZE
 CBD .F                54:   CASING BOTTOM DRILLER
 CBL .F                54:   CASING BOTTOM LOGGER
 BS  .IN            7.875:   BIT SIZE
 BSD .F               555:   BIT SIZE AT DEPTH
 DFT .           AIR FOAM:   DRILLING FLUID TYPE
 TCS .HRS               1:   TIME CURCULATED STOPPED
 MRT .F                65:   MAXIMUM RECORDED TEMPERATURE
 LUN .            HL-6274:   LOGGING UNIT NUMBER
 LUL .             CASPER:   LOGGING UNIT LOCATION
 ENGI.             RAUTIO:   RECORDING ENGINEER
 WITN.     BRUCE ANDERSON:   WITNESSED BY
 CLNT.            A2DTECH:   CLIENT CODE
 ORIG.           5" PRINT:   ORIGIN OF DATA
 UWI .       490252255100:   UNIQUE WELL ID
 DICO. A2D Technologies, Inc.:   DIGITIZING COMPANY
~OTHER INFORMATION
~A    DEPT      GRR      RILD       RILM   
# ...
   91.0000   130.9063     8.5224     8.3691
   91.1000   131.4840     8.5233     8.3688
   91.2000   132.2369     8.5243     8.3686
   91.3000   133.0751     8.5254     8.3684
   91.4000   133.5206     8.5262     8.3681
   91.5000   133.8530     8.5271     8.3679
   91.6000   134.2236     8.5281     8.3677
   91.7000   134.5927     8.5290     8.3674
   91.8000   134.5946     8.5300     8.3672
   91.9000   134.5966     8.5309     8.3670
   92.0000   134.5982     8.5319     8.3668
   92.1000   134.4383     8.5616     8.3665
   92.2000   134.0798     8.5935     8.3663
   92.3000   133.6391     8.5944     8.3660
   92.4000   133.3905     8.5954     8.3658
   92.5000   133.0970     8.5963     8.3987
   92.6000   133.3035     8.6351     8.4238
   92.7000   133.5557     8.6584     8.4236
   92.8000   133.8079     8.6593     8.4233
   92.9000   134.0600     8.6603     8.4231
   93.0000   134.3142     8.6613     8.4229
   93.1000   134.5643     8.6622     8.4226
   93.2000   134.8165     8.6632     8.4224
   93.3000   135.0687     8.6641     8.4222
   93.4000   135.3208     8.6651     8.4219
   93.5000   135.5317     8.6661     8.4216
   93.6000   135.5336     8.6671     8.4214
   93.7000   135.2955     8.6680     8.4212
   93.8000   135.2350     8.6690     8.4210
   93.9000   135.1005     8.6699     8.4207
   94.0000   134.6828     8.6565     8.4205
   94.1000   133.9664     8.6116     8.4203
   94.2000   133.4297     8.6128     8.4200
   94.3000   131.5801     8.6136     8.4198
   94.4000   130.2977     8.6146     8.4196
   94.5000   129.2981     8.6155     8.4193
   94.6000   128.3746     8.6165     8.4191
   94.7000   127.6254     8.6174     8.4189
   94.8000   126.7942     8.6185     8.4186
   94.9000   126.3498     8.5772     8.4184
   95.0000   125.6797     8.5605     8.4026
   95.1000   125.1694     8.5614     8.3595
   95.2000   124.9208     8.5624     8.3593
   95.3000   124.6881     8.5633     8.3591
   95.4000   124.6903     8.5645     8.3588
   95.5000   124.6918     8.5248     8.3586
   95.6000   125.0191     8.5067     8.3584
   95.7000   125.4107     8.5077     8.3581
   95.8000   125.7812     8.5086     8.3579
   95.9000   126.5341     8.5096     8.3577
   96.0000   127.4203     8.5105     8.3574
   96.1000   127.8338     8.5115     8.3572
   96.2000   128.3364     8.5124     8.3570
   96.3000   128.8389     8.5134     8.3567
   96.4000   129.3922     8.5143     8.3565
   96.5000   130.1480     8.5153     8.3563
   96.6000   130.8979     8.5162     8.3560
   96.7000   131.4532     8.5172     8.3359
   96.8000   131.9557     8.5181     8.2976
   96.9000   132.4582     8.5191     8.2974
   97.0000   132.9184     8.5200     8.2971
   97.1000   133.1801     8.5210     8.2969
   97.2000   133.4228     8.4758     8.2967
   97.3000   133.6749     8.4637     8.2965
   97.4000   133.6524     8.4646     8.2882
   97.5000   133.3182     8.4656     8.2384
   97.6000   132.8532     8.4665     8.2382
   97.7000   132.5868     8.4675     8.2024
   97.8000   132.3561     8.4240     8.1806
   97.9000   131.9269     8.4105     8.1804
   98.0000   131.6858     8.4115     8.1741
   98.1000   131.6105     8.4124     8.1231
   98.2000   131.3871     8.4134     8.1229
   98.3000   131.6914     8.4144     8.1227
   98.4000   131.9170     8.3725     8.1225
   98.5000   132.5136     8.3577     8.1084
   98.6000   133.2665     8.3587     8.0657
   98.7000   134.0193     8.3596     8.0654
   98.8000   134.7722     8.3605     8.0652
   98.9000   135.6299     8.3616     8.0650
   99.0000   136.0624     8.3214     8.0432
   99.1000   136.7287     8.3053     8.0086
   99.2000   137.3696     8.3062     8.0084
   99.3000   137.9323     8.3071     8.0081
   99.4000   138.6936     8.3080     8.0470
   99.5000   139.8704     8.3091     8.0637
   99.6000   140.7001     8.3099     8.0634
   99.7000   141.2375     8.3108     8.0581
   99.8000   141.5931     8.3118     8.0347
   99.9000   142.0957     8.3106     8.0068
  100.0000   142.5982     8.3013     7.9869
  100.1000   142.9200     8.2921     7.9623
  100.2000   143.2418     8.2828     7.9377
  100.3000   143.5513     8.2735     7.9130
  100.4000   143.8115     8.2643     7.8977
  100.5000   144.2921     8.2564     7.8981
  100.6000   144.4181     8.2566     7.8986
  100.7000   144.5535     8.2119     7.8559
  100.8000   144.6413     8.1995     7.8446
  100.9000   144.4216     8.1749     7.8451
  101.0000   144.4231     8.1428     7.8310
  101.1000   143.9738     8.1429     7.7915
  101.2000   143.6488     8.1430     7.7920
  101.3000   143.1613     8.1014     7.7924
  101.4000   142.4814     8.0867     7.7928
  101.5000   141.9698     8.0868     7.7932
  101.6000   141.1071     8.0869     7.7937
  101.7000   140.2654     8.0870     7.7941
  101.8000   139.5851     8.0872     7.7946
  101.9000   139.0876     8.0483     7.7950
  102.0000   138.5901     8.0312     7.7954
  102.1000   138.0918     8.0313     7.7958
  102.2000   137.5952     8.0315     7.7963
  102.3000   137.2939     8.0316     7.7967
  102.4000   136.9023     8.0779     7.7972
  102.5000   136.4048     8.0879     7.7976
  102.6000   135.9829     8.0881     7.7980
  102.7000   135.9844     8.0882     7.7984
  102.8000   135.7511     8.0883     7.7989
  102.9000   135.6846     8.0884     7.7993
  103.0000   135.6858     8.0447     7.7997
  103.1000   135.7632     8.0325     7.8002
  103.2000   136.0137     8.0326     7.7761
  103.3000   136.2938     8.0327     7.7469
  103.4000   136.7347     8.0328     7.7474
  103.5000   137.2346     8.0329     7.7478
  103.6000   137.7346     8.0330     7.7482
  103.7000   138.2344     8.0647     7.7487
  103.8000   138.7521     8.0894     7.7491
  103.9000   139.9265     8.0895     7.7495
  104.0000   140.5438     8.0896     7.7500
  104.1000   141.4457     8.0898     7.7504
  104.2000   142.4443     8.0899     7.7508
  104.3000   143.3015     8.0609     7.7512
  104.4000   143.5577     8.0339     7.7316
  104.5000   144.0463     8.0340     7.6983
  104.6000   144.3553     8.0341     7.6988
  104.7000   144.4677     8.0342     7.6993
  104.8000   144.5543     8.0344     7.6996
  104.9000   144.7722     8.0345     7.7273
  105.0000   144.7735     8.0346     7.7543
  105.1000   144.7746     8.0347     7.7547
  105.2000   144.5994     8.0348     7.7551
  105.3000   144.4749     8.0349     7.7556
  105.4000   144.4761     8.0350     7.7907
  105.5000   144.4773     8.0351     7.8106
  105.6000   144.4787     8.0353     7.8111
  105.7000   144.2650     8.0354     7.8180
  105.8000   144.1788     8.0355     7.8665
  105.9000   144.0709     8.0768     7.8669
  106.0000   143.7100     8.0919     7.8674
  106.1000   142.9595     8.0920     7.8678
  106.2000   141.7670     8.0921     7.8822
  106.3000   140.1664     8.0944     7.9237
  106.4000   138.3203     8.1489     7.9241
  106.5000   136.6707     8.1490     7.9245
  106.6000   135.2596     8.1491     7.9250
  106.7000   134.2200     8.1687     7.9468
  106.8000   133.5057     8.2160     7.9812
  106.9000   132.5732     8.2638     7.9839
  107.0000   131.5771     8.3113     8.0380
  107.1000   130.5809     8.3218     8.0773
  107.2000   129.5573     8.3494     8.0949
  107.3000   128.1850     8.3977     8.1150
  107.4000   127.7382     8.4463     8.1623
  107.5000   127.4119     8.4981     8.2098
  107.6000   127.1637     8.4982     8.2577
  107.7000   126.9813     8.5341     8.2681
  107.8000   126.9825     8.5835     8.2963
  107.9000   126.9839     8.6178     8.3268
  108.0000   127.4038     8.6227     8.3350
  108.1000   127.5903     8.6783     8.3859
  108.2000   127.7994     8.7228     8.3863
  108.3000   128.2481     8.7392     8.3868
  108.4000   128.5003     8.7628     8.3873
  108.5000   128.9970     8.8005     8.3877
  108.6000   129.4969     8.8007     8.3937
  108.7000   130.1390     8.8008     8.4473
  108.8000   130.9777     8.8432     8.4478
  108.9000   131.9762     8.8626     8.4482
  109.0000   133.0394     8.8627     8.4487
  109.1000   133.9734     8.8628     8.4492
