~VERSION INFORMATION
 VERS.                2.0:   CWLS LOG ASCII STANDARD - VERSION 2.0
 WRAP.                 NO:   ONE LINE PER DEPTH STEP
~WELL INFORMATION
#MNEM.UNIT      DATA TYPE    INFORMATION
#----------   ------------   ------------------------------
 STRT.F           31.0000:   START DEPTH
 STOP.F          521.0000:   STOP DEPTH
 STEP.F            0.5000:   STEP LENGTH
 NULL.          -999.2500:   NO VALUE
 COMP. FENIX & SCISSON INC:   COMPANY
 WELL.      NPR-3 #52SX-3:   WELL
 FLD .             TEAPOT:   FIELD
 LOC .       S3 T38N R78W:   LOCATION
 CNTY.            NATRONA:   COUNTY
 STAT.            WYOMING:   STATE
 CTRY. UNITED STATES OF AMERICA:   COUNTRY
 SRVC.            Unknown:   SERVICE COMPANY
 DATE.        03-OCT-1978:   LOGDATE
 API .       490251071800:   API NUMBER
~CURVE INFORMATION
#MNEM.UNIT       API CODE    CURVE DESCRIPTION
#----------   ------------   ------------------------------
 DEPT.F                  :   
 SPR .MV     05 010 01 00:   SPONTANEOUS POTENTIAL FROM RES.
 GRD .GAPI   45 310 01 00:   GAMMA RAY FROM DENSITY LOG
 CALD.IN     45 280 60 00:   CALIPER
 RHOB.G/C3   45 350 01 00:   BULK DENSITY
 DPHI.DEC    45 890 12 00:   DENSITY POROSITY SANDSTONE
 CORR.G/C3   45 356 01 00:   DENSITY CORRECTION
 SN  .OHMM   05 040 16 00:   SHORT NORMAL 16"
 IL  .OHMM   05 120 00 00:   INDUCTION LOG
~PARAMETER INFORMATION
#MNEM.UNIT          VALUE    DESCRIPTION
#----------   ------------   ------------------------------
 PD  .                 GL:   PERMANENT DATUM
 EPD .F              5129:   ELEVATION PERMANENT DATUM
 LMF .                 KB:   LOG MEASURED FROM
 DAPD.F                 4:   FEET ABOVE PERMANENT DATUM
 DMF .                 KB:   DRILLING MEASURED FROM
 EKB .F              5133:   KELLING BUSHING
 EGL .F              5129:   GROUND LEVEL
 DATE.            10-3-78:   RUN DATE
 RUN .                  1:   RUN NUMBER
 DD  .F               521:   DEPTH DRILLER
 DL  .F               520:   DEPTH LOGGER
 BLI .F               514:   BOTTOM LOG INTERVAL
 TLI .F                46:   TOP LOG INTERVAL
 CS  .IN            8.625:   CASING SIZE
 CBL .F                44:   CASING BOTTOM LOGGER
 BS  .IN            7.875:   BIT SIZE
 BSD .F               521:   BIT SIZE AT DEPTH
 DFT .                KCL:   DRILLING FLUID TYPE
 DFD .                8.7:   DRILLING FLUID DENSITY
 DFV .                 34:   DRILLING FLUID VISCOSITY
 DFPH.                  9:   DRILLING FLUID PH
 DFL .               10.8:   DRILLING FLUID LOSS
 MSS .            MUD PIT:   MUD SAMPLE SOURCE
 RMS .OHMM            .24:   RESISTIVITY MUD SAMPLE
 MST .F                54:   MUD SAMPLE TEMPERATURE
 RMF .OHMM            .22:   RESISTIVITY MUD FILTRATE SAMPLE
 MFST.F                60:   MUD FILTRATE SAMPLE TEMPERATURE
 RMC .OHMM             .3:   RESISTIVITY MUD CAKE
 MCST.F                64:   MUD CAKE SAMPLE TEMPERATURE
 MFSS.               MEAS:   MUD FILTRATE SAMPLE SOURCE
 MCSS.               MEAS:   MUD CAKE SAMPLE SOURCE
 BHT .F                60:   BOTTOM HOLE TEMPERATURE
 TCS .HRS               3:   TIME CURCULATED STOPPED
 MRT .F                60:   MAXIMUM RECORDED TEMPERATURE
 LUN .               2958:   LOGGING UNIT NUMBER
 LUL .               CASP:   LOGGING UNIT LOCATION
 ENGI.             MILLER:   RECORDING ENGINEER
 WITN.           DINSMORE:   WITNESSED BY
 CLNT.            A2DTECH:   CLIENT CODE
 ORIG.       2", 5" PRINT:   ORIGIN OF DATA
 UWI .       490251071800:   UNIQUE WELL ID
 DICO. A2D Technologies, Inc.:   DIGITIZING COMPANY
~OTHER INFORMATION
~A   DEPT      SPR         GRD      CALD       RHOB       DPHI       CORR         SN         IL   
# ...
  355.0000   -10.8015    73.4235     7.8166     2.3651     0.1917     0.0753    12.3086    18.9669
  355.5000   -11.0402    73.5350     7.8219     2.3752     0.1828     0.0844    12.3145    18.8284
  356.0000   -11.1588    74.1014     7.8302     2.4060     0.1687     0.0858    12.3204    18.5514
  356.5000   -10.9774    74.4420     7.8384     2.4319     0.1547     0.0821    12.3262    18.2784
  357.0000   -10.8000    74.4735     7.8564     2.4410     0.1457     0.0768    12.3321    18.0097
  357.5000   -10.6266    74.5087     7.8794     2.4495     0.1399     0.0637    12.3380    17.7449
  358.0000   -10.8726    74.5432     7.9004     2.4513     0.1391     0.0499    12.3439    17.5782
  358.5000   -11.1539    74.5768     7.8945     2.4382     0.1475     0.0371    12.3498    18.0056
  359.0000   -11.4342    74.6192     7.8882     2.4190     0.1592     0.0365    12.3557    18.3259
  359.5000   -11.7139    74.3078     7.8819     2.4078     0.1664     0.0358    12.3616    18.6518
  360.0000   -11.9929    73.8572     7.8756     2.4094     0.1683     0.0468    12.3674    18.9237
  360.5000   -12.2736    72.5780     7.8694     2.4271     0.1510     0.0597    12.3729    18.8093
  361.0000   -12.4673    70.4581     7.8637     2.4506     0.1343     0.0869    12.3837    18.5278
  361.5000   -12.5940    69.6732     7.8208     2.4737     0.1248     0.1156    12.3068    17.9648
  362.0000   -12.6003    70.0710     7.7646     2.4799     0.1206     0.1448    12.1201    17.4190
  362.5000   -12.5994    71.8663     7.7423     2.5163     0.1006     0.1532    11.9345    16.8897
  363.0000   -12.5992    73.7807     7.7214     2.5171     0.0958     0.0963    11.7518    16.2356
  363.5000   -12.5992    74.9962     7.7004     2.4888     0.1116     0.0437    11.4573    15.5732
  364.0000   -12.5992    74.8696     7.6861     2.4406     0.1335     0.0127    11.1438    14.5515
  364.5000   -12.5992    74.2368     7.7079     2.4055     0.1645     0.0076    10.8385    14.3511
  365.0000   -12.5991    73.6192     7.7290     2.3977     0.1708     0.0061    10.4866    14.3511
  365.5000   -12.5983    73.6321     7.7499     2.3976     0.1705     0.0092    10.4879    14.3511
  366.0000   -12.5986    75.5826     7.7608     2.4078     0.1655     0.0121    10.4810    14.3511
  366.5000   -12.6629    79.3580     7.7565     2.4175     0.1601     0.0129    10.4768    14.3511
  367.0000   -13.0815    81.0368     7.7523     2.4256     0.1547     0.0116    10.4725    14.3517
  367.5000   -13.5075    81.1787     7.7481     2.4255     0.1544     0.0104    10.4680    14.3551
  368.0000   -13.5911    80.4005     7.7443     2.4231     0.1561     0.0091    10.4636    14.2071
  368.5000   -13.5924    79.4865     7.7217     2.4220     0.1579     0.0078    10.4592    14.0376
  369.0000   -13.5914    79.9092     7.6908     2.4275     0.1545     0.0066    10.4548    13.8702
  369.5000   -13.5913    80.5157     7.6672     2.4397     0.1482     0.0053    10.4503    13.7048
  370.0000   -13.5916    80.2475     7.7343     2.4520     0.1370     0.0040    10.4459    13.5413
  370.5000   -13.5917    79.6089     7.7783     2.4513     0.1428     0.0035    10.4415    13.4111
  371.0000   -13.5883    79.0017     7.7644     2.4334     0.1512     0.0035    10.4371    13.3183
  371.5000   -13.4256    78.9853     7.8375     2.4244     0.1536     0.0035    10.4327    13.2262
  372.0000   -12.9730    78.7610     7.8421     2.4233     0.1559     0.0035    10.4283    13.1347
  372.5000   -13.1231    78.0583     7.8420     2.4246     0.1559     0.0050    10.4239    13.0438
  373.0000   -13.6559    77.3424     7.8406     2.4319     0.1511     0.0073    10.4195    12.9536
  373.5000   -14.0625    77.2564     7.7866     2.4469     0.1434     0.0097    10.4151    12.8639
  374.0000   -14.2442    80.3833     7.7851     2.4572     0.1358     0.0120    10.4107    12.7750
  374.5000   -14.4288    83.0076     7.8194     2.4673     0.1282     0.0143    10.4063    12.7302
  375.0000   -14.6132    83.3371     7.7797     2.4780     0.1198     0.0144    10.4019    12.7302
  375.5000   -14.7989    82.7937     7.7366     2.4779     0.1209     0.0120    10.3975    12.7301
  376.0000   -14.9701    81.8601     7.7053     2.4717     0.1243     0.0096    10.3931    12.7301
  376.5000   -14.8285    80.7881     7.7231     2.4596     0.1318     0.0081    10.3887    12.7298
  377.0000   -14.6760    80.4666     7.7393     2.4486     0.1394     0.0133    10.3843    12.7297
  377.5000   -14.6469    80.1732     7.7727     2.4485     0.1423     0.0186    10.3799    12.7493
  378.0000   -14.8096    79.8872     7.8085     2.4623     0.1357     0.0157    10.3755    12.9159
  378.5000   -14.9694    79.2053     7.8410     2.4809     0.1241     0.0105    10.3711    13.0846
  379.0000   -15.1300    78.4420     7.8369     2.4833     0.1170     0.0104    10.3668    13.2556
  379.5000   -15.2906    77.8613     7.8322     2.4746     0.1257     0.0116    10.3624    13.4276
  380.0000   -15.4478    77.2865     7.8276     2.4512     0.1409     0.0137    10.3580    13.5779
  380.5000   -15.6071    77.5228     7.8215     2.4203     0.1590     0.0159    10.3536    13.5312
  381.0000   -15.7037    78.5440     7.8815     2.4115     0.1626     0.0181    10.3492    13.4895
  381.5000   -13.6702    78.7579     7.9172     2.4230     0.1568     0.0203    10.3449    13.4479
  382.0000   -14.4330    78.9268     7.9128     2.4408     0.1459     0.0224    10.3405    13.4065
  382.5000   -14.5044    79.0990     7.9076     2.4587     0.1333     0.0222    10.3361    13.3652
  383.0000   -14.5653    79.2791     7.9019     2.4745     0.1207     0.0194    10.3318    13.2950
  383.5000   -14.4613    79.7827     7.9074     2.4781     0.1215     0.0166    10.3274    13.0785
  384.0000   -14.3615    80.9128     7.9155     2.4734     0.1268     0.0137    10.3230    12.8654
  384.5000   -14.2621    81.3615     7.9179     2.4687     0.1289     0.0135    10.3187    12.6559
  385.0000   -14.1627    81.3695     7.9101     2.4684     0.1288     0.0135    10.3143    12.4497
  385.5000   -14.0633    81.3683     7.9025     2.4701     0.1279     0.0135    10.3099    12.2469
  386.0000   -13.9639    81.3770     7.8947     2.4780     0.1225     0.0135    10.3051    12.0451
  386.5000   -13.8646    81.6700     7.8871     2.4793     0.1202     0.0135    10.3015    12.0446
  387.0000   -13.7662    83.6039     7.8794     2.4768     0.1216     0.0135    10.2973    12.0171
  387.5000   -13.6652    86.1269     7.8717     2.4722     0.1251     0.0136    10.5135    11.9478
  388.0000   -13.4875    87.7285     7.8640     2.4692     0.1287     0.0162    10.6976    11.8794
  388.5000   -13.0063    85.3278     7.8563     2.4689     0.1285     0.0190    10.8834    11.8250
  389.0000   -12.5391    80.1702     7.8488     2.4683     0.1283     0.0216    11.1728    12.3886
  389.5000   -12.0866    78.1802     7.8405     2.4627     0.1359     0.0233    11.4675    12.8757
  390.0000   -11.3312    77.6967     7.8170     2.4349     0.1557     0.0257    11.7699    13.9854
  390.5000   -10.5470    74.8151     7.7941     2.3867     0.1831     0.0292    12.2246    15.3418
  391.0000    -9.7609    71.8996     7.7714     2.3389     0.2077     0.0362    12.7977    16.8297
  391.5000    -8.9761    70.7058     7.7487     2.3030     0.2252     0.0429    13.6424    18.6100
  392.0000    -8.1910    65.9985     7.7259     2.3013     0.2290     0.0444    14.5428    20.6126
  392.5000    -7.4056    61.6032     7.7032     2.3045     0.2262     0.0452    15.5026    22.8308
  393.0000    -6.6230    60.2616     7.6804     2.3038     0.2270     0.0461    16.4796    25.2879
  393.5000    -5.9982    58.8194     7.6579     2.3000     0.2305     0.0469    17.0986    27.8798
  394.0000    -5.8273    58.6750     7.6400     2.3051     0.2273     0.0478    17.2026    29.4966
  394.5000    -5.6516    60.3358     7.6311     2.3143     0.2222     0.0486    17.2570    31.1312
  395.0000    -5.4762    61.5271     7.6208     2.3169     0.2199     0.0492    17.2570    32.3027
