~VERSION INFORMATION
 VERS.                2.0:   CWLS LOG ASCII STANDARD - VERSION 2.0
 WRAP.                 NO:   ONE LINE PER DEPTH STEP
~WELL INFORMATION
#MNEM.UNIT      DATA TYPE    INFORMATION
#----------   ------------   ------------------------------
 STRT.F            0.0000:   START DEPTH
 STOP.F          649.0000:   STOP DEPTH
 STEP.F            0.1000:   STEP LENGTH
 NULL.          -999.2500:   NO VALUE
 COMP.   FLUOR DANIEL INC:   COMPANY
 WELL.     17-1 X 2 #17-2:   WELL
 FLD .             TEAPOT:   FIELD
 LOC .       S2 T38N R78W:   LOCATION
 CNTY.            NATRONA:   COUNTY
 STAT.            WYOMING:   STATE
 CTRY. UNITED STATES OF AMERICA:   COUNTRY
 SRVC.      Western Atlas:   SERVICE COMPANY
 DATE.        20-MAY-1995:   LOGDATE
 API .       490252271000:   API NUMBER
~CURVE INFORMATION
#MNEM.UNIT       API CODE    CURVE DESCRIPTION
#----------   ------------   ------------------------------
 DEPT.F                  :   
 GRR .GAPI   07 310 01 00:   GAMMA RAY
 RILD.OHMM   07 120 46 00:   INDUCTION LOG DEEP RESISTIVITY
 RILM.OHMM   07 120 44 00:   RESITIVITY LOG MEDIUM
~PARAMETER INFORMATION
#MNEM.UNIT          VALUE    DESCRIPTION
#----------   ------------   ------------------------------
 PD  .                 GL:   PERMANENT DATUM
 EPD .F              5145:   ELEVATION PERMANENT DATUM
 LMF .                 KB:   LOG MEASURED FROM
 DAPD.F                10:   FEET ABOVE PERMANENT DATUM
 DMF .                 KB:   DRILLING MEASURED FROM
 EKB .F              5155:   KELLING BUSHING
 EDF .F              5154:   DRILLING FLOOR
 EGL .F              5145:   GROUND LEVEL
 DATE.        20-MAY-1995:   RUN DATE
 RUN .                  1:   RUN NUMBER
 DD  .F               657:   DEPTH DRILLER
 DL  .F               657:   DEPTH LOGGER
 BLI .F               649:   BOTTOM LOG INTERVAL
 CS  .IN            9.625:   CASING SIZE
 CBD .F                82:   CASING BOTTOM DRILLER
 CBL .F                82:   CASING BOTTOM LOGGER
 BS  .IN             8.75:   BIT SIZE
 BSD .F               657:   BIT SIZE AT DEPTH
 DFT .                AIR:   DRILLING FLUID TYPE
 MRT .F                92:   MAXIMUM RECORDED TEMPERATURE
 LUN .            HL 6530:   LOGGING UNIT NUMBER
 LUL .             CASPER:   LOGGING UNIT LOCATION
 ENGI.        VERN RAUTIO:   RECORDING ENGINEER
 WITN.        STEVE HARDY:   WITNESSED BY
 CLNT.            A2DTECH:   CLIENT CODE
 ORIG.           5" PRINT:   ORIGIN OF DATA
 UWI .       490252271000:   UNIQUE WELL ID
 DICO. A2D Technologies, Inc.:   DIGITIZING COMPANY
~OTHER INFORMATION
~A    DEPT      GRR      RILD       RILM   
# ...
   72.8000    66.7471  -999.2500  -999.2500
   72.9000    66.2717  -999.2500  -999.2500
   73.0000    65.9915  -999.2500  -999.2500
   73.1000    65.5707  -999.2500  -999.2500
   73.2000    65.2364  -999.2500  -999.2500
   73.3000    64.7819  -999.2500  -999.2500
   73.4000    64.0411  -999.2500  -999.2500
   73.5000    63.2941  -999.2500  -999.2500
   73.6000    62.8054  -999.2500  -999.2500
   73.7000    62.6980  -999.2500  -999.2500
   73.8000    62.7017  -999.2500  -999.2500
   73.9000    62.7053  -999.2500  -999.2500
   74.0000    62.7411  -999.2500  -999.2500
   74.1000    63.0145  -999.2500  -999.2500
   74.2000    63.2446  -999.2500  -999.2500
   74.3000    63.4964  -999.2500  -999.2500
   74.4000    63.6284  -999.2500  -999.2500
   74.5000    63.6320  -999.2500  -999.2500
   74.6000    63.6356  -999.2500  -999.2500
   74.7000    63.6398  -999.2500  -999.2500
   74.8000    63.4353  -999.2500  -999.2500
   74.9000    63.3448  -999.2500  -999.2500
   75.0000    63.2479  -999.2500  -999.2500
   75.1000    63.0497  -999.2500  -999.2500
   75.2000    63.0541  -999.2500  -999.2500
   75.3000    63.0576  -999.2500  -999.2500
   75.4000    63.0612  -999.2500  -999.2500
   75.5000    63.0649  -999.2500  -999.2500
   75.6000    63.2310  -999.2500  -999.2500
   75.7000    63.7032  -999.2500  -999.2500
   75.8000    63.9811  -999.2500  -999.2500
   75.9000    64.8741  -999.2500  -999.2500
   76.0000    65.8703  -999.2500  -999.2500
   76.1000    66.7511  -999.2500  -999.2500
   76.2000    67.3754  -999.2500  -999.2500
   76.3000    67.6272  -999.2500  -999.2500
   76.4000    67.9246  -999.2500  -999.2500
   76.5000    67.9276  -999.2500  -999.2500
   76.6000    67.7816  -999.2500  -999.2500
   76.7000    67.6332  -999.2500  -999.2500
   76.8000    67.5942  -999.2500  -999.2500
   76.9000    67.3389  -999.2500  -999.2500
   77.0000    67.1051  -999.2500  -999.2500
   77.1000    66.8605  -999.2500  -999.2500
   77.2000    66.6160  -999.2500  -999.2500
   77.3000    66.4483  -999.2500  -999.2500
   77.4000    66.4519  -999.2500  -999.2500
   77.5000    66.4559  -999.2500  -999.2500
   77.6000    66.6771  -999.2500  -999.2500
   77.7000    66.9289  -999.2500  -999.2500
   77.8000    67.1807  -999.2500  -999.2500
   77.9000    67.4325  -999.2500  -999.2500
   78.0000    67.6883  -999.2500  -999.2500
   78.1000    68.2879  -999.2500  -999.2500
   78.2000    68.4895  -999.2500  -999.2500
   78.3000    68.7413  -999.2500  -999.2500
   78.4000    69.0848  -999.2500  -999.2500
   78.5000    69.5465  -999.2500  -999.2500
   78.6000    69.8138  -999.2500  -999.2500
   78.7000    70.0501  -999.2500  -999.2500
   78.8000    70.1225  -999.2500  -999.2500
   78.9000    70.1261  -999.2500  -999.2500
   79.0000    70.1297  -999.2500  -999.2500
   79.1000    70.1333  -999.2500  -999.2500
   79.2000    70.1375  -999.2500  -999.2500
   79.3000    70.3541  -999.2500  -999.2500
   79.4000    70.4459  -999.2500  -999.2500
   79.5000    70.4495  -999.2500  -999.2500
   79.6000    70.4531  -999.2500  -999.2500
   79.7000    70.4567  -999.2500  -999.2500
   79.8000    70.4603  -999.2500  -999.2500
   79.9000    70.4640  -999.2500  -999.2500
   80.0000    70.4676  -999.2500  -999.2500
   80.1000    70.5585  -999.2500  -999.2500
   80.2000    70.8103  -999.2500  -999.2500
   80.3000    71.0820  -999.2500  -999.2500
   80.4000    71.3138  -999.2500  -999.2500
   80.5000    71.9155  -999.2500  -999.2500
   80.6000    72.4207  -999.2500  -999.2500
   80.7000    72.8084  -999.2500  -999.2500
   80.8000    73.7013  -999.2500  -999.2500
   80.9000    77.4389  -999.2500  -999.2500
   81.0000    80.7883  -999.2500  -999.2500
   81.1000    84.2956  -999.2500  -999.2500
   81.2000    88.1383  -999.2500  -999.2500
   81.3000    92.7111  -999.2500  -999.2500
   81.4000    96.7627  -999.2500  -999.2500
   81.5000    98.9563  -999.2500  -999.2500
   81.6000   101.3832  -999.2500  -999.2500
   81.7000   103.4594  -999.2500  -999.2500
   81.8000   105.2831  -999.2500  -999.2500
   81.9000   107.3601  -999.2500  -999.2500
   82.0000   110.3593     4.7310     3.5620
   82.1000   113.2750     4.7045     3.4590
   82.2000   117.1869     4.6910     3.4496
   82.3000   120.7071     4.7053     3.4553
   82.4000   122.8686     4.7614     3.4800
   82.5000   123.3585     4.8914     3.5966
   82.6000   123.6543     5.0305     3.7369
   82.7000   124.2715     5.2233     3.8965
   82.8000   124.5659     5.4954     4.2192
   82.9000   124.6673     5.9028     4.8525
   83.0000   124.9191     6.5033     5.7667
   83.1000   125.1802     7.0827     6.4924
   83.2000   124.9448     7.9248     8.3312
   83.3000   124.8857     9.2616    10.8458
   83.4000   124.7574    10.9986    13.9236
   83.5000   124.3559    12.7384    18.1475
   83.6000   123.5901    17.9214    32.4761
   83.7000   122.4873    21.5247    66.8329
   83.8000   121.8317   964.7668   168.1363
   83.9000   120.5925  5570.0664  4521.4360
   84.0000   119.1071  9982.4424 10033.1416
   84.1000   117.6218 10077.8096 10015.6572
   84.2000   116.1364 10129.4219  9964.2744
   84.3000   114.3645 10130.0479  9964.6133
   84.4000   113.5662 10130.5469  9964.8516
   84.5000   112.7240 10131.1084  9929.2852
   84.6000   112.1697 10131.6719  9896.4775
   84.7000   111.9252 10132.2344  9896.7510
   84.8000   111.6672 10132.7988  9897.0371
   84.9000   111.4361 10190.9033  9897.3008
   85.0000   111.3726 10159.8008  9897.5762
   85.1000   111.3762 10102.8467  9869.3691
   85.2000   111.6018  9633.1084  9813.8877
   85.3000   112.3294  8135.5361  9752.2949
   85.4000   112.8958  4723.9121  9561.0928
   85.5000   113.7597  3049.8787  9125.3555
   85.6000   115.0793  1465.5308  6135.7847
   85.7000   116.4638    91.2276  2879.2749
   85.8000   117.6535    10.7445  1710.4808
   85.9000   118.6486     9.0262   163.7481
   86.0000   119.3967     8.6785    57.2483
   86.1000   120.1448     8.2703    20.9067
   86.2000   120.8929     8.0040    17.9969
   86.3000   121.8188     7.8692    16.2143
   86.4000   122.9925     7.7365    14.8041
   86.5000   123.7951     7.5909    13.5553
   86.6000   124.7188     7.4785    13.1929
   86.7000   125.5385     7.3800    12.6716
   86.8000   126.5328     7.2971    12.2281
   86.9000   127.7772     7.2150    12.0479
   87.0000   129.0055     7.1332    12.0483
   87.1000   130.1520     7.0935    12.1726
   87.2000   130.5766     7.0538    12.3116
   87.3000   130.9193     6.9926    12.4522
   87.4000   131.2748     6.9267    12.5943
   87.5000   131.7245     6.8878    12.7379
   87.6000   131.9795     6.8445    12.7383
   87.7000   131.9831     6.7770    12.7387
   87.8000   131.9867     6.7009    12.6603
   87.9000   131.9904     6.6418    12.4729
   88.0000   131.9940     6.5967    12.1419
   88.1000   131.9666     6.5217    11.2439
   88.2000   131.6999     6.4856    10.4525
   88.3000   131.4775     6.4773     9.7051
   88.4000   131.0608     6.4777     9.0874
   88.5000   130.8054     6.4899     8.5634
   88.6000   130.7439     6.5272     8.1718
   88.7000   130.5108     6.5694     7.8650
   88.8000   130.5152     6.6025     7.6232
   88.9000   130.5182     6.6405     7.4106
   89.0000   130.6747     6.6787     7.1920
   89.1000   130.8271     6.7090     6.9590
   89.2000   130.9225     6.7094     6.8237
   89.3000   131.4378     6.7098     6.7591
   89.4000   131.6819     6.6811     6.6600
   89.5000   131.9336     6.6234     6.5624
   89.6000   132.0519     6.5489     6.4946
   89.7000   132.0555     6.4753     6.4560
   89.8000   131.9795     6.3934     6.4219
   89.9000   131.1582     6.3307     6.3858
   90.0000   130.4977     6.2596     6.3675
   90.1000   129.5891     6.1892     6.3677
   90.2000   128.7143     6.1196     6.3679
   90.3000   128.0342     6.0497     6.3681
   90.4000   127.5487     6.0164     6.3682
   90.5000   127.2586     5.9569     6.3684
   90.6000   127.2615     5.9080     6.3686
   90.7000   127.4136     5.8748     6.3687
   90.8000   127.6653     5.8419     6.3689
   90.9000   127.9171     5.8049     6.3691
