~VERSION INFORMATION
 VERS.                2.0:   CWLS LOG ASCII STANDARD - VERSION 2.0
 WRAP.                 NO:   ONE LINE PER DEPTH STEP
~WELL INFORMATION
#MNEM.UNIT      DATA TYPE    INFORMATION
#----------   ------------   ------------------------------
 STRT.F            0.0000:   START DEPTH
 STOP.F          561.0000:   STOP DEPTH
 STEP.F            0.1000:   STEP LENGTH
 NULL.          -999.2500:   NO VALUE
 COMP.       F D SERV INC:   COMPANY
 WELL.  83-1 sx 10 #83-10:   WELL
 FLD .             TEAPOT:   FIELD
 LOC .      S10 T38N R78W:   LOCATION
 CNTY.            NATRONA:   COUNTY
 STAT.            WYOMING:   STATE
 CTRY. UNITED STATES OF AMERICA:   COUNTRY
 SRVC.     Atlas Wireline:   SERVICE COMPANY
 DATE.        10-DEC-1992:   LOGDATE
 API .       490252258000:   API NUMBER
~CURVE INFORMATION
#MNEM.UNIT       API CODE    CURVE DESCRIPTION
#----------   ------------   ------------------------------
 DEPT.F                  :   
 GRR .GAPI   07 310 01 00:   GAMMA RAY
 RILD.OHMM   07 120 46 00:   INDUCTION LOG DEEP RESISTIVITY
 RILM.OHMM   07 120 44 00:   INDUCTION LOG MEDIUM RESISTIVITY
~PARAMETER INFORMATION
#MNEM.UNIT          VALUE    DESCRIPTION
#----------   ------------   ------------------------------
 PD  .                 GL:   PERMANENT DATUM
 EPD .F              5170:   ELEVATION PERMANENT DATUM
 LMF .                 KB:   LOG MEASURED FROM
 DAPD.F                10:   FEET ABOVE PERMANENT DATUM
 DMF .                 KB:   DRILLING MEASURED FROM
 EKB .F              5180:   KELLING BUSHING
 EDF .F              5179:   DRILLING FLOOR
 EGL .F              5170:   GROUND LEVEL
 DATE.        10-DEC-1992:   RUN DATE
 RUN .                  1:   RUN NUMBER
 DD  .F               567:   DEPTH DRILLER
 DL  .F               569:   DEPTH LOGGER
 BLI .F               560:   BOTTOM LOG INTERVAL
 TLI .F                97:   TOP LOG INTERVAL
 CS  .IN            8.625:   CASING SIZE
 CBD .F                97:   CASING BOTTOM DRILLER
 CBL .F                97:   CASING BOTTOM LOGGER
 BS  .IN            7.875:   BIT SIZE
 BSD .F               567:   BIT SIZE AT DEPTH
 DFT .           AIR FOAM:   DRILLING FLUID TYPE
 MRT .F                65:   MAXIMUM RECORDED TEMPERATURE
 LUN .           HL- 6274:   LOGGING UNIT NUMBER
 LUL .             CASPER:   LOGGING UNIT LOCATION
 ENGI.       P. RASMUSSEN:   RECORDING ENGINEER
 WITN.          G. STRONG:   WITNESSED BY
 CLNT.            A2DTECH:   CLIENT CODE
 ORIG.           5" PRINT:   ORIGIN OF DATA
 UWI .       490252258000:   UNIQUE WELL ID
 DICO. A2D Technologies, Inc.:   DIGITIZING COMPANY
~OTHER INFORMATION
~A    DEPT      GRR      RILD       RILM   
# ...
  364.0000    78.6404    27.7395    26.4336
  364.1000    79.5537    27.9070    26.5143
  364.2000    80.1857    28.1748    26.5950
  364.3000    80.8032    28.4429    26.8569
  364.4000    81.2441    28.6146    27.0853
  364.5000    81.5943    28.7873    27.2491
  364.6000    81.9445    28.9743    27.3705
  364.7000    82.2993    29.1360    27.3886
  364.8000    82.6056    29.3120    27.5645
  364.9000    82.8223    29.4890    27.5659
  365.0000    82.7415    29.5909    27.6955
  365.1000    82.3540    29.5918    27.7611
  365.2000    81.7482    29.6270    27.8375
  365.3000    80.9682    30.0097    27.9577
  365.4000    80.1894    30.1784    27.9801
  365.5000    79.5876    30.2216    28.1558
  365.6000    78.4930    30.3314    28.1573
  365.7000    77.0147    30.4351    28.2937
  365.8000    75.7203    30.4851    28.3567
  365.9000    74.6797    30.6691    28.4387
  366.0000    73.6389    30.8657    28.5575
  366.1000    72.6039    30.8665    28.5843
  366.2000    71.7139    31.0107    28.7598
  366.3000    70.8199    31.0846    28.7617
  366.4000    69.7791    31.0854    28.7630
  366.5000    68.5998    31.0863    28.7646
  366.6000    67.3943    31.0872    28.7662
  366.7000    66.4067    31.0881    28.7678
  366.8000    65.6267    31.2655    28.7694
  366.9000    64.7505    31.3076    28.7710
  367.0000    64.2953    31.3085    28.7728
  367.1000    63.5903    31.2255    28.7742
  367.2000    62.8104    31.0924    28.7758
  367.3000    62.1310    31.0932    28.7774
  367.4000    61.6697    31.0942    28.7790
  367.5000    61.4263    31.0950    28.7806
  367.6000    61.4291    31.0959    28.7768
  367.7000    61.6645    31.0967    28.5847
  367.8000    62.6901    31.0131    28.5861
  367.9000    64.1445    30.8821    28.4676
  368.0000    66.1327    30.8600    28.2997
  368.1000    68.4929    30.6689    28.1327
  368.2000    70.0598    30.6697    28.0028
  368.3000    71.7647    30.5253    28.0044
  368.4000    73.4324    30.4580    28.0061
  368.5000    75.4557    30.3748    27.8589
  368.6000    78.1549    30.2478    27.8152
  368.7000    81.0673    30.2486    27.8167
  368.8000    83.6777    30.2495    27.8183
  368.9000    86.2387    30.0400    27.8198
  369.0000    88.4736    30.0406    27.8214
  369.1000    89.4462    29.9276    27.8230
  369.2000    90.2920    29.7497    27.9770
  369.3000    90.7624    29.6265    28.0200
  369.4000    90.9111    29.6273    28.0215
  369.5000    90.9135    29.6282    28.0231
  369.6000    90.8867    29.6292    28.0246
  369.7000    90.6150    29.6298    28.0262
  369.8000    90.1228    29.5171    28.0278
  369.9000    89.3990    29.4253    28.0293
  370.0000    88.6190    29.3715    28.0309
  370.1000    87.7198    29.2220    27.9302
  370.2000    86.7556    29.2230    27.8399
  370.3000    85.9758    29.0206    27.8415
  370.4000    85.1958    28.8802    27.8430
  370.5000    84.4158    28.8201    27.8446
  370.6000    83.6359    28.8209    27.8461
  370.7000    82.8559    28.7670    27.8477
  370.8000    82.1212    28.6218    27.8492
  370.9000    81.8430    28.6228    27.7724
  371.0000    81.1229    28.6237    27.6595
  371.1000    80.1448    28.4840    27.6368
  371.2000    79.4149    28.4260    27.4711
  371.3000    79.0084    28.4268    27.4729
  371.4000    78.6801    28.4276    27.3398
  371.5000    78.2152    28.4013    27.2855
  371.6000    78.5215    28.2313    27.2064
  371.7000    78.7693    28.2323    27.0459
  371.8000    79.6408    28.2329    26.8862
  371.9000    80.8463    28.1219    26.7275
  372.0000    82.2699    28.0380    26.5454
  372.1000    83.8372    28.0388    26.5467
  372.2000    85.4365    28.0118    26.4404
  372.3000    87.3397    27.8452    26.3659
  372.4000    88.3424    27.8461    26.3114
  372.5000    88.9733    27.8468    26.1860
  372.6000    89.1678    27.8476    26.1877
  372.7000    89.1703    27.7645    26.1894
  372.8000    89.1727    27.6553    26.0553
  372.9000    89.1751    27.6275    26.0108
  373.0000    89.1776    27.4631    25.9282
  373.1000    88.8769    27.2742    25.7752
  373.2000    88.6668    27.2748    25.6231
  373.3000    88.4085    27.1654    25.4718
  373.4000    88.1501    27.0039    25.3052
  373.5000    87.8078    26.7882    25.3065
  373.6000    87.3300    26.4696    25.1981
  373.7000    87.0701    26.1549    24.9654
  373.8000    86.7695    25.7974    24.7293
  373.9000    86.5548    25.5373    24.5484
  374.0000    86.2964    25.2339    24.2579
  374.1000    86.0380    25.0112    23.9467
  374.2000    85.7797    24.8104    23.8175
  374.3000    85.5668    24.5426    23.5713
  374.4000    85.5697    24.3935    23.2927
  374.5000    85.5724    24.0622    23.0757
  374.6000    85.7958    23.9397    22.9037
  374.7000    85.8804    23.7975    22.6462
  374.8000    85.8829    23.5821    22.5043
  374.9000    85.9786    23.3516    22.2550
  375.0000    86.2924    23.2128    21.9921
  375.1000    86.8242    23.0747    21.8114
  375.2000    87.7138    22.9188    21.6249
  375.3000    88.1679    22.8012    21.4055
  375.4000    88.8753    22.6657    21.2792
  375.5000    89.6602    22.4596    21.1487
  375.6000    90.8369    22.1926    21.0288
  375.7000    92.8307    21.9550    21.0046
  375.8000    95.3780    21.8244    20.9263
  375.9000    96.8355    21.6778    20.8028
  376.0000    97.9909    21.5657    20.7183
  376.1000    98.7335    21.4375    20.7013
  376.2000    98.8216    21.3789    20.5772
  376.3000    98.5632    21.3318    20.4361
  376.4000    98.3648    21.2313    20.4370
  376.5000    98.3157    21.2265    20.4382
  376.6000    97.4594    21.0848    20.4393
  376.7000    96.9911    21.0853    20.4404
  376.8000    96.6645    20.9963    20.4416
  376.9000    96.2562    20.9398    20.4427
  377.0000    95.8442    20.8928    20.3025
  377.1000    95.5858    20.7685    20.3035
  377.2000    95.3491    20.6511    20.3046
  377.3000    95.3519    20.6518    20.3057
  377.4000    95.3542    20.6523    20.3068
  377.5000    95.3566    20.5642    20.3080
  377.6000    95.5136    20.5097    20.3053
  377.7000    95.7768    20.5103    20.1698
  377.8000    96.1093    20.5109    20.1708
  377.9000    96.6068    20.5114    20.1719
  378.0000    96.8863    20.5121    20.1730
  378.1000    97.1332    20.5126    20.1741
  378.2000    97.5983    20.4243    20.1752
  378.3000    97.9632    20.3710    20.1764
  378.4000    98.3429    20.3715    20.1776
  378.5000    98.7931    20.3721    20.1786
  378.6000    99.0564    20.3649    20.1797
  378.7000    99.3312    20.2315    20.1129
  378.8000    99.5829    20.2320    20.0423
  378.9000    99.6395    20.1441    20.0147
  379.0000    99.6419    20.0924    19.9057
  379.1000    99.6443    20.0929    19.9070
  379.2000    99.4897    20.0935    19.9080
  379.3000    98.9705    20.0941    19.9091
  379.4000    98.4377    20.0947    19.9102
  379.5000    97.5301    20.0952    19.9113
  379.6000    96.6870    20.0958    19.9124
  379.7000    95.6465    20.0963    19.9135
  379.8000    94.8574    20.1463    19.9147
  379.9000    94.5044    20.2383    19.9157
  380.0000    94.5068    20.2388    19.9168
  380.1000    94.5093    20.2394    19.9179
  380.2000    94.8156    20.2400    19.9190
  380.3000    94.8176    20.3314    19.9201
  380.4000    94.9932    20.3829    19.9361
  380.5000    95.1259    20.3835    20.0613
  380.6000    95.1284    20.4147    20.0623
  380.7000    95.0857    20.5275    20.0634
  380.8000    94.8273    20.5281    20.1410
  380.9000    94.5291    20.6421    20.2055
  381.0000    94.0900    20.6730    20.2067
  381.1000    93.5708    20.7467    20.2256
  381.2000    92.9165    20.8191    20.3498
  381.3000    92.2291    20.8519    20.3511
  381.4000    91.7099    20.9661    20.3520
  381.5000    91.2048    20.9668    20.3532
  381.6000    91.2076    21.0841    20.3543
  381.7000    91.2097    21.2114    20.3554
  381.8000    91.3947    21.2634    20.3773
  381.9000    91.5181    21.3189    20.5005
  382.0000    91.6176    21.4476    20.6438
  382.1000    91.8264    21.5642    20.6448
