~VERSION INFORMATION
 VERS.                2.0:   CWLS LOG ASCII STANDARD - VERSION 2.0
 WRAP.                 NO:   ONE LINE PER DEPTH STEP
~WELL INFORMATION
#MNEM.UNIT      DATA TYPE    INFORMATION
#----------   ------------   ------------------------------
 STRT.F           25.0000:   START DEPTH
 STOP.F          681.0000:   STOP DEPTH
 STEP.F            0.5000:   STEP LENGTH
 NULL.          -999.2500:   NO VALUE
 COMP. FENIX & SCISSON INC:   COMPANY
 WELL.    56-SX-34 #56-34:   WELL
 FLD .             TEAPOT:   FIELD
 LOC .      S34 T39N R78W:   LOCATION
 CNTY.            NATRONA:   COUNTY
 STAT.            WYOMING:   STATE
 CTRY. UNITED STATES OF AMERICA:   COUNTRY
 SRVC.            Unknown:   SERVICE COMPANY
 DATE.        28-JAN-1979:   LOGDATE
 API .       490251077200:   API NUMBER
~CURVE INFORMATION
#MNEM.UNIT       API CODE    CURVE DESCRIPTION
#----------   ------------   ------------------------------
 DEPT.F                  :   
 SPR .MV     05 010 01 00:   SPONTANEOUS POTENTIAL FROM RES.
 DRHO.G/C3   45 356 01 00:   DENSITY CORRECTION
 RHOB.G/C3   45 350 01 00:   BULK DENSITY
 DPHI.DEC    45 890 12 00:   DENSITY POROSITY SANDSTONE
 CALD.IN     45 280 60 00:   CALIPER
 GRD .GAPI   45 310 01 00:   GAMMA RAY FROM DENSITY LOG
 SN  .OHMM   05 040 16 00:   SHORT NORMAL 16'
 ILD .OHMM   05 120 46 00:   INDUCTION LOG DEEP RESISTIVITY
~PARAMETER INFORMATION
#MNEM.UNIT          VALUE    DESCRIPTION
#----------   ------------   ------------------------------
 PD  .                 GL:   PERMANENT DATUM
 EPD .F              5088:   ELEVATION PERMANENT DATUM
 LMF .                 KB:   LOG MEASURED FROM
 DAPD.F                 4:   FEET ABOVE PERMANENT DATUM
 DMF .                 KB:   DRILLING MEASURED FROM
 EKB .F              5092:   KELLING BUSHING
 EGL .F              5088:   GROUND LEVEL
 DATE.            1-28-79:   RUN DATE
 RUN .                  1:   RUN NUMBER
 DD  .F               680:   DEPTH DRILLER
 DL  .F               681:   DEPTH LOGGER
 BLI .F               679:   BOTTOM LOG INTERVAL
 TLI .F                40:   TOP LOG INTERVAL
 CS  .IN            8.625:   CASING SIZE
 CBD .F                40:   CASING BOTTOM DRILLER
 CBL .F                40:   CASING BOTTOM LOGGER
 BS  .IN            7.875:   BIT SIZE
 BSD .F               680:   BIT SIZE AT DEPTH
 DFT .                KCL:   DRILLING FLUID TYPE
 DFD .                8.9:   DRILLING FLUID DENSITY
 DFV .                 43:   DRILLING FLUID VISCOSITY
 DFPH.                8.5:   DRILLING FLUID PH
 DFL .                9.8:   DRILLING FLUID LOSS
 MSS .           FLOWLINE:   MUD SAMPLE SOURCE
 RMS .OHMM            1.5:   RESISTIVITY MUD SAMPLE
 MST .F                66:   MUD SAMPLE TEMPERATURE
 RMF .OHMM            1.3:   RESISTIVITY MUD FILTRATE SAMPLE
 MFST.F                76:   MUD FILTRATE SAMPLE TEMPERATURE
 RMC .OHMM            1.3:   RESISTIVITY MUD CAKE
 MCST.F                78:   MUD CAKE SAMPLE TEMPERATURE
 MFSS.           MEASURED:   MUD FILTRATE SAMPLE SOURCE
 MCSS.           MEASURED:   MUD CAKE SAMPLE SOURCE
 RMB .OHMM            1.3:   RESISTIVITY MUD AT BHT
 BHT .F                76:   BOTTOM HOLE TEMPERATURE
 TCS .HRS               3:   TIME CURCULATED STOPPED
 MRT .F                76:   MAXIMUM RECORDED TEMPERATURE
 LUN .               3006:   LOGGING UNIT NUMBER
 LUL .             CASPER:   LOGGING UNIT LOCATION
 ENGI.            ROLLINS:   RECORDING ENGINEER
 WITN.              AMEND:   WITNESSED BY
 CLNT.            A2DTECH:   CLIENT CODE
 ORIG.       2", 5" PRINT:   ORIGIN OF DATA
 UWI .       490251077200:   UNIQUE WELL ID
 DICO. A2D Technologies, Inc.:   DIGITIZING COMPANY
~OTHER INFORMATION
~A   DEPT      SPR       DRHO       RHOB       DPHI       CALD         GRD        SN        ILD   
# ...
  227.5000   -41.4851     0.0536     2.4777     0.1202     8.2129    97.5365    10.6911    11.9028
  228.0000   -41.4851     0.0626     2.4867     0.1174     8.2129    97.0514    10.5462    11.7949
  228.5000   -41.4851     0.0698     2.4895     0.1164     8.2129    96.6032    10.5175    11.6881
  229.0000   -41.4851     0.0689     2.4879     0.1156     8.2129    96.2390    10.5172    11.5367
  229.5000   -41.4851     0.0681     2.4891     0.1156     8.2128    99.4263    10.5174    11.5486
  230.0000   -41.4849     0.0678     2.4896     0.1156     8.2129   104.2205    10.5175    11.5694
  230.5000   -41.4846     0.0705     2.4885     0.1154     8.2135   109.1896    10.5175    11.5905
  231.0000   -41.4875     0.0733     2.4889     0.1146     8.1942   111.0839    10.5175    11.6116
  231.5000   -41.5636     0.0758     2.4948     0.1138     8.1691   106.9104    10.5175    11.6437
  232.0000   -41.8629     0.0720     2.5000     0.1132     8.1302   107.0635    10.5175    11.6163
  232.5000   -42.0868     0.0670     2.4994     0.1140     8.0508   107.5283    10.5175    11.5598
  233.0000   -42.0872     0.0667     2.4950     0.1148     7.9740   106.6537    10.5175    11.5035
  233.5000   -42.0932     0.0685     2.4909     0.1142     7.9372   106.4532    10.5175    11.4476
  234.0000   -42.0999     0.0703     2.4941     0.1130     7.9625   107.6854    10.5175    11.3919
  234.5000   -42.1062     0.0698     2.4988     0.1150     7.9867   106.3692    10.5175    11.3365
  235.0000   -42.1125     0.0620     2.4982     0.1194     8.0115   105.0588    10.5175    11.3066
  235.5000   -42.1188     0.0543     2.4764     0.1245     8.1193   104.8678    10.5175    11.2832
  236.0000   -42.1252     0.0539     2.4708     0.1257     8.2407   101.1441    10.5177    11.2599
  236.5000   -42.1315     0.0639     2.4687     0.1254     8.3135   102.0877    10.5167    11.2366
  237.0000   -42.1378     0.0737     2.4753     0.1161     8.2732   104.8017    10.5175    11.2209
  237.5000   -42.1441     0.0784     2.4829     0.1054     8.2448   107.4976    10.6366    11.4085
  238.0000   -42.1505     0.0751     2.4887     0.0968     8.2371   107.7901    10.8063    11.5526
  238.5000   -42.1568     0.0770     2.4932     0.1008     8.2477   103.6872    10.9786    11.6985
  239.0000   -42.1631     0.0825     2.5101     0.0918     8.2407   100.2066    11.1518    11.8462
  239.5000   -42.1694     0.0777     2.5360     0.0839     8.2078    96.7409    11.3216    11.9961
  240.0000   -42.1758     0.0604     2.5432     0.0935     8.1754    94.9880    11.4348    12.0834
  240.5000   -42.1821     0.0587     2.5201     0.1102     8.1533    97.2213    11.2323    11.7949
  241.0000   -42.1884     0.0576     2.5020     0.1161     8.1617   103.4747    11.0746    11.5645
  241.5000   -42.1948     0.0511     2.4918     0.1186     8.1915   109.4617    10.9138    11.3385
  242.0000   -42.2011     0.0436     2.4814     0.1212     8.2204   109.0268    10.5969    11.1171
  242.5000   -42.2074     0.0417     2.4764     0.1238     8.2488   108.3614    10.2803    10.9001
  243.0000   -42.2137     0.0416     2.4744     0.1245     8.2544   107.7810     9.9499    10.6879
  243.5000   -42.2201     0.0426     2.4735     0.1237     8.2573   107.2458     9.7971    10.4841
  244.0000   -42.2264     0.0471     2.4729     0.1229     8.2602   107.3206     9.6343    10.2843
  244.5000   -42.2327     0.0515     2.4729     0.1222     8.2631   109.5936     9.4730    10.0882
  245.0000   -42.2390     0.0558     2.4773     0.1194     8.2660   112.2963     9.3247     9.8959
  245.5000   -42.2454     0.0602     2.4842     0.1162     8.2688   113.8178     9.0117     9.7072
  246.0000   -42.2517     0.0637     2.4912     0.1132     8.2706   113.6021     8.7263     9.4740
  246.5000   -42.2580     0.0631     2.4946     0.1134     8.3088   115.0432     8.4501     9.2375
  247.0000   -42.2644     0.0625     2.4963     0.1137     8.3541   112.8344     8.1821     9.0070
  247.5000   -42.2707     0.0620     2.4979     0.1140     8.3995   109.9485     7.9695     8.8228
  248.0000   -42.2770     0.0580     2.4997     0.1166     8.4554   107.8290     8.1481     8.9694
  248.5000   -42.2773     0.0483     2.4913     0.1203     8.5134   108.2134     8.3022     9.1617
  249.0000   -42.2772     0.0415     2.4810     0.1214     8.4502   107.1908     8.4592     9.3581
  249.5000   -42.2772     0.0416     2.4811     0.1217     8.2730   104.4301     8.6971     9.5591
  250.0000   -42.2772     0.0417     2.4714     0.1250     8.2715   102.4991     8.9221     9.7649
  250.5000   -42.2772     0.0432     2.4679     0.1261     8.2723    99.0124     9.1514    10.0442
  251.0000   -42.2772     0.0463     2.4723     0.1231     8.2722    95.6074     9.4159    10.0290
  251.5000   -42.2772     0.0494     2.4787     0.1201     8.2689    95.0786     9.3761     9.9965
  252.0000   -42.2772     0.0525     2.4811     0.1197     8.2536    99.6093     9.2988     9.9644
  252.5000   -42.2772     0.0527     2.4816     0.1213     8.2383    99.6178     9.2214     9.9328
  253.0000   -42.2772     0.0481     2.4784     0.1247     8.2509    99.3372     9.1443     9.9014
  253.5000   -42.2772     0.0435     2.4695     0.1272     8.2807    99.0784     9.0679     9.8702
  254.0000   -42.2772     0.0415     2.4659     0.1271     8.3105    99.0105     8.9881     9.8390
  254.5000   -42.2772     0.0411     2.4669     0.1270     8.3403    99.6538     9.0162     9.8080
  255.0000   -42.2772     0.0408     2.4680     0.1269     8.3701    99.9942     9.0694     9.7675
  255.5000   -42.2772     0.0405     2.4682     0.1272     8.3947    99.5852     9.1229     9.7903
  256.0000   -42.2772     0.0402     2.4656     0.1281     8.2047    99.3032     9.1770     9.8232
  256.5000   -42.2772     0.0399     2.4639     0.1275     8.1700    99.2846     9.2314     9.8562
  257.0000   -42.2772     0.0397     2.4639     0.1263     8.1628    98.7284     9.2862     9.8894
  257.5000   -42.2772     0.0412     2.4665     0.1251     8.1560    98.1774     9.3412     9.9226
  258.0000   -42.2772     0.0427     2.4721     0.1245     8.1491    97.6287     9.3966     9.9499
  258.5000   -42.2772     0.0441     2.4738     0.1250     8.1421    98.0319     9.4523     9.9159
  259.0000   -42.2772     0.0456     2.4716     0.1259     8.1351    99.5532     9.4943     9.8814
  259.5000   -42.2772     0.0470     2.4683     0.1267     8.1277   101.0624     9.4374     9.8471
  260.0000   -42.2772     0.0476     2.4666     0.1269     8.1173   101.8558     9.3828     9.8128
  260.5000   -42.2772     0.0476     2.4661     0.1269     8.1069   101.2410     9.3284     9.7787
  261.0000   -42.2772     0.0476     2.4656     0.1269     8.0965   101.4193     9.2744     9.7446
  261.5000   -42.2772     0.0480     2.4650     0.1269     8.0861   102.3726     9.2207     9.7107
  262.0000   -42.2772     0.0492     2.4659     0.1265     8.0757   103.2455     9.1669     9.6776
  262.5000   -42.2772     0.0503     2.4679     0.1236     8.0460   102.5974     9.1134     9.7418
  263.0000   -42.2772     0.0514     2.4741     0.1206     8.0479   103.9314     9.0714     9.7756
  263.5000   -42.2772     0.0526     2.4812     0.1197     8.0779   108.7198     9.1736     9.7889
  264.0000   -42.2772     0.0534     2.4829     0.1216     8.1083   109.0792     9.2620     9.8024
  264.5000   -42.2772     0.0447     2.4799     0.1238     8.1044   105.6432     9.3507     9.8159
  265.0000   -42.2772     0.0395     2.4731     0.1260     8.0930   100.7630     9.4128     9.8292
  265.5000   -42.2772     0.0388     2.4662     0.1273     8.0813    97.5853     9.3459     9.8426
  266.0000   -42.2772     0.0380     2.4649     0.1269     8.0696    98.0320     9.2856     9.8562
  266.5000   -42.2772     0.0435     2.4663     0.1244     8.0586    97.7615     9.2257     9.7947
  267.0000   -42.2772     0.0533     2.4745     0.1219     8.0135    97.0813     9.1662     9.7486
  267.5000   -42.2772     0.0580     2.4830     0.1193     7.9530    97.6947     9.1070     9.7187
