~VERSION INFORMATION
 VERS.                2.0:   CWLS LOG ASCII STANDARD - VERSION 2.0
 WRAP.                 NO:   ONE LINE PER DEPTH STEP
~WELL INFORMATION
#MNEM.UNIT      DATA TYPE    INFORMATION
#----------   ------------   ------------------------------
 STRT.F           28.5000:   START DEPTH
 STOP.F          516.0000:   STOP DEPTH
 STEP.F            0.5000:   STEP LENGTH
 NULL.          -999.2500:   NO VALUE
 COMP. FENIX & SCISSON INC:   COMPANY
 WELL.         SX 3 #54-3:   WELL
 FLD .            WILDCAT:   FIELD
 LOC .       S3 T38N R78W:   LOCATION
 CNTY.            NATRONA:   COUNTY
 STAT.            WYOMING:   STATE
 CTRY. UNITED STATES OF AMERICA:   COUNTRY
 SRVC.            Unknown:   SERVICE COMPANY
 DATE.        22-SEP-1978:   LOGDATE
 API .       490251069000:   API NUMBER
~CURVE INFORMATION
#MNEM.UNIT       API CODE    CURVE DESCRIPTION
#----------   ------------   ------------------------------
 DEPT.F                  :   
 SPR .MV     05 010 01 00:   SPONTANEOUS POTENTIAL FROM RES.
 ILD .OHMM   05 120 46 00:   INDUCTION LOG DEEP
 SN  .OHMM   05 040 16 00:   SHORT NORMAL 16"
 CALD.IN     45 280 60 00:   CALIPER
 GRD .GAPI   45 310 01 00:   GAMMA RAY FROM DENSITY LOG
 CORR.G/C3   45 356 01 00:   DENSITY CORRECTION
 DEN .G/C3   45 350 01 00:   COMPENSATED BULK DENSTIY
 DPHI.DEC    45 890 12 00:   DENSITY POROSITY SANDSTONE
~PARAMETER INFORMATION
#MNEM.UNIT          VALUE    DESCRIPTION
#----------   ------------   ------------------------------
 PD  .                 GL:   PERMANENT DATUM
 EPD .F              5168:   ELEVATION PERMANENT DATUM
 LMF .                 KB:   LOG MEASURED FROM
 DAPD.F                 4:   FEET ABOVE PERMANENT DATUM
 DMF .                 KB:   DRILLING MEASURED FROM
 EKB .F              5172:   KELLING BUSHING
 EGL .F              5168:   GROUND LEVEL
 DATE.            9-22-78:   RUN DATE
 RUN .                  1:   RUN NUMBER
 DD  .F               510:   DEPTH DRILLER
 DL  .F               517:   DEPTH LOGGER
 BLI .F               510:   BOTTOM LOG INTERVAL
 TLI .F                40:   TOP LOG INTERVAL
 CS  .IN            8.625:   CASING SIZE
 CBD .F                40:   CASING BOTTOM DRILLER
 CBL .F                48:   CASING BOTTOM LOGGER
 BS  .IN            7.875:   BIT SIZE
 BSD .F               510:   BIT SIZE AT DEPTH
 DFT .            KCL MUD:   DRILLING FLUID TYPE
 DFD .                8.7:   DRILLING FLUID DENSITY
 DFV .                 39:   DRILLING FLUID VISCOSITY
 DFPH.                  9:   DRILLING FLUID PH
 DFL .                8.9:   DRILLING FLUID LOSS
 MSS .          FLOW LINE:   MUD SAMPLE SOURCE
 RMS .OHMM            .32:   RESISTIVITY MUD SAMPLE
 MST .F                68:   MUD SAMPLE TEMPERATURE
 RMF .OHMM            .26:   RESISTIVITY MUD FILTRATE SAMPLE
 MFST.F                72:   MUD FILTRATE SAMPLE TEMPERATURE
 RMC .OHMM            .28:   RESISTIVITY MUD CAKE
 MCST.F                75:   MUD CAKE SAMPLE TEMPERATURE
 MFSS.               MEAS:   MUD FILTRATE SAMPLE SOURCE
 MCSS.               MEAS:   MUD CAKE SAMPLE SOURCE
 RMB .OHMM            .32:   RESISTIVITY MUD AT BHT
 BHT .F                69:   BOTTOM HOLE TEMPERATURE
 TCS .HRS               3:   TIME CURCULATED STOPPED
 MRT .F                69:   MAXIMUM RECORDED TEMPERATURE
 LUN .               2958:   LOGGING UNIT NUMBER
 LUL .               CASP:   LOGGING UNIT LOCATION
 ENGI.           REYNOLDS:   RECORDING ENGINEER
 WITN.              AMEND:   WITNESSED BY
 CLNT.            A2DTECH:   CLIENT CODE
 ORIG.           5" PRINT:   ORIGIN OF DATA
 UWI .       490251069000:   UNIQUE WELL ID
 DICO. A2D Technologies, Inc.:   DIGITIZING COMPANY
~OTHER INFORMATION
~A   DEPT      SPR        ILD         SN       CALD         GRD      CORR        DEN       DPHI   
# ...
   69.0000   -86.6308     8.0882     8.5725     7.7251   108.8007     0.0314     2.3743     0.1673
   69.5000   -86.7478     8.0509     8.5228     7.7522   108.7604     0.0319     2.3943     0.1524
   70.0000   -86.7539     8.0229     8.4735     7.8925   100.5006     0.0324     2.4236     0.1376
   70.5000   -86.7531     7.9950     8.4244     8.0535    90.6260     0.0330     2.4529     0.1284
   71.0000   -86.7528     7.9672     8.3756     8.2149    95.9416     0.0335     2.4659     0.1217
   71.5000   -86.7536     7.9394     8.3271     8.3531   107.7647     0.0341     2.4780     0.1154
   72.0000   -86.8017     7.9118     8.3155     8.3984   113.4095     0.0346     2.4827     0.1159
   72.5000   -86.9412     7.8841     8.3155     8.3873   117.4135     0.0350     2.4819     0.1206
   73.0000   -87.0793     7.8666     8.3862     8.3169   117.5456     0.0356     2.4777     0.1214
   73.5000   -87.2179     7.8829     8.5111     8.2464   117.2612     0.0362     2.4746     0.1218
   74.0000   -87.3555     7.8990     8.6379     8.1762   115.4902     0.0369     2.4727     0.1160
   74.5000   -87.4969     7.9152     8.7663     8.1141   113.7729     0.0375     2.4768     0.1134
   75.0000   -87.3716     7.9315     8.8718     8.0922   112.0261     0.0382     2.4878     0.1136
   75.5000   -87.0801     7.9478     8.8708     8.0669   111.3229     0.0388     2.4886     0.1138
   76.0000   -86.7878     7.9641     8.8933     8.0418   116.3764     0.0394     2.4885     0.1162
   76.5000   -86.5000     7.9804     8.9091     8.0174   121.9370     0.0400     2.4885     0.1190
   77.0000   -86.0665     7.9968     8.9251     7.9913   125.5297     0.0407     2.4860     0.1218
   77.5000   -85.1660     8.0132     8.9410     7.8464   121.3574     0.0413     2.4791     0.1245
   78.0000   -85.0870     8.0296     8.9571     7.6965   117.5454     0.0420     2.4723     0.1260
   78.5000   -83.3633     8.0461     8.9731     7.5785   116.1644     0.0426     2.4674     0.1237
   79.0000   -83.1652     8.0628     8.9891     7.5749   118.1072     0.0412     2.4696     0.1213
   79.5000   -83.1618     8.0792     9.0052     7.5750   118.8617     0.0359     2.4733     0.1190
   80.0000   -83.1775     8.1134     9.0213     7.5751   112.4815     0.0307     2.4772     0.1187
   80.5000   -82.4956     8.1687     9.0363     7.5751   110.4590     0.0255     2.4806     0.1261
   81.0000   -81.9717     8.2245     9.0482     7.5746   109.9404     0.0231     2.4762     0.1429
   81.5000   -81.9733     8.2806     9.0656     7.5975   109.5137     0.0255     2.4517     0.1595
   82.0000   -81.9677     8.3371     9.0832     7.6251   114.6317     0.0365     2.4272     0.1754
   82.5000   -81.7634     8.3940     9.1008     7.6529   116.0995     0.0470     2.4032     0.1746
   83.0000   -81.3320     8.4512     9.1184     7.6825   111.9184     0.0451     2.3873     0.1722
   83.5000   -80.9032     8.5089     9.1361     7.7253   111.8165     0.0423     2.4113     0.1561
   84.0000   -80.4806     8.5491     9.1538     7.8120   116.0811     0.0395     2.4499     0.1390
   84.5000   -80.2405     8.4488     9.1715     8.0501   119.8574     0.0370     2.4720     0.1219
   85.0000   -80.4715     8.3729     9.1893     8.2696   121.1728     0.0369     2.4816     0.1166
   85.5000   -80.4933     8.2975     9.2046     8.3167   116.1568     0.0493     2.4833     0.1207
   86.0000   -80.2290     8.2229     9.1900     8.3559   110.3462     0.0718     2.4711     0.1325
   86.5000   -79.9654     8.1489     9.1693     8.2069   104.3902     0.0946     2.4580     0.1350
   87.0000   -79.7027     8.0757     9.1488     8.0397   102.9862     0.1178     2.4466     0.1265
   87.5000   -79.2169     8.0132     9.1284     7.8723   104.5581     0.1132     2.4469     0.1184
   88.0000   -78.5487     8.0139     9.1080     7.7063   111.2661     0.0943     2.4833     0.1104
   88.5000   -77.8805     8.0138     9.0876     7.5504   116.8122     0.0764     2.5050     0.1041
   89.0000   -77.2106     8.0138     9.0673     7.5550   114.5105     0.0435     2.5048     0.1142
   89.5000   -76.5435     8.0138     9.0470     7.5543   111.4466     0.0182     2.5022     0.1285
   90.0000   -75.9812     8.0138     9.0267     7.6267   108.3842     0.0171     2.4750     0.1426
   90.5000   -75.9943     8.0138     9.0065     7.7178   106.0545     0.0190     2.4454     0.1542
   91.0000   -75.9972     8.0132     8.9864     7.7211   107.4288     0.0297     2.4211     0.1620
   91.5000   -76.0073     8.0456     8.9663     7.7300   106.7065     0.0401     2.4126     0.1674
   92.0000   -75.4957     8.0992     8.9462     7.7379   106.5522     0.0462     2.4039     0.1674
   92.5000   -74.9890     8.1530     8.9262     7.7883   113.1123     0.0403     2.3966     0.1554
   93.0000   -74.9989     8.2073     8.9063     7.8369   113.1234     0.0345     2.4109     0.1430
   93.5000   -74.9994     8.2620     8.8863     7.9166   111.1365     0.0284     2.4416     0.1322
   94.0000   -75.0030     8.3170     8.8714     8.0141   109.4028     0.0269     2.4627     0.1344
   94.5000   -74.7868     8.3724     8.8802     8.1165   108.4408     0.0312     2.4603     0.1354
   95.0000   -74.4558     8.3945     8.8877     8.1726   107.3697     0.0355     2.4546     0.1336
   95.5000   -74.1197     8.4025     8.8952     8.1923   107.1893     0.0400     2.4502     0.1291
   96.0000   -73.9164     8.4105     8.9027     8.2109   107.6002     0.0446     2.4641     0.1236
   96.5000   -73.7805     8.4185     8.9102     8.2630   111.2014     0.0491     2.4768     0.1188
   97.0000   -73.6453     8.4264     8.9178     8.3280   112.3469     0.0536     2.4796     0.1186
   97.5000   -73.5100     8.4344     8.9253     8.3932   111.9824     0.0568     2.4822     0.1186
   98.0000   -73.3747     8.4424     8.9328     8.4612   112.1484     0.0553     2.4846     0.1174
   98.5000   -73.2403     8.4505     8.9404     8.4766   115.1566     0.0538     2.4849     0.1161
   99.0000   -73.1033     8.4586     8.9485     8.4463   118.1247     0.0497     2.4859     0.1150
   99.5000   -72.8986     8.4665     8.9517     8.3633   118.6235     0.0412     2.4869     0.1138
  100.0000   -72.4530     8.4913     9.0372     8.2786   118.2150     0.0328     2.4880     0.1126
  100.5000   -72.0208     8.5308     9.1135     8.2376   116.4938     0.0269     2.4890     0.1122
  101.0000   -71.8453     8.5714     9.1911     8.2182   115.3506     0.0279     2.4901     0.1125
  101.5000   -71.8978     8.6122     9.2693     8.1941   115.2216     0.0291     2.4911     0.1126
  102.0000   -71.9563     8.6532     9.2903     8.1690   115.0157     0.0303     2.4922     0.1126
  102.5000   -72.0009     8.6943     9.2049     8.1190   112.4542     0.0314     2.4923     0.1134
  103.0000   -71.5085     8.7356     9.2309     8.0355   106.5577     0.0325     2.4878     0.1167
  103.5000   -70.9744     8.7772     9.2780     7.9765   105.2764     0.0390     2.4833     0.1199
  104.0000   -70.4374     8.8189     9.3253     7.9111   107.8809     0.0475     2.4789     0.1214
  104.5000   -70.2439     8.8609     9.3729     7.7826   109.1263     0.0559     2.4742     0.1207
  105.0000   -70.3681     8.9030     9.4207     7.6376   107.9894     0.0606     2.4770     0.1169
  105.5000   -70.4949     8.9453     9.4688     7.4939   107.2744     0.0584     2.4813     0.1132
  106.0000   -70.6122     9.0152     9.5171     7.4551   115.8734     0.0436     2.4856     0.1094
  106.5000   -70.4712     9.0920     9.5657     7.4498   122.5782     0.0289     2.4899     0.1140
  107.0000   -70.1183     9.1694     9.6145     7.4401   119.4530     0.0173     2.4938     0.1278
  107.5000   -69.7688     9.2475     9.6633     7.4332   112.3166     0.0170     2.4758     0.1418
  108.0000   -69.4175     9.3263     9.7129     7.4727   108.1235     0.0163     2.4536     0.1482
  108.5000   -69.0679     9.4057     9.7982     7.5657   107.9799     0.0333     2.4323     0.1490
  109.0000   -69.0229     9.4859     9.9026     7.6557   102.2100     0.0334     2.4291     0.1334
