~VERSION INFORMATION
 VERS.                2.0:   CWLS LOG ASCII STANDARD - VERSION 2.0
 WRAP.                 NO:   ONE LINE PER DEPTH STEP
~WELL INFORMATION
#MNEM.UNIT      DATA TYPE    INFORMATION
#----------   ------------   ------------------------------
 STRT.F           11.5000:   START DEPTH
 STOP.F          583.0000:   STOP DEPTH
 STEP.F            0.5000:   STEP LENGTH
 NULL.          -999.2500:   NO VALUE
 COMP.    FENIX & SCISSON:   COMPANY
 WELL.      41 SX 3 #41-3:   WELL
 FLD .             TEAPOT:   FIELD
 LOC .       S3 T38N R78W:   LOCATION
 CNTY.            NATRONA:   COUNTY
 STAT.            WYOMING:   STATE
 CTRY. UNITED STATES OF AMERICA:   COUNTRY
 SRVC.            Unknown:   SERVICE COMPANY
 DATE.        01-DEC-1978:   LOGDATE
 API .       490251074000:   API NUMBER
~CURVE INFORMATION
#MNEM.UNIT       API CODE    CURVE DESCRIPTION
#----------   ------------   ------------------------------
 DEPT.F                  :   
 SPR .MV     05 010 01 00:   SPONTANEOUS POTENTIAL FROM RES.
 SN  .OHMM   05 040 16 00:   SHORT NORMAL 16"
 IL  .OHMM   05 120 00 00:   INDUCTION LOG
 GRD .GAPI   45 310 01 00:   GAMMA RAY FROM DENSITY LOG
 CALD.IN     45 280 60 00:   CALIPER
 DEN .G/C3   45 350 01 00:   COMPENSATED BULK DENSTIY
 CORR.G/C3   45 356 01 00:   DENSITY CORRECTION
 DPHI.DEC    45 890 12 00:   DENSITY POROSITY SANDSTONE
~PARAMETER INFORMATION
#MNEM.UNIT          VALUE    DESCRIPTION
#----------   ------------   ------------------------------
 PD  .                 GL:   PERMANENT DATUM
 EPD .F              5150:   ELEVATION PERMANENT DATUM
 LMF .                 KB:   LOG MEASURED FROM
 DAPD.F                 4:   FEET ABOVE PERMANENT DATUM
 DMF .                 KB:   DRILLING MEASURED FROM
 EKB .F              5154:   KELLING BUSHING
 EGL .F              5150:   GROUND LEVEL
 DATE.            12-1-78:   RUN DATE
 RUN .                  1:   RUN NUMBER
 DD  .F               600:   DEPTH DRILLER
 DL  .F               582:   DEPTH LOGGER
 BLI .F               576:   BOTTOM LOG INTERVAL
 TLI .F                42:   TOP LOG INTERVAL
 CS  .IN            8.625:   CASING SIZE
 CBD .F                40:   CASING BOTTOM DRILLER
 CBL .F                41:   CASING BOTTOM LOGGER
 BS  .IN            7.875:   BIT SIZE
 BSD .F               600:   BIT SIZE AT DEPTH
 DFT .                KCL:   DRILLING FLUID TYPE
 DFD .                8.8:   DRILLING FLUID DENSITY
 DFV .                 35:   DRILLING FLUID VISCOSITY
 DFPH.               11.2:   DRILLING FLUID PH
 DFL .               11.6:   DRILLING FLUID LOSS
 MSS .          FLOW LINE:   MUD SAMPLE SOURCE
 RMS .OHMM            .36:   RESISTIVITY MUD SAMPLE
 MST .F                52:   MUD SAMPLE TEMPERATURE
 RMF .OHMM            .36:   RESISTIVITY MUD FILTRATE SAMPLE
 MFST.F                55:   MUD FILTRATE SAMPLE TEMPERATURE
 RMC .OHMM            .42:   RESISTIVITY MUD CAKE
 MCST.F                60:   MUD CAKE SAMPLE TEMPERATURE
 MFSS.           MEASURED:   MUD FILTRATE SAMPLE SOURCE
 MCSS.           MEASURED:   MUD CAKE SAMPLE SOURCE
 RMB .OHMM            .32:   RESISTIVITY MUD AT BHT
 BHT .F                58:   BOTTOM HOLE TEMPERATURE
 MRT .F                58:   MAXIMUM RECORDED TEMPERATURE
 LUN .               2958:   LOGGING UNIT NUMBER
 LUL .                CPR:   LOGGING UNIT LOCATION
 ENGI.            ROLLINS:   RECORDING ENGINEER
 WITN.              AMEND:   WITNESSED BY
 CLNT.            A2DTECH:   CLIENT CODE
 ORIG.       2", 5" PRINT:   ORIGIN OF DATA
 UWI .       490251074000:   UNIQUE WELL ID
 DICO. A2D Technologies, Inc.:   DIGITIZING COMPANY
~OTHER INFORMATION
~A   DEPT      SPR         SN         IL         GRD      CALD        DEN       CORR       DPHI   
# ...
  214.0000   -32.0369    13.0801    13.6926    87.5138     8.0447     2.4923     0.0175     0.1181
  214.5000   -32.2996    12.9552    13.6950    89.1692     8.0439     2.4948     0.0173     0.1118
  215.0000   -32.3346    12.8100    13.6938    92.2680     8.0430     2.5003     0.0170     0.1117
  215.5000   -32.3604    12.6017    13.6941    95.3799     8.0422     2.5055     0.0200     0.1132
  216.0000   -32.3871    12.6086    13.6942    98.5011     8.0414     2.5021     0.0246     0.1171
  216.5000   -32.4141    12.6212    13.6942    99.9911     8.0406     2.4981     0.0293     0.1183
  217.0000   -32.4410    12.6338    13.6942    99.9520     8.0398     2.4982     0.0338     0.1110
  217.5000   -32.4679    12.6465    13.6942    97.6312     8.0390     2.5033     0.0454     0.1058
  218.0000   -32.4950    12.6592    13.6942    95.1930     8.0382     2.5175     0.0586     0.1007
  218.5000   -32.5050    12.6719    13.6943    93.4131     8.0373     2.5320     0.0582     0.0972
  219.0000   -32.5064    12.6848    13.6946    92.2859     8.0365     2.5338     0.0489     0.0988
  219.5000   -32.6019    12.6973    13.6925    90.9468     8.0357     2.5291     0.0396     0.1009
  220.0000   -32.8687    12.7117    13.6974    89.5404     8.0349     2.5196     0.0302     0.1050
  220.5000   -33.0983    12.7178    13.3243    89.2750     8.0341     2.5107     0.0298     0.1140
  221.0000   -33.0841    12.5047    13.0090    91.8369     8.0333     2.5001     0.0330     0.1230
  221.5000   -33.0671    12.2622    12.7011    94.3309     8.0325     2.4867     0.0255     0.1319
  222.0000   -33.0509    12.0146    12.4005    96.7558     8.0316     2.4735     0.0150     0.1408
  222.5000   -33.0348    11.7725    12.1071    96.2773     8.0308     2.4618     0.0137     0.1481
  223.0000   -33.0186    11.5352    11.8205    95.7535     8.0300     2.4500     0.0182     0.1507
  223.5000   -33.0024    11.3028    11.5856    96.9324     8.0292     2.4432     0.0227     0.1505
  224.0000   -32.9863    11.0750    11.3864    98.1494     8.0284     2.4420     0.0271     0.1495
  224.5000   -32.9701    10.9292    11.1756    98.0128     8.0276     2.4425     0.0312     0.1484
  225.0000   -32.9539    10.8517    11.1425    97.7240     8.0268     2.4435     0.0329     0.1472
  225.5000   -32.9376    10.7747    11.1067    97.1292     8.0260     2.4446     0.0346     0.1498
  226.0000   -32.9217    10.6983    11.0710    95.2465     8.0251     2.4433     0.0363     0.1511
  226.5000   -32.9088    10.6363    11.0354    91.7260     8.0243     2.4417     0.0380     0.1490
  227.0000   -32.7999    10.5823    10.9999    88.2536     8.0235     2.4435     0.0361     0.1469
  227.5000   -32.6771    10.5285    10.9645    85.9771     8.0227     2.4464     0.0309     0.1486
  228.0000   -32.5529    10.4751    10.9293    86.2140     8.0219     2.4385     0.0280     0.1525
  228.5000   -32.4290    10.4219    10.8941    88.3604     8.0211     2.4335     0.0270     0.1563
  229.0000   -32.3051    10.3690    10.8435    90.4553     8.0202     2.4329     0.0298     0.1578
  229.5000   -32.1813    10.3163    10.7596    91.9637     8.0194     2.4308     0.0330     0.1580
  230.0000   -32.0574    10.2640    10.6763    92.8015     8.0186     2.4320     0.0491     0.1565
  230.5000   -31.9333    10.2119    10.5936    91.8285     8.0178     2.4338     0.0664     0.1486
  231.0000   -31.8104    10.1600    10.5116    90.8715     8.0170     2.4393     0.0836     0.1354
  231.5000   -31.7065    10.1084    10.4302    89.5476     8.0162     2.4559     0.0884     0.1284
  232.0000   -31.7096    10.0571    10.3795    88.2225     8.0154     2.4730     0.0700     0.1320
  232.5000   -31.7100    10.0029    10.3795    86.8418     8.0145     2.4754     0.0523     0.1381
  233.0000   -31.7091    10.0029    10.3795    87.0853     8.0137     2.4624     0.0351     0.1442
  233.5000   -31.7066    10.0029    10.3801    91.2126     8.0129     2.4531     0.0291     0.1494
  234.0000   -31.7266    10.0030    10.3787    95.3694     8.0121     2.4438     0.0283     0.1518
  234.5000   -32.1535    10.0031    10.3812    97.4373     8.0113     2.4361     0.0320     0.1511
  235.0000   -32.3722    10.0031    10.2305    98.0427     8.0106     2.4415     0.0354     0.1478
  235.5000   -32.4833     9.9052    10.0534    98.3566     8.0091     2.4467     0.0393     0.1445
  236.0000   -32.4320     9.7470     9.8832    98.0079     7.9883     2.4519     0.0370     0.1428
  236.5000   -32.3123     9.5912     9.7272    97.3459     7.9666     2.4556     0.0309     0.1422
  237.0000   -32.1918     9.4379     9.5736    95.6482     7.8770     2.4547     0.0244     0.1415
  237.5000   -32.0704     9.2871     9.4225    92.8210     7.8032     2.4558     0.0211     0.1405
  238.0000   -31.9436     9.1387     9.2903    90.0606     7.7633     2.4569     0.0176     0.1392
  238.5000   -31.9593     9.1200     9.3378    88.5477     7.8526     2.4568     0.0149     0.1410
  239.0000   -32.0294     9.1201     9.3751    93.9204     7.9721     2.4548     0.0149     0.1433
  239.5000   -32.1243     9.1201     9.4124    97.5736     8.0191     2.4527     0.0149     0.1441
  240.0000   -32.7728     9.1202     9.4500    96.7282     8.0340     2.4506     0.0149     0.1446
  240.5000   -33.4432     9.1202     9.4876    95.7309     8.0479     2.4494     0.0149     0.1452
  241.0000   -34.1262     9.1201     9.5254    96.1002     8.0484     2.4489     0.0163     0.1458
  241.5000   -34.3686     9.1201     9.5512    96.4474     8.0483     2.4484     0.0187     0.1468
  242.0000   -34.4814     9.1200     9.4946    96.7972     8.0483     2.4479     0.0210     0.1453
  242.5000   -34.5889     9.1685     9.4639    97.1465     8.0483     2.4501     0.0234     0.1391
  243.0000   -34.6894     9.2408     9.5536    97.4309     8.0483     2.4547     0.0243     0.1375
  243.5000   -34.6853     9.3136     9.6261    96.7237     8.0483     2.4593     0.0225     0.1358
  244.0000   -34.6780     9.3869     9.6987    94.8654     8.0483     2.4640     0.0207     0.1369
  244.5000   -34.6710     9.4636     9.7718    93.1835     8.0483     2.4633     0.0189     0.1404
  245.0000   -34.6642     9.4263     9.8455    93.7659     8.0483     2.4604     0.0170     0.1402
  245.5000   -34.6573     9.3765     9.9095    94.4469     8.0483     2.4576     0.0169     0.1409
  246.0000   -34.6505     9.4017     9.8975    95.1035     8.0483     2.4547     0.0178     0.1435
  246.5000   -34.6436     9.4516     9.8854    94.6190     8.0483     2.4518     0.0201     0.1460
  247.0000   -34.6368     9.5019     9.8734    94.5364     8.0483     2.4490     0.0224     0.1441
  247.5000   -34.6299     9.5514     9.8613    96.2897     8.0483     2.4507     0.0248     0.1422
  248.0000   -34.6231     9.5311     9.8492    97.2045     8.0483     2.4534     0.0299     0.1403
  248.5000   -34.6162     9.4981     9.8374    95.4047     8.0483     2.4567     0.0353     0.1384
  249.0000   -34.6093     9.4651     9.8253    93.6370     8.0483     2.4616     0.0408     0.1305
  249.5000   -34.6025     9.4323     9.7993    93.0419     8.0483     2.4718     0.0435     0.1213
  250.0000   -34.5956     9.3995     9.7379    97.1986     8.0483     2.4821     0.0365     0.1259
  250.5000   -34.5888     9.3669     9.6768   100.7152     8.0483     2.4841     0.0298     0.1333
  251.0000   -34.5819     9.3344     9.6161   104.3071     8.0483     2.4734     0.0288     0.1428
  251.5000   -34.5751     9.3020     9.5557   104.9361     8.0483     2.4627     0.0320     0.1422
  252.0000   -34.5682     9.2380     9.4958   103.9546     8.0483     2.4548     0.0353     0.1410
  252.5000   -34.5614     9.1202     9.4362   102.9362     8.0483     2.4564     0.0386     0.1402
  253.0000   -34.5545     9.1146     9.3765   101.9062     8.0483     2.4579     0.0403     0.1396
  253.5000   -34.5477     9.1086     9.3606   101.6845     8.0483     2.4593     0.0385     0.1382
  254.0000   -34.5408     9.1027     9.3446   101.0709     8.0483     2.4606     0.0369     0.1366
