~VERSION INFORMATION
 VERS.                2.0:   CWLS LOG ASCII STANDARD - VERSION 2.0
 WRAP.                 NO:   ONE LINE PER DEPTH STEP
~WELL INFORMATION
#MNEM.UNIT      DATA TYPE    INFORMATION
#----------   ------------   ------------------------------
 STRT.F           22.0000:   START DEPTH
 STOP.F          654.0000:   STOP DEPTH
 STEP.F            0.5000:   STEP LENGTH
 NULL.          -999.2500:   NO VALUE
 COMP. FENIX & SCISSON INC:   COMPANY
 WELL.     54 S 34 #54-34:   WELL
 FLD .             TEAPOT:   FIELD
 LOC .      S34 T39N R78W:   LOCATION
 CNTY.            NATRONA:   COUNTY
 STAT.            WYOMING:   STATE
 CTRY. UNITED STATES OF AMERICA:   COUNTRY
 SRVC.           BIRDWELL:   SERVICE COMPANY
 DATE.        22-AUG-1978:   LOGDATE
 API .       490251070100:   API NUMBER
~CURVE INFORMATION
#MNEM.UNIT       API CODE    CURVE DESCRIPTION
#----------   ------------   ------------------------------
 DEPT.F                  :   
 SPR .MV     05 010 01 00:   SPONTANEOUS POTENTIAL FROM RES.
 SN  .OHMM   05 040 16 00:   SHORT NORMAL 16"
 ILD .OHMM   05 120 46 00:   INDUCTION LOG DEEP
 CALD.IN     45 280 60 00:   CALIPER
 GRD .GAPI   45 310 01 00:   GAMMA RAY FROM DENSITY LOG
 DPHI.DEC    45 890 12 00:   DENSITY POROSITY SANDSTONE
 RHOB.G/C3   45 350 01 00:   BULK DENSITY
 CORR.G/C3   45 356 01 00:   DENSITY CORRECTION
~PARAMETER INFORMATION
#MNEM.UNIT          VALUE    DESCRIPTION
#----------   ------------   ------------------------------
 PD  .                 GL:   PERMANENT DATUM
 EPD .F              5085:   ELEVATION PERMANENT DATUM
 LMF .                 KB:   LOG MEASURED FROM
 DAPD.F                 4:   FEET ABOVE PERMANENT DATUM
 DMF .                 KB:   DRILLING MEASURED FROM
 EKB .F              5089:   KELLING BUSHING
 EGL .F              5085:   GROUND LEVEL
 DATE.            8-22-78:   RUN DATE
 RUN .                  1:   RUN NUMBER
 DD  .F               685:   DEPTH DRILLER
 DL  .F               653:   DEPTH LOGGER
 BLI .F               646:   BOTTOM LOG INTERVAL
 TLI .F                30:   TOP LOG INTERVAL
 CS  .IN            8.625:   CASING SIZE
 CBD .F                46:   CASING BOTTOM DRILLER
 CBL .F                46:   CASING BOTTOM LOGGER
 BS  .IN            7.875:   BIT SIZE
 BSD .F               685:   BIT SIZE AT DEPTH
 DFT .                KCL:   DRILLING FLUID TYPE
 DFD .                8.7:   DRILLING FLUID DENSITY
 DFV .                 33:   DRILLING FLUID VISCOSITY
 DFPH.                  9:   DRILLING FLUID PH
 MSS .           FLOWLINE:   MUD SAMPLE SOURCE
 RMS .OHMM            .18:   RESISTIVITY MUD SAMPLE
 MST .F                86:   MUD SAMPLE TEMPERATURE
 RMF .OHMM            .16:   RESISTIVITY MUD FILTRATE SAMPLE
 MFST.F                86:   MUD FILTRATE SAMPLE TEMPERATURE
 RMC .OHMM            .52:   RESISTIVITY MUD CAKE
 MCST.F                86:   MUD CAKE SAMPLE TEMPERATURE
 MFSS.               MEAS:   MUD FILTRATE SAMPLE SOURCE
 MCSS.               MEAS:   MUD CAKE SAMPLE SOURCE
 BHT .F                70:   BOTTOM HOLE TEMPERATURE
 TCS .HRS               2:   TIME CURCULATED STOPPED
 MRT .F                70:   MAXIMUM RECORDED TEMPERATURE
 LUN .               2958:   LOGGING UNIT NUMBER
 LUL .               CASP:   LOGGING UNIT LOCATION
 ENGI.           REYNOLDS:   RECORDING ENGINEER
 WITN.              AMEND:   WITNESSED BY
 CLNT.            A2DTECH:   CLIENT CODE
 ORIG.           5" PRINT:   ORIGIN OF DATA
 UWI .       490251070100:   UNIQUE WELL ID
 DICO. A2D Technologies, Inc.:   DIGITIZING COMPANY
~OTHER INFORMATION
~A   DEPT      SPR         SN        ILD       CALD         GRD      DPHI       RHOB       CORR   
# ...
  103.0000   -30.4561    10.1102    14.1442     7.9100    76.3995     0.1652     2.4119     0.0423
  103.5000   -30.4922    10.2093    14.9485     7.9100    74.3013     0.1698     2.4044     0.0398
  104.0000   -30.5276    10.3093    15.8987     7.9100    74.1398     0.1744     2.3953     0.0372
  104.5000   -30.5633    10.4103    15.8622     7.9100    75.1790     0.1753     2.3946     0.0347
  105.0000   -30.6001    10.5123    15.8215     7.9100    75.8798     0.1657     2.4107     0.0322
  105.5000   -30.6416    10.6153    15.7812     7.9100    75.5088     0.1523     2.4351     0.0305
  106.0000   -30.3904    10.7113    15.7522     7.9104    74.4942     0.1390     2.4601     0.0305
  106.5000   -30.1093    10.7513    16.3786     7.8920    73.5444     0.1300     2.4632     0.0325
  107.0000   -29.8095    10.7886    16.8867     7.8655    72.5912     0.1430     2.4469     0.0351
  107.5000   -29.0954    10.8259    16.9529     7.8384    72.9364     0.1609     2.4295     0.0380
  108.0000   -28.4461    10.8634    16.3124     7.8000    75.0075     0.1684     2.4120     0.0361
  108.5000   -28.2994    10.9010    15.8908     7.7551    77.0636     0.1709     2.4024     0.0328
  109.0000   -28.1708    10.9388    15.7522     7.7102    78.1244     0.1690     2.4026     0.0294
  109.5000   -28.0245    10.9767    15.8180     7.6637    78.5181     0.1670     2.4047     0.0265
  110.0000   -27.5458    11.0147    15.8944     7.6392    78.2608     0.1696     2.3974     0.0265
  110.5000   -27.0708    11.0529    15.9713     7.6222    77.8994     0.1762     2.3891     0.0265
  111.0000   -26.5997    11.0912    16.0448     7.6057    76.8083     0.1797     2.3888     0.0266
  111.5000   -26.2101    11.1430    16.1607     7.5891    75.7937     0.1731     2.3927     0.0242
  112.0000   -26.0788    11.2113    16.2725     7.5725    76.0745     0.1657     2.4026     0.0212
  112.5000   -25.9489    11.2800    16.3837     7.5559    72.3979     0.1704     2.4053     0.0183
  113.0000   -25.9537    11.3491    16.4826     7.5392    73.0277     0.1766     2.3953     0.0217
  113.5000   -26.4692    11.4186    16.9724     7.5174    73.8034     0.1829     2.3826     0.0258
  114.0000   -26.9690    11.4870    17.4430     7.4887    72.9589     0.1861     2.3757     0.0285
  114.5000   -27.4655    11.6454    17.9132     7.4602    71.5266     0.1763     2.3820     0.0281
  115.0000   -27.8604    11.9153    18.4136     7.4317    70.7158     0.1660     2.4027     0.0278
  115.5000   -27.8885    12.1914    19.2787     7.4032    72.9888     0.1558     2.4234     0.0275
  116.0000   -27.9227    12.4714    21.7781     7.3747    76.2175     0.1490     2.4331     0.0272
  116.5000   -27.9576    12.8730    25.3120     7.3461    78.3000     0.1479     2.4364     0.0269
  117.0000   -27.9925    13.4262    29.3923     7.3175    78.8136     0.1467     2.4382     0.0267
  117.5000   -28.0275    14.0071    34.1309     7.2906    79.3224     0.1454     2.4411     0.0282
  118.0000   -28.0624    14.6125    39.6334     7.2893    78.8633     0.1388     2.4469     0.0298
  118.5000   -28.0973    15.2438    46.0229     7.3277    74.8425     0.1061     2.4781     0.0446
  119.0000   -28.1323    15.9024    53.4425     7.3874    69.0100     0.0734     2.5294     0.0628
  119.5000   -28.1672    16.5895    62.0582     7.4473    63.1900     0.0406     2.5808     0.0647
  120.0000   -28.2026    17.3062    70.3705     7.5072    57.3805     0.0191     2.6327     0.0542
  120.5000   -28.2402    17.5909    63.0625     7.5670    51.5610     0.0167     2.6551     0.0435
  121.0000   -28.2400    17.4268    52.6194     7.6274    49.2100     0.0198     2.6509     0.0329
  121.5000   -28.0504    16.8902    43.9611     7.6498    53.8404     0.0384     2.6323     0.0286
  122.0000   -27.3468    16.2745    36.7291     7.6501    59.0802     0.0571     2.6094     0.0288
  122.5000   -26.5418    15.5232    30.6937     7.6524    63.5897     0.0760     2.5849     0.0293
  123.0000   -25.7353    14.7071    26.5386     7.6547    63.4550     0.1041     2.5432     0.0298
  123.5000   -24.9294    13.9339    23.4692     7.6571    67.7477     0.1324     2.4901     0.0303
  124.0000   -24.2316    13.2014    20.7500     7.6595    73.7330     0.1608     2.4360     0.0347
  124.5000   -24.2385    12.5074    18.7549     7.6618    78.9572     0.1892     2.3818     0.0453
  125.0000   -24.6507    11.8508    17.4221     7.6642    78.4396     0.1961     2.3630     0.0561
  125.5000   -25.1472    11.5799    17.4235     7.6665    77.1548     0.1958     2.3581     0.0668
  126.0000   -25.6481    11.3187    16.9645     7.6689    76.8287     0.1915     2.3663     0.0558
  126.5000   -26.0013    11.0627    16.6414     7.6712    78.8994     0.1851     2.3799     0.0425
  127.0000   -26.2629    10.8121    16.3247     7.6736    79.8070     0.1761     2.3906     0.0294
  127.5000   -26.5216    10.5911    16.0140     7.6760    78.1015     0.1791     2.3849     0.0225
  128.0000   -26.7770    10.4746    15.7092     7.6783    77.0188     0.1863     2.3742     0.0251
  128.5000   -27.0691    10.3594    15.4655     7.6807    77.9088     0.1887     2.3718     0.0281
  129.0000   -28.2345    10.2454    15.0453     7.6830    81.1604     0.1897     2.3718     0.0306
  129.5000   -29.4468    10.1327    14.1552     7.6854    84.4036     0.1837     2.3766     0.0298
  130.0000   -30.5882    10.0213    12.3924     7.6877    86.3540     0.1822     2.3813     0.0263
  130.5000   -31.3209     9.8210    10.8492     7.6901    85.5994     0.1809     2.3853     0.0228
  131.0000   -32.0624     9.4816     9.4981     7.6925    85.2507     0.1717     2.3992     0.0193
  131.5000   -33.2817     9.1540     8.3153     7.6948    87.6552     0.1627     2.4152     0.0158
  132.0000   -34.6264     8.8377     7.2798     7.6972    91.2689     0.1537     2.4309     0.0162
  132.5000   -35.9687     8.5323     6.3732     7.6995    94.9321     0.1447     2.4423     0.0187
  133.0000   -37.0250     8.2375     5.5767     7.7019    97.1301     0.1360     2.4528     0.0213
  133.5000   -37.4339     7.9527     4.8649     7.7042    97.8265     0.1357     2.4567     0.0239
  134.0000   -37.4265     7.6783     4.6483     7.7066    99.6922     0.1354     2.4579     0.0265
  134.5000   -37.4521     7.4127     4.4360     7.7090   101.0000     0.1350     2.4596     0.0291
  135.0000   -37.5285     7.3282     4.5349     7.7102    98.4300     0.1319     2.4666     0.0305
  135.5000   -37.5973     7.2986     4.6399     7.7107    95.4529     0.1251     2.4753     0.0294
  136.0000   -38.1291     7.2692     4.7475     7.7112    97.9489     0.1183     2.4840     0.0268
  136.5000   -38.7850     7.2398     4.8626     7.7116    99.0951     0.1172     2.4901     0.0242
  137.0000   -39.2697     7.2106     4.8626     7.7121    90.9252     0.1186     2.4878     0.0216
  137.5000   -39.3849     7.1815     4.8346     7.7126    92.9638     0.1225     2.4813     0.0190
  138.0000   -39.5075     7.1511     4.7555     7.7130   100.3749     0.1264     2.4749     0.0166
  138.5000   -39.6288     7.1272     4.6777     7.7135    99.1857     0.1303     2.4685     0.0169
  139.0000   -39.7503     7.1021     4.6012     7.7139    98.1051     0.1329     2.4645     0.0186
  139.5000   -39.8718     7.0771     4.5259     7.7144    97.1395     0.1337     2.4634     0.0203
  140.0000   -39.9939     7.0522     4.4769     7.7148   103.1313     0.1351     2.4583     0.0220
  140.5000   -40.1152     7.0209     4.5375     7.7153   108.2942     0.1391     2.4510     0.0236
  141.0000   -40.1990     7.0943     4.6539     7.7158   105.8878     0.1420     2.4519     0.0244
  141.5000   -40.0176     7.1950     4.7731     7.7162   102.1351     0.1374     2.4561     0.0241
  142.0000   -39.8378     7.2859     4.8946     7.7167    97.8235     0.1337     2.4604     0.0238
  142.5000   -39.6589     7.2948     4.9528     7.7171    93.5043     0.1292     2.4677     0.0235
  143.0000   -39.4801     7.3049     4.9528     7.7176    89.2328     0.1228     2.4757     0.0232
