~VERSION INFORMATION
 VERS.                2.0:   CWLS LOG ASCII STANDARD - VERSION 2.0
 WRAP.                 NO:   ONE LINE PER DEPTH STEP
~WELL INFORMATION
#MNEM.UNIT      DATA TYPE    INFORMATION
#----------   ------------   ------------------------------
 STRT.F            2.0000:   START DEPTH
 STOP.F          560.0000:   STOP DEPTH
 STEP.F            0.1000:   STEP LENGTH
 NULL.          -999.2500:   NO VALUE
 COMP.       F D SERV INC:   COMPANY
 WELL. NAVAL PETROLEUM RESERVE 3 SX-3 #88-3:   WELL
 FLD .             NPR #3:   FIELD
 LOC .       S3 T38N R78W:   LOCATION
 CNTY.            NATRONA:   COUNTY
 STAT.            WYOMING:   STATE
 CTRY. UNITED STATES OF AMERICA:   COUNTRY
 SRVC.      Western Atlas:   SERVICE COMPANY
 DATE.        30-OCT-1992:   LOGDATE
 API .       490252254900:   API NUMBER
~CURVE INFORMATION
#MNEM.UNIT       API CODE    CURVE DESCRIPTION
#----------   ------------   ------------------------------
 DEPT.F                  :   
 GRR .GAPI   07 310 01 00:   GAMMA RAY
 RILD.OHMM   07 120 46 00:   INDUCTION LOG DEEP RESISTIVITY
 RILM.OHMM   07 120 44 00:   INDUCTION LOG MEDIUM RESISTIVITY
~PARAMETER INFORMATION
#MNEM.UNIT          VALUE    DESCRIPTION
#----------   ------------   ------------------------------
 PD  .                 GL:   PERMANENT DATUM
 EPD .F              5131:   ELEVATION PERMANENT DATUM
 LMF .                 KB:   LOG MEASURED FROM
 DAPD.F                10:   FEET ABOVE PERMANENT DATUM
 DMF .                 KB:   DRILLING MEASURED FROM
 EKB .F              5141:   KELLING BUSHING
 EDF .F              5140:   DRILLING FLOOR
 EGL .F              5131:   GROUND LEVEL
 DATE.        30-OCT-1992:   RUN DATE
 RUN .                  1:   RUN NUMBER
 DD  .F               568:   DEPTH DRILLER
 DL  .F               568:   DEPTH LOGGER
 BLI .F               560:   BOTTOM LOG INTERVAL
 CS  .IN            8.625:   CASING SIZE
 CBD .F                73:   CASING BOTTOM DRILLER
 CBL .F                73:   CASING BOTTOM LOGGER
 BS  .IN            7.875:   BIT SIZE
 BSD .F               568:   BIT SIZE AT DEPTH
 DFT .           AIR FOAM:   DRILLING FLUID TYPE
 BHT .F                63:   BOTTOM HOLE TEMPERATURE
 TCS .HRS               2:   TIME CURCULATED STOPPED
 MRT .F                63:   MAXIMUM RECORDED TEMPERATURE
 LUN .            HL-6274:   LOGGING UNIT NUMBER
 LUL .             CASPER:   LOGGING UNIT LOCATION
 ENGI.             RAUTIO:   RECORDING ENGINEER
 WITN.          BOB SYLAR:   WITNESSED BY
 CLNT.            A2DTECH:   CLIENT CODE
 ORIG.           5" PRINT:   ORIGIN OF DATA
 UWI .       490252254900:   UNIQUE WELL ID
 DICO. A2D Technologies, Inc.:   DIGITIZING COMPANY
~OTHER INFORMATION
~A    DEPT      GRR      RILD       RILM   
# ...
  366.0000    93.7510    20.5300    20.0583
  366.1000    93.4936    20.5312    20.0599
  366.2000    93.3735    20.5323    20.0615
  366.3000    93.3735    20.5335    20.0632
  366.4000    93.3735    20.5346    20.0649
  366.5000    93.3735    20.5358    20.0665
  366.6000    93.3735    20.5369    20.0682
  366.7000    93.3735    20.5380    20.0700
  366.8000    93.1976    20.5391    20.0715
  366.9000    93.0723    20.5403    20.0732
  367.0000    92.9839    20.5414    20.0749
  367.1000    92.7711    20.5425    20.0765
  367.2000    92.7711    20.5438    20.0782
  367.3000    92.7711    20.5448    20.0799
  367.4000    92.7711    20.5460    20.0817
  367.5000    92.6004    20.5471    20.0832
  367.6000    92.4699    20.5482    19.9940
  367.7000    92.4699    20.5494    19.9480
  367.8000    92.5092    20.5554    19.9497
  367.9000    92.7711    20.6945    19.9513
  368.0000    92.7711    20.6955    19.9530
  368.1000    92.7711    20.6966    19.9548
  368.2000    92.7711    20.6978    20.0661
  368.3000    92.8928    20.6989    20.0966
  368.4000    93.0723    20.7001    20.0982
  368.5000    93.1064    20.7012    20.0999
  368.6000    93.3735    20.7025    20.1016
  368.7000    93.3735    20.8097    20.1032
  368.8000    93.3735    20.8484    20.1050
  368.9000    93.3735    20.8496    20.1066
  369.0000    93.3735    20.8507    20.1082
  369.1000    93.4462    20.8755    20.1099
  369.2000    93.6747    20.9979    20.0628
  369.3000    93.3735    20.9992    19.9746
  369.4000    93.3735    21.0002    19.9762
  369.5000    93.3735    21.0869    19.9780
  369.6000    93.3735    21.1483    20.0872
  369.7000    93.4848    21.1495    20.1199
  369.8000    93.6747    21.1507    20.1216
  369.9000    93.6747    21.1534    20.1233
  370.0000    93.6747    21.3001    20.1529
  370.1000    93.9120    21.3011    20.2664
  370.2000    93.9759    21.3023    20.2682
  370.3000    94.1258    21.3035    20.2697
  370.4000    94.3832    21.2619    20.2714
  370.5000    94.7028    21.1375    20.2731
  370.6000    95.1992    21.0141    20.3221
  370.7000    95.4819    21.1614    20.4173
  370.8000    95.7140    21.2674    20.4190
  370.9000    95.7831    21.4801    20.4209
  371.0000    96.0724    21.6087    20.4224
  371.1000    96.3855    21.6099    20.4241
  371.2000    96.4426    21.6111    20.4927
  371.3000    96.6867    21.6123    20.5693
  371.4000    96.6867    21.6137    20.5710
  371.5000    96.6867    21.5094    20.5727
  371.6000    96.5036    21.4668    20.5746
  371.7000    96.2462    21.4680    20.5761
  371.8000    95.9887    21.4692    20.5778
  371.9000    95.6796    21.4704    20.5795
  372.0000    95.1647    21.4716    20.5813
  372.1000    94.5783    21.4730    20.5830
  372.2000    94.3566    21.4740    20.5847
  372.3000    94.0992    21.4751    20.5866
  372.4000    93.9759    21.4763    20.5881
  372.5000    93.9759    21.4380    20.5898
  372.6000    93.9759    21.3304    20.5915
  372.7000    93.9787    21.3318    20.5932
  372.8000    94.2771    21.3332    20.5949
  372.9000    94.4936    21.3341    20.5966
  373.0000    94.5783    21.3353    20.5986
  373.1000    94.8362    21.2773    20.4955
  373.2000    95.1807    21.1905    20.4597
  373.3000    95.2221    21.1917    20.4614
  373.4000    95.4819    21.1929    20.4631
  373.5000    95.7831    21.1941    20.4648
  373.6000    95.7831    21.0954    20.4665
  373.7000    95.9506    21.0502    20.3273
  373.8000    96.2080    21.0514    20.3287
  373.9000    96.3056    21.0162    20.2485
  374.0000    96.0482    20.9084    20.1919
  374.1000    95.7831    21.0549    20.1936
  374.2000    95.7831    21.0561    20.1953
  374.3000    95.7831    21.0572    20.1969
  374.4000    95.7831    21.0584    20.1989
  374.5000    96.0201    21.0596    20.1000
  374.6000    96.3855    21.0255    20.0627
  374.7000    96.3855    20.9165    20.0643
  374.8000    96.3855    20.9179    20.0660
  374.9000    96.3855    20.9190    20.0877
  375.0000    96.3855    20.9201    20.2087
  375.1000    96.3855    20.9213    20.2106
  375.2000    96.3855    20.9224    20.3120
  375.3000    96.3855    20.9236    20.3541
  375.4000    96.3855    20.9248    20.3558
  375.5000    96.3855    20.9260    20.3181
  375.6000    96.3855    20.9271    20.2185
  375.7000    95.9944    20.9282    20.2204
  375.8000    95.9349    20.9294    20.0830
  375.9000    96.1924    20.8770    20.0843
  376.0000    96.5141    20.7874    20.0084
  376.1000    97.0084    20.7885    19.9491
  376.2000    97.2892    20.7897    19.9134
  376.3000    97.7574    20.7908    19.7974
  376.4000    98.0819    20.7920    19.6799
  376.5000    98.4860    20.7931    19.6818
  376.6000    98.7952    20.7423    19.6831
  376.7000    98.7952    20.6209    19.6098
  376.8000    98.7952    20.5002    19.5506
  376.9000    98.7952    20.3705    19.5523
  377.0000    98.7952    20.2610    19.5539
  377.1000    98.7952    20.2322    19.5555
  377.2000    98.5124    20.2333    19.5574
  377.3000    98.0952    20.2344    19.4660
  377.4000    97.7301    20.2355    19.3526
  377.5000    96.9680    20.2367    19.2399
  377.6000    96.3855    20.2379    19.1278
  377.7000    96.3855    20.2389    19.0309
  377.8000    96.3855    20.2400    19.0328
  377.9000    96.2494    20.2411    18.9261
  378.0000    95.9920    20.1939    18.7279
  378.1000    95.7831    20.1038    18.6463
  378.2000    95.7784    20.0968    18.5974
  378.3000    95.4819    19.9675    18.5208
  378.4000    95.2634    19.9685    18.5090
  378.5000    95.1807    19.8833    18.3962
  378.6000    95.1807    19.7669    18.3977
  378.7000    95.0936    19.6973    18.3139
  378.8000    94.8361    19.6984    18.2073
  378.9000    94.5783    19.6926    18.1493
  379.0000    94.5783    19.5648    18.1508
  379.1000    94.5783    19.5658    18.1523
  379.2000    94.5783    19.4834    18.1539
  379.3000    94.5783    19.4330    18.0542
  379.4000    94.5783    19.3898    18.0316
  379.5000    94.5783    19.3011    18.0331
  379.6000    94.5783    19.2965    18.0346
  379.7000    94.5783    19.1703    18.0073
  379.8000    94.5783    19.1712    17.9131
  379.9000    94.5783    19.0915    17.9148
  380.0000    94.5783    19.0411    17.9162
  380.1000    94.6551    18.9998    17.9177
  380.2000    94.9125    18.9119    17.9192
  380.3000    95.1807    18.9084    17.9207
  380.4000    95.1807    18.7837    17.9500
  380.5000    95.3835    18.7846    18.0481
  380.6000    95.4819    18.7857    18.0497
  380.7000    95.5972    18.7867    18.0511
  380.8000    95.7831    18.7877    18.0526
  380.9000    95.7831    18.7667    18.0541
  381.0000    95.7831    18.6602    18.0108
  381.1000    95.5418    18.6614    17.9326
  381.2000    95.2843    18.6623    17.9341
  381.3000    95.0269    18.7404    17.9357
  381.4000    94.7694    18.7940    17.9371
  381.5000    94.5783    18.7950    17.9385
  381.6000    94.5559    18.7961    17.9400
  381.7000    94.2771    18.7971    17.9415
  381.8000    94.2771    18.7983    17.9430
  381.9000    94.0848    18.7992    17.9445
  382.0000    93.9759    18.8002    17.9461
  382.1000    93.8710    18.8591    18.0442
  382.2000    93.6136    18.9721    18.0736
  382.3000    93.3735    19.0654    18.0751
  382.4000    93.3735    19.0678    18.0766
  382.5000    93.3735    19.2001    18.1032
  382.6000    93.3735    19.2010    18.2052
  382.7000    93.3735    19.2020    18.2068
  382.8000    93.3735    19.2031    18.2082
  382.9000    93.4294    19.2042    18.2097
  383.0000    93.6747    19.2052    18.2112
  383.1000    93.6747    19.2063    18.2552
  383.2000    93.9004    19.2075    18.3407
  383.3000    94.1578    19.2084    18.3422
  383.4000    94.4153    19.2856    18.3439
  383.5000    94.7672    19.3439    18.4421
  383.6000    95.2820    19.3450    18.4742
  383.7000    95.7967    19.3461    18.4757
  383.8000    96.3855    19.3471    18.4773
  383.9000    96.8265    19.3484    18.4788
  384.0000    97.1646    19.3493    18.4803
  384.1000    97.4221    19.3504    18.4821
