~VERSION INFORMATION
 VERS.                2.0:   CWLS LOG ASCII STANDARD - VERSION 2.0
 WRAP.                 NO:   ONE LINE PER DEPTH STEP
~WELL INFORMATION
#MNEM.UNIT      DATA TYPE    INFORMATION
#----------   ------------   ------------------------------
 STRT.F           14.0000:   START DEPTH
 STOP.F          513.0000:   STOP DEPTH
 STEP.F            0.1000:   STEP LENGTH
 NULL.          -999.2500:   NO VALUE
 COMP.       F D SERV INC:   COMPANY
 WELL.    52-1 SX-3 #52-3:   WELL
 FLD .             TEAPOT:   FIELD
 LOC .       S3 T38N R78W:   LOCATION
 CNTY.            NATRONA:   COUNTY
 STAT.            WYOMING:   STATE
 CTRY. UNITED STATES OF AMERICA:   COUNTRY
 SRVC.     Atlas Wireline:   SERVICE COMPANY
 DATE.        21-APR-1992:   LOGDATE
 API .       490252251400:   API NUMBER
~CURVE INFORMATION
#MNEM.UNIT       API CODE    CURVE DESCRIPTION
#----------   ------------   ------------------------------
 DEPT.F                  :   
 GRR .GAPI   07 310 01 00:   GAMMA RAY
 RILD.OHMM   07 120 46 00:   INDUCTION LOG DEEP RESISTIVITY
 RILM.OHMM   07 120 44 00:   INDUCTION LOG MEDIUM RESISTIVITY
~PARAMETER INFORMATION
#MNEM.UNIT          VALUE    DESCRIPTION
#----------   ------------   ------------------------------
 PD  .                 GL:   PERMANENT DATUM
 EPD .F              5115:   ELEVATION PERMANENT DATUM
 LMF .                 KB:   LOG MEASURED FROM
 DAPD.F                 5:   FEET ABOVE PERMANENT DATUM
 DMF .                 KB:   DRILLING MEASURED FROM
 EKB .F              5120:   KELLING BUSHING
 EDF .F              5119:   DRILLING FLOOR
 EGL .F              5115:   GROUND LEVEL
 DATE.        21-APR-1992:   RUN DATE
 RUN .                  1:   RUN NUMBER
 DD  .F               515:   DEPTH DRILLER
 DL  .F               520:   DEPTH LOGGER
 BLI .F               517:   BOTTOM LOG INTERVAL
 TLI .F                50:   TOP LOG INTERVAL
 CS  .IN            9.625:   CASING SIZE
 CBD .F                45:   CASING BOTTOM DRILLER
 CBL .F                50:   CASING BOTTOM LOGGER
 BS  .IN            7.875:   BIT SIZE
 BSD .F               515:   BIT SIZE AT DEPTH
 DFT .                AIR:   DRILLING FLUID TYPE
 LUN .            HL-6272:   LOGGING UNIT NUMBER
 LUL .             CASPER:   LOGGING UNIT LOCATION
 ENGI.       P. RASMUSSEN:   RECORDING ENGINEER
 WITN.          G. STRONG:   WITNESSED BY
 CLNT.            A2DTECH:   CLIENT CODE
 ORIG.           5" PRINT:   ORIGIN OF DATA
 UWI .       490252251400:   UNIQUE WELL ID
 DICO. A2D Technologies, Inc.:   DIGITIZING COMPANY
~OTHER INFORMATION
~A   DEPT      GRR       RILD       RILM   
# ...
  432.6000    96.7188    12.1458    12.3321
  432.7000    98.1961    12.0847    12.2629
  432.8000    99.4778    12.0623    12.2491
  432.9000   100.4285    12.0326    12.2102
  433.0000   100.9124    11.9793    12.1652
  433.1000   100.9106    11.9796    12.1576
  433.2000   100.9086    11.9800    12.0820
  433.3000   100.9069    11.9803    12.0825
  433.4000   100.9051    11.9806    12.0830
  433.5000   100.9033    11.9810    12.0835
  433.6000   100.8483    11.9762    12.0840
  433.7000   100.5976    11.8986    12.0845
  433.8000   100.1076    11.8989    12.0850
  433.9000    99.6127    11.8992    12.0855
  434.0000    98.9849    11.8996    12.0492
  434.1000    98.1663    11.8888    12.0028
  434.2000    97.2001    11.8178    12.0033
  434.3000    96.3568    11.8181    12.0039
  434.4000    95.7172    11.7710    12.0043
  434.5000    95.1329    11.7368    12.0048
  434.6000    94.7395    11.7371    12.0053
  434.7000    94.4912    11.7375    11.9931
  434.8000    94.2332    11.7378    11.9231
  434.9000    94.2314    11.7381    11.9236
  435.0000    94.2296    11.7384    11.9241
  435.1000    94.4792    11.7388    11.9246
  435.2000    95.0405    11.7391    11.9251
  435.3000    95.8071    11.7394    11.9256
  435.4000    97.2432    11.7397    11.9262
  435.5000    98.6796    11.7401    11.9266
  435.6000   100.1041    11.7404    11.9271
  435.7000   101.3350    11.7407    11.9276
  435.8000   102.5270    11.7411    11.9281
  435.9000   103.5787    11.7414    11.9286
  436.0000   104.9546    11.7417    11.9291
  436.1000   106.2581    11.7420    11.9296
  436.2000   107.8443    11.7424    11.9301
  436.3000   110.0031    11.7427    11.9306
  436.4000   112.6549    11.7431    11.9311
  436.5000   113.5374    11.7433    11.9317
  436.6000   113.7341    11.7437    11.9321
  436.7000   113.6937    11.7440    11.9326
  436.8000   113.3583    11.7443    11.9331
  436.9000   112.8634    11.7447    11.9336
  437.0000   112.3201    11.7450    11.9341
  437.1000   111.2066    11.7453    11.9346
  437.2000   110.1389    11.7456    11.9351
  437.3000   109.0397    11.7459    11.9356
  437.4000   107.8610    11.7463    11.9361
  437.5000   106.8731    11.7466    11.9366
  437.6000   105.6388    11.8001    11.9371
  437.7000   104.7862    11.8293    11.9376
  437.8000   104.3154    11.8296    11.9381
  437.9000   104.0671    11.8299    11.9385
  438.0000   103.8187    11.8303    11.9390
  438.1000   103.5387    11.8306    11.9396
  438.2000   103.5372    11.8309    11.9400
  438.3000   103.3758    11.8312    11.9405
  438.4000   103.2314    11.8316    11.9410
  438.5000   103.1329    11.8319    11.9415
  438.6000   102.6235    11.8979    11.9420
  438.7000   102.1432    11.9151    11.9425
  438.8000   101.6484    11.9155    11.8927
  438.9000   101.1535    11.9158    11.8608
  439.0000   100.5861    11.9161    11.8613
  439.1000    99.8616    11.9165    11.8618
  439.2000    99.2891    11.9168    11.8624
  439.3000    99.0798    11.9171    11.8628
  439.4000    98.8314    11.9175    11.8633
  439.5000    98.7765    11.9178    11.8638
  439.6000    99.0623    11.9182    11.8643
  439.7000    99.5824    11.9185    11.8648
  439.8000   100.5088    11.8716    11.8652
  439.9000   101.4930    11.8365    11.8657
  440.0000   102.5982    11.8368    11.8662
  440.1000   103.7638    11.8372    11.8667
  440.2000   104.7384    11.8375    11.8672
  440.3000   105.6136    11.8378    11.8678
  440.4000   105.8127    11.8005    11.8682
  440.5000   105.9124    11.7564    11.8687
  440.6000   105.9106    11.7567    11.8692
  440.7000   105.9088    11.7571    11.8697
  440.8000   105.9068    11.7574    11.8702
  440.9000   105.9051    11.7577    11.8707
  441.0000   105.9033    11.7580    11.8712
  441.1000   105.9015    11.7584    11.8717
  441.2000   105.8997    11.7587    11.8722
  441.3000   105.8979    11.6946    11.8727
  441.4000   106.1450    11.6778    11.8732
  441.5000   106.5830    11.6782    11.8737
  441.6000   107.0742    11.6785    11.8742
  441.7000   107.8940    11.6788    11.8747
  441.8000   109.4248    11.6792    11.8751
  441.9000   111.6270    11.6795    11.8757
  442.0000   113.8008    11.6798    11.8761
  442.1000   115.6164    11.6801    11.8766
  442.2000   116.7746    11.6804    11.8482
  442.3000   117.4109    11.6808    11.7953
  442.4000   117.6604    11.6811    11.7958
  442.5000   117.9003    11.6814    11.7963
  442.6000   117.9589    11.6509    11.7968
  442.7000   117.8266    11.6011    11.7973
  442.8000   117.6532    11.6014    11.7978
  442.9000   117.6320    11.6017    11.7983
  443.0000   117.3472    11.6020    11.7989
  443.1000   116.9251    11.5658    11.7993
  443.2000   116.2756    11.5223    11.7998
  443.3000   115.5341    11.5226    11.7735
  443.4000   114.7492    11.5229    11.7189
  443.5000   113.7129    11.5232    11.7195
  443.6000   112.7733    11.4814    11.7200
  443.7000   111.7855    11.4440    11.7205
  443.8000   110.9209    11.4443    11.7210
  443.9000   110.1118    11.4446    11.7033
  444.0000   109.1359    11.4449    11.6407
  444.1000   108.2637    11.4452    11.6413
  444.2000   107.4502    11.4126    11.6417
  444.3000   106.7572    11.3665    11.6422
  444.4000   106.2623    11.3669    11.6182
  444.5000   105.8037    11.3672    11.5625
  444.6000   105.5358    11.3675    11.5630
  444.7000   105.0797    11.3678    11.5635
  444.8000   104.7565    11.3681    11.5640
  444.9000   104.6242    11.3684    11.5337
  445.0000   104.5619    11.3688    11.4848
  445.1000   104.3184    11.3691    11.4853
  445.2000   104.3166    11.3694    11.4858
  445.3000   104.5106    11.3697    11.4863
  445.4000   104.6151    11.3700    11.4867
  445.5000   104.6979    11.3703    11.4649
  445.6000   104.9426    11.3707    11.4081
  445.7000   105.2137    11.3710    11.4086
  445.8000   105.4321    11.3713    11.4091
  445.9000   105.5124    11.3716    11.3666
  446.0000   105.6194    11.3719    11.3310
  446.1000   105.9172    11.3723    11.3315
  446.2000   106.4133    11.3725    11.3319
  446.3000   106.8997    11.3316    11.2690
  446.4000   107.5795    11.2943    11.2544
  446.5000   108.4501    11.2947    11.2548
  446.6000   109.4343    11.2950    11.2553
  446.7000   110.4186    11.2953    11.2558
  446.8000   111.5381    11.2956    11.2563
  446.9000   113.4507    11.2959    11.2567
  447.0000   115.8245    11.2962    11.2572
  447.1000   118.1865    11.2965    11.2577
  447.2000   120.2200    11.2969    11.2463
  447.3000   121.4990    11.2972    11.1806
  447.4000   122.2080    11.2975    11.1811
  447.5000   122.7644    11.2978    11.1815
  447.6000   123.1299    11.2981    11.1820
  447.7000   123.3045    11.2985    11.1825
  447.8000   123.3027    11.2987    11.1829
  447.9000   123.3006    11.2991    11.1835
  448.0000   122.8882    11.2994    11.1839
  448.1000   122.5432    11.2997    11.1843
  448.2000   122.2949    11.3000    11.1848
  448.3000   121.9693    11.3003    11.1853
  448.4000   121.1769    11.3006    11.1858
  448.5000   120.9456    11.3009    11.1862
  448.6000   120.3491    11.3013    11.2316
  448.7000   119.4893    11.3016    11.2652
  448.8000   118.5015    11.3019    11.2656
  448.9000   117.5209    11.3022    11.2661
  449.0000   116.6341    11.3025    11.2667
  449.1000   116.2362    11.3028    11.2671
  449.2000   115.5988    11.3031    11.2675
  449.3000   114.9444    11.3035    11.2680
  449.4000   114.4182    11.3038    11.2685
  449.5000   113.6040    11.3041    11.2690
  449.6000   113.1577    11.3044    11.2694
  449.7000   112.6628    11.3047    11.2699
  449.8000   112.1679    11.3076    11.2703
  449.9000   111.7287    11.3745    11.2708
  450.0000   111.4804    11.3749    11.2713
  450.1000   111.1764    11.3754    11.3356
  450.2000   111.2649    11.3758    11.3499
  450.3000   111.5442    11.3763    11.3141
  450.4000   112.0772    11.3768    11.2713
  450.5000   112.3011    11.3773    11.2713
  450.6000   112.8858    11.3777    11.2713
  450.7000   113.7379    11.3782    11.2713
