~VERSION INFORMATION
 VERS.                2.0:   CWLS LOG ASCII STANDARD - VERSION 2.0
 WRAP.                 NO:   ONE LINE PER DEPTH STEP
~WELL INFORMATION
#MNEM.UNIT      DATA TYPE    INFORMATION
#----------   ------------   ------------------------------
 STRT.F           31.0000:   START DEPTH
 STOP.F          600.0000:   STOP DEPTH
 STEP.F            0.5000:   STEP LENGTH
 NULL.          -999.2500:   NO VALUE
 COMP. FENIX & SCISSON INC:   COMPANY
 WELL.      NPR 3 #84 S-3:   WELL
 FLD .             TEAPOT:   FIELD
 LOC .       S3 T38N R78W:   LOCATION
 CNTY.            NATRONA:   COUNTY
 STAT.            WYOMING:   STATE
 CTRY. UNITED STATES OF AMERICA:   COUNTRY
 SRVC.              Welex:   SERVICE COMPANY
 DATE.        29-MAR-1977:   LOGDATE
 API .       490251032000:   API NUMBER
~CURVE INFORMATION
#MNEM.UNIT       API CODE    CURVE DESCRIPTION
#----------   ------------   ------------------------------
 DEPT.F                  :   
 CALD.IN     45 280 60 00:   CALIPER FROM DENSITY LOG
 GRD .GAPI   45 310 01 00:   GAMMA RAY FROM DENSITY LOG
 CORR.G/C3   45 356 01 00:   DENSITY CORRECTION
 DPHI.DEC    45 890 12 00:   DENSITY POROSITY SANDSTONE
 RHOB.G/C3   45 350 01 00:   BULK DENSITY
 SPR .MV     07 010 01 00:   SPONTANEOUS POTENTIAL
 ILD .OHMM   07 120 46 00:   INDUCTION LOG DEEP
 ILM .OHMM   07 120 44 00:   INDUCTION LOG MEDIUM
 SGRD.OHMM   07 221 05 00:   SHALLOW SHORT GUARD RESISTIVITY
~PARAMETER INFORMATION
#MNEM.UNIT          VALUE    DESCRIPTION
#----------   ------------   ------------------------------
 PD  .                 GL:   PERMANENT DATUM
 EPD .F              5146:   ELEVATION PERMANENT DATUM
 LMF .                 GL:   LOG MEASURED FROM
 DMF .                 GL:   DRILLING MEASURED FROM
 EGL .F              5146:   GROUND LEVEL
 DATE.        29-MAR-1977:   RUN DATE
 RUN .                  1:   RUN NUMBER
 DD  .F               610:   DEPTH DRILLER
 DL  .F               602:   DEPTH LOGGER
 BLI .F               600:   BOTTOM LOG INTERVAL
 TLI .F                30:   TOP LOG INTERVAL
 CS  .IN            8.625:   CASING SIZE
 BSD .F               610:   BIT SIZE AT DEPTH
 DFT .                KCL:   DRILLING FLUID TYPE
 DFD .                8.8:   DRILLING FLUID DENSITY
 BHT .F                63:   BOTTOM HOLE TEMPERATURE
 TCS .HRS            0500:   TIME CURCULATED STOPPED
 MRT .F                63:   MAXIMUM RECORDED TEMPERATURE
 ENGI.            C. DOAK:   RECORDING ENGINEER
 WITN.            R. LYON:   WITNESSED BY
 CLNT.            A2DTECH:   CLIENT CODE
 ORIG.           5" PRINT:   ORIGIN OF DATA
 UWI .       490251032000:   UNIQUE WELL ID
 DICO. A2D Technologies, Inc.:   DIGITIZING COMPANY
~OTHER INFORMATION
~A   DEPT     CALD        GRD       CORR       DPHI       RHOB        SPR        ILD        ILM       SGRD   
# ...
  177.0000     7.9435   126.2856     0.0111     0.0945     2.4866   -53.8758     7.6738     8.8566    11.8487
  177.5000     7.9449   126.0009     0.0113     0.0924     2.4852   -51.9292     7.5211     9.4303    11.6132
  178.0000     7.9465   124.5239     0.0114     0.0954     2.4875   -52.3600     7.3714     8.9267    11.2258
  178.5000     7.9478   121.8547     0.0130     0.0957     2.4897   -50.7106     7.2746     8.4501    11.0027
  179.0000     7.9344   120.0797     0.0132     0.0943     2.4897   -49.3583     7.2290     8.6316    10.9325
  179.5000     7.9359   120.2420     0.0133     0.0956     2.4845   -46.3716     7.2337     9.0019    11.0946
  180.0000     7.9374   120.7024     0.0134     0.0938     2.4776   -44.1315     7.2382     8.8212    10.9478
  180.5000     7.9237   120.4177     0.0151     0.0902     2.4883   -45.1085     7.2428     8.5835    10.8047
  181.0000     7.9255   119.8349     0.0152     0.0868     2.5021   -48.9807     7.2473     8.8298    10.8893
  181.5000     7.9121   119.5469     0.0138     0.0877     2.5034   -52.4398     7.3527     9.3370    11.0489
  182.0000     7.9136   119.8616     0.0140     0.0844     2.5043   -50.8826     7.4597     9.7375    11.2887
  182.5000     7.9001   120.1730     0.0141     0.0802     2.5117   -50.1337     7.5161     9.1540    11.6139
  183.0000     7.9019   120.9315     0.0127     0.0796     2.5147   -46.5438     7.6255     8.9085    11.7841
  183.5000     7.9032   121.3919     0.0098     0.0819     2.5125   -42.3922     7.6831     8.6097    11.7923
  184.0000     7.8900   122.5975     0.0070     0.0867     2.5013   -42.2110     7.7413     8.6737    11.5579
  184.5000     7.8915   123.2070     0.0026     0.0948     2.4871   -47.1171     7.8539     9.1087    11.8088
  185.0000     7.8930   123.3693    -0.0018     0.1031     2.4752   -48.2909     7.9133     9.4994    12.1490
  185.5000     7.8944   121.4453    -0.0077     0.1073     2.4662   -49.9104     8.0284     9.9758    11.9075
  186.0000     7.8959   119.8193    -0.0091     0.1111     2.4543   -50.8113     8.0891    10.1900    12.0820
  186.5000     7.8974   120.4287    -0.0074     0.1138     2.4550   -49.4347     8.1503    10.3358    12.2590
  187.0000     7.9138   121.7833    -0.0073     0.1156     2.4531   -49.1262     8.1554     9.8530    12.3511
  187.5000     7.9153   124.3302    -0.0102     0.1174     2.4487   -50.0028     8.1043     9.3906    12.4456
  188.0000     7.9167   126.1319    -0.0146     0.1197     2.4420   -49.0963     8.1094     9.8626    12.4657
  188.5000     7.9331   127.7846    -0.0190     0.1221     2.4368   -46.7002     8.0586     9.6635    12.4626
  189.0000     7.9346   127.9732    -0.0203     0.1242     2.4339   -45.7937     8.0636     9.2638    12.3852
  189.5000     7.9361   125.8738    -0.0217     0.1257     2.4332   -44.7386     8.0686     9.0889    12.1336
  190.0000     7.9223   123.3537    -0.0216     0.1268     2.4310   -43.5387     8.0737     9.2288    11.7341
  190.5000     7.9093   122.0257    -0.0229     0.1274     2.4311   -45.0096     8.0219     9.2246    11.9061
  191.0000     7.8955   119.0584    -0.0213     0.1262     2.4334   -41.8705     7.9728     9.4285    12.1645
  191.5000     7.8526   114.1537    -0.0197     0.1223     2.4425   -43.0442     7.9778     9.7678    12.2576
  192.0000     7.8094   110.5903    -0.0180     0.1177     2.4516   -43.9245     7.9828    10.0379    11.9311
  192.5000     7.7658   109.5604    -0.0149     0.1144     2.4584   -42.5685     7.9316     9.8354    11.6132
  193.0000     7.7378   109.5738    -0.0132     0.1105     2.4637   -39.2846     7.9378     9.6391    11.0714
  193.5000     7.7542   109.5872    -0.0115     0.1069     2.4698   -37.7837     7.9427     9.6438    11.4695
  194.0000     7.8004   109.6006    -0.0084     0.1012     2.4759   -38.6603     8.0028     9.5819    12.0476
  194.5000     7.8615   109.3045    -0.0067     0.1015     2.4767   -40.8742     8.0633     9.5205    12.1398
  195.0000     7.9077   108.2414    -0.0035     0.0987     2.4835   -43.9795     8.1233     9.5251    11.7348
  195.5000     7.9241   106.0090    -0.0005     0.0951     2.4956   -49.0203     8.2415     9.8653    11.9895
  196.0000     7.9256   104.2454     0.0014     0.0912     2.5001   -42.7609     8.3613    10.4319    12.6814
  196.5000     7.9270   105.1997     0.0043     0.0897     2.4995   -42.6011     8.3637    10.2935    12.8672
  197.0000     7.9285   107.7437     0.0060     0.0900     2.4973   -45.2987     8.5292    10.0733    13.0558
  197.5000     7.9300   106.8655     0.0076     0.0899     2.4951   -47.7935     8.6948    10.9657    13.3391
  198.0000     7.9315   106.4284     0.0078     0.0905     2.4975   -45.7355     8.8603    11.3572    13.5346
  198.5000     7.9330   106.1470     0.0079     0.0881     2.5035   -43.3923     9.0430    10.9007    13.9245
  199.0000     7.9344   104.8191     0.0065     0.0845     2.5081   -42.3685     9.2372    10.9817    14.0311
  199.5000     7.9359   103.3421     0.0067     0.0806     2.5127   -41.6107     9.4355    12.0212    14.1384
  200.0000     7.9374   102.6557     0.0047     0.0793     2.5157   -40.5646     9.7724    11.5380    14.1483
  200.5000     7.9389   101.4460    -0.0027     0.0838     2.5098   -41.4433    10.0516    11.5431    14.0829
  201.0000     7.9404   100.5543    -0.0080     0.0884     2.5016   -42.7697    10.3387    12.8119    14.8622
  201.5000     7.8823   101.4889    -0.0094     0.0927     2.4965   -45.5810    10.5607    12.7297    15.2859
  202.0000     7.8237   105.9682    -0.0047     0.0969     2.4891   -44.6419    10.8623    12.4741    15.7218
  202.5000     7.7501   107.1608    -0.0031     0.0999     2.4809   -41.7880    11.1726    12.6542    15.4049
  203.0000     7.6930   105.9849     0.0001     0.1031     2.4742   -37.7890    11.4918    13.3810    15.1994
  203.5000     7.7101   107.2077     0.0032     0.1052     2.4690   -39.1858    11.7385    13.5872    15.4177
  204.0000     7.7721   108.4024     0.0079     0.1055     2.4721   -40.4460    11.7442    14.5537    21.5061
  204.5000     7.8483   107.9359     0.0125     0.1013     2.4774   -39.2244    11.7499    14.3606    18.8625
  205.0000     7.8937   106.0407     0.0172     0.0989     2.4805   -38.3361    11.7556    13.3145    16.4297
  205.5000     7.9240   106.2161     0.0143     0.1003     2.4783   -39.4265    11.5996    13.0176    16.3214
  206.0000     7.9255   106.6796     0.0129     0.1051     2.4694   -42.7640    11.5238    13.4422    16.4433
  206.5000     7.9270   107.1560     0.0146     0.1069     2.4657   -40.6171    11.3709    12.6159    15.8903
  207.0000     7.9434   107.9185     0.0162     0.1063     2.4718   -38.5320    11.2214    13.1571    15.3559
  207.5000     7.9449   108.6811     0.0194     0.1014     2.4779   -36.0921    10.9962    13.8168    15.5765
  208.0000     7.9463   109.5926     0.0240     0.0972     2.4840   -33.9217    10.5541    13.2613    16.3569
  208.5000     7.9312   109.7422     0.0287     0.0924     2.4938   -33.1461    10.4128    12.3807    15.8068
  209.0000     7.9046   109.1267     0.0303     0.0852     2.5021   -32.8682    10.4191    12.9118    15.4866
  209.5000     7.8912   108.1167     0.0320     0.0858     2.5052   -33.1689    10.4242    12.9009    15.3861
  210.0000     7.8479   107.3671     0.0291     0.0905     2.4925   -33.7692    10.4292    13.0319    15.0776
  210.5000     7.7878   106.4665     0.0230     0.0950     2.4851   -34.9450    10.4343    12.4909    14.7737
  211.0000     7.7445   104.8406     0.0110     0.1010     2.4814   -36.2264    10.4393    11.8239    14.6779
  211.5000     7.7332   103.5806     0.0022     0.1063     2.4755   -35.4054    10.4444    11.9945    14.4820
  212.0000     7.7794   103.4479    -0.0005     0.1138     2.4591   -33.8193    10.5220    12.1661    14.1898
  212.5000     7.8132   104.0859     0.0026     0.1168     2.4554   -35.0173    10.5271    11.4385    15.4261
  213.0000     7.8595   105.1724     0.0061     0.1102     2.4675   -35.1269    10.5322    12.0120    14.9073
