~VERSION INFORMATION
 VERS.                2.0:   CWLS LOG ASCII STANDARD - VERSION 2.0
 WRAP.                 NO:   ONE LINE PER DEPTH STEP
~WELL INFORMATION
#MNEM.UNIT      DATA TYPE    INFORMATION
#----------   ------------   ------------------------------
 STRT.F            0.0000:   START DEPTH
 STOP.F         2240.0000:   STOP DEPTH
 STEP.F            0.5000:   STEP LENGTH
 NULL.          -999.2500:   NO VALUE
 COMP.   FLUOR DANIEL INC:   COMPANY
 WELL. NAVAL PETROLEUM RESERVE 3 SX 62 #16-3:   WELL
 FLD .             TEAPOT:   FIELD
 LOC .       S3 T38N R78W:   LOCATION
 CNTY.            NATRONA:   COUNTY
 STAT.            WYOMING:   STATE
 CTRY. UNITED STATES OF AMERICA:   COUNTRY
 SRVC.            Unknown:   SERVICE COMPANY
 DATE.        19-SEP-1992:   LOGDATE
 API .       490251127300:   API NUMBER
~CURVE INFORMATION
#MNEM.UNIT       API CODE    CURVE DESCRIPTION
#----------   ------------   ------------------------------
 DEPT.F                  :   
 GR  .GAPI   81 310 01 00:   GAMMA RAY
 ROP .MIN/FT 91 810 01 00:   RATE OF DRILLING PENETRATION
 TGAS.UNITS  91 830 01 00:   TOTAL GAS FROM HOTWIRE
~PARAMETER INFORMATION
#MNEM.UNIT          VALUE    DESCRIPTION
#----------   ------------   ------------------------------
 PD  .                 GL:   PERMANENT DATUM
 EPD .F              5144:   ELEVATION PERMANENT DATUM
 LMF .                 KB:   LOG MEASURED FROM
 DAPD.F                10:   FEET ABOVE PERMANENT DATUM
 DMF .                 KB:   DRILLING MEASURED FROM
 EKB .F              5154:   KELLING BUSHING
 EDF .F              5152:   DRILLING FLOOR
 EGL .F              5144:   GROUND LEVEL
 DATE.            9-19-92:   RUN DATE
 RUN .                  1:   RUN NUMBER
 DD  .F               560:   DEPTH DRILLER
 DL  .F               520:   DEPTH LOGGER
 BLI .F               520:   BOTTOM LOG INTERVAL
 BS  .IN             8.75:   BIT SIZE
 BSD .F               560:   BIT SIZE AT DEPTH
 DFT . OIL WATER (TENSLEEP CRUDE):   DRILLING FLUID TYPE
 TCS .HRS            1200:   TIME CURCULATED STOPPED
 LUL .           GILLETTE:   LOGGING UNIT LOCATION
 ENGI.          L. GOENES:   RECORDING ENGINEER
 WITN.              HARDY:   WITNESSED BY
 CLNT.            A2DTECH:   CLIENT CODE
 ORIG.           5" PRINT:   ORIGIN OF DATA
 UWI .       490251127300:   UNIQUE WELL ID
 DICO. A2D Technologies, Inc.:   DIGITIZING COMPANY
~OTHER INFORMATION
~A    DEPT       GR       ROP       TGAS   
# ...
 2002.0000  -999.2500     0.6441     3.2415
 2002.5000  -999.2500     0.6435     3.2588
 2003.0000  -999.2500     0.6434     3.2761
 2003.5000  -999.2500     0.6437     3.2935
 2004.0000  -999.2500     0.6365     3.3108
 2004.5000  -999.2500     0.6283     3.3282
 2005.0000  -999.2500     0.5971     3.3456
 2005.5000  -999.2500     0.5690     3.3628
 2006.0000  -999.2500     0.5750     3.3753
 2006.5000  -999.2500     0.6074     3.3750
 2007.0000  -999.2500     0.6373     3.3750
 2007.5000  -999.2500     0.6651     3.3750
 2008.0000  -999.2500     0.6527     3.3750
 2008.5000  -999.2500     0.6432     3.3750
 2009.0000  -999.2500     0.6362     3.3750
 2009.5000  -999.2500     0.6502     3.3750
 2010.0000  -999.2500     0.8559     3.3750
 2010.5000  -999.2500     1.2029     3.3750
 2011.0000  -999.2500     1.5529     3.3750
 2011.5000  -999.2500     1.9394     3.3750
 2012.0000  -999.2500     1.8009     3.3750
 2012.5000  -999.2500     1.6095     3.3750
 2013.0000  -999.2500     1.4186     3.3750
 2013.5000  -999.2500     1.2289     3.3750
 2014.0000  -999.2500     1.0392     3.3750
 2014.5000  -999.2500     0.9189     3.3750
 2015.0000  -999.2500     0.8742     3.3750
 2015.5000  -999.2500     0.8333     3.3750
 2016.0000  -999.2500     0.8641     3.3750
 2016.5000  -999.2500     0.9330     3.3750
 2017.0000  -999.2500     0.9193     3.3750
 2017.5000  -999.2500     0.8711     3.3750
 2018.0000  -999.2500     0.8210     3.3759
 2018.5000  -999.2500     0.8182     3.3767
 2019.0000  -999.2500     0.8173     3.3618
 2019.5000  -999.2500     0.8307     3.1580
 2020.0000  -999.2500     0.8498     3.1581
 2020.5000  -999.2500     0.8941     3.6916
 2021.0000  -999.2500     0.9430     5.7188
 2021.5000  -999.2500     0.9924     8.0271
 2022.0000  -999.2500     1.0050    10.2714
 2022.5000  -999.2500     0.9796    10.5079
 2023.0000  -999.2500     0.9538     7.9422
 2023.5000  -999.2500     0.9280     5.9408
 2024.0000  -999.2500     0.9187     4.1461
 2024.5000  -999.2500     0.9276     3.2132
 2025.0000  -999.2500     0.9419     2.4307
 2025.5000  -999.2500     0.9559     2.3676
 2026.0000  -999.2500     0.9562     2.3700
 2026.5000  -999.2500     0.9450     2.3862
 2027.0000  -999.2500     0.9131     2.5793
 2027.5000  -999.2500     0.9064     2.8069
 2028.0000  -999.2500     0.9091     3.1091
 2028.5000  -999.2500     0.9122     3.3740
 2029.0000  -999.2500     0.9155     3.3854
 2029.5000  -999.2500     0.9187     3.4598
 2030.0000  -999.2500     0.9332     3.5357
 2030.5000  -999.2500     0.9615     3.6115
 2031.0000  -999.2500     0.9898     3.6872
 2031.5000  -999.2500     1.0182     3.7630
 2032.0000  -999.2500     1.0475     3.8388
 2032.5000  -999.2500     1.0462     3.9137
 2033.0000  -999.2500     1.0025     3.9890
 2033.5000  -999.2500     0.9594     4.0761
 2034.0000  -999.2500     0.9301     4.3303
 2034.5000  -999.2500     0.9311     4.4042
 2035.0000  -999.2500     0.9313     4.4222
 2035.5000  -999.2500     0.9312     4.4427
 2036.0000  -999.2500     0.9312     4.4654
 2036.5000  -999.2500     0.9312     4.4879
 2037.0000  -999.2500     0.9313     4.5104
 2037.5000  -999.2500     0.9312     4.5329
 2038.0000  -999.2500     0.9305     4.5509
 2038.5000  -999.2500     0.9587     4.5656
 2039.0000  -999.2500     0.9967     4.6088
 2039.5000  -999.2500     1.0070     4.7686
 2040.0000  -999.2500     0.9660    10.9257
 2040.5000  -999.2500     0.9095    22.9655
 2041.0000  -999.2500     0.8527    35.1386
 2041.5000  -999.2500     0.7965    47.3074
 2042.0000  -999.2500     0.7530    59.4985
 2042.5000  -999.2500     0.7458    69.8572
 2043.0000  -999.2500     0.7482    69.7984
 2043.5000  -999.2500     0.7512    69.7764
 2044.0000  -999.2500     0.7545    69.7524
 2044.5000  -999.2500     0.7548    69.7210
 2045.0000  -999.2500     0.7184    69.6839
 2045.5000  -999.2500     0.6834    69.6472
 2046.0000  -999.2500     0.6487    69.6252
 2046.5000  -999.2500     0.6307    69.6251
 2047.0000  -999.2500     0.6606    69.6250
 2047.5000  -999.2500     0.7020    69.6250
 2048.0000  -999.2500     0.7437    69.6250
 2048.5000  -999.2500     0.7853    69.6250
 2049.0000  -999.2500     0.8275    69.6249
 2049.5000  -999.2500     0.8795    69.6147
 2050.0000  -999.2500     0.9334    69.5937
 2050.5000  -999.2500     0.9584    69.5727
 2051.0000  -999.2500     0.9619    69.5517
 2051.5000  -999.2500     0.9674    69.5306
 2052.0000  -999.2500     1.0021    69.5096
 2052.5000  -999.2500     1.1304    69.4885
 2053.0000  -999.2500     1.1644    69.4675
 2053.5000  -999.2500     1.1082    69.4464
 2054.0000  -999.2500     1.1187    69.4254
 2054.5000  -999.2500     1.1834    69.4044
 2055.0000  -999.2500     1.2425    69.3832
 2055.5000  -999.2500     1.3011    69.3715
 2056.0000  -999.2500     1.2869    69.3655
 2056.5000  -999.2500     1.1999    69.3595
 2057.0000  -999.2500     1.1443    69.3536
 2057.5000  -999.2500     1.1439    69.3477
 2058.0000  -999.2500     1.1452    69.3418
 2058.5000  -999.2500     1.1308    69.3358
 2059.0000  -999.2500     1.0877    69.3299
 2059.5000  -999.2500     1.0438    69.3240
 2060.0000  -999.2500     1.0441    69.3180
 2060.5000  -999.2500     1.1175    69.3121
 2061.0000  -999.2500     1.2000    69.3062
 2061.5000  -999.2500     1.2826    69.3002
 2062.0000  -999.2500     1.3556    69.2943
 2062.5000  -999.2500     1.3444    69.2884
 2063.0000  -999.2500     1.2933    69.2824
 2063.5000  -999.2500     1.2469    69.2765
 2064.0000  -999.2500     1.2011    69.2706
 2064.5000  -999.2500     1.1659    69.2646
 2065.0000  -999.2500     1.1585    69.2587
 2065.5000  -999.2500     1.1504    69.2528
 2066.0000  -999.2500     1.1455    69.2468
 2066.5000  -999.2500     1.1867    69.2409
 2067.0000  -999.2500     1.2262    69.2350
 2067.5000  -999.2500     1.2647    69.2290
 2068.0000  -999.2500     1.3129    69.2231
 2068.5000  -999.2500     1.5109    69.2172
 2069.0000  -999.2500     1.7003    69.2112
 2069.5000  -999.2500     1.8869    69.2053
 2070.0000  -999.2500     2.0223    69.1994
 2070.5000  -999.2500     1.9988    69.1934
 2071.0000  -999.2500     1.9704    69.1875
 2071.5000  -999.2500     1.9598    69.1816
 2072.0000  -999.2500     2.0026    69.1757
 2072.5000  -999.2500     1.7878    69.1697
 2073.0000  -999.2500     1.5374    69.1638
 2073.5000  -999.2500     1.3778    69.1579
 2074.0000  -999.2500     1.2437    69.1519
 2074.5000  -999.2500     0.9449    69.1460
 2075.0000  -999.2500     0.8964    69.1401
 2075.5000  -999.2500     0.8903    69.1341
 2076.0000  -999.2500     0.8875    69.1282
 2076.5000  -999.2500     0.8837    69.1250
 2077.0000  -999.2500     0.8819    69.1250
 2077.5000  -999.2500     0.9160    69.1250
 2078.0000  -999.2500     0.9188    69.1250
 2078.5000  -999.2500     0.9189    69.1250
 2079.0000  -999.2500     0.9187    69.1248
 2079.5000  -999.2500     0.9188    69.1243
 2080.0000  -999.2500     0.9189    69.1240
 2080.5000  -999.2500     0.9369    69.1665
 2081.0000  -999.2500     0.9697    69.5396
 2081.5000  -999.2500     1.0339    69.9179
 2082.0000  -999.2500     1.1067    70.2949
 2082.5000  -999.2500     1.1690    70.6719
 2083.0000  -999.2500     1.1691    71.0487
 2083.5000  -999.2500     1.1686    71.4254
 2084.0000  -999.2500     1.1581    71.8024
 2084.5000  -999.2500     1.0861    72.1921
 2085.0000  -999.2500     1.0126    72.6580
 2085.5000  -999.2500     0.9388    73.1243
 2086.0000  -999.2500     0.8648    73.5903
 2086.5000  -999.2500     0.7952    74.0564
 2087.0000  -999.2500     0.7932    74.5224
 2087.5000  -999.2500     0.7968    74.9884
 2088.0000  -999.2500     0.8017    75.4544
 2088.5000  -999.2500     0.8066    75.9205
 2089.0000  -999.2500     0.8113    76.3866
 2089.5000  -999.2500     0.8160    76.8525
 2090.0000  -999.2500     0.8202    77.3195
 2090.5000  -999.2500     0.8979    77.7901
 2091.0000  -999.2500     1.0055    77.8470
 2091.5000  -999.2500     1.1124    77.8041
 2092.0000  -999.2500     1.2192    77.7585
 2092.5000  -999.2500     1.2564    77.7147
