~VERSION INFORMATION
 VERS.                2.0:   CWLS LOG ASCII STANDARD - VERSION 2.0
 WRAP.                 NO:   ONE LINE PER DEPTH STEP
~WELL INFORMATION
#MNEM.UNIT      DATA TYPE    INFORMATION
#----------   ------------   ------------------------------
 STRT.F           10.0000:   START DEPTH
 STOP.F          833.5000:   STOP DEPTH
 STEP.F            0.5000:   STEP LENGTH
 NULL.          -999.2500:   NO VALUE
 COMP. FENIX & SCISSON INC:   COMPANY
 WELL.       NPR 3 #46-11:   WELL
 FLD .             TEAPOT:   FIELD
 LOC .      S11 T38N R78W:   LOCATION
 CNTY.            NATRONA:   COUNTY
 STAT.            WYOMING:   STATE
 CTRY. UNITED STATES OF AMERICA:   COUNTRY
 SRVC.           BIRDWELL:   SERVICE COMPANY
 DATE.        17-DEC-1978:   LOGDATE
 API .       490251075600:   API NUMBER
~CURVE INFORMATION
#MNEM.UNIT       API CODE    CURVE DESCRIPTION
#----------   ------------   ------------------------------
 DEPT.F                  :   
 GRD .GAPI   45 310 01 00:   GAMMA RAY FROM DENSITY LOG
 CALD.IN     45 280 60 00:   CALIPER
 CORR.G/C3   45 356 01 00:   DENSITY CORRECTION
 DPHI.DEC    45 890 12 00:   DENSITY POROSITY SANDSTONE
 RHOB.G/C3   45 350 01 00:   BULK DENSITY
 SPR .MV     05 010 01 00:   SPONTANEOUS POTENTIAL FROM RES.
 SN  .OHMM   05 040 16 00:   SHORT NORMAL 16"
 IL  .OHMM   05 120 00 00:   INDUCTION LOG
~PARAMETER INFORMATION
#MNEM.UNIT          VALUE    DESCRIPTION
#----------   ------------   ------------------------------
 PD  .                 GL:   PERMANENT DATUM
 EPD .F              5193:   ELEVATION PERMANENT DATUM
 LMF .                 KB:   LOG MEASURED FROM
 DAPD.F                 4:   FEET ABOVE PERMANENT DATUM
 DMF .                 KB:   DRILLING MEASURED FROM
 EKB .F              5197:   KELLING BUSHING
 EGL .F              5193:   GROUND LEVEL
 DATE.           12-17-78:   RUN DATE
 RUN .                  1:   RUN NUMBER
 DD  .F               845:   DEPTH DRILLER
 DL  .F               834:   DEPTH LOGGER
 BLI .F               827:   BOTTOM LOG INTERVAL
 TLI .F                60:   TOP LOG INTERVAL
 CS  .IN            8.625:   CASING SIZE
 CBD .F                40:   CASING BOTTOM DRILLER
 CBL .F                42:   CASING BOTTOM LOGGER
 BS  .IN            7.875:   BIT SIZE
 BSD .F               845:   BIT SIZE AT DEPTH
 DFT .                KCL:   DRILLING FLUID TYPE
 DFD .                8.8:   DRILLING FLUID DENSITY
 DFV .                 36:   DRILLING FLUID VISCOSITY
 DFPH.               10.5:   DRILLING FLUID PH
 MSS .          FLOW LINE:   MUD SAMPLE SOURCE
 RMS .OHMM            .34:   RESISTIVITY MUD SAMPLE
 MST .F                62:   MUD SAMPLE TEMPERATURE
 RMF .OHMM            .26:   RESISTIVITY MUD FILTRATE SAMPLE
 MFST.F                66:   MUD FILTRATE SAMPLE TEMPERATURE
 RMC .OHMM            .42:   RESISTIVITY MUD CAKE
 MCST.F                68:   MUD CAKE SAMPLE TEMPERATURE
 MFSS.           MEASURED:   MUD FILTRATE SAMPLE SOURCE
 MCSS.           MEASURED:   MUD CAKE SAMPLE SOURCE
 RMB .OHMM           .288:   RESISTIVITY MUD AT BHT
 BHT .F                73:   BOTTOM HOLE TEMPERATURE
 TCS .HRS               4:   TIME CURCULATED STOPPED
 MRT .F                73:   MAXIMUM RECORDED TEMPERATURE
 LUN .               3006:   LOGGING UNIT NUMBER
 LUL .             CASPER:   LOGGING UNIT LOCATION
 ENGI.         B. ROLLINS:   RECORDING ENGINEER
 WITN.         RICHARDSON:   WITNESSED BY
 CLNT.            A2DTECH:   CLIENT CODE
 ORIG.           5" PRINT:   ORIGIN OF DATA
 UWI .       490251075600:   UNIQUE WELL ID
 DICO. A2D Technologies, Inc.:   DIGITIZING COMPANY
~OTHER INFORMATION
~A   DEPT      GRD       CALD       CORR       DPHI       RHOB        SPR         SN         IL   
# ...
  131.5000    97.7010     8.3020    -0.0210     0.1550     2.4020   -23.4940     4.3610     4.1840
  132.0000    96.2230     8.2510    -0.0200     0.1580     2.4040   -23.4940     4.3500     4.3710
  132.5000    94.3570     8.2000    -0.0200     0.1620     2.4020   -23.4950     4.3400     4.3050
  133.0000    92.4990     8.2050    -0.0190     0.1670     2.3950   -23.4940     4.3290     4.1840
  133.5000    90.8660     8.2240    -0.0180     0.1720     2.3890   -23.4920     4.3190     4.0630
  134.0000    91.5120     8.2430    -0.0130     0.1770     2.3820   -23.5030     4.3080     3.9420
  134.5000    93.2540     8.2620    -0.0080     0.1820     2.3760   -23.4050     4.2980     3.8360
  135.0000    94.9700     8.2680    -0.0040     0.1880     2.3670   -23.2390     4.2590     3.8150
  135.5000    96.6940     8.2610     0.0000     0.1930     2.3570   -23.0870     4.1630     3.7850
  136.0000    97.8490     8.2540     0.0000     0.1980     2.3460   -22.9370     4.0660     3.7550
  136.5000    98.8530     8.2480    -0.0010     0.2030     2.3360   -22.7710     3.9690     3.7250
  137.0000    99.8510     8.2410    -0.0010     0.2080     2.3260   -22.6830     3.8730     3.6960
  137.5000   100.8480     8.2340    -0.0010     0.2130     2.3150   -22.6930     3.7760     3.6660
  138.0000   101.8420     8.2310    -0.0010     0.2180     2.3050   -22.6900     3.6790     3.6360
  138.5000   102.8200     8.2340    -0.0020     0.2220     2.3020   -22.6900     3.5820     3.6060
  139.0000   103.1360     8.2370    -0.0020     0.2100     2.3040   -22.6910     3.4860     3.5610
  139.5000   101.8560     8.2390    -0.0020     0.1990     2.3240   -22.6900     3.3890     3.6100
  140.0000   100.9900     8.2420    -0.0020     0.1820     2.3470   -22.6910     3.2920     3.7120
  140.5000   100.4840     8.2450    -0.0030     0.1640     2.3700   -22.6910     3.1960     3.8140
  141.0000   100.3310     8.2480    -0.0030     0.1510     2.3930   -22.6910     3.1250     3.9150
  141.5000   100.1730     8.2510    -0.0030     0.1440     2.4140   -22.6910     3.1250     4.0170
  142.0000   100.4800     8.2530    -0.0030     0.1460     2.4210   -22.6910     3.4680     4.1190
  142.5000   101.2020     8.2560    -0.0040     0.1470     2.4200   -22.6910     3.7880     4.2200
  143.0000   101.9830     8.2590    -0.0040     0.1490     2.4190   -22.6910     4.1080     4.3220
  143.5000    99.2150     8.2620    -0.0040     0.1510     2.4180   -22.6910     4.4290     4.4240
  144.0000    97.7200     8.2650    -0.0020     0.1560     2.4130   -22.6910     4.7980     4.5250
  144.5000    96.8860     8.2670    -0.0010     0.1590     2.4070   -22.6910     4.8360     4.6220
  145.0000    94.5730     8.2670     0.0010     0.1620     2.4010   -22.6910     4.8880     4.6140
  145.5000    91.2720     8.2450     0.0020     0.1650     2.3950   -22.6910     4.8880     4.5790
  146.0000    93.1150     8.2240     0.0040     0.1680     2.3890   -22.6910     4.8350     4.5370
  146.5000    96.9800     8.2020     0.0000     0.1740     2.3830   -22.6910     4.7520     4.4650
  147.0000   100.8200     8.1800    -0.0070     0.1860     2.3760   -22.6900     4.6690     4.3770
  147.5000   103.8600     8.1580    -0.0120     0.1990     2.3600   -22.6900     4.5850     4.2900
  148.0000   103.8240     8.1360    -0.0120     0.2110     2.3360   -22.6910     4.5020     4.2030
  148.5000   103.4700     8.1140    -0.0120     0.2230     2.3120   -22.6890     4.3750     4.1160
  149.0000   103.3120     8.0950    -0.0120     0.2310     2.2780   -22.6920     4.1870     4.0280
  149.5000   104.7790     8.1350    -0.0120     0.2100     2.2860   -22.6990     3.9990     3.9410
  150.0000   107.1100     8.1710    -0.0120     0.1850     2.3110   -22.8440     3.8110     3.8360
  150.5000   105.2690     8.1840    -0.0120     0.1770     2.3360   -22.9910     3.6230     3.8360
  151.0000   101.2760     8.1620    -0.0120     0.1750     2.3600   -23.1440     3.4350     3.8360
  151.5000    97.2930     8.1400    -0.0120     0.1720     2.3790   -23.2940     3.2440     3.8360
  152.0000    93.7860     8.1180    -0.0120     0.1670     2.3840   -23.4430     3.2440     3.8360
  152.5000    90.6770     8.0960    -0.0120     0.1610     2.3890   -23.5970     3.4680     3.8360
  153.0000    90.4970     8.1100    -0.0120     0.1560     2.3970   -23.7440     3.6580     3.8360
  153.5000    90.4640     8.1370    -0.0120     0.1520     2.4060   -23.8890     3.8470     3.8360
  154.0000    92.3070     8.1650    -0.0120     0.1510     2.4140   -23.9110     4.0370     3.9500
  154.5000    94.8280     8.1890    -0.0120     0.1500     2.4160   -23.9310     4.2260     4.0660
  155.0000    97.3800     8.1820    -0.0120     0.1490     2.4160   -23.9450     4.4150     4.1830
  155.5000   100.1380     8.1740    -0.0120     0.1520     2.4160   -23.9630     4.6220     4.2110
  156.0000    98.3820     8.1670    -0.0120     0.1550     2.4110   -23.9800     4.6220     4.2110
  156.5000    95.2130     8.1590    -0.0120     0.1580     2.4040   -23.9960     4.6070     4.2110
  157.0000    92.0030     8.1520    -0.0120     0.1610     2.3990   -24.0130     4.5940     4.2110
  157.5000    89.1290     8.1440    -0.0120     0.1640     2.3950   -24.0290     4.5810     4.2360
  158.0000    89.2960     8.1360    -0.0120     0.1680     2.3910   -24.0460     4.5670     4.2580
  158.5000    93.1420     8.1290    -0.0120     0.1780     2.3870   -24.0630     4.5540     4.2800
  159.0000    96.2750     8.1210    -0.0120     0.1900     2.3760   -24.0800     4.5410     4.2900
  159.5000    94.8190     8.1140    -0.0120     0.2020     2.3590   -24.0960     4.4480     4.2900
  160.0000    93.6650     8.1170    -0.0120     0.2130     2.3410   -24.1130     4.3250     4.2260
  160.5000    97.4210     8.1450    -0.0120     0.2190     2.3230   -24.1300     4.2020     4.1020
  161.0000   100.6870     8.1710    -0.0120     0.2120     2.3100   -24.1470     4.0800     3.9770
  161.5000   101.0610     8.1900    -0.0120     0.2030     2.3170   -24.1630     3.9570     3.8530
  162.0000   101.2780     8.1880    -0.0120     0.1940     2.3260   -24.1800     3.8340     3.7290
  162.5000   100.0890     8.1870    -0.0120     0.2010     2.3360   -24.1970     3.7120     3.6050
  163.0000    97.6950     8.1860    -0.0120     0.2090     2.3320   -24.2140     3.5890     3.4810
  163.5000    95.1790     8.1840    -0.0120     0.2180     2.3160   -24.2300     3.4660     3.3570
  164.0000    92.8290     8.1830    -0.0120     0.2230     2.3060   -24.2470     3.3440     3.2440
  164.5000    92.6310     8.1820    -0.0120     0.2270     2.2970   -24.2640     3.2890     3.2080
  165.0000    95.3810     8.1810    -0.0120     0.2320     2.2880   -24.2800     3.2660     3.1750
  165.5000    98.0290     8.1790    -0.0120     0.2410     2.2790   -24.2960     3.2430     3.1430
  166.0000   100.6740     8.1780    -0.0120     0.2530     2.2690   -24.2970     3.2200     3.0830
  166.5000   103.3880     8.1770    -0.0120     0.2660     2.2520   -24.2970     3.1970     2.9940
  167.0000   104.0240     8.1760    -0.0120     0.2810     2.2330   -24.2970     3.1170     2.9040
  167.5000   103.1480     8.1740    -0.0120     0.2750     2.2130   -24.2970     2.9740     2.8150
  168.0000   102.8690     8.1730    -0.0120     0.2650     2.1970   -24.2970     2.8300     2.7260
  168.5000   103.5250     8.1720    -0.0120     0.2460     2.2230   -24.2980     2.6870     2.6360
  169.0000   104.1450     8.1700    -0.0120     0.2190     2.2640   -24.2970     2.5430     2.5470
  169.5000   101.5370     8.1700    -0.0120     0.1910     2.3070   -24.2970     2.4000     2.4570
  170.0000    97.9490     8.1700    -0.0120     0.1670     2.3520   -24.2990     2.3200     2.4080
  170.5000    95.1460     8.1700    -0.0120     0.1610     2.3850   -24.2960     2.3370     2.4440
  171.0000    96.3860     8.1700    -0.0120     0.1690     2.3900   -24.2960     2.4080     2.5980
  171.5000    97.5250     8.1700    -0.0120     0.1690     2.3870   -24.1660     2.6700     2.7510
