~VERSION INFORMATION
 VERS.                2.0:   CWLS LOG ASCII STANDARD - VERSION 2.0
 WRAP.                 NO:   ONE LINE PER DEPTH STEP
~WELL INFORMATION
#MNEM.UNIT      DATA TYPE    INFORMATION
#----------   ------------   ------------------------------
 STRT.F            0.0000:   START DEPTH
 STOP.F          550.0000:   STOP DEPTH
 STEP.F            0.1000:   STEP LENGTH
 NULL.          -999.2500:   NO VALUE
 COMP.       F D SERV INC:   COMPANY
 WELL. NAVAL PETROLEUM RESERVE 3 SX-3 #77-4-3:   WELL
 FLD .          N.P.R. #3:   FIELD
 LOC .       S3 T38N R78W:   LOCATION
 CNTY.            NATRONA:   COUNTY
 STAT.            WYOMING:   STATE
 CTRY. UNITED STATES OF AMERICA:   COUNTRY
 SRVC.      Western Atlas:   SERVICE COMPANY
 DATE.        28-OCT-1992:   LOGDATE
 API .       490252255100:   API NUMBER
~CURVE INFORMATION
#MNEM.UNIT       API CODE    CURVE DESCRIPTION
#----------   ------------   ------------------------------
 DEPT.F                  :   
 GRR .GAPI   07 310 01 00:   GAMMA RAY FROM RESISTIVITY
 RILD.OHMM   07 120 46 00:   DEEP INDUCTION RESISTIVITY
 RILM.OHMM   07 120 44 00:   INDUCTION LOG MEDIUM RESISTIVITY
~PARAMETER INFORMATION
#MNEM.UNIT          VALUE    DESCRIPTION
#----------   ------------   ------------------------------
 PD  .                 GL:   PERMANENT DATUM
 EPD .F              5160:   ELEVATION PERMANENT DATUM
 LMF .                 KB:   LOG MEASURED FROM
 DAPD.F                10:   FEET ABOVE PERMANENT DATUM
 DMF .                 KB:   DRILLING MEASURED FROM
 EKB .F              5170:   KELLING BUSHING
 EDF .F              5169:   DRILLING FLOOR
 EGL .F              5160:   GROUND LEVEL
 DATE.        28-OCT-1992:   RUN DATE
 RUN .                  1:   RUN NUMBER
 DD  .F               555:   DEPTH DRILLER
 DL  .F               558:   DEPTH LOGGER
 BLI .F               550:   BOTTOM LOG INTERVAL
 CS  .IN            8.625:   CASING SIZE
 CBD .F                54:   CASING BOTTOM DRILLER
 CBL .F                54:   CASING BOTTOM LOGGER
 BS  .IN            7.875:   BIT SIZE
 BSD .F               555:   BIT SIZE AT DEPTH
 DFT .           AIR FOAM:   DRILLING FLUID TYPE
 TCS .HRS               1:   TIME CURCULATED STOPPED
 MRT .F                65:   MAXIMUM RECORDED TEMPERATURE
 LUN .            HL-6274:   LOGGING UNIT NUMBER
 LUL .             CASPER:   LOGGING UNIT LOCATION
 ENGI.             RAUTIO:   RECORDING ENGINEER
 WITN.     BRUCE ANDERSON:   WITNESSED BY
 CLNT.            A2DTECH:   CLIENT CODE
 ORIG.           5" PRINT:   ORIGIN OF DATA
 UWI .       490252255100:   UNIQUE WELL ID
 DICO. A2D Technologies, Inc.:   DIGITIZING COMPANY
~OTHER INFORMATION
~A    DEPT      GRR      RILD       RILM   
# ...
  364.0000    95.3837    19.6629    19.4589
  364.1000    95.3831    19.6634    19.4594
  364.2000    95.3825    19.6640    19.4400
  364.3000    95.3819    19.6484    19.3255
  364.4000    95.3812    19.5286    19.3260
  364.5000    95.3807    19.5291    19.3266
  364.6000    95.3801    19.5296    19.2658
  364.7000    95.5069    19.5302    19.1936
  364.8000    95.6810    19.5307    19.1941
  364.9000    95.7027    19.5313    19.1947
  365.0000    95.9818    19.5319    19.0931
  365.1000    96.4199    19.4339    18.9840
  365.2000    96.7516    19.3229    18.8755
  365.3000    97.0006    19.2126    18.8000
  365.4000    97.3112    19.1029    18.7906
  365.5000    97.7916    18.9937    18.6707
  365.6000    97.7908    18.8664    18.6711
  365.7000    97.7903    18.7775    18.5994
  365.8000    97.4828    18.7364    18.4931
  365.9000    96.9830    18.7369    18.3873
  366.0000    96.4833    18.7166    18.2822
  366.1000    95.9752    18.6078    18.1610
  366.2000    95.2386    18.6083    18.1614
  366.3000    94.4893    18.6089    18.0308
  366.4000    93.5998    18.6094    17.9113
  366.5000    92.6887    18.5724    17.9118
  366.6000    91.9745    18.4811    17.9123
  366.7000    91.4398    18.4818    17.8095
  366.8000    90.7430    18.4822    17.7890
  366.9000    90.5323    18.4828    17.7295
  367.0000    90.5317    18.4833    17.6666
  367.1000    90.5311    18.4838    17.6498
  367.2000    90.5305    18.4751    17.5450
  367.3000    90.5298    18.3565    17.5455
  367.4000    90.7480    18.3570    17.4702
  367.5000    90.9970    18.2874    17.4247
  367.6000    91.4732    18.2306    17.3917
  367.7000    92.2212    18.2311    17.3047
  367.8000    92.9777    18.2316    17.3053
  367.9000    94.1516    18.2322    17.3058
  368.0000    94.9729    18.2326    17.3063
  368.1000    95.8176    18.1690    17.3067
  368.2000    96.3650    18.1070    17.2782
  368.3000    96.5663    18.1075    17.1876
  368.4000    96.5655    18.1080    17.1882
  368.5000    96.5649    18.1085    17.1023
  368.6000    96.3722    18.0291    17.0698
  368.7000    96.2616    17.9838    17.0255
  368.8000    96.1740    17.9484    16.9523
  368.9000    95.9239    17.8599    16.9528
  369.0000    95.6555    17.8605    16.9534
  369.1000    95.4236    17.8609    17.0352
  369.2000    94.9945    17.8614    17.0727
  369.3000    94.6211    17.8619    17.0731
  369.4000    94.3710    17.8624    17.0736
  369.5000    94.1208    17.8543    17.0741
  369.6000    93.8392    17.7395    17.0746
  369.7000    93.8387    17.7399    16.9979
  369.8000    94.0037    17.7404    16.9571
  369.9000    94.3656    17.7409    16.9575
  370.0000    94.8037    17.7414    16.9423
  370.1000    95.0525    17.7387    16.8408
  370.2000    95.3461    17.6193    16.8413
  370.3000    95.3456    17.6197    16.7699
  370.4000    95.4973    17.5585    16.6740
  370.5000    95.7462    17.4983    16.5787
  370.6000    95.9482    17.4988    16.4839
  370.7000    95.9474    17.4993    16.3811
  370.8000    96.1909    17.4016    16.2961
  370.9000    96.2483    17.3788    16.2683
  371.0000    96.3867    17.3238    16.2229
  371.1000    96.5492    17.2591    16.1301
  371.2000    96.5486    17.2461    16.0447
  371.3000    96.5480    17.1403    16.0452
  371.4000    96.5474    17.1407    15.9659
  371.5000    96.7251    17.0710    15.8747
  371.6000    96.8483    17.0226    15.7839
  371.7000    96.9208    16.9945    15.6937
  371.8000    97.1493    16.8974    15.6067
  371.9000    97.1486    16.7886    15.6072
  372.0000    97.3655    16.7890    15.5339
  372.1000    97.6145    16.7258    15.4997
  372.2000    97.7511    16.6733    15.4642
  372.3000    97.7505    16.6509    15.3930
  372.4000    97.7498    16.5557    15.3935
  372.5000    97.7491    16.4441    15.3939
  372.6000    97.7486    16.3673    15.3943
  372.7000    97.7480    16.2738    15.3948
  372.8000    97.6483    16.1809    15.3952
  372.9000    97.4447    16.0884    15.3956
  373.0000    97.4441    15.9943    15.3961
  373.1000    97.2001    15.9052    15.3965
  373.2000    96.9499    15.8144    15.3320
  373.3000    96.6997    15.6743    15.2905
  373.4000    96.2780    15.5258    15.2909
  373.5000    95.5288    15.4488    15.2818
  373.6000    94.7214    15.4493    15.1858
  373.7000    94.2605    15.3680    15.1861
  373.8000    94.1160    15.3429    15.1866
  373.9000    94.1154    15.3433    15.1449
  374.0000    94.1873    15.3182    15.0820
  374.1000    94.4562    15.2376    15.0825
  374.2000    95.0199    15.2381    15.0829
  374.3000    95.2363    15.2385    15.0833
  374.4000    95.6495    15.2389    15.0837
  374.5000    96.1479    15.2394    15.0841
  374.6000    96.6464    15.2398    15.0646
  374.7000    97.1383    15.2379    14.9803
  374.8000    97.4331    15.1349    14.9808
  374.9000    97.6362    15.1352    14.9812
  375.0000    97.8852    15.0831    14.9816
  375.1000    98.2326    15.0310    14.9820
  375.2000    98.6852    15.0314    14.9824
  375.3000    98.9408    15.0318    14.9828
  375.4000    99.1831    15.0322    14.9832
  375.5000    99.2417    15.0327    14.9837
  375.6000    99.2411    15.0331    14.9841
  375.7000    99.2405    15.0335    14.9845
  375.8000    99.2399    15.0227    14.9849
  375.9000    99.2392    14.9300    14.9854
  376.0000    99.0091    14.9304    14.9858
  376.1000    98.7590    14.9308    14.9237
  376.2000    98.5088    14.9312    14.8826
  376.3000    98.2586    14.9316    14.8567
  376.4000    98.0278    14.9320    14.7801
  376.5000    98.0271    14.9325    14.7806
  376.6000    97.8102    14.9329    14.7810
  376.7000    97.7239    14.9333    14.7235
  376.8000    97.7233    14.8956    14.6793
  376.9000    97.7227    14.8304    14.6797
  377.0000    97.7221    14.8309    14.6801
  377.1000    97.7213    14.8313    14.6806
  377.2000    97.7208    14.7625    14.6809
  377.3000    97.7202    14.7291    14.6813
  377.4000    97.7196    14.7295    14.6817
  377.5000    97.7190    14.7146    14.6635
  377.6000    97.7184    14.6281    14.5807
  377.7000    97.4755    14.6285    14.5812
  377.8000    97.4151    14.5651    14.5815
  377.9000    97.2773    14.5277    14.5321
  378.0000    96.9426    14.4999    14.4490
  378.1000    96.4429    14.4276    14.3664
  378.2000    95.9021    14.4281    14.2817
  378.3000    95.2144    14.3525    14.2027
  378.4000    94.6416    14.3287    14.1834
  378.5000    94.2658    14.2883    14.1389
  378.6000    93.9443    14.2067    14.0581
  378.7000    93.4822    14.1316    13.9884
  378.8000    93.4815    14.1321    13.9889
  378.9000    93.2653    14.0624    13.9149
  379.0000    93.3414    14.0347    13.8926
  379.1000    93.4798    13.9994    13.8930
  379.2000    93.4792    13.9194    13.8695
  379.3000    93.4785    13.8416    13.7973
  379.4000    93.4778    13.8421    13.7978
  379.5000    93.4773    13.8424    13.7981
  379.6000    93.4767    13.7951    13.7452
  379.7000    93.4761    13.7471    13.6666
  379.8000    93.4755    13.7474    13.5885
  379.9000    93.4749    13.7478    13.5144
  380.0000    93.4743    13.6718    13.5149
  380.1000    93.4737    13.6531    13.4501
  380.2000    93.4731    13.6535    13.4218
  380.3000    93.4725    13.6539    13.3897
  380.4000    93.4719    13.6543    13.3132
  380.5000    93.4712    13.6547    13.2373
  380.6000    93.9275    13.5834    13.2377
  380.7000    94.4259    13.5606    13.1776
  380.8000    95.0477    13.5610    13.1466
  380.9000    95.7251    13.5614    13.1185
  381.0000    96.2236    13.5618    13.0561
  381.1000    96.7909    13.5622    13.0565
  381.2000    97.0054    13.5625    13.0569
  381.3000    97.2544    13.5122    13.0572
  381.4000    97.5033    13.4691    13.0576
  381.5000    97.8097    13.4695    13.0580
  381.6000    98.3033    13.4699    13.0583
  381.7000    98.5999    13.4703    13.0587
  381.8000    98.8012    13.4081    13.0590
  381.9000    99.0501    13.3775    13.0594
  382.0000    99.2991    13.3778    13.0598
  382.1000    99.5921    13.3646    13.0601
