~VERSION INFORMATION
 VERS.                2.0:   CWLS LOG ASCII STANDARD - VERSION 2.0
 WRAP.                 NO:   ONE LINE PER DEPTH STEP
~WELL INFORMATION
#MNEM.UNIT      DATA TYPE    INFORMATION
#----------   ------------   ------------------------------
 STRT.F           93.0000:   START DEPTH
 STOP.F         1921.0000:   STOP DEPTH
 STEP.F            0.5000:   STEP LENGTH
 NULL.          -999.2500:   NO VALUE
 COMP. LAWRENCE-ALLISON &AS:   COMPANY
 WELL.  NPR 3 #15-1SHX2/T:   WELL
 FLD .             NPR #3:   :   FIELD
 LOC .       S2 T38N R78W:   LOCATION
 CNTY.            NATRONA:   COUNTY
 STAT.            WYOMING:   STATE
 CTRY. UNITED STATES OF AMERICA:   COUNTRY
 SRVC.       Schlumberger:   SERVICE COMPANY
 DATE.        10-JUN-1982:   LOGDATE
 API .       490251077600:   API NUMBER
~CURVE INFORMATION
#MNEM.UNIT       API CODE    CURVE DESCRIPTION
#----------   ------------   ------------------------------
 DEPT.F                  :   
 GR  .GAPI   70 310 01 00:   GAMMA RAY
 CALI.IN     70 280 01 00:   CALIPER
~PARAMETER INFORMATION
#MNEM.UNIT          VALUE    DESCRIPTION
#----------   ------------   ------------------------------
 PD  .                 GL:   PERMANENT DATUM
 EPD .F              5116:   ELEVATION PERMANENT DATUM
 LMF .                 KB:   LOG MEASURED FROM
 DAPD.F                10:   FEET ABOVE PERMANENT DATUM
 DMF .                 KB:   DRILLING MEASURED FROM
 EKB .F              5126:   KELLING BUSHING
 EGL .F              5116:   GROUND LEVEL
 DATE.        10-JUN-1982:   RUN DATE
 RUN .                  1:   RUN NUMBER
 DD  .F              2100:   DEPTH DRILLER
 DL  .F              1924:   DEPTH LOGGER
 BLI .F              1921:   BOTTOM LOG INTERVAL
 TLI .F               100:   TOP LOG INTERVAL
 CS  .IN            10.75:   CASING SIZE
 BS  .IN             8.75:   BIT SIZE
 BSD .F              2100:   BIT SIZE AT DEPTH
 DFT .                AIR:   DRILLING FLUID TYPE
 ENGI.        C. MARRINER:   RECORDING ENGINEER
 WITN.             SCOTTY:   WITNESSED BY
 CLNT.            A2DTECH:   CLIENT CODE
 ORIG.           5" PRINT:   ORIGIN OF DATA
 UWI .       490251077600:   UNIQUE WELL ID
 DICO. A2D Technologies, Inc.:   DIGITIZING COMPANY
~OTHER INFORMATION
~A   DEPT       GR       CALI   
# ...
  457.5000    67.5818    10.2585
  458.0000    63.4162    10.2588
  458.5000    59.6501    10.2591
  459.0000    59.4484    10.2594
  459.5000    60.6002    10.2597
  460.0000    62.4145    10.2600
  460.5000    64.4521    10.2603
  461.0000    64.2503    10.2606
  461.5000    64.5093    10.2609
  462.0000    66.1004    10.2463
  462.5000    68.1379    10.2467
  463.0000    67.2737    10.2618
  463.5000    64.1773    10.2621
  464.0000    60.1881    10.2624
  464.5000    55.5290    10.2626
  465.0000    56.2351    10.2629
  465.5000    57.3929    10.2632
  466.0000    58.1042    10.2635
  466.5000    60.1151    10.2638
  467.0000    61.0365    10.2641
  467.5000    60.1723    10.2644
  468.0000    56.8527    10.2647
  468.5000    56.4277    10.2650
  469.0000    57.3563    10.2653
  469.5000    60.9564    10.2656
  470.0000    62.1011    10.2659
  470.5000    63.2458    10.2662
  471.0000    63.0440    10.2665
  471.5000    63.5262    10.2668
  472.0000    65.7869    10.2671
  472.5000    68.2709    10.2674
  473.0000    66.9603    10.2677
  473.5000    62.9710    10.2680
  474.0000    63.4584    10.2683
  474.5000    65.0870    10.2686
  475.0000    66.8515    10.2688
  475.5000    63.3158    10.2691
  476.0000    58.4337    10.2694
  476.5000    57.3391    10.2697
  477.0000    60.0534    10.2700
  477.5000    64.0999    10.2703
  478.0000    68.1464    10.2706
  478.5000    70.6304    10.2709
  479.0000    71.7750    10.2713
  479.5000    71.8036    10.2568
  480.0000    71.8323    10.2571
  480.5000    72.0841    10.2574
  481.0000    73.8984    10.2576
  481.5000    76.6056    10.2579
  482.0000    78.8664    10.2582
  482.5000    80.4576    10.2585
  483.0000    79.3215    10.2588
  483.5000    74.9844    10.2591
  484.0000    68.8988    10.2594
  484.5000    61.5987    10.2597
  485.0000    62.5273    10.2452
  485.5000    65.0113    10.2307
  486.0000    68.3881    10.2015
  486.5000    68.4167    10.1722
  487.0000    66.2132    10.1425
  487.5000    62.4472    10.1125
  488.0000    62.2454    10.0845
  488.5000    64.9598    10.0700
  489.0000    68.5598    10.0704
  489.5000    72.8295    10.1150
  490.0000    73.5565    10.1596
  490.5000    72.4403    10.2190
  491.0000    70.0135    10.2488
  491.5000    67.3557    10.2786
  492.0000    67.4137    10.2641
  492.5000    68.8616    10.2496
  493.0000    71.6976    10.2351
  493.5000    75.5209    10.2798
  494.0000    74.4334    10.3244
  494.5000    72.0067    10.3247
  495.0000    71.5817    10.3102
  495.5000    73.6264    10.2957
  496.0000    72.9854    10.2960
  496.5000    70.7819    10.2963
  497.0000    65.6765    10.2966
  497.5000    66.1516    10.2969
  498.0000    68.8588    10.2972
  498.5000    71.5659    10.2948
  499.0000    72.9583    10.2830
  499.5000    71.1767    10.2834
  500.0000    68.1642    10.2837
  500.5000    64.7559    10.2846
  501.0000    65.0148    10.2926
  501.5000    66.1594    10.3006
  502.0000    69.3130    10.3086
  502.5000    72.6897    10.3165
  503.0000    72.7183    10.3245
  503.5000    70.1732    10.3325
  504.0000    69.2039    10.3405
  504.5000    70.3557    10.3484
  505.0000    70.8307    10.3516
  505.5000    71.0824    10.3525
  506.0000    71.5574    10.3533
  506.5000    72.2556    10.3542
  507.0000    70.9448    10.3551
  507.5000    68.7412    10.3709
  508.0000    67.6466    10.3718
  508.5000    67.6822    10.3727
  509.0000    68.3804    10.3735
  509.5000    71.0875    10.3744
  510.0000    73.7946    10.3753
  510.5000    76.5018    10.3761
  511.0000    74.6860    10.3770
  511.5000    72.7713    10.3779
  512.0000    71.2374    10.3787
  512.5000    70.5891    10.3796
  513.0000    70.6248    10.3657
  513.5000    71.0998    10.3495
  514.0000    72.2444    10.3379
  514.5000    76.0676    10.3390
  515.0000    75.2033    10.3399
  515.5000    70.9591    10.3407
  516.0000    64.9470    10.3416
  516.5000    61.0008    10.3275
  517.0000    62.1526    10.3286
  517.5000    64.8597    10.3294
  518.0000    68.4596    10.3303
  518.5000    70.0435    10.3312
  519.0000    67.6167    10.3321
  519.5000    68.0988    10.3329
  520.0000    71.6988    10.3340
  520.5000    76.8613    10.3199
  521.0000    77.1059    10.3210
  521.5000    75.5791    10.3218
  522.0000    74.7148    10.3227
  522.5000    72.9576    10.3236
  523.0000    72.7629    10.3244
  523.5000    73.7744    10.3253
  524.0000    77.2914    10.3262
  524.5000    77.3200    10.3270
  525.0000    76.4557    10.3279
  525.5000    74.6913    10.3288
  526.0000    72.0484    10.3297
  526.5000    72.3002    10.3307
  527.0000    75.2305    10.3166
  527.5000    79.0537    10.3177
  528.0000    78.6358    10.3185
  528.5000    74.6465    10.3194
  529.0000    73.7812    10.3203
  529.5000    74.7036    10.3213
  530.0000    77.4107    10.3221
  530.5000    77.6629    10.3229
  531.0000    77.4678    10.3238
  531.5000    76.6035    10.3247
  532.0000    76.8624    10.3256
  532.5000    76.6677    10.3266
  533.0000    76.0266    10.3275
  533.5000    73.3766    10.3284
  534.0000    70.2801    10.3292
  534.5000    71.2015    10.3301
  535.0000    74.3551    10.3310
  535.5000    77.2854    10.3318
  536.0000    76.6443    10.3327
  536.5000    73.5478    10.3336
  537.0000    70.4509    10.3345
  537.5000    70.4799    10.3354
  538.0000    72.9643    10.3362
  538.5000    72.5171    10.3371
  539.0000    66.3316    10.3381
  539.5000    60.3334    10.3389
  540.0000    58.1226    10.3399
  540.5000    61.0601    10.3407
  541.0000    63.3208    10.3416
  541.5000    63.5725    10.3424
  542.0000    63.8172    10.3433
  542.5000    63.8528    10.3443
  543.0000    65.2206    10.3451
  543.5000    67.9278    10.3459
  544.0000    70.6637    10.3468
  544.5000    69.1009    10.3329
  545.0000    66.0045    10.3340
  545.5000    60.5118    10.3349
  546.0000    57.5794    10.3357
  546.5000    60.9633    10.3366
  547.0000    63.6704    10.3375
  547.5000    66.3775    10.3383
  548.0000    67.5221    10.3392
  548.5000    67.5507    10.3401
  549.0000    67.5792    10.3410
  549.5000    66.9381    10.3418
  550.0000    66.5049    10.3279
  550.5000    67.6674    10.3259
  551.0000    70.1536    10.3239
  551.5000    73.3095    10.3219
  552.0000    75.5725    10.3199
  552.5000    77.1658    10.3179
  553.0000    78.5360    10.3159
  553.5000    76.7667    10.3139
  554.0000    72.2737    10.3119
  554.5000    68.3607    10.3099
  555.0000    69.8065    10.3079
  555.5000    70.2159    10.3213
  556.0000    68.4610    10.3220
  556.5000    64.6972    10.3227
  557.0000    61.3722    10.3235
  557.5000    62.7500    10.3242
  558.0000    65.9059    10.3250
  558.5000    71.0707    10.3258
  559.0000    74.8962    10.3266
  559.5000    76.4896    10.3273
  560.0000    76.0740    10.3280
  560.5000    74.5424    10.3288
  561.0000    74.1191    10.3295
  561.5000    75.0505    10.3302
  562.0000    75.3046    10.3309
  562.5000    75.1116    10.3317
  563.0000    75.3663    10.3324
  563.5000    76.3148    10.3331
  564.0000    81.0136    10.3339
  564.5000    82.5992    10.3346
  565.0000    81.0753    10.3353
  565.5000    77.5347    10.3360
  566.0000    73.5477    10.3368
  566.5000    66.6590    10.3375
  567.0000    65.1196    10.3383
  567.5000    67.6135    10.3391
  568.0000    71.8855    10.3399
  568.5000    77.7199    10.3406
  569.0000    77.0811    10.3413
  569.5000    73.9870    10.3273
  570.0000    68.4375    10.3280
  570.5000    69.3839    10.3287
  571.0000    69.8385    10.3295
  571.5000    68.9442    10.3302
  572.0000    68.1145    10.3309
  572.5000    69.0460    10.3169
  573.0000    69.7465    10.3176
  573.5000    69.9928    10.3183
  574.0000    69.8005    10.3191
  574.5000    69.6081    10.3198
  575.0000    70.5396    10.3205
  575.5000    72.8026    10.3065
  576.0000    76.1817    10.3072
  576.5000    80.6768    10.3080
  577.0000    80.2612    10.3089
  577.5000    75.6046    10.2946
  578.0000    68.2694    10.2955
  578.5000    60.9342    10.2963
