~VERSION INFORMATION
 VERS.                2.0:   CWLS LOG ASCII STANDARD - VERSION 2.0
 WRAP.                 NO:   ONE LINE PER DEPTH STEP
~WELL INFORMATION
#MNEM.UNIT      DATA TYPE    INFORMATION
#----------   ------------   ------------------------------
 STRT.F           29.0000:   START DEPTH
 STOP.F          507.0000:   STOP DEPTH
 STEP.F            0.5000:   STEP LENGTH
 NULL.          -999.2500:   NO VALUE
 COMP.    FENIX & SCISSON:   COMPANY
 WELL.       NPR #64-SX-3:   WELL
 FLD .            WILDCAT:   FIELD
 LOC .       S3 T38N R78W:   LOCATION
 CNTY.            NATRONA:   COUNTY
 STAT.            WYOMING:   STATE
 CTRY. UNITED STATES OF AMERICA:   COUNTRY
 SRVC.           BIRDWELL:   SERVICE COMPANY
 DATE.        28-MAR-1977:   LOGDATE
 API .       490251032200:   API NUMBER
~CURVE INFORMATION
#MNEM.UNIT       API CODE    CURVE DESCRIPTION
#----------   ------------   ------------------------------
 DEPT.F                  :   
 SPR .MV     05 010 01 00:   SPONTANEOUS POTENTIAL FROM RES.
 ILD .OHMM   05 120 46 00:   INDUCTION LOG DEEP
 SN  .OHMM   05 040 16 00:   SHORT NORMAL 16"
 GRD .GAPI   45 310 01 00:   GAMMA RAY FROM DENSITY LOG
 CALD.IN     45 280 60 00:   CALIPER FROM DENSITY LOG
 CORR.G/C3   45 356 01 00:   DENSITY CORRECTION
 RHOB.G/C3   45 350 01 00:   BULK DENSITY
 DPHI.DEC    45 890 12 00:   DENSITY POROSITY SANDSTONE
~PARAMETER INFORMATION
#MNEM.UNIT          VALUE    DESCRIPTION
#----------   ------------   ------------------------------
 PD  .                 GL:   PERMANENT DATUM
 EPD .F              5145:   ELEVATION PERMANENT DATUM
 LMF .                 GL:   LOG MEASURED FROM
 DMF .                 GL:   DRILLING MEASURED FROM
 EKB .F              5150:   KELLING BUSHING
 EDF .F              5149:   DRILLING FLOOR
 EGL .F              5145:   GROUND LEVEL
 DATE.        28-MAR-1977:   RUN DATE
 RUN .                  1:   RUN NUMBER
 DD  .F               507:   DEPTH DRILLER
 DL  .F               507:   DEPTH LOGGER
 BLI .F               501:   BOTTOM LOG INTERVAL
 TLI .F                40:   TOP LOG INTERVAL
 CS  .IN            8.625:   CASING SIZE
 CBD .F                40:   CASING BOTTOM DRILLER
 CBL .F                43:   CASING BOTTOM LOGGER
 BS  .IN            7.875:   BIT SIZE
 BSD .F               507:   BIT SIZE AT DEPTH
 DFT .                KCL:   DRILLING FLUID TYPE
 DFD .                8.5:   DRILLING FLUID DENSITY
 DFV .                 31:   DRILLING FLUID VISCOSITY
 DFPH.                 10:   DRILLING FLUID PH
 DFL .                 78:   DRILLING FLUID LOSS
 MSS .                PIT:   MUD SAMPLE SOURCE
 RMS .OHMM            .54:   RESISTIVITY MUD SAMPLE
 MST .F                60:   MUD SAMPLE TEMPERATURE
 RMF .OHMM            .46:   RESISTIVITY MUD FILTRATE SAMPLE
 MFST.F                64:   MUD FILTRATE SAMPLE TEMPERATURE
 RMC .OHMM            .52:   RESISTIVITY MUD CAKE
 MCST.F                64:   MUD CAKE SAMPLE TEMPERATURE
 MFSS.               MEAS:   MUD FILTRATE SAMPLE SOURCE
 MCSS.               MEAS:   MUD CAKE SAMPLE SOURCE
 RMB .OHMM            .51:   RESISTIVITY MUD AT BHT
 BHT .F                63:   BOTTOM HOLE TEMPERATURE
 TCS .HRS            0300:   TIME CURCULATED STOPPED
 MRT .F                63:   MAXIMUM RECORDED TEMPERATURE
 LUN .               3026:   LOGGING UNIT NUMBER
 LUL .             CASPER:   LOGGING UNIT LOCATION
 ENGI.             RAWSON:   RECORDING ENGINEER
 WITN.         STUERINCER:   WITNESSED BY
 CLNT.            A2DTECH:   CLIENT CODE
 ORIG.           5" PRINT:   ORIGIN OF DATA
 UWI .       490251032200:   UNIQUE WELL ID
 DICO. A2D Technologies, Inc.:   DIGITIZING COMPANY
~OTHER INFORMATION
~A   DEPT      SPR        ILD         SN        GRD       CALD       CORR       RHOB       DPHI   
# ...
  312.5000   -31.1747    30.2688    25.8552    55.1080     7.2745    -0.0340     2.2526     0.2020
  313.0000   -31.1747    29.8499    25.6729    55.9360     7.2307    -0.0334     2.2920     0.2053
  313.5000   -31.0241    29.6416    25.6695    56.9128     7.2016    -0.0005     2.3026     0.2186
  314.0000   -30.8735    29.4348    25.6661    57.6650     7.2031     0.0108     2.2952     0.2373
  314.5000   -30.7229    29.4328    25.6627    56.9206     7.2193     0.0092     2.2711     0.2375
  315.0000   -30.8735    29.4304    25.6593    56.0261     7.2355     0.0105     2.2538     0.2399
  315.5000   -31.1747    29.2250    25.4776    56.2544     7.2817     0.0042     2.2426     0.2383
  316.0000   -31.3253    29.2231    25.4742    57.3809     7.3578    -0.0036     2.2464     0.2268
  316.5000   -31.4759    29.2212    25.4708    58.2080     7.4340    -0.0205     2.2518     0.2084
  317.0000   -31.7771    29.4226    25.2913    57.4632     7.4952    -0.0367     2.2670     0.2063
  317.5000   -31.9277    29.6254    25.2879    56.7933     7.4963    -0.0354     2.2897     0.2071
  318.0000   -32.0783    29.8296    25.2845    56.4228     7.4975    -0.0476     2.3011     0.2001
  318.5000   -32.2289    30.0352    25.2804    56.5762     7.4987    -0.0492     2.3057     0.1926
  319.0000   -32.5301    30.2422    25.4539    56.8793     7.4846    -0.0447     2.3179     0.1923
  319.5000   -32.5301    30.2397    25.4497    57.1825     7.4559    -0.0315     2.3210     0.1947
  320.0000   -32.6807    30.4622    25.6237    56.7371     7.4421    -0.0318     2.3158     0.1977
  320.5000   -32.5301    31.0857    25.6201    55.9175     7.4436    -0.0301     2.3091     0.2007
  321.0000   -32.5301    31.0836    25.6159    55.8454     7.4298    -0.0257     2.3061     0.2040
  321.5000   -32.5301    31.0816    25.6125    56.8980     7.4459    -0.0185     2.3055     0.2145
  322.0000   -32.5301    30.8647    25.6091    57.7251     7.4471    -0.0157     2.3025     0.2119
  322.5000   -32.8313    29.6047    24.7323    58.2528     7.4633    -0.0411     2.2875     0.1993
  323.0000   -33.1325    28.5438    24.0519    58.8553     7.4795    -0.0672     2.2874     0.1803
  323.5000   -33.2831    26.6757    23.5531    59.3830     7.4807    -0.0528     2.3126     0.1711
  324.0000   -33.2831    25.7648    23.2246    58.7879     7.4969    -0.0313     2.3504     0.1686
  324.5000   -33.2831    25.0582    23.0609    57.8934     7.4981    -0.0330     2.3580     0.1684
  325.0000   -33.1325    24.5405    23.0578    57.3723     7.4993    -0.0309     2.3589     0.1737
  325.5000   -33.1325    24.2009    22.8953    58.1255     7.5005    -0.0129     2.3574     0.1854
  326.0000   -33.1325    23.8655    22.7297    58.2040     7.5017    -0.0078     2.3439     0.1892
  326.5000   -33.2831    23.6990    22.4168    58.5820     7.4879    -0.0143     2.3350     0.1899
  327.0000   -33.4337    23.5337    22.4138    59.1846     7.4891    -0.0240     2.3343     0.1833
  327.5000   -33.5843    23.5321    22.4109    59.2631     7.4603    -0.0555     2.3351     0.1814
  328.0000   -33.5843    23.6943    22.0990    59.8657     7.3865    -0.0653     2.3382     0.1841
  328.5000   -33.7349    23.8692    22.0960    61.2167     7.3727    -0.0956     2.3413     0.1777
  329.0000   -33.7349    24.3572    22.0930    61.5947     7.3889    -0.1051     2.3490     0.1789
  329.5000   -33.8991    25.0407    22.2440    61.9727     7.4201    -0.1038     2.3498     0.1780
  330.0000   -34.1867    25.3892    22.5512    60.0303     7.4513    -0.1280     2.3506     0.1650
  330.5000   -34.4880    25.7421    22.7060    60.2586     7.4825    -0.1131     2.3749     0.1517
  331.0000   -34.6386    26.0995    22.7023    61.4599     7.4987    -0.0726     2.4036     0.1486
  331.5000   -34.7892    26.0977    22.6992    60.6403     7.5149    -0.0276     2.4075     0.1477
  332.0000   -34.7892    26.2776    22.6955    59.5961     7.5310    -0.0006     2.4076     0.1636
  332.5000   -34.9398    26.2755    22.6925    59.0001     7.5322    -0.0098     2.3926     0.1775
  333.0000   -34.9398    25.9118    22.6894    60.3521     7.5334    -0.0205     2.3594     0.1907
  333.5000   -34.7892    25.5532    22.5295    60.7301     7.5346    -0.0192     2.3414     0.1934
  334.0000   -34.6386    25.1972    22.5265    61.1081     7.5054    -0.0223     2.3249     0.1952
  334.5000   -34.4880    24.5080    22.3677    60.8124     7.4621    -0.0315     2.3234     0.1858
  335.0000   -34.1867    24.3370    22.2093    60.6655     7.4633    -0.0331     2.3288     0.1921
  335.5000   -34.0361    24.1672    22.0528    61.4187     7.4645    -0.0273     2.3297     0.1930
  336.0000   -34.0361    23.8327    21.7459    60.6739     7.4657    -0.0229     2.3252     0.1978
  336.5000   -33.8855    23.8311    21.5926    59.5549     7.4669    -0.0200     2.3193     0.1947
  337.0000   -33.8855    23.6528    21.2921    61.0556     7.4681    -0.0277     2.3178     0.1901
  337.5000   -33.8855    23.4993    20.9951    61.9576     7.4693    -0.0324     2.3209     0.1865
  338.0000   -34.0361    23.1740    20.9923    62.3356     7.4704    -0.0250     2.3271     0.1889
  338.5000   -34.1867    23.0123    20.8444    61.8902     7.4551    -0.0206     2.3317     0.1910
  339.0000   -34.6386    22.6938    20.6974    61.3700     7.4428    -0.0223     2.3303     0.1885
  339.5000   -34.9398    22.3797    20.6947    61.2231     7.4290    -0.0240     2.3326     0.1827
  340.0000   -34.9398    22.0699    20.5488    62.0501     7.3983    -0.0196     2.3402     0.1773
  340.5000   -34.9398    21.7642    20.2622    59.5099     7.4036    -0.0077     2.3479     0.1763
  341.0000   -34.9398    21.6123    20.2595    60.4867     7.4500    -0.0154     2.3479     0.1772
  341.5000   -34.9398    21.6109    20.1167    61.6132     7.4789    -0.0170     2.3503     0.1790
  342.0000   -35.0904    21.3118    20.2548    62.5269     7.4951    -0.0021     2.3511     0.1835
  342.5000   -35.3916    21.0168    20.2514    61.7703     7.4812     0.0037     2.3459     0.1865
  343.0000   -35.5422    21.0150    20.2486    60.9507     7.4825     0.0036     2.3370     0.1876
  343.5000   -35.6928    20.8688    20.1053    61.9275     7.4839     0.0050     2.3310     0.1885
  344.0000   -35.8434    21.0126    20.1027    61.6318     7.4851     0.0093     2.3296     0.1906
  344.5000   -35.8434    21.1571    20.1000    60.6625     7.4863     0.0122     2.3289     0.1990
  345.0000   -35.8434    21.6003    20.0973    60.5914     7.4875     0.0150     2.3275     0.2008
  345.5000   -35.6928    21.5989    19.9556    60.2957     7.4887     0.0134     2.3162     0.2071
  346.0000   -35.5422    21.5975    19.9523    59.9252     7.4749     0.0057     2.3065     0.2077
  346.5000   -35.3916    21.5960    19.9497    59.6296     7.4608    -0.0050     2.2998     0.2055
  347.0000   -35.3916    21.2968    19.9470    60.8309     7.4470    -0.0097     2.2976     0.2031
  347.5000   -35.2410    21.0020    19.9444    61.7328     7.4335    -0.0143     2.3060     0.2003
  348.0000   -35.3916    20.4260    19.8038    60.6138     7.3897    -0.0205     2.3099     0.1994
  348.5000   -35.3916    20.0041    19.6641    59.3451     7.3756    -0.0297     2.3107     0.1945
  349.0000   -35.3916    19.8645    19.6610    61.2949     7.3618    -0.0359     2.3161     0.1854
  349.5000   -35.3916    19.7259    19.6584    61.1490     7.3783    -0.0360     2.3282     0.1754
  350.0000   -35.3921    19.7572    19.7468    61.4521     7.3868    -0.0380     2.3472     0.1671
  350.5000   -35.3993    20.1648    20.3139    61.9061     7.4109    -0.0424     2.3684     0.1594
  351.0000   -35.2559    20.4121    20.9170    62.6583     7.4576    -0.0486     2.3753     0.1470
  351.5000   -35.1143    20.9821    21.3542    59.8945     7.4742    -0.0639     2.3890     0.1288
  352.0000   -35.2720    21.5670    21.8007    59.1505     7.5059    -0.0701     2.4170     0.1074
  352.5000   -35.2792    22.0161    22.4107    59.0790     7.5075    -0.0658     2.4457     0.0917
