~VERSION INFORMATION
 VERS.                2.0:   CWLS LOG ASCII STANDARD - VERSION 2.0
 WRAP.                 NO:   ONE LINE PER DEPTH STEP
~WELL INFORMATION
#MNEM.UNIT      DATA TYPE    INFORMATION
#----------   ------------   ------------------------------
 STRT.F          695.0000:   START DEPTH
 STOP.F         1588.0000:   STOP DEPTH
 STEP.F            0.5000:   STEP LENGTH
 NULL.          -999.2500:   NO VALUE
 COMP. FENIX & SCISSON INC:   COMPANY
 WELL. 13 SHX 10 STX #13-10:   WELL
 FLD .             TEAPOT:   FIELD
 LOC .      S10 T38N R78W:   LOCATION
 CNTY.            NATRONA:   COUNTY
 STAT.            WYOMING:   STATE
 CTRY. UNITED STATES OF AMERICA:   COUNTRY
 SRVC.            Unknown:   SERVICE COMPANY
 DATE.        22-JUL-1979:   LOGDATE
 API .       490251078700:   API NUMBER
~CURVE INFORMATION
#MNEM.UNIT       API CODE    CURVE DESCRIPTION
#----------   ------------   ------------------------------
 DEPT.F                  :   
 CORR.G/C3   45 356 01 00:   DENSITY CORRECTION
 RHOB.G/C3   45 350 01 00:   BULK DENSITY
 CALD.IN     45 280 60 00:   CALIPER
 GRD .GAPI   45 310 01 00:   GAMMA RAY FROM DENSITY LOG
 DPHI.DEC    45 890 12 00:   DENSITY POROSITY SANDSTONE
~PARAMETER INFORMATION
#MNEM.UNIT          VALUE    DESCRIPTION
#----------   ------------   ------------------------------
 PD  .                 GL:   PERMANENT DATUM
 EPD .F              5306:   ELEVATION PERMANENT DATUM
 LMF .                 DF:   LOG MEASURED FROM
 DAPD.F                 9:   FEET ABOVE PERMANENT DATUM
 DMF .                 KB:   DRILLING MEASURED FROM
 EKB .F              5316:   KELLING BUSHING
 EDF .F              5315:   DRILLING FLOOR
 EGL .F              5306:   GROUND LEVEL
 DATE.            7-22-79:   RUN DATE
 RUN .                  1:   RUN NUMBER
 DD  .F              1595:   DEPTH DRILLER
 DL  .F              1588:   DEPTH LOGGER
 BLI .F              1588:   BOTTOM LOG INTERVAL
 TLI .F               700:   TOP LOG INTERVAL
 CS  .IN            9.625:   CASING SIZE
 CBD .F               950:   CASING BOTTOM DRILLER
 CBL .F               950:   CASING BOTTOM LOGGER
 BS  .IN             8.75:   BIT SIZE
 BSD .F              1595:   BIT SIZE AT DEPTH
 DFT .                OIL:   DRILLING FLUID TYPE
 TCS .HRS               2:   TIME CURCULATED STOPPED
 LUN .               2959:   LOGGING UNIT NUMBER
 LUL .             CASPER:   LOGGING UNIT LOCATION
 ENGI.            ROLLINS:   RECORDING ENGINEER
 WITN.           DINSMORE:   WITNESSED BY
 CLNT.            A2DTECH:   CLIENT CODE
 ORIG.     1", 2.5" PRINT:   ORIGIN OF DATA
 UWI .       490251078700:   UNIQUE WELL ID
 DICO. A2D Technologies, Inc.:   DIGITIZING COMPANY
~OTHER INFORMATION
~A   DEPT     CORR       RHOB       CALD         GRD      DPHI   
# ...
 1061.0000     0.1379     2.4457     9.4695   116.1532     0.0618
 1061.5000     0.1263     2.4355     9.4657   115.1353     0.0693
 1062.0000     0.1140     2.4315     9.4686   117.0179     0.0715
 1062.5000     0.1026     2.4348     9.4870   120.2811     0.0698
 1063.0000     0.0892     2.4354     9.5048   124.0110     0.0706
 1063.5000     0.0848     2.4296     9.5232   122.5925     0.0737
 1064.0000     0.0800     2.4237     9.5413   113.5181     0.0727
 1064.5000     0.0761     2.4333     9.5593   103.5622     0.0694
 1065.0000     0.0737     2.4367     9.5781   104.8672     0.0672
 1065.5000     0.0714     2.4420     9.5840   108.6309     0.0655
 1066.0000     0.0693     2.4439     9.5774   112.5499     0.0651
 1066.5000     0.0671     2.4387     9.5714   112.9703     0.0676
 1067.0000     0.0646     2.4398     9.5656   111.5162     0.0651
 1067.5000     0.0662     2.4495     9.5592   110.3741     0.0617
 1068.0000     0.0714     2.4571     9.5531   106.7058     0.0584
 1068.5000     0.0762     2.4607     9.5484    99.8723     0.0585
 1069.0000     0.0809     2.4512     9.5296   100.0380     0.0611
 1069.5000     0.0857     2.4517     9.4987   102.6594     0.0559
 1070.0000     0.0909     2.4609     9.4694   110.2563     0.0489
 1070.5000     0.0907     2.4657     9.4403   109.0152     0.0509
 1071.0000     0.0873     2.4611     9.4104   108.9573     0.0541
 1071.5000     0.0843     2.4560     9.3815   110.1194     0.0572
 1072.0000     0.0813     2.4507     9.3522   107.2993     0.0604
 1072.5000     0.0782     2.4457     9.3202   105.6841     0.0636
 1073.0000     0.0752     2.4414     9.3001   106.1894     0.0667
 1073.5000     0.0722     2.4403     9.2926   105.6434     0.0647
 1074.0000     0.0720     2.4441     9.2813   104.9776     0.0608
 1074.5000     0.0720     2.4555     9.2699   110.3172     0.0569
 1075.0000     0.0722     2.4634     9.2593   113.7702     0.0538
 1075.5000     0.0698     2.4651     9.2481   112.2793     0.0529
 1076.0000     0.0640     2.4612     9.2372   108.9128     0.0539
 1076.5000     0.0584     2.4568     9.2262   108.8320     0.0578
 1077.0000     0.0527     2.4559     9.2151   107.4790     0.0565
 1077.5000     0.0470     2.4569     9.2041   106.2832     0.0544
 1078.0000     0.0413     2.4613     9.1931   107.7957     0.0523
 1078.5000     0.0357     2.4670     9.1821   110.8547     0.0518
 1079.0000     0.0299     2.4627     9.1711   113.1796     0.0527
 1079.5000     0.0261     2.4585     9.1601   113.2379     0.0537
 1080.0000     0.0242     2.4614     9.1490   113.4748     0.0547
 1080.5000     0.0221     2.4627     9.1380   115.1012     0.0556
 1081.0000     0.0201     2.4608     9.1270   116.6957     0.0562
 1081.5000     0.0178     2.4628     9.1159   115.1596     0.0513
 1082.0000     0.0151     2.4771     9.1049   113.3418     0.0465
 1082.5000     0.0123     2.4699     9.0940   111.7393     0.0511
 1083.0000     0.0119     2.4558     9.0825   109.8217     0.0611
 1083.5000     0.0144     2.4506     9.0721   107.8382     0.0588
 1084.0000     0.0166     2.4545     9.0616   109.3088     0.0553
 1084.5000     0.0188     2.4623     9.0747   112.1262     0.0519
 1085.0000     0.0209     2.4660     9.0888   111.5366     0.0485
 1085.5000     0.0235     2.4701     9.1040   109.2395     0.0451
 1086.0000     0.0311     2.4798     9.1186   110.4909     0.0416
 1086.5000     0.0355     2.4907     9.1329   113.6082     0.0429
 1087.0000     0.0295     2.4803     9.1529   116.3232     0.0456
 1087.5000     0.0242     2.4761     9.1788   114.1298     0.0473
 1088.0000     0.0344     2.4813     9.2046   110.7240     0.0400
 1088.5000     0.0398     2.4823     9.2302   113.6716     0.0403
 1089.0000     0.0395     2.4837     9.2557   116.1957     0.0410
 1089.5000     0.0363     2.4812     9.2824   121.3538     0.0416
 1090.0000     0.0325     2.4746     9.3027   121.4824     0.0449
 1090.5000     0.0285     2.4700     9.3429   118.2700     0.0480
 1091.0000     0.0247     2.4673     9.3950   113.3531     0.0513
 1091.5000     0.0207     2.4642     9.4468   115.1803     0.0521
 1092.0000     0.0169     2.4625     9.4979   115.9171     0.0546
 1092.5000     0.0155     2.4619     9.5493   112.0754     0.0546
 1093.0000     0.0222     2.4664     9.6015   107.6453     0.0514
 1093.5000     0.0280     2.4691     9.6517   110.3265     0.0481
 1094.0000     0.0328     2.4657     9.7033   112.5294     0.0510
 1094.5000     0.0353     2.4649     9.7152   114.2006     0.0520
 1095.0000     0.0380     2.4703     9.7266   111.8513     0.0475
 1095.5000     0.0411     2.4768     9.7360   109.7881     0.0424
 1096.0000     0.0440     2.4786     9.7465   107.5641     0.0447
 1096.5000     0.0538     2.4745     9.7568   106.8407     0.0474
 1097.0000     0.0630     2.4711     9.7671   109.4809     0.0501
 1097.5000     0.0726     2.4614     9.7773   112.5562     0.0529
 1098.0000     0.0822     2.4558     9.7860   115.0776     0.0556
 1098.5000     0.0941     2.4535     9.7862   116.6169     0.0583
 1099.0000     0.1106     2.4510     9.7861   117.6868     0.0627
 1099.5000     0.1313     2.4472     9.7862   112.6863     0.0601
 1100.0000     0.1574     2.4577     9.7866   109.3362     0.0532
 1100.5000     0.1831     2.4741     9.7855   108.2165     0.0473
 1101.0000     0.1890     2.4642     9.7869   109.1947     0.0582
 1101.5000     0.1877     2.4459     9.7904   111.4755     0.0637
 1102.0000     0.2411     2.4787     9.8781   110.8881     0.0369
 1102.5000     0.3177     2.5324     9.9574   110.6550     0.0110
 1103.0000     0.2883     2.4493    10.0479   115.1999     0.0939
 1103.5000     0.1982     2.3860     9.9126   119.8385     0.0907
 1104.0000     0.2320     2.4292     9.8200   122.1744     0.0722
 1104.5000     0.1801     2.3776    10.0272   119.3335     0.1130
 1105.0000     0.1208     2.3195     9.9673   115.8322     0.1371
 1105.5000     0.1466     2.3979     9.8781   112.1512     0.1009
 1106.0000     0.2000     2.4665     9.8645   111.3935     0.0562
 1106.5000     0.2076     2.4602     9.8672   115.0230     0.0643
 1107.0000     0.1814     2.4146     9.8670   115.0857     0.0971
 1107.5000     0.1275     2.3833     9.8634   112.8028     0.0937
 1108.0000     0.1564     2.4314     9.8022   112.0890     0.0667
 1108.5000     0.2065     2.4886     9.7428   115.0216     0.0436
 1109.0000     0.2283     2.5005     9.6797   117.9373     0.0327
 1109.5000     0.2522     2.4918     9.7274   111.6747     0.0324
 1110.0000     0.2692     2.5097     9.8089   106.7031     0.0335
 1110.5000     0.3047     2.5356     9.8446   102.8240    -0.0014
 1111.0000     0.3833     2.5601     9.8626   103.8178     0.0189
 1111.5000     0.3031     2.4170     9.8829   109.1854     0.0700
 1112.0000     0.1650     2.1550     9.9100   111.7771     0.2014
 1112.5000     0.0039     2.1857     9.9949   109.0682     0.1659
 1113.0000     0.0299     2.3254    10.1218   111.5602     0.1073
 1113.5000     0.0654     2.4405    10.2355   114.6620     0.0594
 1114.0000     0.0666     2.4607     9.7857   116.8105     0.0580
 1114.5000     0.0470     2.4559     9.3360   117.6535     0.0600
 1115.0000     0.0315     2.4513     9.3596   116.4378     0.0619
 1115.5000     0.0159     2.4578     9.3396   117.1574     0.0564
 1116.0000     0.0145     2.4637     9.3078   122.0878     0.0513
 1116.5000     0.0224     2.4681     9.3029   129.4557     0.0507
 1117.0000     0.0365     2.4697     9.3031   131.1937     0.0500
 1117.5000     0.0489     2.4720     9.3053   129.0305     0.0467
 1118.0000     0.0626     2.4823     9.3087   125.8791     0.0414
 1118.5000     0.0712     2.4983     9.3112   121.1831     0.0365
 1119.0000     0.0719     2.4932     9.3137   116.9375     0.0389
 1119.5000     0.0723     2.4821     9.3162   118.4959     0.0435
 1120.0000     0.0727     2.4709     9.3186   121.6072     0.0482
 1120.5000     0.0874     2.4680     9.3211   124.3723     0.0496
 1121.0000     0.1008     2.4685     9.3236   126.9274     0.0480
 1121.5000     0.1154     2.4521     9.3260   127.9284     0.0569
