~VERSION INFORMATION
 VERS.                2.0:   CWLS LOG ASCII STANDARD - VERSION 2.0
 WRAP.                 NO:   ONE LINE PER DEPTH STEP
~WELL INFORMATION
#MNEM.UNIT      DATA TYPE    INFORMATION
#----------   ------------   ------------------------------
 STRT.F            1.5000:   START DEPTH
 STOP.F          440.0000:   STOP DEPTH
 STEP.F            0.5000:   STEP LENGTH
 NULL.          -999.2500:   NO VALUE
 COMP.       F D SERV INC:   COMPANY
 WELL. NAVAL PETROLEUM RESERVE 3 SX-3 #78-2-3:   WELL
 FLD .             TEAPOT:   FIELD
 LOC .       S3 T38N R78W:   LOCATION
 CNTY.            NATRONA:   COUNTY
 STAT.            WYOMING:   STATE
 CTRY. UNITED STATES OF AMERICA:   COUNTRY
 SRVC.     Atlas Wireline:   SERVICE COMPANY
 DATE.        21-OCT-1992:   LOGDATE
 API .       490252255500:   API NUMBER
~CURVE INFORMATION
#MNEM.UNIT       API CODE    CURVE DESCRIPTION
#----------   ------------   ------------------------------
 DEPT.F                  :   
 GRR .GAPI   07 310 01 00:   GAMMA RAY
 RILD.OHMM   07 120 46 00:   INDUCTION LOG DEEP RESISTIVITY
 RILM.OHMM   07 120 44 00:   INDUCTION LOG MEDIUM RESISTIVITY
~PARAMETER INFORMATION
#MNEM.UNIT          VALUE    DESCRIPTION
#----------   ------------   ------------------------------
 PD  .                 GL:   PERMANENT DATUM
 EPD .F              5132:   ELEVATION PERMANENT DATUM
 LMF .                 KB:   LOG MEASURED FROM
 DAPD.F                10:   FEET ABOVE PERMANENT DATUM
 DMF .                 KB:   DRILLING MEASURED FROM
 EKB .F              5142:   KELLING BUSHING
 EDF .F              5141:   DRILLING FLOOR
 EGL .F              5132:   GROUND LEVEL
 DATE.        21-OCT-1992:   RUN DATE
 RUN .                  1:   RUN NUMBER
 DD  .F               445:   DEPTH DRILLER
 DL  .F               448:   DEPTH LOGGER
 BLI .F               440:   BOTTOM LOG INTERVAL
 CS  .IN            8.625:   CASING SIZE
 CBD .F                85:   CASING BOTTOM DRILLER
 CBL .F                98:   CASING BOTTOM LOGGER
 BS  .IN            7.875:   BIT SIZE
 BSD .F               445:   BIT SIZE AT DEPTH
 DFT .           AIR FOAM:   DRILLING FLUID TYPE
 TCS .HRS               2:   TIME CURCULATED STOPPED
 MRT .F                70:   MAXIMUM RECORDED TEMPERATURE
 LUN .            HL-6274:   LOGGING UNIT NUMBER
 LUL .             CASPER:   LOGGING UNIT LOCATION
 ENGI.             RAUTIO:   RECORDING ENGINEER
 WITN.        GARY STRONG:   WITNESSED BY
 CLNT.            A2DTECH:   CLIENT CODE
 ORIG.           5" PRINT:   ORIGIN OF DATA
 UWI .       490252255500:   UNIQUE WELL ID
 DICO. A2D Technologies, Inc.:   DIGITIZING COMPANY
~OTHER INFORMATION
~A    DEPT      GRR      RILD       RILM   
# ...
  365.5000   101.6535    11.3704    11.5460
  366.0000   100.7602    11.7902    11.9533
  366.5000   100.7549    12.6923    12.7233
  367.0000    98.9405    14.2775    13.7323
  367.5000    97.1262    16.3979    15.1331
  368.0000    91.0886    19.7686    17.6291
  368.5000    83.5427    23.3422    21.3585
  369.0000    81.4267    26.6238    26.1826
  369.5000    76.5797    30.7989    29.4606
  370.0000    74.4394    33.5508    32.4659
  370.5000    75.6809    36.3547    35.2846
  371.0000    80.5031    36.8605    35.0393
  371.5000    86.5319    36.8593    34.0788
  372.0000    87.4336    36.3511    33.1445
  372.5000    85.6181    36.0990    32.2063
  373.0000    85.0104    35.1116    31.5703
  373.5000    85.3077    33.6815    31.1340
  374.0000    83.7949    32.4923    29.8631
  374.5000    79.8679    30.5670    28.6440
  375.0000    78.3552    29.7309    27.4748
  375.5000    78.9541    28.7181    26.1709
  376.0000    81.3630    27.7398    25.1026
  376.5000    87.3918    26.7949    24.5845
  377.0000    92.8184    26.2430    24.0770
  377.5000    91.9079    25.8812    23.9095
  378.0000    89.4580    25.6923    23.9087
  378.5000    87.6234    25.3473    23.9079
  379.0000    87.0671    25.3463    23.9071
  379.5000    88.2693    25.3455    24.0728
  380.0000    90.9799    25.3446    24.0720
  380.5000    92.7854    24.9952    23.9047
  381.0000    92.1777    24.8218    23.7385
  381.5000    90.0617    24.9935    23.9029
  382.0000    88.5329    25.3412    24.0685
  382.5000    84.2408    25.5164    24.2353
  383.0000    83.7137    25.6929    24.4035
  383.5000    86.7248    25.5145    24.5727
  384.0000    87.9281    25.3376    24.5716
  384.5000    86.1127    25.1619    24.4009
  385.0000    80.9801    24.6437    24.4000
  385.5000    80.0707    24.4728    23.7309
  386.0000    82.7813    23.8034    22.9207
  386.5000    90.7043    23.2981    21.9851
  387.0000    93.0278    22.5188    21.2345
  387.5000    90.9118    21.7517    20.5095
  388.0000    91.2091    21.0107    19.6723
  388.5000    94.2212    20.5781    19.4005
  389.0000    96.3285    20.2943    19.1324
  389.5000    99.3407    19.8764    18.9994
  390.0000   100.8446    19.6023    18.7367
  390.5000   101.7773    19.1916    18.6065
  391.0000   102.6457    18.6735    18.4771
  391.5000   100.2270    18.2888    18.2218
  392.0000    95.3960    17.6658    18.0952
  392.5000    92.9784    17.1826    17.8451
  393.0000    90.5607    16.8287    17.5985
  393.5000    89.6513    16.5967    17.4762
  394.0000    89.3453    16.2549    16.9970
  394.5000    88.7335    15.8103    16.4167
  395.0000    87.4861    15.5779    15.9666
  395.5000    86.6161    15.2711    15.5289
  396.0000    87.5167    14.9785    14.9988
  396.5000    90.2272    14.5475    14.5876
  397.0000    89.9212    14.3469    14.3860
  397.5000    89.0118    14.1491    13.9916
  398.0000    90.5157    14.1486    13.7027
  398.5000    95.6395    14.0505    13.6075
  399.0000    96.5401    13.7611    13.6070
  399.5000    95.6296    13.6656    13.6066
  400.0000    94.7202    13.4772    13.6061
  400.5000    96.2241    13.3837    13.6057
  401.0000    99.2363    13.3833    13.5111
  401.5000    99.8364    13.0172    13.4172
  402.0000    98.3226    12.9269    13.3104
  402.5000    97.1115    12.7487    12.9586
  403.0000    97.1232    12.6603    12.8685
  403.5000   100.2237    12.5725    12.8681
  404.0000   107.0520    12.3135    12.6903
  404.5000   109.7637    12.3131    12.6021
  405.0000   109.1548    12.2277    12.5145
  405.5000   106.1339    12.0591    12.2562
  406.0000   103.1129    11.9755    12.1620
  406.5000   103.7118    11.8924    11.9197
  407.0000   105.5254    11.8099    11.8368
  407.5000   107.6246    11.6471    11.8364
  408.0000   108.8257    11.6466    11.7542
  408.5000   108.8213    11.5659    11.6725
  409.0000   108.5153    11.5655    11.5914
  409.5000   107.3043    11.5651    11.5910
  410.0000   106.3949    11.4849    11.5104
  410.5000   106.0888    11.4052    11.3512
  411.0000   106.6878    11.3262    11.3509
  411.5000   109.4546    11.3258    11.2720
  412.0000   111.2028    11.3253    11.2716
  412.5000   111.5011    11.2468    11.1933
  413.0000   111.1940    11.0152    11.0386
  413.5000   111.1896    10.9388    10.9619
  414.0000   110.2802    10.7135    10.8857
  414.5000   109.3708    10.4205    10.6502
  415.0000   108.1598    10.2768    10.2969
  415.5000   104.7728    10.1313    10.0844
  416.0000   102.4193     9.9263    10.0143
  416.5000   106.0339     9.7894     9.8759
  417.0000   110.2527     9.6544     9.8073
  417.5000   112.6616     9.4556     9.5384
  418.0000   114.4672     9.1335     9.2128
  418.5000   114.1611     8.7615     8.5884
  419.0000   112.3468     8.1750     7.6911
  419.5000   111.1357     7.1161     6.8824
  420.0000   111.4731     6.7274     6.2884
  420.5000   114.1425     6.5042     5.9074
  421.0000   117.7580     6.4145     5.7855
  421.5000   125.2951     6.5037     5.8256
  422.0000   132.3661     6.6401     5.9480
  422.5000  -999.2500     6.8263     6.1238
  423.0000  -999.2500     7.0666     6.5544
  423.5000  -999.2500     7.4689     6.9767
  424.0000  -999.2500     7.8992     7.5300
  424.5000  -999.2500     8.3434     8.1837
  425.0000  -999.2500     8.5775     8.7716
  425.5000  -999.2500     8.8182     9.2721
  426.0000  -999.2500     9.0654     9.5328
  426.5000  -999.2500     9.2554     9.7331
  427.0000  -999.2500     9.4494     9.8105
  427.5000  -999.2500     9.5809    10.0064
  428.0000  -999.2500     9.7817    10.0757
  428.5000  -999.2500     9.9342    10.2162
  429.0000  -999.2500    10.3381    10.3587
  429.5000  -999.2500    10.5548    10.5763
  430.0000  -999.2500    10.7760    10.7237
  430.5000  -999.2500    11.0019    10.9489
  431.0000  -999.2500    11.2325    11.1872
  431.5000  -999.2500    11.3887    11.3348
  432.0000  -999.2500    11.5482    11.5728
  432.5000  -999.2500    11.7078    11.6531
  433.0000  -999.2500    11.8707    11.8978
  433.5000  -999.2500    12.2036    12.0637
  434.0000  -999.2500    12.5459    12.2319
  434.5000  -999.2500    12.5455    12.2315
  435.0000  -999.2500    12.2475    12.2311
  435.5000  -999.2500  -999.2500    12.3158
  436.0000  -999.2500  -999.2500    12.4875
  436.5000  -999.2500  -999.2500    12.5742
  437.0000  -999.2500  -999.2500    12.7494
  437.5000  -999.2500  -999.2500    12.9273
  438.0000  -999.2500  -999.2500    12.9267
  438.5000  -999.2500  -999.2500    12.9263
  439.0000  -999.2500  -999.2500    12.8365
  439.5000  -999.2500  -999.2500    12.5588
  440.0000  -999.2500  -999.2500    12.2892
