~VERSION INFORMATION
 VERS.                2.0:   CWLS LOG ASCII STANDARD - VERSION 2.0
 WRAP.                 NO:   ONE LINE PER DEPTH STEP
~WELL INFORMATION
#MNEM.UNIT      DATA TYPE    INFORMATION
#----------   ------------   ------------------------------
 STRT.F          250.0000:   START DEPTH
 STOP.F         2527.0000:   STOP DEPTH
 STEP.F            0.5000:   STEP LENGTH
 NULL.          -999.2500:   NO VALUE
 COMP. FENIX & SCISSON INC:   COMPANY
 WELL.       NPR 3 #18-28:   WELL
 FLD .            WILDCAT:   FIELD
 LOC .      S28 T39N R78W:   LOCATION
 CNTY.            NATRONA:   COUNTY
 STAT.            WYOMING:   STATE
 CTRY. UNITED STATES OF AMERICA:   COUNTRY
 SRVC.            Unknown:   SERVICE COMPANY
 DATE.        01-MAY-1979:   LOGDATE
 API .       490251078000:   API NUMBER
~CURVE INFORMATION
#MNEM.UNIT       API CODE    CURVE DESCRIPTION
#----------   ------------   ------------------------------
 DEPT.F                  :   
 CORR.G/C3   45 356 01 00:   DENSITY CORRECTION
 DPHI.DEC    45 890 12 00:   DENSITY POROSITY SANDSTONE
 RHOB.G/C3   45 350 01 00:   BULK DENSITY
 CALD.IN     45 280 60 00:   CALIPER FROM DENSITY LOG
 GRD .GAPI   45 310 01 00:   GAMMA RAY FROM DENSITY LOG
~PARAMETER INFORMATION
#MNEM.UNIT          VALUE    DESCRIPTION
#----------   ------------   ------------------------------
 PD  .                 GL:   PERMANENT DATUM
 EPD .F              5079:   ELEVATION PERMANENT DATUM
 LMF .                 KB:   LOG MEASURED FROM
 DAPD.F                10:   FEET ABOVE PERMANENT DATUM
 DMF .                 KB:   DRILLING MEASURED FROM
 EKB .F              5089:   KELLING BUSHING
 EGL .F              5079:   GROUND LEVEL
 DATE.             5-1-79:   RUN DATE
 RUN .                  1:   RUN NUMBER
 DL  .F              2527:   DEPTH LOGGER
 BLI .F              2527:   BOTTOM LOG INTERVAL
 TLI .F               250:   TOP LOG INTERVAL
 CS  .IN            9.625:   CASING SIZE
 CBD .F               500:   CASING BOTTOM DRILLER
 CBL .F               495:   CASING BOTTOM LOGGER
 BS  .IN             8.75:   BIT SIZE
 DFT .                AIR:   DRILLING FLUID TYPE
 TCS .HRS              12:   TIME CURCULATED STOPPED
 LUL .             CASPER:   LOGGING UNIT LOCATION
 ENGI.         B. ROLLINS:   RECORDING ENGINEER
 WITN.           DINSMORE:   WITNESSED BY
 CLNT.            A2DTECH:   CLIENT CODE
 ORIG.           5" PRINT:   ORIGIN OF DATA
 UWI .       490251078000:   UNIQUE WELL ID
 DICO. A2D Technologies, Inc.:   DIGITIZING COMPANY
~OTHER INFORMATION
~A   DEPT     CORR       DPHI       RHOB       CALD         GRD  
# ...
 1653.0000     0.0687     0.0065     2.5474     9.1964   116.1297
 1653.5000     0.0869     0.0030     2.5541     9.2013   114.1418
 1654.0000     0.0936    -0.0004     2.5608     9.2190   109.5969
 1654.5000     0.0766     0.0015     2.5590     9.2135   105.0764
 1655.0000     0.0588     0.0069     2.5540     9.2074   102.8429
 1655.5000     0.0412     0.0131     2.5399     9.2012   104.8778
 1656.0000     0.0309     0.0227     2.5201     9.1950   109.7427
 1656.5000     0.0309     0.0202     2.5244     9.1889   113.6410
 1657.0000     0.0309     0.0161     2.5301     9.1827   115.4211
 1657.5000     0.0308     0.0184     2.5301     9.1765   115.5603
 1658.0000     0.0274     0.0224     2.5159     9.1703   114.4877
 1658.5000     0.0204     0.0292     2.5053     9.1649   113.2843
 1659.0000     0.0115     0.0366     2.5013     9.1651   112.0823
 1659.5000     0.0024     0.0422     2.4906     9.1701   110.8753
 1660.0000    -0.0011     0.0430     2.4851     9.1828   110.4550
 1660.5000     0.0131     0.0368     2.4963     9.1953   111.3342
 1661.0000     0.0305     0.0276     2.5101     9.2080   112.7447
 1661.5000     0.0481     0.0244     2.5152     9.2206   114.1654
 1662.0000     0.0622     0.0262     2.5058     9.2331   115.5902
 1662.5000     0.0577     0.0308     2.5007     9.2431   116.2762
 1663.0000     0.0546     0.0323     2.5113     9.2314   115.3245
 1663.5000     0.0532     0.0209     2.5218     9.2148   114.3829
 1664.0000     0.0516     0.0131     2.5324     9.1980   113.7851
 1664.5000     0.0499     0.0077     2.5429     9.1839   115.2766
 1665.0000     0.0486     0.0046     2.5545     9.1856   119.2274
 1665.5000     0.0466     0.0128     2.5440     9.1639   119.5738
 1666.0000     0.0421     0.0185     2.5318     9.1653   117.2083
 1666.5000     0.0376     0.0195     2.5319     9.1627   116.3021
 1667.0000     0.0330     0.0169     2.5343     9.1601   118.3819
 1667.5000     0.0286     0.0177     2.5282     9.1575   121.6466
 1668.0000     0.0329     0.0169     2.5223     9.1549   122.0780
 1668.5000     0.0463     0.0032     2.5469     9.1523   118.4586
 1669.0000     0.0503    -0.0029     2.5648     9.1497   115.8947
 1669.5000     0.0423     0.0125     2.5468     9.1472   113.3410
 1670.0000     0.0392     0.0132     2.5359     9.1446   112.1196
 1670.5000     0.0472     0.0052     2.5545     9.1420   115.2476
 1671.0000     0.0542     0.0022     2.5654     9.1394   117.2829
 1671.5000     0.0468     0.0050     2.5545     9.1368   119.9971
 1672.0000     0.0392     0.0082     2.5427     9.1342   123.8232
 1672.5000     0.0433     0.0057     2.5485     9.1317   121.9217
 1673.0000     0.0484     0.0025     2.5553     9.1291   120.0710
 1673.5000     0.0355     0.0105     2.5409     9.1259   121.4639
 1674.0000     0.0199     0.0189     2.5243     9.1458   121.4617
 1674.5000     0.0194     0.0212     2.5115     9.1423   119.1523
 1675.0000     0.0275     0.0232     2.5094     9.1393   116.8645
 1675.5000     0.0246     0.0253     2.5095     9.1362   115.5166
 1676.0000     0.0153     0.0273     2.5114     9.1332   115.7871
 1676.5000     0.0201     0.0284     2.5166     9.1302   116.9275
 1677.0000     0.0307     0.0145     2.5278     9.1272   117.7093
 1677.5000     0.0327     0.0137     2.5352     9.1242   116.5749
 1678.0000     0.0336     0.0129     2.5416     9.1212   115.6638
 1678.5000     0.0465     0.0038     2.5553     9.1182   118.1557
 1679.0000     0.0518    -0.0065     2.5680     9.1152   119.8762
 1679.5000     0.0438     0.0048     2.5522     9.1122   116.4091
 1680.0000     0.0357     0.0185     2.5255     9.1092   113.7734
 1680.5000     0.0312     0.0148     2.5244     9.1062   117.5192
 1681.0000     0.0429     0.0077     2.5424     9.1032   124.5573
 1681.5000     0.0547     0.0006     2.5576     9.1002   128.0147
 1682.0000     0.0561    -0.0005     2.5632     9.0971   125.6559
 1682.5000     0.0384     0.0136     2.5496     9.0941   121.7720
 1683.0000     0.0285     0.0204     2.5312     9.0911   118.5316
 1683.5000     0.0439     0.0169     2.5282     9.0881   120.2233
 1684.0000     0.0622     0.0034     2.5487     9.0851   121.9163
 1684.5000     0.0792    -0.0037     2.5694     9.0821   120.6724
 1685.0000     0.0639     0.0070     2.5525     9.0791   118.8176
 1685.5000     0.0440     0.0323     2.5203     9.0761   118.2961
 1686.0000     0.0255     0.0439     2.4881     9.0730   118.2882
 1686.5000     0.0278     0.0510     2.4707     9.0700   117.1444
 1687.0000     0.0390     0.0386     2.4830     9.0690   115.8262
 1687.5000     0.0504     0.0267     2.5089     9.0793   114.6895
 1688.0000     0.0461     0.0236     2.5152     9.0896   116.0623
 1688.5000     0.0347     0.0228     2.5159     9.0998   117.9160
 1689.0000     0.0288     0.0206     2.5225     9.1101   115.6478
 1689.5000     0.0312     0.0157     2.5306     9.1203   113.9921
 1690.0000     0.0347     0.0113     2.5390     9.1306   117.9282
 1690.5000     0.0300     0.0159     2.5275     9.1408   120.6111
 1691.0000     0.0215     0.0253     2.5121     9.1510   119.2161
 1691.5000     0.0148     0.0300     2.5026     9.1613   117.8416
 1692.0000     0.0239     0.0269     2.5092     9.1716   119.8302
 1692.5000     0.0368     0.0186     2.5238     9.1822   122.4784
 1693.0000     0.0499     0.0104     2.5384     9.1830   121.1339
 1693.5000     0.0630     0.0022     2.5531     9.1728   121.7651
 1694.0000     0.0702    -0.0033     2.5681     9.1627   123.3789
 1694.5000     0.0569     0.0077     2.5559     9.1526   120.3507
 1695.0000     0.0406     0.0216     2.5321     9.1425   119.6328
 1695.5000     0.0268     0.0216     2.5214     9.1325   121.2514
 1696.0000     0.0383     0.0155     2.5282     9.1224   122.8932
 1696.5000     0.0505     0.0093     2.5401     9.1123   123.7682
 1697.0000     0.0512     0.0079     2.5500     9.1022   121.2161
 1697.5000     0.0467     0.0047     2.5512     9.0921   117.9473
 1698.0000     0.0564     0.0014     2.5521     9.0821   115.3051
 1698.5000     0.0481     0.0096     2.5472     9.0719   116.7250
 1699.0000     0.0299     0.0182     2.5236     9.0663   119.0997
 1699.5000     0.0314     0.0201     2.5210     9.0635   120.2871
 1700.0000     0.0417     0.0142     2.5261     9.0607   115.8774
 1700.5000     0.0523     0.0066     2.5378     9.0579   114.3995
 1701.0000     0.0559     0.0019     2.5490     9.0551   116.3613
 1701.5000     0.0424     0.0092     2.5535     9.0523   119.6830
 1702.0000     0.0274     0.0168     2.5340     9.0495   123.0080
 1702.5000     0.0125     0.0244     2.5184     9.0515   125.9941
 1703.0000     0.0052     0.0276     2.5055     9.0561   125.8824
 1703.5000     0.0145     0.0284     2.5042     9.0606   121.0577
 1704.0000     0.0247     0.0288     2.5075     9.0652   121.2048
 1704.5000     0.0309     0.0274     2.5140     9.0697   124.9438
 1705.0000     0.0310     0.0210     2.5202     9.0743   122.1628
 1705.5000     0.0343     0.0146     2.5266     9.0789   120.4705
 1706.0000     0.0415     0.0066     2.5403     9.0834   122.0642
 1706.5000     0.0448     0.0102     2.5483     9.0883   121.0772
 1707.0000     0.0408     0.0168     2.5306     9.0942   118.9610
 1707.5000     0.0374     0.0205     2.5234     9.1003   116.9008
 1708.0000     0.0339     0.0235     2.5197     9.1063   117.1126
 1708.5000     0.0327     0.0256     2.5145     9.1124   119.2004
 1709.0000     0.0427     0.0192     2.5174     9.1185   119.9479
 1709.5000     0.0576     0.0078     2.5352     9.1245   118.3813
 1710.0000     0.0662     0.0007     2.5542     9.1305   116.9003
 1710.5000     0.0542     0.0026     2.5622     9.1366   115.6478
 1711.0000     0.0421     0.0045     2.5544     9.1426   114.7947
 1711.5000     0.0433     0.0062     2.5489     9.1487   112.3767
 1712.0000     0.0485     0.0037     2.5512     9.1547   109.4268
 1712.5000     0.0537     0.0004     2.5583     9.1608   106.6768
 1713.0000     0.0588    -0.0030     2.5655     9.1668   106.5837
 1713.5000     0.0627    -0.0045     2.5688     9.1729   115.1193
