~VERSION INFORMATION
 VERS.                2.0:   CWLS LOG ASCII STANDARD - VERSION 2.0
 WRAP.                 NO:   ONE LINE PER DEPTH STEP
~WELL INFORMATION
#MNEM.UNIT      DATA TYPE    INFORMATION
#----------   ------------   ------------------------------
 STRT.F            0.0000:   START DEPTH
 STOP.F         2758.0000:   STOP DEPTH
 STEP.F            0.5000:   STEP LENGTH
 NULL.          -999.2500:   NO VALUE
 COMP. FENIX & SCISSON INC:   COMPANY
 WELL.       402A #402-20:   WELL
 FLD .             TEAPOT:   FIELD
 LOC .      S20 T39N R78W:   LOCATION
 CNTY.            NATRONA:   COUNTY
 STAT.            WYOMING:   STATE
 CTRY. UNITED STATES OF AMERICA:   COUNTRY
 SRVC.      NL McCullough:   SERVICE COMPANY
 DATE.        15-JUL-1965:   LOGDATE
 API .       490251021100:   API NUMBER
~CURVE INFORMATION
#MNEM.UNIT       API CODE    CURVE DESCRIPTION
#----------   ------------   ------------------------------
 DEPT.F                  :   
 GR  .GAPI   30 310 01 00:   GAMMA RAY
 CALI.IN     70 280 01 00:   CALIPER
~PARAMETER INFORMATION
#MNEM.UNIT          VALUE    DESCRIPTION
#----------   ------------   ------------------------------
 PD  .                 GL:   PERMANENT DATUM
 LMF .                 GL:   LOG MEASURED FROM
 DMF .                 GL:   DRILLING MEASURED FROM
 DATE.            7-15-65:   RUN DATE
 RUN .                  1:   RUN NUMBER
 DL  .F              2759:   DEPTH LOGGER
 BLI .F              2758:   BOTTOM LOG INTERVAL
 TLI .F              2100:   TOP LOG INTERVAL
 CS  .IN                7:   CASING SIZE
 ENGI. FITZSIMMONS/COWLTHORPE:   RECORDING ENGINEER
 WITN.             HUDSON:   WITNESSED BY
 CLNT.            A2DTECH:   CLIENT CODE
 ORIG.           5" PRINT:   ORIGIN OF DATA
 UWI .       490251021100:   UNIQUE WELL ID
 DICO. A2D Technologies, Inc.:   DIGITIZING COMPANY
~OTHER INFORMATION
~A    DEPT      GR         CALI 
# ...
 1458.0000  -999.2500     5.7089
 1458.5000  -999.2500     5.7109
 1459.0000  -999.2500     5.7102
 1459.5000  -999.2500     5.7050
 1460.0000  -999.2500     5.7000
 1460.5000  -999.2500     5.6949
 1461.0000  -999.2500     5.6898
 1461.5000  -999.2500     5.6847
 1462.0000  -999.2500     5.6796
 1462.5000  -999.2500     5.6746
 1463.0000  -999.2500     5.6722
 1463.5000  -999.2500     5.6721
 1464.0000  -999.2500     5.6721
 1464.5000  -999.2500     5.6721
 1465.0000  -999.2500     5.6721
 1465.5000  -999.2500     5.6721
 1466.0000  -999.2500     5.6721
 1466.5000  -999.2500     5.6726
 1467.0000  -999.2500     5.6740
 1467.5000  -999.2500     5.6754
 1468.0000  -999.2500     5.6767
 1468.5000  -999.2500     5.6781
 1469.0000  -999.2500     5.6794
 1469.5000  -999.2500     5.6808
 1470.0000  -999.2500     5.6821
 1470.5000  -999.2500     5.6835
 1471.0000  -999.2500     5.6848
 1471.5000  -999.2500     5.6862
 1472.0000  -999.2500     5.6875
 1472.5000  -999.2500     5.6889
 1473.0000  -999.2500     5.6902
 1473.5000  -999.2500     5.6916
 1474.0000  -999.2500     5.6901
 1474.5000  -999.2500     5.6866
 1475.0000  -999.2500     5.6831
 1475.5000  -999.2500     5.6796
 1476.0000  -999.2500     5.6762
 1476.5000  -999.2500     5.6726
 1477.0000  -999.2500     5.6737
 1477.5000  -999.2500     5.6756
 1478.0000  -999.2500     5.6776
 1478.5000  -999.2500     5.6795
 1479.0000  -999.2500     5.6814
 1479.5000  -999.2500     5.6834
 1480.0000  -999.2500     5.6853
 1480.5000  -999.2500     5.6872
 1481.0000  -999.2500     5.6891
 1481.5000  -999.2500     5.6910
 1482.0000  -999.2500     5.6894
 1482.5000  -999.2500     5.6833
 1483.0000  -999.2500     5.6772
 1483.5000  -999.2500     5.6720
 1484.0000  -999.2500     5.6721
 1484.5000  -999.2500     5.6721
 1485.0000  -999.2500     5.6721
 1485.5000  -999.2500     5.6721
 1486.0000  -999.2500     5.6721
 1486.5000  -999.2500     5.6721
 1487.0000  -999.2500     5.6721
 1487.5000  -999.2500     5.6721
 1488.0000  -999.2500     5.6721
 1488.5000  -999.2500     5.6721
 1489.0000  -999.2500     5.6721
 1489.5000  -999.2500     5.6721
 1490.0000  -999.2500     5.6721
 1490.5000  -999.2500     5.6753
 1491.0000  -999.2500     5.6814
 1491.5000  -999.2500     5.6875
 1492.0000  -999.2500     5.6922
 1492.5000  -999.2500     5.6922
 1493.0000  -999.2500     5.6921
 1493.5000  -999.2500     5.6921
 1494.0000  -999.2500     5.6921
 1494.5000  -999.2500     5.6921
 1495.0000  -999.2500     5.6921
 1495.5000  -999.2500     5.6921
 1496.0000  -999.2500     5.6921
 1496.5000  -999.2500     5.6921
 1497.0000  -999.2500     5.6921
 1497.5000  -999.2500     5.6921
 1498.0000  -999.2500     5.6921
 1498.5000  -999.2500     5.6921
 1499.0000  -999.2500     5.6921
 1499.5000  -999.2500     5.6921
 1500.0000  -999.2500     5.6922
 1500.5000  -999.2500     5.6922
 1501.0000  -999.2500     5.6925
 1501.5000  -999.2500     5.6791
 1502.0000  -999.2500     5.6632
 1502.5000  -999.2500     5.6549
 1503.0000  -999.2500     5.6647
 1503.5000  -999.2500     5.6743
 1504.0000  -999.2500     5.6838
 1504.5000  -999.2500     5.6924
 1505.0000  -999.2500     5.6922
 1505.5000  -999.2500     5.6921
 1506.0000  -999.2500     5.6921
 1506.5000  -999.2500     5.6921
 1507.0000  -999.2500     5.6921
 1507.5000  -999.2500     5.6921
 1508.0000  -999.2500     5.6921
 1508.5000  -999.2500     5.6921
 1509.0000  -999.2500     5.6921
 1509.5000  -999.2500     5.6921
 1510.0000  -999.2500     5.6921
 1510.5000  -999.2500     5.6921
 1511.0000  -999.2500     5.6921
 1511.5000  -999.2500     5.6921
 1512.0000  -999.2500     5.6921
 1512.5000  -999.2500     5.6921
 1513.0000  -999.2500     5.6921
 1513.5000  -999.2500     5.6921
 1514.0000  -999.2500     5.6921
 1514.5000  -999.2500     5.6921
 1515.0000  -999.2500     5.6921
 1515.5000  -999.2500     5.6921
 1516.0000  -999.2500     5.6921
 1516.5000  -999.2500     5.6921
 1517.0000  -999.2500     5.6921
 1517.5000  -999.2500     5.6921
 1518.0000  -999.2500     5.6921
 1518.5000  -999.2500     5.6921
 1519.0000  -999.2500     5.6921
 1519.5000  -999.2500     5.6922
 1520.0000  -999.2500     5.6922
 1520.5000  -999.2500     5.6921
 1521.0000  -999.2500     5.6902
 1521.5000  -999.2500     5.6863
 1522.0000  -999.2500     5.6824
 1522.5000  -999.2500     5.6785
 1523.0000  -999.2500     5.6747
 1523.5000  -999.2500     5.6733
 1524.0000  -999.2500     5.6821
 1524.5000  -999.2500     5.6909
 1525.0000  -999.2500     5.6998
 1525.5000  -999.2500     5.7085
 1526.0000  -999.2500     5.7010
 1526.5000  -999.2500     5.6337
 1527.0000  -999.2500     5.6142
 1527.5000  -999.2500     5.6167
 1528.0000  -999.2500     5.6197
 1528.5000  -999.2500     5.6227
 1529.0000  -999.2500     5.6256
 1529.5000  -999.2500     5.6285
 1530.0000  -999.2500     5.6314
 1530.5000  -999.2500     5.6343
 1531.0000  -999.2500     5.6373
 1531.5000  -999.2500     5.6402
 1532.0000  -999.2500     5.6431
 1532.5000  -999.2500     5.6460
 1533.0000  -999.2500     5.6490
 1533.5000  -999.2500     5.6519
 1534.0000  -999.2500     5.6521
 1534.5000  -999.2500     5.6521
 1535.0000  -999.2500     5.6519
 1535.5000  -999.2500     5.6419
 1536.0000  -999.2500     5.6330
 1536.5000  -999.2500     5.6391
 1537.0000  -999.2500     5.6454
 1537.5000  -999.2500     5.6517
 1538.0000  -999.2500     5.6462
 1538.5000  -999.2500     5.6396
 1539.0000  -999.2500     5.6330
 1539.5000  -999.2500     5.6320
 1540.0000  -999.2500     5.6320
 1540.5000  -999.2500     5.6321
 1541.0000  -999.2500     5.6321
 1541.5000  -999.2500     5.6321
 1542.0000  -999.2500     5.6321
 1542.5000  -999.2500     5.6321
 1543.0000  -999.2500     5.6321
 1543.5000  -999.2500     5.6321
 1544.0000  -999.2500     5.6321
 1544.5000  -999.2500     5.6321
 1545.0000  -999.2500     5.6321
 1545.5000  -999.2500     5.6321
 1546.0000  -999.2500     5.6321
 1546.5000  -999.2500     5.6321
 1547.0000  -999.2500     5.6320
 1547.5000  -999.2500     5.6320
 1548.0000  -999.2500     5.6317
 1548.5000  -999.2500     5.6473
 1549.0000  -999.2500     5.6686
 1549.5000  -999.2500     5.6706
 1550.0000  -999.2500     5.6688
 1550.5000  -999.2500     5.6669
 1551.0000  -999.2500     5.6650
 1551.5000  -999.2500     5.6631
 1552.0000  -999.2500     5.6613
 1552.5000  -999.2500     5.6594
 1553.0000  -999.2500     5.6575
 1553.5000  -999.2500     5.6556
 1554.0000  -999.2500     5.6536
 1554.5000  -999.2500     5.6530
 1555.0000  -999.2500     5.6726
 1555.5000  -999.2500     5.6921
 1556.0000  -999.2500     5.7112
 1556.5000  -999.2500     5.6964
 1557.0000  -999.2500     5.6790
 1557.5000  -999.2500     5.6621
 1558.0000  -999.2500     5.6586
 1558.5000  -999.2500     5.6936
 1559.0000  -999.2500     5.7109
 1559.5000  -999.2500     5.6798
 1560.0000  -999.2500     5.6539
 1560.5000  -999.2500     5.6696
 1561.0000  -999.2500     5.6860
 1561.5000  -999.2500     5.7018
 1562.0000  -999.2500     5.7053
 1562.5000  -999.2500     5.6858
 1563.0000  -999.2500     5.6667
 1563.5000  -999.2500     5.6517
 1564.0000  -999.2500     5.6521
 1564.5000  -999.2500     5.6521
 1565.0000  -999.2500     5.6521
 1565.5000  -999.2500     5.6521
 1566.0000  -999.2500     5.6521
 1566.5000  -999.2500     5.6521
 1567.0000  -999.2500     5.6521
 1567.5000  -999.2500     5.6521
 1568.0000  -999.2500     5.6521
 1568.5000  -999.2500     5.6521
 1569.0000  -999.2500     5.6518
 1569.5000  -999.2500     5.6534
 1570.0000  -999.2500     5.6822
 1570.5000  -999.2500     5.7108
 1571.0000  -999.2500     5.7039
 1571.5000  -999.2500     5.6948
 1572.0000  -999.2500     5.6598
 1572.5000  -999.2500     5.6545
 1573.0000  -999.2500     5.6575
 1573.5000  -999.2500     5.6607
 1574.0000  -999.2500     5.6638
 1574.5000  -999.2500     5.6669
 1575.0000  -999.2500     5.6700
 1575.5000  -999.2500     5.6717
 1576.0000  -999.2500     5.6703
 1576.5000  -999.2500     5.6689
 1577.0000  -999.2500     5.6675
 1577.5000  -999.2500     5.6661
 1578.0000  -999.2500     5.6647
 1578.5000  -999.2500     5.6633
 1579.0000  -999.2500     5.6620
