~VERSION INFORMATION
 VERS.                2.0:   CWLS LOG ASCII STANDARD - VERSION 2.0
 WRAP.                 NO:   ONE LINE PER DEPTH STEP
~WELL INFORMATION
#MNEM.UNIT      DATA TYPE    INFORMATION
#----------   ------------   ------------------------------
 STRT.F            0.0000:   START DEPTH
 STOP.F         4535.0000:   STOP DEPTH
 STEP.F            0.5000:   STEP LENGTH
 NULL.          -999.2500:   NO VALUE
 COMP. LAWRENCE - ALLISON & ASSOCIATES:   COMPANY
 WELL.    NPR ##3 56-X-15:   WELL
 FLD .   TEAPOT NAVAL RES:   FIELD
 LOC .      S15 T38N R78W:   LOCATION
 CNTY.            NATRONA:   COUNTY
 STAT.            WYOMING:   STATE
 CTRY. UNITED STATES OF AMERICA:   COUNTRY
 SRVC.      Dresser Atlas:   SERVICE COMPANY
 DATE.        03-MAY-1984:   LOGDATE
 API .       490251095900:   API NUMBER
~CURVE INFORMATION
#MNEM.UNIT       API CODE    CURVE DESCRIPTION
#----------   ------------   ------------------------------
 DEPT.F                  :   
 CORR.G/C3   45 356 01 00:   DENSITY CORRECTION
 DEN .G/C3   45 350 01 00:   COMPENSATED BULK DENSTIY
 PORD.DEC    45 890 12 00:   POROSITY DENSITY SANDSTONE
 CNC .DEC    42 890 03 00:   NEUTRON POROSITY SANDSTONE
 GRR .GAPI   07 310 01 00:   GAMMA RAY
 CALR.IN     07 280 01 00:   CALIPER FROM RESISTIVITY
 SPR .MV     07 010 01 00:   SPONTANEOUS POTENTIAL
 RILD.OHMM   07 120 46 00:   INDUCTION LOG DEEP RESISTIVITY
 RILM.OHMM   07 120 44 00:   INDUCTION LOG MEDIUM RESISTIVITY
 RFOC.OHMM   07 220 04 00:   RESISTIVITY FOCUSED LOG
 AC  .US/F   60 520 00 00:   ACCOUSTIC
~PARAMETER INFORMATION
#MNEM.UNIT          VALUE    DESCRIPTION
#----------   ------------   ------------------------------
 PD  .                 GL:   PERMANENT DATUM
 EPD .F              5326:   ELEVATION PERMANENT DATUM
 LMF .                 KB:   LOG MEASURED FROM
 DAPD.F                12:   FEET ABOVE PERMANENT DATUM
 DMF .                 KB:   DRILLING MEASURED FROM
 EKB .F              5338:   KELLING BUSHING
 EDF .F              5337:   DRILLING FLOOR
 EGL .F              5326:   GROUND LEVEL
 DATE.        03-MAY-1984:   RUN DATE
 RUN .                  1:   RUN NUMBER
 DD  .F              4547:   DEPTH DRILLER
 DL  .F              4539:   DEPTH LOGGER
 BLI .F              4536:   BOTTOM LOG INTERVAL
 CS  .IN            8.625:   CASING SIZE
 CBD .F              1027:   CASING BOTTOM DRILLER
 CBL .F              1021:   CASING BOTTOM LOGGER
 BS  .IN            7.875:   BIT SIZE
 BSD .F              4547:   BIT SIZE AT DEPTH
 DFT .            KCL GEL:   DRILLING FLUID TYPE
 DFD .                9.1:   DRILLING FLUID DENSITY
 DFV .                 44:   DRILLING FLUID VISCOSITY
 DFPH.                  8:   DRILLING FLUID PH
 DFL .               14.5:   DRILLING FLUID LOSS
 MSS .           MUD TANK:   MUD SAMPLE SOURCE
 RMS .OHMM           0.56:   RESISTIVITY MUD SAMPLE
 MST .F                73:   MUD SAMPLE TEMPERATURE
 RMF .OHMM           0.42:   RESISTIVITY MUD FILTRATE SAMPLE
 MFST.F                73:   MUD FILTRATE SAMPLE TEMPERATURE
 RMC .OHMM           0.71:   RESISTIVITY MUD CAKE
 MCST.F                73:   MUD CAKE SAMPLE TEMPERATURE
 MFSS.               MEAS:   MUD FILTRATE SAMPLE SOURCE
 MCSS.               CALC:   MUD CAKE SAMPLE SOURCE
 RMB .OHMM           0.29:   RESISTIVITY MUD AT BHT
 BHT .F               141:   BOTTOM HOLE TEMPERATURE
 TCS .HRS             3.5:   TIME CURCULATED STOPPED
 MRT .F               125:   MAXIMUM RECORDED TEMPERATURE
 LUN .               6302:   LOGGING UNIT NUMBER
 LUL .               CODY:   LOGGING UNIT LOCATION
 ENGI.              GETTY:   RECORDING ENGINEER
 WITN.           JENNINGS:   WITNESSED BY
 CLNT.            A2DTECH:   CLIENT CODE
 ORIG.           5" PRINT:   ORIGIN OF DATA
 UWI .       490251095900:   UNIQUE WELL ID
 DICO. A2D Technologies, Inc.:   DIGITIZING COMPANY
~OTHER INFORMATION
~A    DEPT    CORR        DEN       PORD        CNC        GRR       CALR        SPR       RILD       RILM       RFOC         AC   
# ...
 1952.0000  -999.2500  -999.2500  -999.2500  -999.2500    89.9363     9.0075   -20.1141     6.7905     6.7604     6.7114  -999.2500
 1952.5000  -999.2500  -999.2500  -999.2500  -999.2500    89.0029     9.0075   -20.2628     6.8346     6.8526     6.6627  -999.2500
 1953.0000  -999.2500  -999.2500  -999.2500  -999.2500    89.5830     9.0226   -20.2612     6.8790     6.8990     6.6604  -999.2500
 1953.5000  -999.2500  -999.2500  -999.2500  -999.2500    90.1557     9.0376   -20.2597     7.0207     6.9931     6.9898  -999.2500
 1954.0000  -999.2500  -999.2500  -999.2500  -999.2500    90.4271     9.0827   -20.2583     7.1189     6.9912     7.1843  -999.2500
 1954.5000  -999.2500  -999.2500  -999.2500  -999.2500    89.4863     9.0526   -20.2652     7.2118     7.0875     7.2823  -999.2500
 1955.0000  -999.2500  -999.2500  -999.2500  -999.2500    88.2518     9.0226   -20.4054     7.3093     7.1344     7.2797  -999.2500
 1955.5000  -999.2500  -999.2500  -999.2500  -999.2500    89.4268     9.0226   -20.4254     7.3050     7.1325     7.2772  -999.2500
 1956.0000  -999.2500  -999.2500  -999.2500  -999.2500    92.7104     9.0677   -20.4024     7.3014     7.0812     7.1559  -999.2500
 1956.5000  -999.2500  -999.2500  -999.2500  -999.2500    94.1866     9.0376   -20.4006     7.1971     6.9815     6.8310  -999.2500
 1957.0000  -999.2500  -999.2500  -999.2500  -999.2500    94.7593     8.9925   -20.3991     7.1936     6.8357     6.7814  -999.2500
 1957.5000  -999.2500  -999.2500  -999.2500  -999.2500    95.0307     8.9624   -20.3976     7.1403     6.7395     6.8269  -999.2500
 1958.0000  -999.2500  -999.2500  -999.2500  -999.2500    92.5099     8.9624   -20.5467     7.0874     6.6910     6.8721  -999.2500
 1958.5000  -999.2500  -999.2500  -999.2500  -999.2500    90.3967     8.9925   -20.6953     7.0840     6.5512     6.8692  -999.2500
 1959.0000  -999.2500  -999.2500  -999.2500  -999.2500    89.2112     8.9774   -20.5433     7.1300     6.5041     6.9147  -999.2500
 1959.5000  -999.2500  -999.2500  -999.2500  -999.2500    87.9766     8.9474   -20.3917     7.1772     6.5976     7.0090  -999.2500
 1960.0000  -999.2500  -999.2500  -999.2500  -999.2500    86.7420     8.8872   -20.0899     7.3242     6.7834     7.1046  -999.2500
 1960.5000  -999.2500  -999.2500  -999.2500  -999.2500    85.5075     8.8421   -19.7881     7.3207     6.9263     7.2021  -999.2500
 1961.0000  -999.2500  -999.2500  -999.2500  -999.2500    85.5139     8.8271   -19.7866     7.3691     7.0612     7.3506  -999.2500
 1961.5000  -999.2500  -999.2500  -999.2500  -999.2500    85.5369     8.8271   -20.0858     7.3647     7.1090     7.3481  -999.2500
 1962.0000  -999.2500  -999.2500  -999.2500  -999.2500    85.9326     8.8421   -20.3843     7.2594     7.1065     7.2442  -999.2500
 1962.5000  -999.2500  -999.2500  -999.2500  -999.2500    91.0543     8.8872   -20.3828     7.1557     6.9581     7.0924  -999.2500
 1963.0000  -999.2500  -999.2500  -999.2500  -999.2500    96.4768     8.9173   -19.9309     7.0534     6.7655     6.9438  -999.2500
 1963.5000  -999.2500  -999.2500  -999.2500  -999.2500    99.7940     8.9486   -19.6291     6.9518     6.7169     6.7982  -999.2500
 1964.0000  -999.2500  -999.2500  -999.2500  -999.2500   101.0059     8.9774   -19.6276     6.9011     6.7150     6.6558  -999.2500
 1964.5000  -999.2500  -999.2500  -999.2500  -999.2500    99.5111     8.9774   -19.6261     6.8499     6.7604     6.6535  -999.2500
 1965.0000  -999.2500  -999.2500  -999.2500  -999.2500    95.6103     8.9774   -19.6246     6.8945     6.8057     6.7912  -999.2500
 1965.5000  -999.2500  -999.2500  -999.2500  -999.2500    92.6117     8.9624   -19.6231     6.9393     6.8985     6.9323  -999.2500
 1966.0000  -999.2500  -999.2500  -999.2500  -999.2500    90.5154     8.9624   -19.4715     6.9843     6.8489     6.9778  -999.2500
 1966.5000  -999.2500  -999.2500  -999.2500  -999.2500    90.2213     8.9624   -19.3198     6.8837     6.7525     6.9224  -999.2500
 1967.0000  -999.2500  -999.2500  -999.2500  -999.2500    90.5333     8.9023   -19.1682     6.7383     6.5657     6.7284  -999.2500
 1967.5000  -999.2500  -999.2500  -999.2500  -999.2500    96.2565     8.8571   -19.1667     6.5960     6.4733     6.5853  -999.2500
 1968.0000  -999.2500  -999.2500  -999.2500  -999.2500   101.3782     8.8271   -19.1649     6.5471     6.3823     6.4551  -999.2500
 1968.5000  -999.2500  -999.2500  -999.2500  -999.2500   101.9864     8.7970   -19.3139     6.5439     6.3805     6.3638  -999.2500
 1969.0000  -999.2500  -999.2500  -999.2500  -999.2500    96.5841     8.7820   -19.6127     6.5408     6.4233     6.3616  -999.2500
 1969.5000  -999.2500  -999.2500  -999.2500  -999.2500    92.6832     8.7519   -19.7614     6.5833     6.5113     6.4038  -999.2500
 1970.0000  -999.2500  -999.2500  -999.2500  -999.2500    89.3839     8.7519   -19.9101     6.6268     6.5549     6.5364  -999.2500
 1970.5000  -999.2500  -999.2500  -999.2500  -999.2500    86.3853     8.7669   -19.7581     6.6699     6.6911     6.6717  -999.2500
 1971.0000  -999.2500  -999.2500  -999.2500  -999.2500    83.6875     8.7820   -19.7566     6.7593     6.7364     6.7633  -999.2500
 1971.5000  -999.2500  -999.2500  -999.2500  -999.2500    82.4932     8.8271   -19.6049     6.8033     6.7315     6.8550  -999.2500
 1972.0000  -999.2500  -999.2500  -999.2500  -999.2500    82.5024     8.8872   -19.6034     6.7060     6.5476     6.8052  -999.2500
 1972.5000  -999.2500  -999.2500  -999.2500  -999.2500    86.4211     8.9624   -19.6020     6.5188     6.4555     6.5706  -999.2500
 1973.0000  -999.2500  -999.2500  -999.2500  -999.2500    90.6406     8.9925   -19.6005     6.4705     6.4615     6.4778  -999.2500
 1973.5000  -999.2500  -999.2500  -999.2500  -999.2500    88.1749     9.0075   -19.8993     6.5133     6.5423     6.5207  -999.2500
 1974.0000  -999.2500  -999.2500  -999.2500  -999.2500    85.5457     9.0075   -20.0483     6.6931     6.6319     6.6557  -999.2500
 1974.5000  -999.2500  -999.2500  -999.2500  -999.2500    89.8436     9.0226   -20.0465     6.7836     6.7229     6.7470  -999.2500
 1975.0000  -999.2500  -999.2500  -999.2500  -999.2500    91.6290     9.0075   -20.0450     6.7802     6.7206     6.7913  -999.2500
 1975.5000  -999.2500  -999.2500  -999.2500  -999.2500    93.9958     9.0075   -20.0435     6.6363     6.7187     6.7888  -999.2500
 1976.0000  -999.2500  -999.2500  -999.2500  -999.2500    97.9145     9.0075   -20.1922     6.4064     6.4876     6.6929  -999.2500
 1976.5000  -999.2500  -999.2500  -999.2500  -999.2500    96.4197     9.0075   -20.3408     6.3148     6.3521     6.3730  -999.2500
 1977.0000  -999.2500  -999.2500  -999.2500  -999.2500    91.0151     9.0226   -20.3393     6.4906     6.3503     6.2830  -999.2500
 1977.5000  -999.2500  -999.2500  -999.2500  -999.2500    90.4203     9.0677   -20.3378     6.3528     6.3486     6.2808  -999.2500
 1978.0000  -999.2500  -999.2500  -999.2500  -999.2500    91.3337     9.0827   -20.3363     6.1755     6.1302     6.1880  -999.2500
 1978.5000  -999.2500  -999.2500  -999.2500  -999.2500    91.6434     9.0827   -20.3348     6.3027     6.1712     6.0622  -999.2500
 1979.0000  -999.2500  -999.2500  -999.2500  -999.2500    84.4343     9.0827   -20.4835     6.5681     6.4769     6.2465  -999.2500
 1979.5000  -999.2500  -999.2500  -999.2500  -999.2500    80.8342     9.0526   -20.7824     6.8448     6.7507     6.5841  -999.2500
 1980.0000  -999.2500  -999.2500  -999.2500  -999.2500    79.9387     9.0075   -21.0808     7.1331     6.8909     6.8620  -999.2500
 1980.5000  -999.2500  -999.2500  -999.2500  -999.2500    86.5664     8.9774   -21.3800     7.1803     6.9375     6.9561  -999.2500
 1981.0000  -999.2500  -999.2500  -999.2500  -999.2500    90.7858     8.9624   -21.5287     6.8826     6.9442     7.0022  -999.2500
 1981.5000  -999.2500  -999.2500  -999.2500  -999.2500    91.9956     8.9474   -21.5268     6.6905     6.7902     6.8074  -999.2500
 1982.0000  -999.2500  -999.2500  -999.2500  -999.2500    87.1947     8.9023   -21.5253     6.9724     6.7834     6.6186  -999.2500
