~VERSION INFORMATION
 VERS.                2.0:   CWLS LOG ASCII STANDARD - VERSION 2.0
 WRAP.                 NO:   ONE LINE PER DEPTH STEP
~WELL INFORMATION
#MNEM.UNIT      DATA TYPE    INFORMATION
#----------   ------------   ------------------------------
 STRT.F           12.0000:   START DEPTH
 STOP.F          549.0000:   STOP DEPTH
 STEP.F            0.5000:   STEP LENGTH
 NULL.          -999.2500:   NO VALUE
 COMP. LAWRENCE/ALLISON INC:   COMPANY
 WELL.  58-64-1 SX 3 #3-3:   WELL
 FLD .             TEAPOT:   FIELD
 LOC .       S3 T38N R78W:   LOCATION
 CNTY.            NATRONA:   COUNTY
 STAT.            WYOMING:   STATE
 CTRY. UNITED STATES OF AMERICA:   COUNTRY
 SRVC.      Dresser Atlas:   SERVICE COMPANY
 DATE.        05-DEC-1984:   LOGDATE
 API .       490251117800:   API NUMBER
~CURVE INFORMATION
#MNEM.UNIT       API CODE    CURVE DESCRIPTION
#----------   ------------   ------------------------------
 DEPT.F                  :   
 RFOC.OHMM   07 220 04 00:   RESISTIVITY FOCUSED LOG
 RILD.OHMM   07 120 46 00:   INDUCTION LOG DEEP RESISTIVITY
 RILM.OHMM   07 120 44 00:   INDUCTION LOG MEDIUM RESISTIVITY
 SPR .MV     07 010 01 00:   SPONTANEOUS POTENTIAL
 CALD.IN     45 280 60 00:   CALIPER FROM DENSITY LOG
 CNC .DEC    42 890 03 00:   NEUTRON POROSITY SANDSTONE
 CORR.G/C3   45 356 01 00:   DENSITY CORRECTION
 DEN .G/C3   45 350 01 00:   COMPENSATED BULK DENSTIY
 GRD .GAPI   45 310 01 00:   GAMMA RAY FROM DENSITY LOG
 PORD.DEC    45 890 12 00:   POROSITY DENSITY SANDSTONE
 DT  .US/F   60 520 00 00:   INTERVAL TRANSIT TIME
~PARAMETER INFORMATION
#MNEM.UNIT          VALUE    DESCRIPTION
#----------   ------------   ------------------------------
 PD  .                 GL:   PERMANENT DATUM
 EPD .F              5188:   ELEVATION PERMANENT DATUM
 LMF .                 KB:   LOG MEASURED FROM
 DMF .                 KB:   DRILLING MEASURED FROM
 EGL .F              5188:   GROUND LEVEL
 DATE.         5-DEC-1984:   RUN DATE
 RUN .                  1:   RUN NUMBER
 DD  .F               556:   DEPTH DRILLER
 DL  .F               551:   DEPTH LOGGER
 BLI .F               549:   BOTTOM LOG INTERVAL
 CS  .IN            8.625:   CASING SIZE
 CBD .F                20:   CASING BOTTOM DRILLER
 CBL .F                20:   CASING BOTTOM LOGGER
 BS  .IN            7.875:   BIT SIZE
 BSD .F               556:   BIT SIZE AT DEPTH
 DFT .          KCL WATER:   DRILLING FLUID TYPE
 MSS .           FLOWLINE:   MUD SAMPLE SOURCE
 RMS .OHMM            .36:   RESISTIVITY MUD SAMPLE
 MST .F                70:   MUD SAMPLE TEMPERATURE
 RMF .OHMM            .26:   RESISTIVITY MUD FILTRATE SAMPLE
 MFST.F                70:   MUD FILTRATE SAMPLE TEMPERATURE
 RMC .OHMM            .46:   RESISTIVITY MUD CAKE
 MCST.F                70:   MUD CAKE SAMPLE TEMPERATURE
 MFSS.               CALC:   MUD FILTRATE SAMPLE SOURCE
 MCSS.               CALC:   MUD CAKE SAMPLE SOURCE
 RMB .OHMM            .29:   RESISTIVITY MUD AT BHT
 BHT .F                85:   BOTTOM HOLE TEMPERATURE
 TCS .HRS               3:   TIME CURCULATED STOPPED
 MRT .F               100:   MAXIMUM RECORDED TEMPERATURE
 LUN .               6274:   LOGGING UNIT NUMBER
 LUL .               GLTE:   LOGGING UNIT LOCATION
 ENGI.             RAUTIO:   RECORDING ENGINEER
 WITN.       GROOMS/LUERS:   WITNESSED BY
 CLNT.            A2DTECH:   CLIENT CODE
 ORIG.         2.5" PRINT:   ORIGIN OF DATA
 UWI .       490251117800:   UNIQUE WELL ID
 DICO. A2D Technologies, Inc.:   DIGITIZING COMPANY
~OTHER INFORMATION
~A   DEPT     RFOC       RILD       RILM        SPR       CALD        CNC       CORR        DEN         GRD      PORD         DT   
# ...
   42.5000     9.6787     7.6489     7.9957   -61.8256     8.1064     0.2871     0.0015     2.4802   113.4194     0.1163   110.3130
   43.0000     9.6743     7.6472     7.9918   -61.8375     8.1060     0.2919    -0.0015     2.4806   118.2958     0.1166   110.0272
   43.5000     9.6698     7.6454     7.8775   -62.1534     8.1055     0.2968     0.0015     2.4817   119.4925     0.1164   109.8996
   44.0000     9.5318     7.6437     7.8736   -62.1654     8.1051     0.2986     0.0076     2.4817   118.2736     0.1157   110.2323
   44.5000     9.2660     7.6419     7.8698   -61.8723     8.1046     0.2979     0.0167     2.4802   117.0547     0.1146   110.4216
   45.0000     9.1244     7.6402     7.7572   -61.8854     8.1042     0.2968     0.0259     2.4794   117.7812     0.1140   110.8447
   45.5000     8.9904     7.6384     7.7534   -61.8974     8.1038     0.2967     0.0352     2.4787   118.4144     0.1153   111.1508
   46.0000     8.8585     7.6367     7.7496   -61.9093     8.1033     0.2962     0.0380     2.4772   119.6555     0.1171   111.4570
   46.5000     8.6273     7.6349     7.7458   -61.6173     8.1029     0.2961     0.0304     2.4757   120.6905     0.1189   111.3635
   47.0000     8.6233     7.6331     7.8505   -61.6293     8.1326     0.2952     0.0130     2.4787   121.2954     0.1196   110.6516
   47.5000     8.7405     7.6313     7.9566   -61.3349     8.1322     0.2936     0.0106     2.4818   120.4205     0.1202   109.8869
   48.0000     8.8896     7.6510     7.9527   -61.0334     8.1317     0.2915     0.0176     2.4848   118.5653     0.1190   109.0317
   48.5000     9.0137     7.7349     8.0665   -60.4281     8.1313     0.2888     0.0258     2.4863   115.7822     0.1166   108.4857
   49.0000     9.2676     7.8415     8.1691   -60.1266     8.1381     0.2854     0.0319     2.4878   113.2908     0.1148   108.3997
   49.5000     9.4841     7.9495     8.2795   -59.8655     8.1692     0.2897     0.0275     2.4879   110.9447     0.1142   108.4005
   50.0000     9.6126     8.0590     8.2751   -60.1824     8.1904     0.2905     0.0213     2.4863   111.5497     0.1148   108.2504
   50.5000     9.7428     8.1701     8.3873   -60.1945     8.1899     0.2771     0.0137     2.4864   113.3704     0.1149   108.0928
   51.0000     9.8738     8.2827     8.3827   -60.1368     8.1894     0.2644     0.0137     2.4879   114.5836     0.1147   107.8673
   51.5000     9.8692     8.2804     8.3786   -59.6094     8.1588     0.2578     0.0198     2.4909   115.7961     0.1127   107.6493
   52.0000     9.7283     8.2784     8.4923   -58.9260     8.1281     0.2609     0.0198     2.4927   117.0089     0.1102   107.3484
   52.5000     9.6542     8.2765     8.4875   -58.7215     8.1276     0.2693     0.0258     2.4959   117.6748     0.1078   107.3493
   53.0000     9.4526     8.2746     8.4833   -58.9524     8.1271     0.2754     0.0319     2.4990   113.3555     0.1047   107.9534
   53.5000     9.4482     8.3384     8.4791   -59.7776     8.1267     0.2802     0.0319     2.5042   109.7052     0.1019   108.4066
   54.0000     9.5753     8.3866     8.3578   -60.4073     8.1262     0.2839     0.0350     2.5061   111.0152     0.1002   108.8598
   54.5000     9.7058     8.3843     8.3536   -60.8997     8.1258     0.2864     0.0350     2.5009   114.6677     0.1035   108.8606
   55.0000     9.8372     8.5002     8.3001   -61.0588     8.1253     0.2894     0.0350     2.4970   117.1530     0.1060   108.5597
   55.5000     9.8320     8.2647     8.1781   -61.2280     8.1249     0.2899     0.0381     2.5026   118.2039     0.1054   108.2588
   56.0000     9.9658     8.0361     8.0579   -61.2401     8.1244     0.2802     0.0441     2.5183   111.7082     0.1000   107.8070
   56.5000     9.9606     7.9233     7.9394   -61.2523     8.1240     0.2731     0.0372     2.5335   109.0790     0.0891   107.3553
   57.0000     9.9561     7.9214     7.8818   -61.5707     8.1236     0.2772     0.0248     2.5471   108.4686     0.0842   106.7527
   57.5000     9.8140     7.9196     7.7691   -61.8866     8.1231     0.2805     0.0137     2.5335   110.9574     0.0812   107.2059
   58.0000     9.6740     7.9178     7.7645   -62.8105     8.1227     0.2837     0.0239     2.5214   113.5765     0.0819   108.2625
   58.5000     9.1462     7.9160     7.6534   -63.4303     8.1222     0.2837     0.0500     2.5123   115.7538     0.0893   109.7715
   59.0000     8.5276     7.6970     7.5440   -63.4423     8.1165     0.2835     0.0646     2.5062   117.2746     0.0967   110.3756
   59.5000     8.1753     7.5890     7.4361   -63.4543     8.0911     0.2877     0.0628     2.5047   118.8521     0.1030   110.3763
   60.0000     8.0587     7.3790     7.3298   -63.4662     8.0906     0.2961     0.0534     2.5062   122.4310     0.1074   110.0754
   60.5000     8.1678     7.3773     7.4293   -63.1743     8.0902     0.3022     0.0502     2.5063   124.2518     0.1050   110.0724
   61.0000     8.1641     7.3825     7.4252   -62.8815     8.0897     0.3025     0.0631     2.5093   123.6409     0.1044   109.7752
   61.5000     8.2806     7.4773     7.4216   -62.2863     8.0893     0.2992     0.0805     2.5110   119.9905     0.1038   109.7647
   62.0000     8.3962     7.4755     7.5218   -61.9944     8.0888     0.2944     0.0684     2.5123   121.2033     0.1013   109.4751
   62.5000     8.6195     7.5786     7.6235   -61.3984     8.0884     0.2854     0.0502     2.5154   119.3766     0.0966   109.1742
   63.0000     8.8758     7.6830     7.6198   -61.1064     8.0879     0.2806     0.0441     2.5158   116.3342     0.0945   109.0015
   63.5000     9.1258     7.7889     7.7229   -60.8145     8.0874     0.2824     0.0441     2.5174   113.2917     0.0927   108.6968
   64.0000     9.3571     7.7869     7.9368   -60.5225     8.0869     0.2787     0.0380     2.5205   111.4650     0.0918   108.3922
   64.5000     9.3227     7.8944     8.0441   -60.5350     8.1167     0.2782     0.0350     2.5237   111.4985     0.0918   108.2044
   65.0000     9.0915     8.0032     8.1527   -60.2425     8.1163     0.2863     0.0348     2.5260   115.3090     0.0906   107.8959
   65.5000     8.9259     8.1134     8.2661   -60.2553     8.1158     0.2945     0.0380     2.5250   121.5957     0.0894   107.5875
   66.0000     8.7117     8.2252     8.3811   -60.2675     8.1154     0.2917     0.0318     2.5169   129.2766     0.0919   107.1735
   66.5000     8.5874     8.2729     8.4877   -60.2796     8.1149     0.2891     0.0255     2.5094   128.0943     0.0980   107.0685
   67.0000     8.7044     8.3907     8.6024   -60.2918     8.1145     0.2921     0.0228     2.5048   125.1206     0.1053   107.4766
   67.5000     8.7493     8.5695     8.5979   -60.3039     8.1140     0.2981     0.0276     2.5003   122.8724     0.1138   107.8808
   68.0000     8.8174     8.6875     8.6641   -60.2229     8.1136     0.2983     0.0395     2.4942   116.8632     0.1162   107.9757
   68.5000     8.9952     8.7544     8.7101   -60.0223     8.1113     0.2970     0.0471     2.4912   112.7832     0.1162   107.3092
   69.0000     9.2485     8.8051     8.8278   -60.0365     8.0825     0.3003     0.0359     2.4881   111.1672     0.1137   106.9366
   69.5000     9.2414     8.8027     8.8229   -60.0486     8.0820     0.3079     0.0151     2.4866   110.2320     0.1107   106.7715
   70.0000     9.1057     8.8007     8.7838   -60.0608     8.0816     0.3230     0.0015     2.4866   111.4691     0.1120   106.7722
   70.5000     9.0452     8.7987     8.6924   -60.3769     8.0811     0.3273     0.0044     2.4883   114.3070     0.1159   107.0747
   71.0000     8.9153     8.6752     8.6881   -61.4519     8.0807     0.3208     0.0216     2.4914   120.5405     0.1151   107.1433
   71.5000     8.9112     8.6732     8.6838   -62.0816     8.0802     0.3125     0.0319     2.4908   124.1849     0.1118   106.9027
   72.0000     8.7841     8.6712     8.6795   -61.9331     8.0798     0.3091     0.0380     2.4815   121.7503     0.1114   106.7753
   72.5000     8.7801     8.6692     8.6238   -61.7654     8.0793     0.3085     0.0380     2.4753   120.5316     0.1164   107.2286
