~VERSION INFORMATION
 VERS.                2.0:   CWLS LOG ASCII STANDARD - VERSION 2.0
 WRAP.                 NO:   ONE LINE PER DEPTH STEP
~WELL INFORMATION
#MNEM.UNIT      DATA TYPE    INFORMATION
#----------   ------------   ------------------------------
 STRT.F            7.0000:   START DEPTH
 STOP.F          549.0000:   STOP DEPTH
 STEP.F            0.5000:   STEP LENGTH
 NULL.          -999.2500:   NO VALUE
 COMP. LAWRENCE-ALLISON &AS:   COMPANY
 WELL. NPR 3 #51-62-SX-10-LP3:   WELL
 FLD .             TEAPOT:   FIELD
 LOC .      S10 T38N R78W:   LOCATION
 CNTY.            NATRONA:   COUNTY
 STAT.            WYOMING:   STATE
 CTRY. UNITED STATES OF AMERICA:   COUNTRY
 SRVC.      Dresser Atlas:   SERVICE COMPANY
 DATE.        10-DEC-1984:   LOGDATE
 API .       490251099500:   API NUMBER
~CURVE INFORMATION
#MNEM.UNIT       API CODE    CURVE DESCRIPTION
#----------   ------------   ------------------------------
 DEPT.F                  :   
 SPR .MV     07 010 01 00:   SPONTANEOUS POTENTIAL
 RILD.OHMM   07 120 46 00:   INDUCTION LOG DEEP RESISTIVITY
 RILM.OHMM   07 120 44 00:   INDUCTION LOG MEDIUM RESISTIVITY
 RFOC.OHMM   07 220 04 00:   RESISTIVITY FOCUSED LOG
 DT  .US/F   60 520 00 00:   INTERVAL TRANSIT TIME
 PORD.DEC    45 890 12 00:   POROSITY DENSITY SANDSTONE
 CNCF.DEC    42 890 03 00:   NEUTRON POROSITY SANDSTONE
 CALD.IN     45 280 60 00:   CALIPER FROM DENSITY LOG
 GRD .GAPI   45 310 01 00:   GAMMA RAY FROM DENSITY LOG
 CORR.G/C3   45 356 01 00:   DENSITY CORRECTION
 DEN .G/C3   45 350 01 00:   COMPENSATED BULK DENSTIY
~PARAMETER INFORMATION
#MNEM.UNIT          VALUE    DESCRIPTION
#----------   ------------   ------------------------------
 PD  .                 GL:   PERMANENT DATUM
 EPD .F              5179:   ELEVATION PERMANENT DATUM
 LMF .                 GL:   LOG MEASURED FROM
 DMF .                 GL:   DRILLING MEASURED FROM
 EGL .F              5179:   GROUND LEVEL
 DATE.        10-DEC-1984:   RUN DATE
 RUN .                  1:   RUN NUMBER
 DD  .F               554:   DEPTH DRILLER
 DL  .F               551:   DEPTH LOGGER
 BLI .F               549:   BOTTOM LOG INTERVAL
 TLI .F                20:   TOP LOG INTERVAL
 CS  .IN            8.625:   CASING SIZE
 CBD .F                20:   CASING BOTTOM DRILLER
 CBL .F                20:   CASING BOTTOM LOGGER
 BS  .IN            7.875:   BIT SIZE
 BSD .F               554:   BIT SIZE AT DEPTH
 DFT .         KCL- WATER:   DRILLING FLUID TYPE
 MSS .           MUD TANK:   MUD SAMPLE SOURCE
 RMS .OHMM           .168:   RESISTIVITY MUD SAMPLE
 MST .F                77:   MUD SAMPLE TEMPERATURE
 RMF .OHMM           .126:   RESISTIVITY MUD FILTRATE SAMPLE
 MFST.F                77:   MUD FILTRATE SAMPLE TEMPERATURE
 RMC .OHMM            .21:   RESISTIVITY MUD CAKE
 MCST.F                77:   MUD CAKE SAMPLE TEMPERATURE
 MFSS.               CALC:   MUD FILTRATE SAMPLE SOURCE
 MCSS.               CALC:   MUD CAKE SAMPLE SOURCE
 RMB .OHMM            .15:   RESISTIVITY MUD AT BHT
 BHT .F                85:   BOTTOM HOLE TEMPERATURE
 TCS .HRS             3.5:   TIME CURCULATED STOPPED
 MRT .F               100:   MAXIMUM RECORDED TEMPERATURE
 LUN .               6270:   LOGGING UNIT NUMBER
 LUL .                 FM:   LOGGING UNIT LOCATION
 ENGI.          E. GOVETT:   RECORDING ENGINEER
 WITN.             GROOMS:   WITNESSED BY
 CLNT.            A2DTECH:   CLIENT CODE
 ORIG.           5" PRINT:   ORIGIN OF DATA
 UWI .       490251099500:   UNIQUE WELL ID
 DICO. A2D Technologies, Inc.:   DIGITIZING COMPANY
~OTHER INFORMATION
~A    DEPT     SPR       RILD       RILM       RFOC         DT       PORD         CNCF     CALD        GRD       CORR        DEN   
# ...
  251.0000   -57.3992    11.1067     8.8988    11.0310    94.9599     0.1088     0.2860     8.0387    98.0322     0.0372     2.4973
  251.5000   -57.2420    11.1090     8.9006    11.0348    95.3399     0.1034     0.2879     8.0220    98.4774     0.0371     2.5063
  252.0000   -56.9364    11.0341     8.8370    10.9616    95.9419     0.1073     0.2686     8.0204    99.3737     0.0182     2.5079
  252.5000   -56.0373    11.0369     8.7818    11.0409    96.4687     0.1109     0.2496     8.0188   100.2715     0.0159     2.4979
  253.0000   -55.1382    11.1159     9.0494    11.3541    97.0706     0.1100     0.2484     8.0335    97.8580     0.0188     2.4949
  253.5000   -54.9810    11.5099    10.3534    12.0876    97.5223     0.1073     0.2689     8.0606    97.7017     0.0233     2.5001
  254.0000   -54.5270    12.5099    11.7163    13.4145    97.7956     0.1046     0.2786     8.0740    99.8010     0.0278     2.5061
  254.5000   -53.9247    13.9786    13.0702    14.7842    97.1904     0.1049     0.2747     8.1020   101.3003     0.0307     2.5037
  255.0000   -53.1740    15.1930    14.1276    15.7394    96.5107     0.1122     0.2690     8.1308    98.1350     0.0352     2.4983
  255.5000   -52.2749    16.9767    15.3800    18.8496    95.2295     0.1172     0.2584     8.1888    90.1591     0.0396     2.4845
  256.0000   -51.8209    18.1978    16.1770    23.2085    93.4980     0.1303     0.2506     8.2026    77.5216     0.0411     2.4547
  256.5000   -51.8121    19.7787    16.0678    24.1999    91.6902     0.1429     0.2460     8.2160    70.8991     0.0471     2.4426
  257.0000   -51.8032    20.9097    16.1837    23.2214    91.0852     0.1429     0.2518     8.1990    66.6826     0.0530     2.4418
  257.5000   -51.2009    20.3427    16.8738    21.2281    92.5177     0.1414     0.2609     8.1823    61.8646     0.0575     2.4403
  258.0000   -50.5985    20.7740    17.5933    23.8868    96.6829     0.1436     0.2754     8.1807    59.3023     0.0469     2.4297
  258.5000   -50.1446    21.9619    17.1162    24.7335   103.0042     0.1617     0.2908     8.1791    61.9372     0.0408     2.4070
  259.0000   -50.2863    23.0575    15.9743    23.7351   106.9089     0.1821     0.3115     8.1774    65.4558     0.0392     2.3678
  259.5000   -49.9785    23.7101    15.3273    24.2400   108.5226     0.2050     0.3048     8.1608    66.0514     0.0316     2.3286
  260.0000   -49.5245    24.3811    15.3305    24.9278   108.5866     0.2093     0.2848     8.1292    67.6981     0.0105     2.3271
  260.5000   -49.0705    24.7262    15.8739    23.4280   108.2075     0.2063     0.2809     8.1124    69.6470     0.0029     2.3436
  261.0000   -48.7649    25.0762    16.5508    20.9766   108.7851     0.1954     0.2794     8.1259    70.5448     0.0058     2.3571
  261.5000   -48.3109    25.2557    17.1374    19.9895   110.9829     0.1909     0.2782     8.1239    69.0336     0.0103     2.3609
  262.0000   -47.8570    25.2609    17.2601    20.9882   112.7844     0.1922     0.2782     8.1223    64.8171     0.0197     2.3465
  262.5000   -47.1063    25.0905    17.2637    24.2802   113.1581     0.2036     0.2764     8.1206    62.7059     0.0388     2.3216
  263.0000   -46.3556    25.2714    17.0297    24.9691   111.9513     0.2163     0.2782     8.1190    62.8503     0.0340     2.3148
  263.5000   -45.9016    25.8072    16.4536    24.6325   110.8205     0.2153     0.2852     8.1174    64.1978     0.0153     2.3162
  264.0000   -46.0433    27.0947    16.2298    24.6393   108.1108     0.2006     0.2783     8.1007    66.8986     0.0130     2.3463
  264.5000   -46.4773    28.8431    16.3468    28.5040   105.4762     0.1925     0.2656     8.0991    69.2986     0.0160     2.3561
  265.0000   -46.9140    30.4924    16.4638    30.3434   104.4958     0.1883     0.2629     8.0975    70.6461     0.0264     2.3646
  265.5000   -47.3498    31.5732    17.1658    27.3590   104.7183     0.1832     0.2668     8.0959    69.5875     0.0399     2.3744
  266.0000   -47.6377    32.4668    18.9173    26.8021   106.1439     0.1862     0.2750     8.0943    70.4853     0.0233     2.3794
  266.5000   -47.7775    33.1552    22.1882    30.3706   110.1259     0.1977     0.2841     8.0926    64.0117     0.0248     2.3371
  267.0000   -48.2134    33.6245    23.2951    32.1095   114.0327     0.2197     0.2883     8.0910    54.6824     0.0292     2.2888
  267.5000   -48.6497    34.1005    23.4619    33.2500   116.3605     0.2399     0.2883     8.0893    51.5186     0.0276     2.2715
  268.0000   -49.0859    34.5833    22.6681    33.9574   118.0868     0.2456     0.2868     8.0876    51.8134     0.0276     2.2639
  268.5000   -49.5221    34.5904    21.9012    34.4405   117.8583     0.2468     0.2859     8.0560    52.7097     0.0260     2.2646
  269.0000   -49.8101    34.8380    21.4553    34.6870   115.5997     0.2465     0.2829     8.0243    55.1097     0.0214     2.2646
  269.5000   -49.9495    34.6047    20.8735    34.4571   113.4914     0.2405     0.2828     8.0227    57.5274     0.0138     2.2766
  270.0000   -49.7923    34.3730    20.7326    34.2311   112.3606     0.2228     0.2833     8.0210    61.8051     0.0168     2.3188
  270.5000   -49.0391    33.6694    20.5938    32.8470   113.1095     0.2005     0.2763     8.0190    66.0016     0.0213     2.3406
  271.0000   -48.5875    32.5265    20.5991    31.7379   113.7080     0.2022     0.2633     8.0328    69.9612     0.0287     2.3451
  271.5000   -48.5786    31.4226    20.6034    30.6642   113.9313     0.2174     0.2473     8.0613    72.5221     0.0392     2.3202
  272.0000   -48.4214    29.7047    20.3242    31.3187   112.9501     0.2234     0.2545     8.0746    72.3658     0.0467     2.3058
  272.5000   -48.2641    28.9221    20.3284    31.5429   110.3156     0.2213     0.2600     8.0726    71.3072     0.0512     2.3065
  273.0000   -48.4038    28.1345    20.3326    29.8532   109.1848     0.2174     0.2610     8.1014    70.2486     0.0421     2.3178
  273.5000   -48.5433    26.9921    20.3368    27.1023   109.1066     0.2114     0.2655     8.1148    69.3404     0.0239     2.3245
  274.0000   -48.5341    27.0697    20.3410    25.8270   108.7277     0.2141     0.2731     8.0828    67.9811     0.0274     2.3200
  274.5000   -48.5253    28.3970    20.4866    26.7443   107.8224     0.2156     0.2779     8.0811    65.2684     0.0562     2.3169
  275.0000   -48.4916    28.9690    20.4909    28.0804   105.8645     0.2139     0.2785     8.0645    65.7135     0.0614     2.3199
  275.5000   -48.2107    28.9750    20.6375    28.6778   103.9067     0.2066     0.2737     8.0629    69.3166     0.0448     2.3275
  276.0000   -48.0516    28.9822    20.7852    28.8851   102.0240     0.1928     0.2689     8.0613    71.7167     0.0191     2.3578
  276.5000   -47.8944    28.9882    20.7895    28.6934   100.2917     0.1886     0.2604     8.0596    71.1092     0.0085     2.3628
  277.0000   -47.5888    28.7926    20.6502    28.9010    99.7624     0.1910     0.2574     8.0580    70.0506     0.0054     2.3635
  277.5000   -47.4316    28.2079    20.3705    29.1099    98.8571     0.1934     0.2571     8.0536    68.5409     0.0038     2.3544
  278.0000   -47.4227    27.4429    19.6813    29.5241    97.8015     0.1930     0.2665     8.0093    65.8282     0.0083     2.3566
  278.5000   -47.4138    25.9693    18.8842    27.3661    97.0466     0.1821     0.2705     7.9927    65.2223     0.0444     2.3777
  279.0000   -47.5533    24.7455    18.1194    25.3659    96.9684     0.1703     0.2714     7.9910    68.2223     0.0443     2.3965
  279.5000   -47.5445    23.5795    17.5064    24.5094    96.9654     0.1691     0.2696     7.9894    70.7728     0.0428     2.3904
  280.0000   -47.8324    22.1593    17.0316    24.0121    96.8672     0.1830     0.2635     8.0328    75.2781     0.0382     2.3617
  280.5000   -48.1202    21.5573    16.5697    23.8529    95.9752     0.1902     0.2560     8.0466    77.0803     0.0366     2.3602
  281.0000   -48.2619    21.1195    16.3414    23.5314    95.5193     0.1899     0.2530     8.0446    74.9502     0.0305     2.3654
