~VERSION INFORMATION
 VERS.                2.0:   CWLS LOG ASCII STANDARD - VERSION 2.0
 WRAP.                 NO:   ONE LINE PER DEPTH STEP
~WELL INFORMATION
#MNEM.UNIT      DATA TYPE    INFORMATION
#----------   ------------   ------------------------------
 STRT.F            0.0000:   START DEPTH
 STOP.F          551.0000:   STOP DEPTH
 STEP.F            0.1000:   STEP LENGTH
 NULL.          -999.2500:   NO VALUE
 COMP.       F D SERV INC:   COMPANY
 WELL.    62-2 SX-3 #62-3:   WELL
 FLD .          N.P.R. #3:   FIELD
 LOC .       S3 T38N R78W:   LOCATION
 CNTY.            NATRONA:   COUNTY
 STAT.            WYOMING:   STATE
 CTRY. UNITED STATES OF AMERICA:   COUNTRY
 SRVC.     Atlas Wireline:   SERVICE COMPANY
 DATE.        17-APR-1992:   LOGDATE
 API .       490252250700:   API NUMBER
~CURVE INFORMATION
#MNEM.UNIT       API CODE    CURVE DESCRIPTION
#----------   ------------   ------------------------------
 DEPT.F                  :   
 GRR .GAPI   07 310 01 00:   GAMMA RAY
 RILD.OHMM   07 120 46 00:   INDUCTION LOG DEEP RESISTIVITY
 RILM.OHMM   07 120 44 00:   INDUCTION LOG MEDIUM RESISTIVITY
~PARAMETER INFORMATION
#MNEM.UNIT          VALUE    DESCRIPTION
#----------   ------------   ------------------------------
 PD  .                 GL:   PERMANENT DATUM
 EPD .F              5130:   ELEVATION PERMANENT DATUM
 LMF .                 KB:   LOG MEASURED FROM
 DAPD.F                 5:   FEET ABOVE PERMANENT DATUM
 DMF .                 KB:   DRILLING MEASURED FROM
 EKB .F              5135:   KELLING BUSHING
 EDF .F              5134:   DRILLING FLOOR
 EGL .F              5130:   GROUND LEVEL
 DATE.        17-APR-1992:   RUN DATE
 RUN .                  1:   RUN NUMBER
 DD  .F               560:   DEPTH DRILLER
 DL  .F               560:   DEPTH LOGGER
 BLI .F               558:   BOTTOM LOG INTERVAL
 CS  .IN            8.625:   CASING SIZE
 CBD .F                47:   CASING BOTTOM DRILLER
 CBL .F                50:   CASING BOTTOM LOGGER
 BS  .IN            7.875:   BIT SIZE
 BSD .F               560:   BIT SIZE AT DEPTH
 DFT .                AIR:   DRILLING FLUID TYPE
 TCS .HRS               2:   TIME CURCULATED STOPPED
 MRT .F                83:   MAXIMUM RECORDED TEMPERATURE
 LUN .           HL- 6274:   LOGGING UNIT NUMBER
 LUL .             CASPER:   LOGGING UNIT LOCATION
 ENGI.            LEBSOCK:   RECORDING ENGINEER
 WITN.        GARY STRONG:   WITNESSED BY
 CLNT.            A2DTECH:   CLIENT CODE
 ORIG.           5" PRINT:   ORIGIN OF DATA
 UWI .       490252250700:   UNIQUE WELL ID
 DICO. A2D Technologies, Inc.:   DIGITIZING COMPANY
~OTHER INFORMATION
~A    DEPT      GRR      RILD       RILM   
# ...
  236.6000   130.2556     8.7692     8.5382
  236.7000   130.3086     8.7696     8.5386
  236.8000   130.3116     8.7700     8.5468
  236.9000   130.2303     8.7875     8.5992
  237.0000   129.9585     8.8323     8.5995
  237.1000   129.4133     8.8327     8.5999
  237.2000   128.7598     8.8331     8.6003
  237.3000   128.0235     8.8335     8.6129
  237.4000   127.2873     8.8338     8.6613
  237.5000   126.6013     8.8342     8.6616
  237.6000   126.0999     8.8346     8.6620
  237.7000   125.3801     8.8349     8.6905
  237.8000   124.8286     8.8353     8.7235
  237.9000   124.4673     8.8357     8.7238
  238.0000   124.2965     8.8360     8.7243
  238.1000   124.3325     8.8364     8.7687
  238.2000   124.9082     8.8368     8.7861
  238.3000   125.5316     8.8371     8.7865
  238.4000   126.2742     8.8375     8.7869
  238.5000   126.9220     8.8379     8.7872
  238.6000   127.4178     8.8383     8.7876
  238.7000   127.9488     8.8387     8.7880
  238.8000   128.1808     8.8390     8.7884
  238.9000   128.6034     8.8394     8.7887
  239.0000   128.9824     8.8398     8.7891
  239.1000   129.1100     8.8401     8.7895
  239.2000   128.8616     8.8395     8.7898
  239.3000   128.3718     8.7897     8.7902
  239.4000   128.0770     8.7796     8.7906
  239.5000   127.6943     8.7799     8.7910
  239.6000   127.2875     8.7803     8.7913
  239.7000   127.0440     8.7806     8.7917
  239.8000   126.7719     8.7811     8.7920
  239.9000   126.7746     8.7815     8.7924
  240.0000   126.7776     8.7492     8.7928
  240.1000   126.7806     8.7209     8.7931
  240.2000   126.7837     8.7213     8.7935
  240.3000   126.7868     8.7217     8.7544
  240.4000   126.7897     8.7220     8.7330
  240.5000   126.7927     8.7224     8.7167
  240.6000   126.7958     8.7228     8.6729
  240.7000   126.7988     8.7231     8.6733
  240.8000   126.8018     8.7235     8.6737
  240.9000   126.8053     8.7239     8.6419
  241.0000   127.0136     8.7242     8.6140
  241.1000   127.1134     8.6945     8.6047
  241.2000   127.2101     8.6641     8.5547
  241.3000   127.4595     8.6644     8.5550
  241.4000   127.7279     8.6648     8.5193
  241.5000   127.9586     8.6652     8.4713
  241.6000   128.2082     8.6655     8.4236
  241.7000   128.4577     8.6659     8.3762
  241.8000   128.7072     8.6663     8.3210
  241.9000   128.9568     8.6666     8.2820
  242.0000   129.2062     8.6670     8.2071
  242.1000   129.4558     8.7064     8.1319
  242.2000   129.7053     8.7286     8.0929
  242.3000   130.0367     8.7290     8.0933
  242.4000   130.4811     8.7293     8.0513
  242.5000   130.4845     8.7298     8.0376
  242.6000   130.7034     8.7301     8.0166
  242.7000   131.1131     8.7305     7.9823
  242.8000   131.5050     8.7308     7.9826
  242.9000   131.7546     8.7409     7.9830
  243.0000   132.0122     8.7929     7.9478
  243.1000   132.0151     8.7932     7.9281
  243.2000   131.8358     8.7936     7.9284
  243.3000   131.5924     8.7940     7.9287
  243.4000   131.2084     8.7943     7.9291
  243.5000   130.4722     8.7947     7.8900
  243.6000   129.6102     8.7951     7.8745
  243.7000   129.2038     8.7954     7.8748
  243.8000   128.7137     8.7657     7.8752
  243.9000   128.3161     8.7349     7.8755
  244.0000   128.0727     8.7352     7.8758
  244.1000   127.8096     8.7356     7.8432
  244.2000   127.5858     8.7360     7.8217
  244.3000   127.5129     8.7020     7.8094
  244.4000   127.4013     8.6758     7.7653
  244.5000   127.2163     8.6644     7.7141
  244.6000   127.2193     8.6155     7.7144
  244.7000   127.2224     8.5669     7.6884
  244.8000   127.0326     8.5186     7.6613
  244.9000   126.9259     8.4705     7.6553
  245.0000   126.9289     8.4226     7.6086
  245.1000   126.9073     8.3703     7.5692
  245.2000   126.6328     8.2638     7.5266
  245.3000   126.2053     8.2231     7.4842
  245.4000   125.7154     8.1469     7.4520
  245.5000   125.2255     8.0739     7.4516
  245.6000   124.6886     8.0111     7.3676
  245.7000   123.9245     7.8703     7.2846
  245.8000   123.4529     7.8276     7.2250
  245.9000   123.1442     7.7188     7.1579
  246.0000   123.1508     7.6319     7.0446
  246.1000   123.5383     7.5649     6.9998
  246.2000   124.3191     7.4389     6.8971
  246.3000   126.0610     7.3402     6.8053
  246.4000   127.0798     7.2719     6.7285
  246.5000   128.4627     7.1898     6.6456
  246.6000   129.9448     7.1085     6.5287
  246.7000   131.3913     7.0281     6.4230
  246.8000   132.7325     6.9419     6.3408
  246.9000   133.1861     6.8703     6.2514
  247.0000   133.8516     6.8193     6.1457
  247.1000   134.3675     6.7110     6.0434
  247.2000   134.5598     6.5308     5.9633
  247.3000   134.5628     6.3834     5.8805
  247.4000   134.5658     6.2401     5.8007
  247.5000   134.3772     6.1267     5.7233
  247.6000   133.9982     6.0044     5.6265
  247.7000   133.5084     5.8692     5.5232
  247.8000   132.9714     5.7307     5.4101
  247.9000   131.8582     5.5129     5.3091
  248.0000   130.5780     5.3791     5.2194
  248.1000   129.2599     5.2283     5.1246
  248.2000   128.2337     5.0815     5.0092
  248.3000   127.5427     4.9285     4.8968
  248.4000   127.0319     4.7271     4.7661
  248.5000   126.5628     4.6005     4.6468
  248.6000   126.0726     4.5086     4.5341
  248.7000   125.7066     4.4198     4.4068
  248.8000   125.3954     4.3202     4.2668
  248.9000   124.9170     4.2227     4.1840
  249.0000   124.6299     4.1107     4.0900
  249.1000   124.4303     4.0351     3.9980
  249.2000   124.3328     3.9443     3.9081
  249.3000   124.4259     3.8554     3.8162
  249.4000   124.7094     3.7627     3.6745
  249.5000   125.2499     3.6249     3.5603
  249.6000   125.9253     3.5145     3.4413
  249.7000   126.8360     3.3837     3.3117
  249.8000   128.0499     3.2679     3.2003
  249.9000   129.4199     3.1761     3.0737
  250.0000   130.4085     3.0866     3.0255
  250.1000   130.4127     3.0321     2.9665
  250.2000   130.4169     2.9777     2.9076
  250.3000   130.4212     2.9232     2.8487
  250.4000   130.4254     2.8687     2.7897
  250.5000   130.4296     2.8143     2.7308
  250.6000   130.4339     2.7598     2.6510
  250.7000   130.4381     2.7053     2.5746
  250.8000   130.4423     2.6199     2.5140
  250.9000   130.2531     2.5231     2.4414
  251.0000   129.6843     2.4449     2.4016
  251.1000   128.6399     2.4010     2.3809
  251.2000   127.4942     2.3632     2.3742
  251.3000   126.2681     2.3420     2.3706
  251.4000   124.6910     2.3289     2.3579
  251.5000   122.9077     2.3190     2.3745
  251.6000   121.6820     2.3194     2.3746
  251.7000   120.4552     2.3328     2.3825
  251.8000   118.8421     2.3358     2.3961
  251.9000   117.2607     2.3434     2.4114
  252.0000   115.7074     2.3570     2.4421
  252.1000   114.0620     2.3706     2.4669
  252.2000   112.9531     2.3861     2.4951
  252.3000   112.3154     2.3981     2.5237
  252.4000   111.7386     2.4120     2.5525
  252.5000   111.0489     2.4259     2.5829
  252.6000   110.2020     2.4425     2.6256
  252.7000   109.9482     2.4719     2.6597
  252.8000   109.4843     2.4855     2.6978
  252.9000   109.1738     2.5207     2.7441
  253.0000   108.9320     2.5498     2.7908
  253.1000   108.7546     2.5722     2.8290
  253.2000   108.7588     2.6162     2.8681
  253.3000   108.7639     2.6523     2.9270
  253.4000   108.9650     2.6892     2.9942
  253.5000   109.3566     2.7448     3.0629
  253.6000   110.1917     2.8081     3.1421
  253.7000   111.6163     2.8729     3.2216
  253.8000   112.7182     2.9469     3.3022
  253.9000   113.8114     3.0073     3.3781
  254.0000   114.8845     3.0885     3.4520
  254.1000   115.8730     3.1858     3.5143
  254.2000   117.0073     3.2926     3.5912
  254.3000   118.7905     3.3908     3.6587
  254.4000   120.6992     3.5054     3.7216
  254.5000   122.1271     3.6277     3.7911
  254.6000   123.7370     3.7429     3.8775
  254.7000   125.7103     3.8511     3.9443
