~VERSION INFORMATION
 VERS.                2.0:   CWLS LOG ASCII STANDARD - VERSION 2.0
 WRAP.                 NO:   ONE LINE PER DEPTH STEP
~WELL INFORMATION
#MNEM.UNIT      DATA TYPE    INFORMATION
#----------   ------------   ------------------------------
 STRT.F          432.0000:   START DEPTH
 STOP.F         1258.0000:   STOP DEPTH
 STEP.F            0.5000:   STEP LENGTH
 NULL.          -999.2500:   NO VALUE
 COMP. FENIX & SCISSON INC:   COMPANY
 WELL.   12 SHX 34 #12-34:   WELL
 FLD .            WILDCAT:   FIELD
 LOC .      S34 T39N R78W:   LOCATION
 CNTY.            NATRONA:   COUNTY
 STAT.            WYOMING:   STATE
 CTRY. UNITED STATES OF AMERICA:   COUNTRY
 SRVC.              Welex:   SERVICE COMPANY
 DATE.        23-APR-1979:   LOGDATE
 API .       490251078200:   API NUMBER
~CURVE INFORMATION
#MNEM.UNIT       API CODE    CURVE DESCRIPTION
#----------   ------------   ------------------------------
 DEPT.F                  :   
 CALD.IN     45 280 60 00:   CALIPER
 GRD .GAPI   45 310 01 00:   GAMMA RAY FROM DENSITY LOG
 RHOB.G/C3   45 350 01 00:   BULK DENSITY
 DPHI.DEC    45 890 12 00:   DENSITY POROSITY SANDSTONE
 CORR.G/C3   45 356 01 00:   DENSITY CORRECTION
~PARAMETER INFORMATION
#MNEM.UNIT          VALUE    DESCRIPTION
#----------   ------------   ------------------------------
 PD  .                 GL:   PERMANENT DATUM
 EPD .F              5092:   ELEVATION PERMANENT DATUM
 LMF .                 KB:   LOG MEASURED FROM
 DAPD.F                10:   FEET ABOVE PERMANENT DATUM
 DMF .                 KB:   DRILLING MEASURED FROM
 EKB .F              5102:   KELLING BUSHING
 EGL .F              5092:   GROUND LEVEL
 DATE.            4-23-79:   RUN DATE
 RUN .                  1:   RUN NUMBER
 DD  .F              1260:   DEPTH DRILLER
 DL  .F              1260:   DEPTH LOGGER
 BLI .F              1258:   BOTTOM LOG INTERVAL
 TLI .F               446:   TOP LOG INTERVAL
 CS  .IN            9.625:   CASING SIZE
 CBD .F               440:   CASING BOTTOM DRILLER
 BS  .IN            8.375:   BIT SIZE
 BSD .F              1260:   BIT SIZE AT DEPTH
 DFT .                OIL:   DRILLING FLUID TYPE
 DFD .                8.7:   DRILLING FLUID DENSITY
 TCS .HRS               1:   TIME CURCULATED STOPPED
 ENGI.               REIN:   RECORDING ENGINEER
 WITN.              AMEND:   WITNESSED BY
 CLNT.            A2DTECH:   CLIENT CODE
 ORIG.           5" PRINT:   ORIGIN OF DATA
 UWI .       490251078200:   UNIQUE WELL ID
 DICO. A2D Technologies, Inc.:   DIGITIZING COMPANY
~OTHER INFORMATION
~A   DEPT     CALD         GRD      RHOB       DPHI       CORR   
# ...
  737.0000     8.6308    89.5954     2.5065     0.0197     0.0204
  737.5000     8.6212    88.3345     2.5140     0.0218     0.0238
  738.0000     8.6117    89.0528     2.5213     0.0233     0.0409
  738.5000     8.6021    94.8256     2.5163     0.0217     0.0475
  739.0000     8.5925    95.8148     2.5096     0.0194     0.0473
  739.5000     8.5827    93.7608     2.5030     0.0208     0.0429
  740.0000     8.6015    91.0619     2.4964     0.0275     0.0383
  740.5000     8.6255    88.6120     2.4895     0.0342     0.0335
  741.0000     8.6495    86.8712     2.4878     0.0382     0.0332
  741.5000     8.6735    85.1464     2.4943     0.0382     0.0334
  742.0000     8.6975    83.4135     2.5040     0.0316     0.0403
  742.5000     8.7214    81.6952     2.5137     0.0248     0.0475
  743.0000     8.7396    81.0912     2.5240     0.0189     0.0547
  743.5000     8.7341    81.8058     2.5231     0.0173     0.0620
  744.0000     8.7200    84.6845     2.5081     0.0238     0.0621
  744.5000     8.7206    87.0560     2.4932     0.0353     0.0538
  745.0000     8.7006    86.7029     2.4881     0.0374     0.0456
  745.5000     8.7000    83.6048     2.5135     0.0332     0.0375
  746.0000     8.6955    80.7546     2.5417     0.0195     0.0293
  746.5000     8.6635    77.8681     2.5701     0.0058     0.0209
  747.0000     8.6318    77.0861     2.5494     0.0003     0.0133
  747.5000     8.6038    80.0625     2.5191     0.0170     0.0130
  748.0000     8.6049    84.2037     2.4886     0.0287     0.0131
  748.5000     8.6345    88.3253     2.4763     0.0403     0.0132
  749.0000     8.6651    88.3930     2.4777     0.0447     0.0076
  749.5000     8.6959    85.5169     2.4706     0.0439     0.0030
  750.0000     8.6952    82.4516     2.4636     0.0524     0.0011
  750.5000     8.6897    81.9769     2.4608     0.0582     0.0010
  751.0000     8.6842    83.4450     2.4618     0.0535     0.0042
  751.5000     8.6787    82.3159     2.4735     0.0487     0.0101
  752.0000     8.6733    81.2171     2.4872     0.0453     0.0160
  752.5000     8.6678    81.6317     2.5000     0.0330     0.0191
  753.0000     8.6621    82.8027     2.4972     0.0322     0.0212
  753.5000     8.6626    83.1731     2.4894     0.0318     0.0233
  754.0000     8.6650    82.2393     2.4817     0.0368     0.0205
  754.5000     8.6675    81.9321     2.4769     0.0435     0.0158
  755.0000     8.6699    83.0200     2.4768     0.0437     0.0109
  755.5000     8.6724    84.0826     2.4813     0.0414     0.0111
  756.0000     8.6749    83.8173     2.4880     0.0415     0.0129
  756.5000     8.6773    82.1208     2.4947     0.0384     0.0167
  757.0000     8.6799    80.4346     2.5014     0.0325     0.0204
  757.5000     8.6774    79.0774     2.5082     0.0278     0.0212
  758.0000     8.6736    80.1678     2.5096     0.0273     0.0212
  758.5000     8.6698    82.7351     2.4966     0.0325     0.0194
  759.0000     8.6660    83.2881     2.4832     0.0386     0.0173
  759.5000     8.6622    81.6424     2.4811     0.0439     0.0154
  760.0000     8.6584    80.0606     2.4907     0.0407     0.0127
  760.5000     8.6546    80.9054     2.5005     0.0373     0.0111
  761.0000     8.6508    84.1116     2.4999     0.0350     0.0132
  761.5000     8.6470    86.4594     2.4939     0.0354     0.0164
  762.0000     8.6433    86.1240     2.5029     0.0367     0.0198
  762.5000     8.6395    83.6435     2.5156     0.0380     0.0231
  763.0000     8.6357    81.1819     2.5195     0.0382     0.0233
  763.5000     8.6319    80.3600     2.5102     0.0384     0.0207
  764.0000     8.6281    82.4066     2.5009     0.0386     0.0175
  764.5000     8.6243    83.2596     2.4916     0.0386     0.0144
  765.0000     8.6205    82.6765     2.4849     0.0407     0.0112
  765.5000     8.6167    84.2667     2.4810     0.0425     0.0080
  766.0000     8.6129    86.1288     2.4770     0.0444     0.0048
  766.5000     8.6091    86.4702     2.4730     0.0462     0.0008
  767.0000     8.6054    84.1214     2.4728     0.0481    -0.0013
  767.5000     8.6016    81.3507     2.4727     0.0487    -0.0032
  768.0000     8.5978    80.1326     2.4827     0.0430    -0.0022
  768.5000     8.5940    80.9302     2.4985     0.0323     0.0045
  769.0000     8.5902    79.3902     2.5129     0.0244     0.0112
  769.5000     8.5863    78.2113     2.5056     0.0269     0.0151
  770.0000     8.5833    79.4410     2.4988     0.0309     0.0127
  770.5000     8.5929    82.1587     2.5012     0.0314     0.0104
  771.0000     8.6026    83.7820     2.5029     0.0314     0.0080
  771.5000     8.6123    82.7276     2.4960     0.0314     0.0056
  772.0000     8.6216    82.4395     2.4884     0.0366     0.0033
  772.5000     8.6190    83.1015     2.4808     0.0420     0.0011
  773.0000     8.6143    83.1863     2.4732     0.0474     0.0041
  773.5000     8.6096    81.7998     2.4707     0.0503     0.0083
  774.0000     8.6049    82.8153     2.4792     0.0487     0.0124
  774.5000     8.6002    84.9836     2.4861     0.0435     0.0166
  775.0000     8.5955    83.9062     2.4828     0.0399     0.0208
  775.5000     8.5908    82.8940     2.4809     0.0399     0.0253
  776.0000     8.5862    83.9539     2.4803     0.0439     0.0216
  776.5000     8.5884    86.4237     2.4672     0.0496     0.0136
  777.0000     8.6118    86.9564     2.4536     0.0553     0.0057
  777.5000     8.6342    84.7678     2.4488     0.0610    -0.0017
  778.0000     8.6566    82.3826     2.4547     0.0633    -0.0017
  778.5000     8.6790    80.9626     2.4704     0.0459     0.0055
  779.0000     8.6998    83.2961     2.4860     0.0411     0.0127
  779.5000     8.7014    85.5386     2.5023     0.0368     0.0191
  780.0000     8.6811    87.7841     2.5051     0.0333     0.0166
  780.5000     8.6804    89.6677     2.4938     0.0318     0.0117
  781.0000     8.6803    88.3465     2.4817     0.0415     0.0068
  781.5000     8.6803    82.9487     2.4853     0.0427     0.0030
  782.0000     8.6803    81.3951     2.4968     0.0323     0.0086
  782.5000     8.6803    83.5236     2.5083     0.0241     0.0211
  783.0000     8.6803    81.8567     2.5172     0.0233     0.0169
  783.5000     8.6803    80.0586     2.5072     0.0248     0.0087
  784.0000     8.6803    79.0779     2.4930     0.0336     0.0034
  784.5000     8.6803    79.1604     2.4853     0.0390     0.0029
  785.0000     8.6803    79.6956     2.4964     0.0365     0.0057
  785.5000     8.6803    82.5089     2.5043     0.0325     0.0089
  786.0000     8.6803    84.4403     2.4920     0.0318     0.0092
  786.5000     8.6803    81.5189     2.4818     0.0403     0.0055
  787.0000     8.6803    80.9174     2.4807     0.0411     0.0030
  787.5000     8.6803    83.1711     2.4890     0.0414     0.0031
  788.0000     8.6803    85.5048     2.4982     0.0330     0.0065
  788.5000     8.6803    87.8824     2.5075     0.0250     0.0139
  789.0000     8.6803    89.2460     2.5168     0.0197     0.0212
  789.5000     8.6803    88.1733     2.5258     0.0185     0.0274
  790.0000     8.6803    84.9109     2.5270     0.0181     0.0273
  790.5000     8.6803    84.6277     2.5222     0.0181     0.0246
  791.0000     8.6803    85.8446     2.5135     0.0201     0.0214
  791.5000     8.6803    83.1339     2.5052     0.0257     0.0183
  792.0000     8.6756    81.8182     2.4970     0.0344     0.0150
  792.5000     8.6670    83.0393     2.4890     0.0386     0.0117
  793.0000     8.6583    85.5102     2.4894     0.0386     0.0084
  793.5000     8.6496    87.9887     2.4969     0.0378     0.0073
  794.0000     8.6409    90.1198     2.5042     0.0367     0.0112
  794.5000     8.6322    88.7319     2.5011     0.0362     0.0152
  795.0000     8.6235    87.5846     2.4933     0.0380     0.0140
  795.5000     8.6148    89.1747     2.4855     0.0399     0.0105
  796.0000     8.6061    89.8150     2.4797     0.0411     0.0066
  796.5000     8.5974    86.8761     2.4805     0.0386     0.0049
  797.0000     8.5889    88.8995     2.4944     0.0332     0.0095
  797.5000     8.5900    91.1388     2.5086     0.0273     0.0147
