~VERSION INFORMATION
 VERS.                2.0:   CWLS LOG ASCII STANDARD - VERSION 2.0
 WRAP.                 NO:   ONE LINE PER DEPTH STEP
~WELL INFORMATION
#MNEM.UNIT      DATA TYPE    INFORMATION
#----------   ------------   ------------------------------
 STRT.F           33.5000:   START DEPTH
 STOP.F          680.0000:   STOP DEPTH
 STEP.F            0.5000:   STEP LENGTH
 NULL.          -999.2500:   NO VALUE
 COMP. FENIX & SCISSON INC:   COMPANY
 WELL.       NPR 3 #66-34:   WELL
 FLD .             TEAPOT:   FIELD
 LOC .      S34 T39N R78W:   LOCATION
 CNTY.            NATRONA:   COUNTY
 STAT.            WYOMING:   STATE
 CTRY. UNITED STATES OF AMERICA:   COUNTRY
 SRVC.           BIRDWELL:   SERVICE COMPANY
 DATE.        12-AUG-1978:   LOGDATE
 API .       490251068400:   API NUMBER
~CURVE INFORMATION
#MNEM.UNIT       API CODE    CURVE DESCRIPTION
#----------   ------------   ------------------------------
 DEPT.F                  :   
 SPR .MV     05 010 01 00:   SPONTANEOUS POTENTIAL FROM RES.
 SN  .OHMM   05 040 16 00:   SHORT NORMAL 16"
 IL  .OHMM   05 120 00 00:   INDUCTION LOG
 CORR.G/C3   45 356 01 00:   DENSITY CORRECTION
 GRD .GAPI   45 310 01 00:   GAMMA RAY FROM DENSITY LOG
 RHOB.G/C3   45 350 01 00:   BULK DENSITY
 DPHI.DEC    45 890 12 00:   DENSITY POROSITY SANDSTONE
 CALD.IN     45 280 60 00:   CALIPER
~PARAMETER INFORMATION
#MNEM.UNIT          VALUE    DESCRIPTION
#----------   ------------   ------------------------------
 PD  .                 GL:   PERMANENT DATUM
 EPD .F              5078:   ELEVATION PERMANENT DATUM
 LMF .                 KB:   LOG MEASURED FROM
 DAPD.F                 4:   FEET ABOVE PERMANENT DATUM
 DMF .                 KB:   DRILLING MEASURED FROM
 EKB .F              5082:   KELLING BUSHING
 EGL .F              5078:   GROUND LEVEL
 DATE.            8-12-78:   RUN DATE
 RUN .                  1:   RUN NUMBER
 DD  .F               675:   DEPTH DRILLER
 DL  .F               686:   DEPTH LOGGER
 BLI .F               680:   BOTTOM LOG INTERVAL
 TLI .F                50:   TOP LOG INTERVAL
 CS  .IN            8.625:   CASING SIZE
 CBD .F                40:   CASING BOTTOM DRILLER
 BS  .IN            7.875:   BIT SIZE
 BSD .F               675:   BIT SIZE AT DEPTH
 DFT .                KCL:   DRILLING FLUID TYPE
 DFL .               10.4:   DRILLING FLUID LOSS
 MSS .          FLOW LINE:   MUD SAMPLE SOURCE
 RMS .OHMM            .18:   RESISTIVITY MUD SAMPLE
 MST .F                90:   MUD SAMPLE TEMPERATURE
 RMF .OHMM            .16:   RESISTIVITY MUD FILTRATE SAMPLE
 MFST.F                90:   MUD FILTRATE SAMPLE TEMPERATURE
 RMC .OHMM            .32:   RESISTIVITY MUD CAKE
 MCST.F                90:   MUD CAKE SAMPLE TEMPERATURE
 MFSS.               MEAS:   MUD FILTRATE SAMPLE SOURCE
 TCS .HRS               3:   TIME CURCULATED STOPPED
 LUN .               3006:   LOGGING UNIT NUMBER
 LUL .               CASP:   LOGGING UNIT LOCATION
 ENGI.             MILLER:   RECORDING ENGINEER
 WITN.           MCGINLEY:   WITNESSED BY
 CLNT.            A2DTECH:   CLIENT CODE
 ORIG.           5" PRINT:   ORIGIN OF DATA
 UWI .       490251068400:   UNIQUE WELL ID
 DICO. A2D Technologies, Inc.:   DIGITIZING COMPANY
~OTHER INFORMATION
~A   DEPT      SPR         SN         IL       CORR         GRD      RHOB       DPHI       CALD   
# ...
  560.0000   -35.3428    10.0656     9.2036     0.0680    69.3663     2.4009     0.1689     7.1656
  560.5000   -35.3969     9.9677     9.2475     0.0673    69.8325     2.4044     0.1663     7.1853
  561.0000   -35.4518     9.8708     9.2274     0.0666    69.0620     2.4077     0.1637     7.2047
  561.5000   -35.4973     9.7747     9.1910     0.0680    69.0198     2.4111     0.1667     7.2049
  562.0000   -35.4472     9.6822     9.1623     0.0710    71.4339     2.4133     0.1632     7.2222
  562.5000   -35.3975     9.5937     9.1632     0.0731    73.2468     2.4138     0.1614     7.2487
  563.0000   -35.3474     9.5937     9.3020     0.0740    72.9637     2.4166     0.1586     7.2883
  563.5000   -35.3008     9.6587     9.4364     0.0721    72.9812     2.4290     0.1495     7.3347
  564.0000   -35.3707     9.8880     9.5726     0.0661    75.0241     2.4321     0.1512     7.3753
  564.5000   -35.7461    10.1226     9.7109     0.0601    76.3471     2.4309     0.1511     7.4884
  565.0000   -36.1234    10.3630     9.8511     0.0595    74.1529     2.4379     0.1389     7.6224
  565.5000   -36.8078    10.6095     9.9934     0.0706    70.9757     2.4745     0.1217     7.7569
  566.0000   -37.8423    10.8609    10.1371     0.0818    67.7820     2.5098     0.1045     7.8469
  566.5000   -38.8601    11.1121    10.0701     0.0803    65.6016     2.5445     0.0873     7.8444
  567.0000   -38.8466    10.8625     9.9617     0.0745    67.2480     2.5410     0.0855     7.8070
  567.5000   -38.7750    10.5693     9.8617     0.0740    69.1941     2.5354     0.0894     7.7693
  568.0000   -38.7052    10.4203     9.9157     0.0852    68.2473     2.5300     0.0933     7.7302
  568.5000   -38.8558    10.6013     9.9782     0.0988    67.3160     2.5247     0.0845     7.7250
  569.0000   -39.0462    10.6679    10.0464     0.1124    67.5396     2.5363     0.0737     7.8032
  569.5000   -39.0337    10.7113    10.1363     0.1145    67.4877     2.5552     0.0742     7.8856
  570.0000   -38.9424    10.2740     9.8574     0.1053    66.5317     2.5595     0.0925     7.9613
  570.5000   -38.8485     9.9620     9.5026     0.0788    66.9652     2.5316     0.1130     7.9693
  571.0000   -38.7560     9.6589     9.1606     0.0461    66.9683     2.4813     0.1334     7.9752
  571.5000   -38.7147     9.3653     8.8308     0.0241    67.4336     2.4398     0.1470     7.9821
  572.0000   -38.7536     9.0804     8.5130     0.0303    67.8800     2.4394     0.1443     8.0078
  572.5000   -38.7914     8.8028     8.2065     0.0404    67.9342     2.4401     0.1399     8.0447
  573.0000   -38.8297     8.5159     7.9841     0.0479    69.8016     2.4385     0.1459     8.0818
  573.5000   -38.8678     8.4823     8.0086     0.0443    72.1585     2.4357     0.1439     8.1190
  574.0000   -38.8956     8.4507     8.0557     0.0408    74.4595     2.4284     0.1529     8.1565
  574.5000   -38.8551     8.4177     8.1031     0.0374    77.5280     2.4226     0.1551     8.1635
  575.0000   -38.8154     8.3849     8.1319     0.0364    79.8973     2.4213     0.1541     8.0947
  575.5000   -38.7758     8.3527     8.0766     0.0364    80.4828     2.4220     0.1531     8.0178
  576.0000   -38.7356     8.3225     8.0365     0.0364    80.4818     2.4228     0.1532     7.9736
  576.5000   -38.7037     8.2832     7.9841     0.0372    78.7210     2.4232     0.1547     7.9559
  577.0000   -38.7780     8.2931     8.0035     0.0386    76.9858     2.4210     0.1563     7.9394
  577.5000   -38.8521     8.3088     8.0325     0.0401    76.0916     2.4187     0.1578     7.9201
  578.0000   -38.9254     8.3245     8.0615     0.0398    76.6933     2.4162     0.1590     7.8411
  578.5000   -38.9987     8.3402     8.0907     0.0391    77.6182     2.4161     0.1594     7.7605
  579.0000   -39.0720     8.3586     8.1321     0.0384    78.1317     2.4200     0.1578     7.6803
  579.5000   -39.1489     8.3184     8.1206     0.0386    76.3618     2.4247     0.1523     7.6003
  580.0000   -39.2277     8.2667     8.1004     0.0438    73.6575     2.4350     0.1472     7.5200
  580.5000   -39.3067     8.2072     8.0803     0.0491    70.9434     2.4395     0.1448     7.4548
  581.0000   -39.3854     8.2180     8.0581     0.0540    72.6143     2.4442     0.1427     7.4573
  581.5000   -39.4646     8.2308     8.0700     0.0600    75.5920     2.4491     0.1376     7.4734
  582.0000   -39.4994     8.2437     8.0840     0.0701    78.0049     2.4568     0.1324     7.4504
  582.5000   -39.5003     8.2566     8.0981     0.0803    77.9549     2.4725     0.1218     7.3700
  583.0000   -39.5015     8.2695     8.1126     0.0841    77.1027     2.4881     0.1111     7.3609
  583.5000   -39.5003     8.2820     8.1318     0.0786    76.1252     2.4968     0.1072     7.4280
  584.0000   -39.3948     8.3154     8.0268     0.0652    75.7240     2.4882     0.1178     7.4676
  584.5000   -38.9120     8.3592     7.8495     0.0520    76.9184     2.4729     0.1282     7.3155
  585.0000   -38.4451     8.2011     7.6760     0.0458    77.8740     2.4576     0.1381     7.4191
  585.5000   -37.9755     8.0486     7.5064     0.0408    78.4985     2.4429     0.1442     7.5605
  586.0000   -37.5140     7.9111     7.4186     0.0376    82.1261     2.4362     0.1473     7.5370
  586.5000   -37.5690     7.9619     7.5047     0.0360    84.7431     2.4292     0.1500     7.5158
  587.0000   -37.6652     8.0196     7.5852     0.0344    84.5722     2.4236     0.1546     7.5143
  587.5000   -37.7592     8.0578     7.6665     0.0349    78.7983     2.4152     0.1617     7.5614
  588.0000   -37.8517     8.0039     7.7672     0.0354    76.1781     2.4050     0.1672     7.6560
  588.5000   -37.8665     7.9641     7.7338     0.0359    76.0208     2.3955     0.1697     7.7975
  589.0000   -37.7981     7.9244     7.6767     0.0365    75.9173     2.3932     0.1733     7.8171
  589.5000   -37.7295     7.8850     7.6200     0.0385    76.6298     2.3944     0.1750     7.9136
  590.0000   -37.7213     7.8457     7.5638     0.0408    77.3710     2.4024     0.1667     8.0580
  590.5000   -37.7572     7.8066     7.5561     0.0459    78.1164     2.4099     0.1626     8.0561
  591.0000   -37.7939     7.7678     7.5561     0.0586    75.1098     2.4173     0.1575     7.9704
  591.5000   -37.8309     7.7291     7.5561     0.0638    74.1114     2.4223     0.1544     7.8632
  592.0000   -37.8678     7.6962     7.3812     0.0601    70.0109     2.4222     0.1554     7.7545
  592.5000   -37.8924     7.5921     7.1984     0.0540    67.7639     2.4230     0.1552     7.6814
  593.0000   -37.8130     7.4566     7.0179     0.0479    67.7114     2.4272     0.1542     7.6374
  593.5000   -37.7337     7.3492     6.9567     0.0419    68.6910     2.4314     0.1510     7.5945
  594.0000   -37.6546     7.3508     7.0547     0.0358    69.7557     2.4356     0.1465     7.5509
  594.5000   -37.5747     7.5021     7.1528     0.0298    68.4530     2.4399     0.1420     7.5554
  595.0000   -37.5047     7.6100     7.2522     0.0237    64.2576     2.4353     0.1415     7.5735
  595.5000   -37.5916     7.7195     7.3508     0.0176    60.1712     2.4297     0.1487     7.5679
  596.0000   -37.6819     7.8388     7.2836     0.0120    58.3950     2.4240     0.1523     7.5375
  596.5000   -37.7719     7.8476     7.3437     0.0114    62.4699     2.4183     0.1594     7.4839
  597.0000   -37.8622     7.8640     7.3978     0.0182    65.8561     2.4213     0.1487     7.4292
  597.5000   -37.8916     7.8805     7.4522     0.0225    67.4872     2.4318     0.1463     7.3765
  598.0000   -37.4381     7.8970     7.5071     0.0224    67.3074     2.4327     0.1495     7.3364
  598.5000   -36.5826     7.9135     7.5623     0.0274    67.1054     2.4291     0.1535     7.3068
  599.0000   -36.3167     7.9301     7.6179     0.0352    67.1461     2.4257     0.1542     7.3215
  599.5000   -36.0298     7.9469     7.6979     0.0423    67.2047     2.4260     0.1540     7.3643
  600.0000   -35.3587     7.9634     7.8388     0.0433    67.2617     2.4296     0.1542     7.4130
