~VERSION INFORMATION
 VERS.                2.0:   CWLS LOG ASCII STANDARD - VERSION 2.0
 WRAP.                 NO:   ONE LINE PER DEPTH STEP
~WELL INFORMATION
#MNEM.UNIT      DATA TYPE    INFORMATION
#----------   ------------   ------------------------------
 STRT.F          248.0000:   START DEPTH
 STOP.F         2495.0000:   STOP DEPTH
 STEP.F            0.5000:   STEP LENGTH
 NULL.          -999.2500:   NO VALUE
 COMP. FENIX & SCISSON INC:   COMPANY
 WELL.      85 SHX #28-28:   WELL
 FLD .             TEAPOT:   FIELD
 LOC .      S28 T39N R78W:   LOCATION
 CNTY.            NATRONA:   COUNTY
 STAT.            WYOMING:   STATE
 CTRY. UNITED STATES OF AMERICA:   COUNTRY
 SRVC.           BIRDWELL:   SERVICE COMPANY
 DATE.        18-AUG-1979:   LOGDATE
 API .       490251079700:   API NUMBER
~CURVE INFORMATION
#MNEM.UNIT       API CODE    CURVE DESCRIPTION
#----------   ------------   ------------------------------
 DEPT.F                  :   
 CALD.IN     45 280 60 00:   CALIPER
 CORR.G/C3   45 356 01 00:   DENSITY CORRECTION
 RHOB.G/C3   45 350 01 00:   BULK DENSITY
 DPHI.DEC    45 890 12 00:   DENSITY POROSITY SANDSTONE
 GRD .GAPI   45 310 01 00:   GAMMA RAY FROM DENSITY LOG
~PARAMETER INFORMATION
#MNEM.UNIT          VALUE    DESCRIPTION
#----------   ------------   ------------------------------
 PD  .                 GL:   PERMANENT DATUM
 EPD .F              5044:   ELEVATION PERMANENT DATUM
 LMF .                 DF:   LOG MEASURED FROM
 DMF .                 KB:   DRILLING MEASURED FROM
 EKB .F              5054:   KELLING BUSHING
 EDF .F              5052:   DRILLING FLOOR
 EGL .F              5044:   GROUND LEVEL
 DATE.            8-18-79:   RUN DATE
 RUN .                  1:   RUN NUMBER
 DD  .F              2500:   DEPTH DRILLER
 DL  .F              2495:   DEPTH LOGGER
 BLI .F              2495:   BOTTOM LOG INTERVAL
 CS  .IN            9.625:   CASING SIZE
 CBD .F               520:   CASING BOTTOM DRILLER
 CBL .F               505:   CASING BOTTOM LOGGER
 BS  .IN             8.75:   BIT SIZE
 BSD .F              2500:   BIT SIZE AT DEPTH
 DFT .                AIR:   DRILLING FLUID TYPE
 TCS .HRS               2:   TIME CURCULATED STOPPED
 ENGI.          B. MILLER:   RECORDING ENGINEER
 WITN.           DINSMORE:   WITNESSED BY
 CLNT.            A2DTECH:   CLIENT CODE
 ORIG.           5" PRINT:   ORIGIN OF DATA
 UWI .       490251079700:   UNIQUE WELL ID
 DICO. A2D Technologies, Inc.:   DIGITIZING COMPANY
~OTHER INFORMATION
~A   DEPT     CALD       CORR       RHOB       DPHI         GRD  
# ...
  614.0000    10.3048     0.2710     2.3393     0.1353   140.7435
  614.5000    10.3446     0.3127     2.3910     0.0874   137.6675
  615.0000    10.2000     0.2707     2.4596     0.0462   137.3391
  615.5000    10.0877     0.2386     2.5273     0.0119   140.2497
  616.0000    10.0908     0.2107     2.5149     0.0248   140.3548
  616.5000    10.0920     0.1857     2.4943     0.0363   136.7178
  617.0000    10.0931     0.1730     2.4735     0.0478   136.5018
  617.5000    10.0942     0.1685     2.4527     0.0579   137.3550
  618.0000    10.0953     0.1741     2.4488     0.0587   142.3961
  618.5000    10.0963     0.2056     2.4700     0.0474   147.4715
  619.0000    10.0974     0.2292     2.4929     0.0362   145.7696
  619.5000    10.0984     0.2298     2.4901     0.0339   142.8913
  620.0000    10.0995     0.2278     2.4955     0.0315   140.0192
  620.5000    10.1006     0.2184     2.4901     0.0349   138.3177
  621.0000    10.1017     0.2091     2.4851     0.0358   139.9620
  621.5000    10.1027     0.2000     2.4938     0.0271   143.4546
  622.0000    10.1038     0.1810     2.4979     0.0317   141.6322
  622.5000    10.1048     0.1582     2.4745     0.0467   140.4235
  623.0000    10.1059     0.1425     2.4522     0.0576   144.0298
  623.5000    10.1070     0.1470     2.4422     0.0621   145.4247
  624.0000    10.1080     0.1582     2.4354     0.0657   144.2147
  624.5000    10.1091     0.1759     2.4286     0.0694   142.2483
  625.0000    10.1131     0.2127     2.4273     0.0686   140.9831
  625.5000    10.1342     0.2500     2.4508     0.0520   142.3674
  626.0000    10.1550     0.2762     2.4753     0.0399   142.8594
  626.5000    10.1755     0.2583     2.4844     0.0365   137.1646
  627.0000    10.1849     0.2149     2.4706     0.0433   134.2072
  627.5000    10.1517     0.1752     2.4606     0.0515   135.5645
  628.0000    10.1189     0.1460     2.4570     0.0549   136.2371
  628.5000    10.0861     0.1223     2.4502     0.0560   129.1873
  629.0000    10.0533     0.1104     2.4482     0.0559   128.5366
  629.5000    10.0205     0.0986     2.4416     0.0632   133.8210
  630.0000     9.9876     0.0908     2.4370     0.0637   139.9647
  630.5000     9.9548     0.0833     2.4399     0.0632   144.9581
  631.0000     9.9308     0.0757     2.4394     0.0628   144.1229
  631.5000     9.9585     0.0681     2.4307     0.0672   146.6183
  632.0000     9.9857     0.0607     2.4240     0.0704   149.3882
  632.5000    10.0127     0.0656     2.4237     0.0720   141.1512
  633.0000    10.0401     0.0822     2.4279     0.0704   133.8585
  633.5000    10.0482     0.1035     2.4381     0.0632   129.7312
  634.0000    10.0090     0.1226     2.4643     0.0461   131.3355
  634.5000     9.9693     0.1025     2.4904     0.0357   132.0025
  635.0000     9.9296     0.0763     2.4970     0.0275   133.7065
  635.5000     9.8912     0.0348     2.4863     0.0388   135.4404
  636.0000     9.9033     0.0013     2.4593     0.0550   135.4525
  636.5000     9.9199    -0.0035     2.4277     0.0696   137.0658
  637.0000     9.9364     0.0095     2.4403     0.0639   140.6850
  637.5000     9.9502     0.0222     2.4573     0.0488   144.2750
  638.0000     9.9272     0.0129     2.4636     0.0492   143.4486
  638.5000     9.9028    -0.0004     2.4366     0.0648   141.7159
  639.0000     9.8781    -0.0012     2.4168     0.0759   140.3783
  639.5000     9.8706     0.0203     2.4274     0.0691   141.6084
  640.0000     9.8712     0.0423     2.4367     0.0640   143.7037
  640.5000     9.8770     0.0526     2.4403     0.0630   142.2106
  641.0000     9.8828     0.0597     2.4418     0.0627   139.4077
  641.5000     9.8886     0.0598     2.4412     0.0624   136.5649
  642.0000     9.8904     0.0590     2.4398     0.0644   135.6851
  642.5000     9.8904     0.0618     2.4412     0.0611   139.1008
  643.0000     9.8904     0.0677     2.4496     0.0567   138.3991
  643.5000     9.8904     0.0738     2.4579     0.0523   138.2017
  644.0000     9.8904     0.0720     2.4664     0.0483   140.1282
  644.5000     9.8904     0.0630     2.4652     0.0488   138.6075
  645.0000     9.8904     0.0474     2.4598     0.0519   137.5254
  645.5000     9.8939     0.0335     2.4543     0.0552   139.8930
  646.0000     9.8986     0.0344     2.4490     0.0584   139.8913
  646.5000     9.9033     0.0436     2.4531     0.0568   134.5858
  647.0000     9.9080     0.0523     2.4596     0.0487   133.1752
  647.5000     9.9127     0.0566     2.4568     0.0546   142.0837
  648.0000     9.9173     0.0494     2.4358     0.0654   145.2267
  648.5000     9.9221     0.0428     2.4168     0.0777   148.7346
  649.0000     9.9268     0.0433     2.4074     0.0796   152.3053
  649.5000     9.9314     0.0442     2.4035     0.0812   155.8742
  650.0000     9.9361     0.0466     2.4033     0.0828   157.1896
  650.5000     9.9409     0.0507     2.4139     0.0772   151.2248
  651.0000     9.9456     0.0549     2.4239     0.0708   148.2729
  651.5000     9.9501     0.0533     2.4329     0.0674   147.5567
  652.0000     9.9504     0.0479     2.4372     0.0656   141.9957
  652.5000     9.9387     0.0424     2.4417     0.0611   137.3186
  653.0000     9.9218     0.0368     2.4410     0.0627   139.6064
  653.5000     9.9101     0.0365     2.4383     0.0642   135.4790
  654.0000     9.9148     0.0382     2.4355     0.0655   138.2334
  654.5000     9.9421     0.0428     2.4302     0.0694   143.2605
  655.0000     9.9690     0.0525     2.4209     0.0751   144.9861
  655.5000     9.9961     0.0688     2.4119     0.0789   143.6008
  656.0000    10.0246     0.1059     2.4246     0.0675   137.5348
  656.5000    10.0513     0.1498     2.4514     0.0549   131.5909
  657.0000    10.0501     0.1613     2.4569     0.0514   130.3329
  657.5000    10.0498     0.1691     2.4592     0.0491   132.3888
  658.0000    10.0489     0.1942     2.4805     0.0402   135.2047
  658.5000    10.0448     0.2119     2.4968     0.0322   137.9388
  659.0000    10.0408     0.2210     2.5017     0.0291   139.6118
  659.5000    10.0368     0.2177     2.4938     0.0330   137.0316
  660.0000    10.0329     0.2092     2.4871     0.0346   136.4146
  660.5000    10.0289     0.2008     2.4937     0.0315   143.9932
  661.0000    10.0249     0.1879     2.5005     0.0279   149.7745
  661.5000    10.0210     0.1591     2.4894     0.0356   148.9987
  662.0000    10.0170     0.1314     2.4729     0.0460   147.5825
  662.5000    10.0130     0.1181     2.4649     0.0487   146.7694
  663.0000    10.0091     0.1054     2.4628     0.0500   142.6812
  663.5000    10.0051     0.0925     2.4607     0.0520   138.4860
  664.0000    10.0011     0.0791     2.4553     0.0572   137.2250
  664.5000     9.9972     0.0785     2.4574     0.0534   137.9218
  665.0000     9.9932     0.0895     2.4684     0.0463   139.7573
  665.5000     9.9892     0.0959     2.4788     0.0411   142.9379
  666.0000     9.9852     0.0941     2.4803     0.0375   146.1089
  666.5000     9.9813     0.0928     2.4741     0.0429   148.9605
  667.0000     9.9773     0.0969     2.4758     0.0424   151.1608
  667.5000     9.9733     0.1010     2.4915     0.0364   153.8102
  668.0000     9.9701     0.0983     2.4991     0.0308   159.0486
  668.5000     9.9724     0.0860     2.5063     0.0263   164.3783
  669.0000     9.9747     0.0521     2.4891     0.0355   165.9036
  669.5000     9.9770     0.0182     2.4686     0.0501   161.5196
  670.0000     9.9793     0.0195     2.4527     0.0549   161.4283
  670.5000     9.9816     0.0309     2.4577     0.0543   165.3601
  671.0000     9.9839     0.0402     2.4639     0.0506   163.2850
  671.5000     9.9862     0.0441     2.4672     0.0484   159.4200
  672.0000     9.9885     0.0481     2.4703     0.0460   155.6443
  672.5000     9.9908     0.0472     2.4719     0.0464   154.7655
  673.0000     9.9930     0.0357     2.4615     0.0532   155.3763
  673.5000     9.9953     0.0240     2.4510     0.0596   158.5376
  674.0000     9.9976     0.0122     2.4405     0.0640   163.5174
  674.5000     9.9999     0.0129     2.4372     0.0648   168.5214
