~VERSION INFORMATION
 VERS.                2.0:   CWLS LOG ASCII STANDARD - VERSION 2.0
 WRAP.                 NO:   ONE LINE PER DEPTH STEP
~WELL INFORMATION
#MNEM.UNIT      DATA TYPE    INFORMATION
#----------   ------------   ------------------------------
 STRT.F           20.0000:   START DEPTH
 STOP.F          632.0000:   STOP DEPTH
 STEP.F            0.5000:   STEP LENGTH
 NULL.          -999.2500:   NO VALUE
 COMP. FENIX & SCISSON INC:   COMPANY
 WELL.    58 SX 34 #34-34:   WELL
 FLD .             TEAPOT:   FIELD
 LOC .      S34 T39N R78W:   LOCATION
 CNTY.            NATRONA:   COUNTY
 STAT.            WYOMING:   STATE
 CTRY. UNITED STATES OF AMERICA:   COUNTRY
 SRVC.            Unknown:   SERVICE COMPANY
 DATE.        30-JAN-1979:   LOGDATE
 API .       490251077300:   API NUMBER
~CURVE INFORMATION
#MNEM.UNIT       API CODE    CURVE DESCRIPTION
#----------   ------------   ------------------------------
 DEPT.F                  :   
 SPR .MV     05 010 01 00:   SPONTANEOUS POTENTIAL FROM RES.
 SN  .OHMM   05 040 16 00:   SHORT NORMAL 16"
 ILD .OHMM   05 120 46 00:   INDUCTION LOG DEEP
 CALD.IN     45 280 60 00:   CALIPER
 CORR.G/C3   45 356 01 00:   DENSITY CORRECTION
 RHOB.G/C3   45 350 01 00:   BULK DENSITY
 GRD .GAPI   45 310 01 00:   GAMMA RAY FROM DENSITY LOG
 DPHI.DEC    45 890 12 00:   DENSITY POROSITY SANDSTONE
~PARAMETER INFORMATION
#MNEM.UNIT          VALUE    DESCRIPTION
#----------   ------------   ------------------------------
 PD  .                 GL:   PERMANENT DATUM
 LMF .                 KB:   LOG MEASURED FROM
 DAPD.F                 4:   FEET ABOVE PERMANENT DATUM
 DMF .                 KB:   DRILLING MEASURED FROM
 DATE.            1-30-79:   RUN DATE
 RUN .                  1:   RUN NUMBER
 DD  .F               635:   DEPTH DRILLER
 DL  .F               632:   DEPTH LOGGER
 BLI .F               626:   BOTTOM LOG INTERVAL
 TLI .F                35:   TOP LOG INTERVAL
 CS  .IN            8.625:   CASING SIZE
 CBD .F                40:   CASING BOTTOM DRILLER
 CBL .F                35:   CASING BOTTOM LOGGER
 BS  .IN            7.875:   BIT SIZE
 BSD .F               635:   BIT SIZE AT DEPTH
 DFT .                KCL:   DRILLING FLUID TYPE
 DFD .                8.9:   DRILLING FLUID DENSITY
 DFV .                230:   DRILLING FLUID VISCOSITY
 DFPH.                  8:   DRILLING FLUID PH
 DFL .                 30:   DRILLING FLUID LOSS
 MSS .           FLOWLINE:   MUD SAMPLE SOURCE
 RMS .OHMM            .18:   RESISTIVITY MUD SAMPLE
 MST .F                62:   MUD SAMPLE TEMPERATURE
 RMF .OHMM            .14:   RESISTIVITY MUD FILTRATE SAMPLE
 MFST.F                59:   MUD FILTRATE SAMPLE TEMPERATURE
 RMC .OHMM            .24:   RESISTIVITY MUD CAKE
 MCST.F                60:   MUD CAKE SAMPLE TEMPERATURE
 MFSS.           MEASURED:   MUD FILTRATE SAMPLE SOURCE
 MCSS.           MEASURED:   MUD CAKE SAMPLE SOURCE
 RMB .OHMM            .17:   RESISTIVITY MUD AT BHT
 BHT .F                70:   BOTTOM HOLE TEMPERATURE
 TCS .HRS               4:   TIME CURCULATED STOPPED
 MRT .F                70:   MAXIMUM RECORDED TEMPERATURE
 LUN .               3006:   LOGGING UNIT NUMBER
 LUL .             CASPER:   LOGGING UNIT LOCATION
 ENGI.            ROLLINS:   RECORDING ENGINEER
 WITN.              AMEND:   WITNESSED BY
 CLNT.            A2DTECH:   CLIENT CODE
 ORIG.         2.5" PRINT:   ORIGIN OF DATA
 UWI .       490251077300:   UNIQUE WELL ID
 DICO. A2D Technologies, Inc.:   DIGITIZING COMPANY
~OTHER INFORMATION
~A   DEPT      SPR         SN        ILD       CALD       CORR       RHOB         GRD      DPHI   
# ...
  587.0000   -50.3894     7.4701     9.7267     8.1520     0.0347     2.5121   108.9876     0.1052
  587.5000   -50.3633     7.4638     9.7127     8.1792     0.0353     2.5205   106.5906     0.1062
  588.0000   -50.3371     7.4451     9.7009     8.2175     0.0353     2.5156   104.1632     0.1097
  588.5000   -50.3110     7.4185     9.6902     8.2455     0.0329     2.5099   103.3023     0.1132
  589.0000   -50.2849     7.3920     9.6015     8.2451     0.0371     2.5055   107.5383     0.1128
  589.5000   -50.2577     7.3660     9.4702     8.2462     0.0401     2.5077   110.3251     0.1119
  590.0000   -50.2324     7.3403     9.3470     8.2454     0.0437     2.5101   109.6333     0.1116
  590.5000   -50.2048     7.3146     9.2254     8.2592     0.0381     2.5088   107.9774     0.1183
  591.0000   -50.2002     7.2889     9.1545     8.3123     0.0309     2.5003   107.2301     0.1261
  591.5000   -50.2025     7.2633     9.1047     8.3220     0.0289     2.4871   110.5426     0.1261
  592.0000   -50.2050     7.2378     9.0563     8.3135     0.0314     2.4812   113.2701     0.1191
  592.5000   -50.1854     7.2124     9.0081     8.3050     0.0335     2.4939   116.1514     0.1125
  593.0000   -50.3881     7.1871     8.9858     8.2971     0.0355     2.5047   113.5709     0.1117
  593.5000   -50.7576     7.1619     8.7232     8.2915     0.0362     2.5063   110.9326     0.1117
  594.0000   -51.1130     7.1368     8.5006     8.2620     0.0362     2.5069   108.8421     0.1140
  594.5000   -51.4450     7.1121     8.2837     8.2183     0.0360     2.5016   113.6618     0.1165
  595.0000   -51.8091     7.0874     8.0723     8.1764     0.0378     2.4972   114.3435     0.1231
  595.5000   -51.8257     7.0628     7.8884     8.1343     0.0407     2.4843   111.2691     0.1296
  596.0000   -51.8353     7.0557     7.9533     8.0955     0.0436     2.4717   108.2586     0.1331
  596.5000   -51.8292     7.0575     8.0122     8.0477     0.0466     2.4693   105.1086     0.1301
  597.0000   -51.8303     7.0531     8.0716     8.0722     0.0475     2.4731   103.2715     0.1202
  597.5000   -51.8308     7.0519     8.1347     8.1084     0.0446     2.4938   104.2030     0.1100
  598.0000   -51.8296     7.1612     8.1898     8.0947     0.0420     2.5050   105.5229     0.1096
  598.5000   -51.8296     7.4086     8.6599     8.0095     0.0410     2.5097   106.3588     0.1084
  599.0000   -51.8293     7.6627     9.1229     8.0493     0.0440     2.5137   105.4419     0.1004
  599.5000   -51.8290     8.0356     9.6110     8.0961     0.0473     2.5262   104.7437     0.0980
  600.0000   -51.8288     8.0330    10.2438     8.1457     0.0454     2.5340   107.7234     0.1050
  600.5000   -51.8288     8.0238    10.2294     8.1951     0.0394     2.5206   107.2173     0.1098
  601.0000   -51.8276     8.0143    10.2432     8.2423     0.0338     2.5171   109.2972     0.1113
  601.5000   -51.8290     8.0048    10.1873     8.2834     0.0283     2.5166   109.0672     0.1128
  602.0000   -51.8286     7.9952    10.1488     8.2583     0.0227     2.5110   110.0444     0.1142
  602.5000   -51.8215     7.9855    10.1105     8.2358     0.0174     2.5066   111.9880     0.1149
  603.0000   -51.9118     7.9764    10.0723     8.2100     0.0165     2.5002   109.9453     0.1108
  603.5000   -52.1465     7.9673    10.0342     8.1857     0.0270     2.5020   105.0414     0.1057
  604.0000   -52.3734     7.9582     9.9963     8.1614     0.0368     2.5208   105.1023     0.1006
  604.5000   -52.6013     7.9491     9.9586     8.1348     0.0475     2.5384   105.0112     0.0964
  605.0000   -52.8306     7.9401     9.9209     8.1315     0.0463     2.5345   103.1961     0.0994
  605.5000   -53.0600     7.9310     9.8834     8.1490     0.0447     2.5326   104.6219     0.1048
  606.0000   -53.2871     7.9219     9.8461     8.1648     0.0426     2.5221   109.0429     0.1066
  606.5000   -53.5155     7.9130     9.8089     8.1800     0.0407     2.5175   113.4108     0.1055
  607.0000   -53.7525     7.9044     9.7718     8.1960     0.0409     2.5204   114.8629     0.1060
  607.5000   -53.8993     7.8946     9.7349     8.2120     0.0419     2.5197   114.6303     0.1086
  608.0000   -53.9490     7.8875     9.6981     8.2268     0.0430     2.5165   114.1597     0.1092
  608.5000   -54.0080     7.8588     9.6801     8.2424     0.0441     2.5133   113.6618     0.1090
  609.0000   -54.0708     7.8238     9.6462     8.2226     0.0458     2.5139   108.5553     0.1089
  609.5000   -54.1195     7.7894     9.6000     8.1922     0.0476     2.5148   104.3793     0.1087
  610.0000   -54.1879     7.7556     9.5541     8.1625     0.0495     2.5156   100.3346     0.1085
  610.5000   -54.2589     7.6717     9.5016     8.1327     0.0519     2.5168    99.6599     0.1101
  611.0000   -54.0098     7.5594     9.2467     8.0999     0.0485     2.5100    99.4801     0.1145
  611.5000   -53.5456     7.4486     8.9558     8.0958     0.0409     2.5004    99.7200     0.1189
  612.0000   -52.9586     7.3396     8.6741     8.1334     0.0367     2.4911   108.3188     0.1206
  612.5000  -999.2500     7.2321     8.4012     8.1680     0.0393     2.4874   107.3796     0.1154
  613.0000  -999.2500     6.9898     8.1875     8.2021     0.0413     2.4992   103.6956     0.1100
  613.5000  -999.2500     6.6625     8.1875     8.2374     0.0440     2.5083   100.8848     0.1112
  614.0000  -999.2500     6.3126     7.8633     8.2538     0.0442     2.5093   103.9661     0.1169
  614.5000  -999.2500     6.0809     7.5608     8.2627     0.0441     2.4972   104.1988     0.1225
  615.0000  -999.2500     5.7102     7.2699     8.2720     0.0450     2.4864   105.9783     0.1289
  615.5000  -999.2500     5.3901     6.9903     8.2835     0.0476     2.4731   108.8144     0.1361
  616.0000  -999.2500     5.0878     6.0043     8.2723     0.0461     2.4606   107.9221     0.1446
  616.5000  -999.2500     4.8023     4.9781     8.2391     0.0415     2.4308   104.0330     0.1695
  617.0000  -999.2500     4.5328     4.1272     8.2081     0.0417     2.3815   106.3023     0.2040
  617.5000  -999.2500     4.2790     3.4218     8.1760     0.0477     2.3335   108.4992     0.2048
  618.0000  -999.2500     4.0430     3.1114     8.1676     0.0538     2.2853   111.0060     0.2061
  618.5000  -999.2500     3.8897     3.2293     8.1743     0.0569     2.2437   114.7083     0.2073
  619.0000  -999.2500     3.8897     3.3240     8.1799     0.0525     2.2428   114.5262     0.2072
  619.5000  -999.2500     3.8897     3.5024     8.1878     0.0416     2.3095   116.6852     0.1871
  620.0000  -999.2500     4.0372     3.6905     8.1890     0.0310     2.4099   119.3593     0.1556
  620.5000  -999.2500     5.2037     3.8887     8.1982     0.0355     2.5208   110.3888     0.1241
  621.0000  -999.2500     5.7493     4.1438     8.2057     0.0404     2.5138   110.2164     0.1076
  621.5000  -999.2500     5.7493     4.5427     8.1816     0.0402     2.5131   108.7480     0.1093
  622.0000  -999.2500     5.9657     4.9799     8.1972     0.0400     2.5104   110.1780     0.1108
  622.5000  -999.2500     6.1575     5.4593     8.1521     0.0412     2.5071   113.0018     0.1100
  623.0000  -999.2500     6.4370     5.9848     7.5627     0.0445     2.5163   113.2613     0.1028
  623.5000  -999.2500     6.7527     6.3415     6.3435     0.0397     2.5251   113.5485     0.1047
  624.0000  -999.2500     7.0847     6.5850     8.2088     0.0308     2.5210  -999.2500     0.1083
  624.5000  -999.2500     7.4330     6.8378     8.3010     0.0247     2.5127  -999.2500     0.1125
  625.0000  -999.2500     7.7489     7.1003  -999.2500     0.0308     2.5053  -999.2500     0.1133
  625.5000  -999.2500     8.1758     7.3730  -999.2500     0.0355     2.5048  -999.2500     0.1138
  626.0000  -999.2500     8.3413     7.6002  -999.2500     0.0413     2.5034  -999.2500     0.1147
  626.5000  -999.2500  -999.2500  -999.2500  -999.2500     0.0442     2.5025  -999.2500     0.1149
  627.0000  -999.2500  -999.2500  -999.2500  -999.2500     0.0430     2.5011  -999.2500     0.1135
