~VERSION INFORMATION
 VERS.                2.0:   CWLS LOG ASCII STANDARD - VERSION 2.0
 WRAP.                 NO:   ONE LINE PER DEPTH STEP
~WELL INFORMATION
#MNEM.UNIT      DATA TYPE    INFORMATION
#----------   ------------   ------------------------------
 STRT.F            0.0000:   START DEPTH
 STOP.F          524.0000:   STOP DEPTH
 STEP.F            0.5000:   STEP LENGTH
 NULL.          -999.2500:   NO VALUE
 COMP.       F D SERV INC:   COMPANY
 WELL. NAVAL PETROLEUM RESERVE 3 SX-1 #83-2-10:   WELL
 FLD .             TEAPOT:   FIELD
 LOC .      S10 T38N R78W:   LOCATION
 CNTY.            NATRONA:   COUNTY
 STAT.            WYOMING:   STATE
 CTRY. UNITED STATES OF AMERICA:   COUNTRY
 SRVC.     Atlas Wireline:   SERVICE COMPANY
 DATE.        10-FEB-1993:   LOGDATE
 API .       490252258100:   API NUMBER
~CURVE INFORMATION
#MNEM.UNIT       API CODE    CURVE DESCRIPTION
#----------   ------------   ------------------------------
 DEPT.F                  :   
 RILM.OHMM   07 120 44 00:   RESITIVITY LONG MEDIUM
 RILD.OHMM   07 120 46 00:   INDUCTION LOG DEEP RESISTIVITY
 GRR .GAPI   07 310 01 00:   GAMMA RAY
 PORZ.DEC    45 890 12 00:   DENSITY POROSITY
 ZCOR.G/C3   45 356 01 00:   DENSITY CORRECTION
 ZDEN.G/C3   45 350 01 00:   BULK DENSITY
 NPHI.DEC    42 890 03 00:   NEUTRON POROSITY SANDSTONE
 C13 .IN     45 280 13 00:   CALIPER X
~PARAMETER INFORMATION
#MNEM.UNIT          VALUE    DESCRIPTION
#----------   ------------   ------------------------------
 PD  .                 GL:   PERMANENT DATUM
 EPD .F              5156:   ELEVATION PERMANENT DATUM
 LMF .                 KB:   LOG MEASURED FROM
 DAPD.F                10:   FEET ABOVE PERMANENT DATUM
 DMF .                 KB:   DRILLING MEASURED FROM
 EKB .F              5166:   KELLING BUSHING
 EDF .F              5165:   DRILLING FLOOR
 EGL .F              5156:   GROUND LEVEL
 DATE.        10-FEB-1993:   RUN DATE
 RUN .                  1:   RUN NUMBER
 DD  .F               525:   DEPTH DRILLER
 DL  .F               526:   DEPTH LOGGER
 BLI .F               518:   BOTTOM LOG INTERVAL
 CS  .IN            8.625:   CASING SIZE
 CBD .F                80:   CASING BOTTOM DRILLER
 CBL .F                81:   CASING BOTTOM LOGGER
 BS  .IN            7.875:   BIT SIZE
 BSD .F               525:   BIT SIZE AT DEPTH
 DFT .                AIR:   DRILLING FLUID TYPE
 MRT .F                70:   MAXIMUM RECORDED TEMPERATURE
 LUN .            HL 6274:   LOGGING UNIT NUMBER
 LUL .             CASPER:   LOGGING UNIT LOCATION
 ENGI.          V. RAUTIO:   RECORDING ENGINEER
 WITN.          G. STRONG:   WITNESSED BY
 CLNT.            A2DTECH:   CLIENT CODE
 ORIG.           5" PRINT:   ORIGIN OF DATA
 UWI .       490252258100:   UNIQUE WELL ID
 DICO. A2D Technologies, Inc.:   DIGITIZING COMPANY
~OTHER INFORMATION
~A    DEPT    RILM       RILD         GRR      PORZ       ZCOR       ZDEN       NPHI        C13   
# ...
  364.5000    19.0427    19.2806   109.5410     0.1581     0.0096     2.3761     0.2730     8.0262
  365.0000    19.0396    19.2790   105.6108     0.1656     0.0156     2.3693     0.2722     8.0408
  365.5000    19.0370    19.2777   102.2836     0.1705     0.0109     2.3715     0.2691     8.0399
  366.0000    19.0344    19.4107   102.8764     0.1684     0.0020     2.3753     0.2682     8.0241
  366.5000    18.8999    19.5443   104.3760     0.1663    -0.0010     2.3761     0.2682     8.0232
  367.0000    18.8974    19.8153   107.3839     0.1660     0.0050     2.3775     0.2688     8.0225
  367.5000    19.0269    19.8139   108.8835     0.1648     0.0125     2.3849     0.2679     8.0218
  368.0000    19.4241    19.9503   108.5570     0.1624     0.0230     2.4007     0.2607     8.0211
  368.5000    19.6919    19.9486   105.8474     0.1431     0.0289     2.4293     0.2475     8.0202
  369.0000    19.8262    19.9473   105.8388     0.1169     0.0259     2.4800     0.2363     8.0195
  369.5000    19.9614    19.8083   106.7373     0.0841     0.0138     2.5526     0.2153     8.0188
  370.0000    19.6834    19.3998   102.8048     0.0583    -0.0027     2.5639     0.2030     8.0181
  370.5000    19.5448    18.8546    98.2713     0.0516    -0.0223     2.5556     0.1991     8.0172
  371.0000    19.1401    18.2248   102.7472     0.0559    -0.0268     2.5096     0.2066     8.0165
  371.5000    18.6144    17.7258   113.6364     0.0914    -0.0193     2.4561     0.2247     8.0158
  372.0000    17.8177    17.3602   115.1382     0.1197    -0.0133     2.4118     0.2427     8.0301
  372.5000    17.0056    16.7682   114.5241     0.1477    -0.0029     2.3869     0.2569     8.0142
  373.0000    16.4242    16.3090   111.8005     0.1591     0.0016     2.3824     0.2605     8.0135
  373.5000    15.8627    15.9564   113.3001     0.1603     0.0016     2.3951     0.2599     8.0128
  374.0000    15.6423    15.5350   115.7047     0.1543     0.0031     2.4029     0.2590     8.0121
  374.5000    15.4249    15.4268   114.7889     0.1483     0.0030     2.4109     0.2588     8.0264
  375.0000    15.3159    15.3193   112.0653     0.1435     0.0045     2.4131     0.2591     8.0255
  375.5000    15.3138    15.3183   109.0400     0.1429     0.0060     2.4116     0.2594     8.0248
  376.0000    15.3118    15.3172   108.1264     0.1435     0.0059     2.4145     0.2597     8.0392
  376.5000    15.3098    15.3160   109.6439     0.1420     0.0059     2.4153     0.2591     8.0383
  377.0000    15.3077    15.3150   112.6318     0.1414     0.0074     2.4145     0.2585     8.0376
  377.5000    15.3057    15.3139   112.0198     0.1420     0.0089     2.4122     0.2579     8.0368
  378.0000    15.1974    15.3129   109.8995     0.1453     0.0088     2.4076     0.2567     8.0361
  378.5000    15.0905    15.1013   108.9859     0.1456     0.0088     2.4099     0.2561     8.0202
  379.0000    14.8808    14.9961   108.9772     0.1432     0.0088     2.4144     0.2574     8.0195
  379.5000    14.7760    14.8914   108.9955     0.1399     0.0087     2.4181     0.2580     8.0188
  380.0000    14.7741    14.6856   108.9577     0.1402     0.0057     2.4181     0.2586     8.0181
  380.5000    14.6664    14.5832   107.4407     0.1396     0.0057     2.4195     0.2592     8.0172
  381.0000    14.5664    14.4816   105.9238     0.1366     0.0056     2.4233     0.2598     8.0165
  381.5000    14.3639    14.1829   107.4234     0.1318     0.0056     2.4294     0.2598     8.0007
  382.0000    14.2628    13.9779   111.3363     0.1259     0.0041     2.4428     0.2577     8.0151
  382.5000    14.0647    13.7934   114.0874     0.1219     0.0025     2.4488     0.2586     8.0143
  383.0000    13.8692    13.6028   114.3355     0.1216    -0.0005     2.4495     0.2599     8.0287
  383.5000    13.5820    13.5080   112.5148     0.1252    -0.0050     2.4412     0.2608     8.0278
  384.0000    13.3928    13.4139   110.9978     0.1304    -0.0065     2.4366     0.2604     8.0271
  384.5000    13.2067    13.3204   110.6875     0.1261    -0.0036     2.4351     0.2590     8.0264
  385.0000    13.2050    13.2154   111.8954     0.1231    -0.0036     2.4403     0.2602     8.0407
  385.5000    13.1120    13.1353   112.4801     0.1207    -0.0036     2.4463     0.2620     8.0398
  386.0000    13.0198    13.0437   111.8659     0.1195    -0.0022     2.4501     0.2647     8.0241
  386.5000    13.0180    13.0429   112.4606     0.1190    -0.0022     2.4523     0.2639     8.0233
  387.0000    13.1068    13.1326   114.8652     0.1190    -0.0022     2.4522     0.2648     8.0225
  387.5000    13.1962    13.1318   115.1584     0.1193    -0.0023     2.4522     0.2654     8.0218
  388.0000    13.1940    13.3138   113.6129     0.1226    -0.0023     2.4522     0.2645     8.0211
  388.5000    13.2844    13.4057   114.2337     0.1220    -0.0023     2.4476     0.2615     8.0203
  389.0000    13.3746    13.4979   117.8449     0.1211    -0.0008     2.4461     0.2582     8.0195
  389.5000    13.4658    13.5906   119.0451     0.1205     0.0036     2.4483     0.2540     8.0187
  390.0000    13.5577    13.6842   119.0343     0.1208     0.0021     2.4498     0.2516     8.0030
  390.5000    13.6501    13.7783   117.5173     0.1229    -0.0009     2.4498     0.2513     8.0023
  391.0000    13.7428    13.8731   117.2066     0.1274    -0.0040     2.4460     0.2540     8.0014
  391.5000    13.7410    13.8720   119.0061     0.1398    -0.0010     2.4399     0.2577     8.0007
  392.0000    13.6442    13.7753   119.6029     0.1470     0.0035     2.4060     0.2559     8.0000
  392.5000    13.5372    13.3981   114.7655     0.1441     0.0170     2.4090     0.2540     7.9992
  393.0000    13.1756    13.1217   112.6452     0.1323     0.0259     2.4248     0.2538     8.0134
  393.5000    12.9028    12.8440   112.0221     0.1223     0.0274     2.4406     0.2547     8.0127
  394.0000    12.7235    12.5858   110.8158     0.1157     0.0154     2.4548     0.2559     8.0120
  394.5000    12.5467    12.2412   109.9021     0.1139     0.0078     2.4578     0.2568     8.0264
  395.0000    12.2020    12.0720   109.5918     0.1133     0.0125     2.4608     0.2580     8.0256
  395.5000    11.9493    11.9052   109.5832     0.1118     0.0153     2.4630     0.2593     8.0248
  396.0000    11.7829    11.7406   112.8927     0.1094     0.0138     2.4683     0.2605     8.0240
  396.5000    11.6192    11.6588   120.5128     0.1040     0.0107     2.4788     0.2617     8.0385
  397.0000    11.6176    11.8206   122.5285     0.1001     0.0077     2.4818     0.2629     8.0226
  397.5000    11.7782    11.9847   116.7861     0.1007     0.0093     2.4802     0.2635     8.0201
  398.0000    11.9410    12.3205   114.6659     0.1031     0.0136     2.4749     0.2647     8.0059
  398.5000    12.3018    12.7535   114.0539     0.1049     0.0121     2.4734     0.2663     8.0052
  399.0000    12.8831    13.2937   114.0452     0.1071     0.0091     2.4718     0.2687     8.0197
  399.5000    13.7104    14.5096   114.3382     0.1101     0.0030     2.4673     0.2711     8.0339
  400.0000    15.5299    16.1359   116.4390     0.1230    -0.0045     2.4605     0.2738     8.0330
  400.5000    18.9839    18.0255   117.6385     0.1300    -0.0076     2.4018     0.2750     8.0477
  401.0000    21.5033    20.9902   113.4047     0.1634    -0.0076     2.3521     0.2744     8.0470
  401.5000    25.3912    23.4482   103.4414     0.2085    -0.0077     2.2821     0.2709     8.0464
  402.0000    28.5836    26.5592    93.7798     0.2383    -0.0077     2.2497     0.2615     8.0457
  402.5000    31.2500    29.8755    85.6243     0.2627    -0.0017     2.2121     0.2507     8.0301
  403.0000    33.4881    32.6872    86.8225     0.2699     0.0147     2.2038     0.2393     8.0295
  403.5000    34.6644    34.5469    90.1322     0.2588     0.0192     2.2278     0.2348     8.0288
  404.0000    34.6598    36.0103    93.1403     0.2414     0.0192     2.2617     0.2375     8.0282
  404.5000    34.4149    37.2766    96.1462     0.2284     0.0161     2.2797     0.2444     8.0277
