~VERSION INFORMATION
 VERS.                2.0:   CWLS LOG ASCII STANDARD - VERSION 2.0
 WRAP.                 NO:   ONE LINE PER DEPTH STEP
~WELL INFORMATION
#MNEM.UNIT      DATA TYPE    INFORMATION
#----------   ------------   ------------------------------
 STRT.F           48.0000:   START DEPTH
 STOP.F          650.0000:   STOP DEPTH
 STEP.F            0.5000:   STEP LENGTH
 NULL.          -999.2500:   NO VALUE
 COMP. FENIX & SCISSON INC:   COMPANY
 WELL.    36 SX 34 #36-34:   WELL
 FLD .             TEAPOT:   FIELD
 LOC .      S34 T39N R78W:   LOCATION
 CNTY.            NATRONA:   COUNTY
 STAT.            WYOMING:   STATE
 CTRY. UNITED STATES OF AMERICA:   COUNTRY
 SRVC.            Unknown:   SERVICE COMPANY
 DATE.        19-JAN-1979:   LOGDATE
 API .       490251076800:   API NUMBER
~CURVE INFORMATION
#MNEM.UNIT       API CODE    CURVE DESCRIPTION
#----------   ------------   ------------------------------
 DEPT.F                  :   
 SPR .MV     05 010 01 00:   SPONTANEOUS POTENTIAL FROM RES.
 SN  .OHMM   05 040 16 00:   SHORT NORMAL 16"
 IL  .OHMM   05 120 00 00:   INDUCTION LOG
 CALD.IN     45 280 60 00:   CALIPER
 GRD .GAPI   45 310 01 00:   GAMMA RAY FROM DENSITY LOG
 RHOB.G/C3   45 350 01 00:   BULK DENSITY
 DPHI.DEC    45 890 12 00:   DENSITY POROSITY SANDSTONE
 CORR.G/C3   45 356 01 00:   DENSITY CORRECTION
~PARAMETER INFORMATION
#MNEM.UNIT          VALUE    DESCRIPTION
#----------   ------------   ------------------------------
 PD  .                 GL:   PERMANENT DATUM
 EPD .F              5125:   ELEVATION PERMANENT DATUM
 LMF .                 KB:   LOG MEASURED FROM
 DAPD.F                 4:   FEET ABOVE PERMANENT DATUM
 DMF .                 KB:   DRILLING MEASURED FROM
 EKB .F              5129:   KELLING BUSHING
 EGL .F              5125:   GROUND LEVEL
 DATE.            1-19-79:   RUN DATE
 RUN .                  1:   RUN NUMBER
 DD  .F               650:   DEPTH DRILLER
 DL  .F               650:   DEPTH LOGGER
 BLI .F               643:   BOTTOM LOG INTERVAL
 TLI .F                50:   TOP LOG INTERVAL
 CS  .IN            8.625:   CASING SIZE
 CBD .F                40:   CASING BOTTOM DRILLER
 CBL .F                36:   CASING BOTTOM LOGGER
 BS  .IN            7.875:   BIT SIZE
 BSD .F               650:   BIT SIZE AT DEPTH
 DFT .                KCL:   DRILLING FLUID TYPE
 DFD .                8.8:   DRILLING FLUID DENSITY
 DFV .                 34:   DRILLING FLUID VISCOSITY
 DFL .                8.8:   DRILLING FLUID LOSS
 MSS .           FLOWLINE:   MUD SAMPLE SOURCE
 RMS .OHMM            .17:   RESISTIVITY MUD SAMPLE
 MST .F                62:   MUD SAMPLE TEMPERATURE
 RMF .OHMM            .15:   RESISTIVITY MUD FILTRATE SAMPLE
 MFST.F                62:   MUD FILTRATE SAMPLE TEMPERATURE
 RMC .OHMM            .22:   RESISTIVITY MUD CAKE
 MCST.F                63:   MUD CAKE SAMPLE TEMPERATURE
 MFSS.           MEASURED:   MUD FILTRATE SAMPLE SOURCE
 MCSS.           MEASURED:   MUD CAKE SAMPLE SOURCE
 RMB .OHMM            .18:   RESISTIVITY MUD AT BHT
 BHT .F                60:   BOTTOM HOLE TEMPERATURE
 TCS .HRS               3:   TIME CURCULATED STOPPED
 MRT .F                60:   MAXIMUM RECORDED TEMPERATURE
 LUN .                 30:   LOGGING UNIT NUMBER
 LUL .             CASPER:   LOGGING UNIT LOCATION
 ENGI.         B. ROLLINS:   RECORDING ENGINEER
 WITN.           DINSMORE:   WITNESSED BY
 CLNT.            A2DTECH:   CLIENT CODE
 ORIG.           5" PRINT:   ORIGIN OF DATA
 UWI .       490251076800:   UNIQUE WELL ID
 DICO. A2D Technologies, Inc.:   DIGITIZING COMPANY
~OTHER INFORMATION
~A   DEPT      SPR           SN        IL      CALD        GRD       RHOB       DPHI       CORR   
# ...
  493.5000   -37.8710    10.3540    17.4680     8.1180    84.2580     2.3810     0.1670     0.0380
  494.0000   -37.8720    10.3420    16.8600     8.0740    85.2710     2.3870     0.1630     0.0440
  494.5000   -37.8730    10.3300    16.2520     8.0280    84.5640     2.3940     0.1590     0.0480
  495.0000   -37.8730    10.3180    15.6440     8.0140    88.6440     2.4000     0.1560     0.0470
  495.5000   -37.8730    10.3060    15.0360     8.0140    91.5240     2.4040     0.1530     0.0480
  496.0000   -37.8740    10.2940    14.4280     8.0290    90.2560     2.4020     0.1530     0.0500
  496.5000   -37.8980    10.2830    13.8200     8.0440    87.6640     2.4060     0.1530     0.0480
  497.0000   -38.0390    10.2700    13.2120     8.0590    87.2930     2.4060     0.1530     0.0400
  497.5000   -38.1800    10.2500    13.0650     8.0740    90.4940     2.3960     0.1580     0.0320
  498.0000   -38.3210    10.2290    13.0650     8.0880    94.0150     2.3890     0.1620     0.0280
  498.5000   -38.4620    10.2080    13.0650     8.1030    91.4640     2.3920     0.1620     0.0260
  499.0000   -38.4690    10.1870    13.1940     8.1180    86.5030     2.3950     0.1610     0.0250
  499.5000   -38.4700    10.1650    13.4400     8.1330    81.5130     2.3920     0.1600     0.0240
  500.0000   -38.4700    10.1440    13.6860     8.1480    83.7470     2.3900     0.1600     0.0260
  500.5000   -38.4700    10.1230    13.9320     8.1530    86.5900     2.3930     0.1590     0.0290
  501.0000   -38.5870    10.1020    14.1780     8.1190    87.5590     2.3930     0.1590     0.0310
  501.5000   -38.8420    10.0810    14.4240     8.0700    90.4800     2.3920     0.1600     0.0330
  502.0000   -39.0960    10.0600    14.4650     8.0210    93.1790     2.3910     0.1610     0.0360
  502.5000   -39.3510    10.0380    14.3560     7.9750    91.5920     2.3970     0.1570     0.0380
  503.0000   -39.6070    10.0170    14.2210     7.9740    89.5470     2.4050     0.1530     0.0400
  503.5000   -39.9260     9.9960    14.0850     7.9770    87.2490     2.4070     0.1530     0.0390
  504.0000   -40.3970     9.9750    13.9390     8.0640    88.8560     2.4050     0.1540     0.0380
  504.5000   -40.8660     9.9540    13.9390     8.1540    90.9580     2.4040     0.1550     0.0360
  505.0000   -41.3360     9.9330    13.9390     8.2070    93.0850     2.4030     0.1540     0.0380
  505.5000   -41.8060     9.9120    14.0270     8.1890    93.8440     2.4090     0.1490     0.0410
  506.0000   -42.2730     9.8900    14.3610     8.1730    91.4600     2.4160     0.1450     0.0430
  506.5000   -42.7050     9.8690    14.6950     8.1720    87.8870     2.4240     0.1400     0.0450
  507.0000   -42.9410     9.8480    15.0290     8.1640    85.8470     2.4350     0.1360     0.0550
  507.5000   -43.1830     9.8270    15.3620     8.1370    87.0540     2.4470     0.1320     0.0660
  508.0000   -43.4260     9.8060    15.5770     8.1090    86.4390     2.4550     0.1280     0.0700
  508.5000   -43.6680     9.7850    15.5320     8.0810    88.7540     2.4390     0.1380     0.0610
  509.0000   -43.9120     9.7640    15.1810     8.0740    90.3660     2.4200     0.1510     0.0530
  509.5000   -44.0170     9.7420    14.8300     8.0750    90.5640     2.4010     0.1680     0.0450
  510.0000   -43.9790     9.7210    14.4790     8.0760    90.4650     2.3820     0.1660     0.0360
  510.5000   -43.9420     9.7000    14.1280     8.0770    89.9360     2.3890     0.1610     0.0280
  511.0000   -43.9070     9.6790    13.7770     8.0780    89.5320     2.4060     0.1530     0.0230
  511.5000   -43.8740     9.6580    13.4260     8.0800    89.7410     2.4220     0.1450     0.0250
  512.0000   -43.9790     9.6370    13.0650     8.0810    89.5910     2.4390     0.1360     0.0290
  512.5000   -44.8130     9.6150    13.0650     8.0820    89.2970     2.4560     0.1260     0.0330
  513.0000   -45.6430     9.5940    13.0890     8.0830    88.8760     2.4500     0.1280     0.0350
  513.5000   -46.2320     9.5730    13.1140     8.0850    88.0390     2.4430     0.1320     0.0350
  514.0000   -46.1610     9.5520    13.1400     8.0860    88.6660     2.4420     0.1320     0.0360
  514.5000   -46.1020     9.5310    13.1650     8.0870    87.3290     2.4410     0.1340     0.0360
  515.0000   -46.0390     9.5100    13.1910     8.0880    85.7890     2.4390     0.1360     0.0350
  515.5000   -46.3790     9.4890    13.2160     8.0890    84.9690     2.4440     0.1300     0.0370
  516.0000   -46.9340     9.4670    13.2410     8.0910    84.9700     2.4490     0.1280     0.0420
  516.5000   -47.4960     9.4460    13.2670     8.0920    84.9450     2.4470     0.1300     0.0370
  517.0000   -47.6140     9.4250    13.2920     8.0930    84.4810     2.4400     0.1340     0.0320
  517.5000   -47.7160     9.4040    13.3090     8.0940    82.5540     2.4350     0.1370     0.0290
  518.0000   -48.0750     9.3830    13.2090     8.0960    86.0750     2.4400     0.1360     0.0260
  518.5000   -48.4210     9.3620    13.1340     8.0970    89.7880     2.4400     0.1340     0.0240
  519.0000   -48.7660     9.3410    13.0590     8.0980    93.4490     2.4370     0.1340     0.0190
  519.5000   -49.1110     9.3190    12.9840     8.0990    96.0760     2.4370     0.1360     0.0160
  520.0000   -49.4570     9.2980    12.9090     8.1010    95.3260     2.4470     0.1300     0.0200
  520.5000   -49.7830     9.2770    12.8340     8.1020    94.2570     2.4570     0.1230     0.0240
  521.0000   -49.6250     9.2560    12.7590     8.1030    94.9090     2.4590     0.1230     0.0290
  521.5000   -49.4410     9.2350    12.6840     8.1040    95.6300     2.4570     0.1240     0.0330
  522.0000   -49.5710     9.2140    12.6090     8.1050    94.2250     2.4540     0.1250     0.0320
  522.5000   -49.7860     9.1910    12.5340     8.1070    90.9070     2.4520     0.1260     0.0300
  523.0000   -50.0040     9.2100    12.4590     8.1080    91.5520     2.4530     0.1260     0.0280
  523.5000   -50.2220     9.2310    12.3840     8.1090    93.5650     2.4640     0.1200     0.0270
  524.0000   -50.4400     9.2520    12.3090     8.1100    95.1590     2.4750     0.1130     0.0300
  524.5000   -50.6580     9.2730    12.2340     8.1120    96.4620     2.4870     0.1080     0.0320
  525.0000   -50.8760     9.2950    12.1590     8.1070    96.3130     2.4840     0.1100     0.0300
  525.5000   -51.0940     9.3160    12.0840     8.0770    95.5770     2.4780     0.1130     0.0290
  526.0000   -51.3130     9.3370    12.0210     8.0470    92.5810     2.4720     0.1160     0.0270
  526.5000   -51.5370     9.3580    12.1120     8.0180    89.4200     2.4660     0.1190     0.0260
  527.0000   -51.5880     9.3790    12.1920     7.9880    88.9900     2.4610     0.1220     0.0270
  527.5000   -51.5900     9.4000    12.2710     7.9750    91.2780     2.4600     0.1250     0.0280
  528.0000   -51.6450     9.4220    12.3500     8.0100    91.0090     2.4590     0.1260     0.0270
  528.5000   -51.7600     9.4430    12.4300     8.0490    91.0130     2.4620     0.1240     0.0220
  529.0000   -51.8750     9.4640    12.5090     8.0880    91.2500     2.4690     0.1180     0.0250
  529.5000   -51.9740     9.4850    12.5880     8.1270    91.5310     2.4750     0.1130     0.0280
  530.0000   -51.7100     9.5060    12.6670     8.1660    92.8950     2.4750     0.1150     0.0310
  530.5000   -51.4320     9.5280    12.7470     8.2060    93.9190     2.4670     0.1190     0.0340
  531.0000   -51.1550     9.5490    12.8260     8.2130    94.8580     2.4590     0.1230     0.0360
  531.5000   -50.8780     9.5700    12.9440     8.1780    96.4870     2.4530     0.1250     0.0390
  532.0000   -50.6020     9.5910    12.8940     8.1380    93.4570     2.4580     0.1250     0.0420
  532.5000   -50.3880     9.6120    12.7940     8.0980    92.1320     2.4640     0.1220     0.0420
  533.0000   -50.6570     9.6340    12.6940     8.0520    93.7870     2.4690     0.1180     0.0420
  533.5000   -51.0440     9.6550    12.5940     8.0920    97.7840     2.4750     0.1140     0.0400
