~VERSION INFORMATION
 VERS.                2.0:   CWLS LOG ASCII STANDARD - VERSION 2.0
 WRAP.                 NO:   ONE LINE PER DEPTH STEP
~WELL INFORMATION
#MNEM.UNIT      DATA TYPE    INFORMATION
#----------   ------------   ------------------------------
 STRT.F           34.0000:   START DEPTH
 STOP.F          582.0000:   STOP DEPTH
 STEP.F            0.5000:   STEP LENGTH
 NULL.          -999.2500:   NO VALUE
 COMP. FENIX & SCISSON INC:   COMPANY
 WELL. NPR 3 SX-33 #88-33:   WELL
 FLD .             TEAPOT:   FIELD
 LOC .      S33 T39N R78W:   LOCATION
 CNTY.            NATRONA:   COUNTY
 STAT.            WYOMING:   STATE
 CTRY. UNITED STATES OF AMERICA:   COUNTRY
 SRVC.           BIRDWELL:   SERVICE COMPANY
 DATE.        04-AUG-1978:   LOGDATE
 API .       490251068000:   API NUMBER
~CURVE INFORMATION
#MNEM.UNIT       API CODE    CURVE DESCRIPTION
#----------   ------------   ------------------------------
 DEPT.F                  :   
 SPR .MV     05 010 01 00:   SPONTANEOUS POTENTIAL FROM RES.
 ILD .OHMM   05 120 46 00:   INDUCTION LOG DEEP
 SN  .OHMM   05 040 16 00:   SHORT NORMAL 16"
 CALD.IN     45 280 60 00:   CALIPER
 GRD .GAPI   45 310 01 00:   GAMMA RAY FROM DENSITY LOG
 DEN .G/C3   45 350 01 00:   COMPENSATED BULK DENSTIY
 CORR.G/C3   45 356 01 00:   DENSITY CORRECTION
 DPHI.DEC    45 890 12 00:   DENSITY POROSITY SANDSTONE
~PARAMETER INFORMATION
#MNEM.UNIT          VALUE    DESCRIPTION
#----------   ------------   ------------------------------
 PD  .                 GL:   PERMANENT DATUM
 EPD .F              5146:   ELEVATION PERMANENT DATUM
 LMF .                 KB:   LOG MEASURED FROM
 DAPD.F                 4:   FEET ABOVE PERMANENT DATUM
 DMF .                 KB:   DRILLING MEASURED FROM
 EKB .F              5150:   KELLING BUSHING
 EGL .F              5146:   GROUND LEVEL
 DATE.             8-4-78:   RUN DATE
 RUN .                  1:   RUN NUMBER
 DD  .F               570:   DEPTH DRILLER
 DL  .F               588:   DEPTH LOGGER
 BLI .F               582:   BOTTOM LOG INTERVAL
 TLI .F                50:   TOP LOG INTERVAL
 CS  .IN            8.625:   CASING SIZE
 CBD .F                40:   CASING BOTTOM DRILLER
 BS  .IN            7.875:   BIT SIZE
 BSD .F               570:   BIT SIZE AT DEPTH
 DFT .                KCL:   DRILLING FLUID TYPE
 DFD .                8.7:   DRILLING FLUID DENSITY
 DFV .                 34:   DRILLING FLUID VISCOSITY
 DFPH.                  9:   DRILLING FLUID PH
 DFL .                9.6:   DRILLING FLUID LOSS
 MSS .          FLOW LINE:   MUD SAMPLE SOURCE
 RMS .OHMM            .24:   RESISTIVITY MUD SAMPLE
 MST .F                70:   MUD SAMPLE TEMPERATURE
 RMF .OHMM            .24:   RESISTIVITY MUD FILTRATE SAMPLE
 MFST.F                80:   MUD FILTRATE SAMPLE TEMPERATURE
 RMC .OHMM             .3:   RESISTIVITY MUD CAKE
 MCST.F                75:   MUD CAKE SAMPLE TEMPERATURE
 MFSS.               MEAS:   MUD FILTRATE SAMPLE SOURCE
 TCS .HRS               2:   TIME CURCULATED STOPPED
 LUN .               3006:   LOGGING UNIT NUMBER
 LUL .               CASP:   LOGGING UNIT LOCATION
 ENGI.             MILLER:   RECORDING ENGINEER
 WITN.           MCGINLEY:   WITNESSED BY
 CLNT.            A2DTECH:   CLIENT CODE
 ORIG.        2" 5" PRINT:   ORIGIN OF DATA
 UWI .       490251068000:   UNIQUE WELL ID
 DICO. A2D Technologies, Inc.:   DIGITIZING COMPANY
~OTHER INFORMATION
~A   DEPT      SPR        ILD         SN       CALD         GRD       DEN       CORR       DPHI   
# ...
   74.5000   -21.0854     7.2183     6.8894     7.3246    97.6068     2.4622     0.0357     0.1407
   75.0000   -21.0415     7.2490     6.9143     7.3195    95.3899     2.4572     0.0318     0.1473
   75.5000   -20.9693     7.2800     6.9393     7.3145    94.3252     2.4396     0.0280     0.1358
   76.0000   -20.8511     7.3110     6.9644     7.3094    94.9098     2.4460     0.0333     0.1332
   76.5000   -20.7340     7.3422     6.9895     7.3044    95.5836     2.4585     0.0582     0.1305
   77.0000   -20.6193     7.3736     7.0148     7.2994    95.7037     2.4581     0.0718     0.1333
   77.5000   -20.7124     7.4050     7.0402     7.2944    94.2649     2.4577     0.0718     0.1324
   78.0000   -20.6334     7.4367     7.0656     7.2812    93.0836     2.4573     0.0719     0.1301
   78.5000   -20.5750     7.4684     7.0857     7.2207    93.6760     2.4569     0.0719     0.1320
   79.0000   -20.5401     7.4870     6.9593     7.1761    95.3608     2.4566     0.0719     0.1359
   79.5000   -20.5020     7.1380     6.7585     7.2271    96.0474     2.4544     0.0718     0.1404
   80.0000   -20.4650     6.9016     6.5635     7.2744    90.8387     2.4412     0.0674     0.1468
   80.5000   -20.4342     6.6777     6.3741     7.3211    90.6535     2.4273     0.0553     0.1596
   81.0000   -20.0631     6.4701     6.1902     7.3503    92.1179     2.4132     0.0478     0.1637
   81.5000   -19.4702     6.2688     6.0116     7.3502    92.9270     2.4106     0.0505     0.1638
   82.0000   -18.6321     6.0616     5.8430     7.3481    91.9243     2.4108     0.0648     0.1489
   82.5000   -17.7891     6.0982     5.8309     7.4651    90.6995     2.4167     0.0917     0.1440
   83.0000   -17.6785     6.1426     5.8118     7.6432    90.4813     2.4788     0.1207     0.1380
   83.5000   -18.9129     6.1874     5.7895     8.4757    91.0543     2.4569     0.1268     0.1357
   84.0000   -19.9898     6.2309     5.9960     9.2190    91.7582     2.4468     0.0831     0.1421
   84.5000   -20.0801     6.5350     6.2533     7.3927    94.0727     2.4452     0.0635     0.1449
   85.0000   -20.1262     6.8427     6.5216     7.4426    97.0196     2.4437     0.0687     0.1446
   85.5000   -20.1802     7.1384     6.8013     7.4759    98.2907     2.4430     0.0770     0.1308
   86.0000   -20.3873     7.3508     7.0209     7.6559    98.9509     2.4486     0.1052     0.1157
   86.5000   -21.1981     7.3273     7.0219     7.7171    97.1359     2.4858     0.1336     0.1131
   87.0000   -21.9870     7.3049     7.0211     7.4412    96.9242     2.4889     0.1419     0.1134
   87.5000   -22.7725     7.2836     7.0208     7.1616    99.5997     2.4843     0.1225     0.1293
   88.0000   -23.2106     7.3293     7.0203     7.0134    97.6952     2.4621     0.0750     0.1277
   88.5000   -23.2184     7.3732     7.0497     7.0259    97.1367     2.4619     0.0575     0.1293
   89.0000   -23.2306     7.4173     7.0949     7.0495    98.1561     2.4606     0.0553     0.1325
   89.5000   -23.2414     7.4617     7.1401     7.0730    99.3156     2.4575     0.0537     0.1386
   90.0000   -23.2526     7.5063     7.1856     7.0963   100.1058     2.4473     0.0446     0.1463
   90.5000   -23.2638     7.5512     7.2313     7.1196    99.5557     2.4344     0.0345     0.1541
   91.0000   -23.2750     7.5964     7.2836     7.1373    97.9190     2.4295     0.0279     0.1508
   91.5000   -23.2862     7.6418     7.2547     7.1509    96.2939     2.4334     0.0300     0.1447
   92.0000   -23.2974     7.6875     7.2214     7.1643    94.6710     2.4384     0.0435     0.1442
   92.5000   -23.3086     7.7335     7.2170     7.1776    93.0620     2.4416     0.0573     0.1453
   93.0000   -23.3198     7.7949     7.3494     7.1911    94.4400     2.4409     0.0611     0.1266
   93.5000   -23.3310     7.8981     7.4163     7.2037    99.3738     2.4616     0.0654     0.1263
   94.0000   -23.3422     8.0026     7.6917     7.3162    99.6588     2.4715     0.0704     0.1274
   94.5000   -23.3534     8.1084     7.8573     7.5486    97.4839     2.4701     0.0522     0.1206
   95.0000   -23.3646     8.2071     7.9662     7.7584    98.6858     2.4782     0.0440     0.1193
   95.5000   -23.3759     8.3614     8.0481     7.8291    97.6764     2.4808     0.0488     0.1182
   96.0000   -23.3871     8.5070     8.1308     7.7669    94.7562     2.4812     0.0565     0.1202
   96.5000   -23.3983     8.6550     8.2143     7.6656    93.8343     2.4816     0.0640     0.1162
   97.0000   -23.4095     8.8056     8.2987     7.5654    95.9491     2.4836     0.0720     0.1159
   97.5000   -23.4207     8.9139     8.3672     7.4635    98.3814     2.4884     0.0688     0.1138
   98.0000   -23.4319     8.8090     8.3947     7.3244   100.8232     2.4924     0.0966     0.1081
   98.5000   -23.4431     8.7284     8.4224     7.0448   102.3465     2.5264     0.1206     0.1027
   99.0000   -23.4543     8.6484     8.4822     6.9879   100.1439     2.5388     0.1477     0.1010
   99.5000   -23.4655     8.5927     8.5756     6.9904    97.3249     2.5312     0.1582     0.1048
  100.0000   -23.4767     8.6229     8.6700     7.0320    96.3477     2.5067     0.1357     0.1110
  100.5000   -23.4879     8.6461     8.7655     7.1173    97.3174     2.4777     0.1088     0.1266
  101.0000   -23.4991     8.6695     8.8620     7.2012    98.2583     2.4705     0.0807     0.1262
  101.5000   -23.5103     8.6929     8.9596     7.2347    99.1173     2.4717     0.0669     0.1258
  102.0000   -23.5215     8.7164     9.0582     7.2616    97.5659     2.4734     0.0569     0.1218
  102.5000   -23.5327     8.7399     9.1580     7.3079    96.6954     2.4795     0.0539     0.1150
  103.0000   -23.5439     8.7898     9.2588     7.3617   100.4587     2.4861     0.0551     0.1130
  103.5000   -23.5551     8.8676     9.3608     7.4103    97.4976     2.4929     0.0562     0.1108
  104.0000   -23.5664     8.9461     9.4639     7.3815    99.6657     2.4966     0.0574     0.1115
  104.5000   -23.5775     9.0253     9.5681     7.3405   102.9326     2.4924     0.0557     0.1230
  105.0000   -23.5888     9.1051     9.6734     7.2994   102.8238     2.4823     0.0516     0.1231
  105.5000   -23.5999     9.2730     9.7715     7.2586   101.8049     2.4778     0.0479     0.1136
  106.0000   -23.6609     9.6782     9.8686     7.2269   100.7977     2.4894     0.0505     0.1129
  106.5000   -23.7715    10.1011     9.9594     7.3601   100.2022     2.4986     0.0541     0.1113
  107.0000   -23.8815    10.5512    10.0511     7.5442   100.3458     2.4993     0.0579     0.1067
  107.5000   -23.9936    11.0460    10.1371     7.7092   100.6208     2.5082     0.0616     0.1013
  108.0000   -24.2394    11.5278    10.1510     7.7107    99.5571     2.5231     0.0653     0.0970
  108.5000   -24.5022    11.6950    10.1639     7.6776    97.2712     2.5227     0.0688     0.0970
  109.0000   -24.7650    11.8537    10.1768     7.6419    94.9825     2.5102     0.0716     0.1025
  109.5000   -24.9965    12.0701    10.1898     7.5551    92.8977     2.5035     0.0745     0.1076
  110.0000   -24.9774    12.0174    10.2028     7.4488    91.0705     2.5057     0.0859     0.1090
  110.5000   -24.9547    11.8629    10.2155     7.3419    89.8732     2.5227     0.1103     0.0989
  111.0000   -24.9329    11.4805    10.2299     7.2427    90.1465     2.5312     0.1345     0.0878
  111.5000   -24.9112    11.1138    10.1881     7.1465    90.9573     2.5289     0.1587     0.1034
  112.0000   -24.8896    10.7589    10.1385     7.0503    93.4487     2.5008     0.1673     0.1242
  112.5000   -24.8679    10.4153    10.0892     6.9542    93.8206     2.4701     0.1446     0.1336
  113.0000   -24.8462    10.1371    10.0402     6.8574    93.5406     2.4580     0.1263     0.1206
  113.5000   -24.8240    10.1371     9.9913     6.8095    93.3109     2.4749     0.1124     0.1153
  114.0000   -24.8036    10.1371     9.9427     6.8636    95.0411     2.4767     0.1090     0.1281
  114.5000   -24.9090    10.2516     9.8944     7.2003    96.9940     2.4708     0.0888     0.1275
