~VERSION INFORMATION
 VERS.                2.0:   CWLS LOG ASCII STANDARD - VERSION 2.0
 WRAP.                 NO:   ONE LINE PER DEPTH STEP
~WELL INFORMATION
#MNEM.UNIT      DATA TYPE    INFORMATION
#----------   ------------   ------------------------------
 STRT.F           12.0000:   START DEPTH
 STOP.F          793.0000:   STOP DEPTH
 STEP.F            0.5000:   STEP LENGTH
 NULL.          -999.2500:   NO VALUE
 COMP.   FLUOR DANIEL INC:   COMPANY
 WELL.   35-1-X-10 #35-10:   WELL
 FLD .            WILDCAT:   FIELD
 LOC .      S10 T38N R78W:   LOCATION
 CNTY.            NATRONA:   COUNTY
 STAT.            WYOMING:   STATE
 CTRY. UNITED STATES OF AMERICA:   COUNTRY
 SRVC.      Western Atlas:   SERVICE COMPANY
 DATE.        20-AUG-1996:   LOGDATE
 API .       490252282200:   API NUMBER
~CURVE INFORMATION
#MNEM.UNIT       API CODE    CURVE DESCRIPTION
#----------   ------------   ------------------------------
 DEPT.F                  :   
 RFOC.OHMM   07 220 04 00:   RESISTIVITY FOCUSED LOG
 RILD.OHMM   07 120 46 00:   INDUCTION LOG DEEP RESISTIVITY
 RILM.OHMM   07 120 44 00:   INDUCTION LOG MEDIUM RESISTIVITY
 SPR .MV     07 010 01 00:   SPONTANEOUS POTENTIAL
 CALD.IN     45 280 60 00:   CALIPER FROM DENSITY LOG
 GRD .GAPI   45 310 01 00:   GAMMA RAY FROM DENSITY LOG
 ZCOR.G/C3   45 356 01 00:   DENSITY CORRECTION
 ZDEN.G/C3   45 350 01 00:   BULK DENSITY
 PORZ.DEC    45 890 12 00:   DENSITY POROSITY SANDSTONE
 CNC .DEC    42 890 03 00:   NEUTRON POROSITY SANDSTONE
~PARAMETER INFORMATION
#MNEM.UNIT          VALUE    DESCRIPTION
#----------   ------------   ------------------------------
 PD  .                 GL:   PERMANENT DATUM
 EPD .F              5228:   ELEVATION PERMANENT DATUM
 LMF .                 KB:   LOG MEASURED FROM
 DAPD.F                10:   FEET ABOVE PERMANENT DATUM
 DMF .                 KB:   DRILLING MEASURED FROM
 EKB .F              5238:   KELLING BUSHING
 EGL .F              5228:   GROUND LEVEL
 DATE.        20-AUG-1996:   RUN DATE
 RUN .                  1:   RUN NUMBER
 DD  .F               794:   DEPTH DRILLER
 DL  .F               794:   DEPTH LOGGER
 BLI .F               793:   BOTTOM LOG INTERVAL
 TLI .F                12:   TOP LOG INTERVAL
 CS  .IN           13.375:   CASING SIZE
 CBD .F                58:   CASING BOTTOM DRILLER
 CBL .F                59:   CASING BOTTOM LOGGER
 BS  .IN            12.25:   BIT SIZE
 BSD .F               794:   BIT SIZE AT DEPTH
 DFT .           SPUD MUD:   DRILLING FLUID TYPE
 DFD .                9.2:   DRILLING FLUID DENSITY
 DFV .                 50:   DRILLING FLUID VISCOSITY
 DFPH.                  9:   DRILLING FLUID PH
 DFL .               13.8:   DRILLING FLUID LOSS
 MSS .              CIRC.:   MUD SAMPLE SOURCE
 RMS .OHMM           1.14:   RESISTIVITY MUD SAMPLE
 MST .F                77:   MUD SAMPLE TEMPERATURE
 RMF .OHMM           0.90:   RESISTIVITY MUD FILTRATE SAMPLE
 MFST.F                77:   MUD FILTRATE SAMPLE TEMPERATURE
 RMC .OHMM            1.4:   RESISTIVITY MUD CAKE
 MCST.F                77:   MUD CAKE SAMPLE TEMPERATURE
 MFSS.               CALC:   MUD FILTRATE SAMPLE SOURCE
 MCSS.               CALC:   MUD CAKE SAMPLE SOURCE
 RMB .OHMM            .84:   RESISTIVITY MUD AT BHT
 BHT .F               104:   BOTTOM HOLE TEMPERATURE
 TCS .HRS               3:   TIME CURCULATED STOPPED
 MRT .F               104:   MAXIMUM RECORDED TEMPERATURE
 LUN .            HL-6530:   LOGGING UNIT NUMBER
 LUL .             CASPER:   LOGGING UNIT LOCATION
 ENGI.           BROWNLOW:   RECORDING ENGINEER
 WITN.      SCHULTE/HARDY:   WITNESSED BY
 CLNT.            A2DTECH:   CLIENT CODE
 ORIG.           5" PRINT:   ORIGIN OF DATA
 UWI .       490252282200:   UNIQUE WELL ID
 DICO. A2D Technologies, Inc.:   DIGITIZING COMPANY
~OTHER INFORMATION
~A   DEPT     RFOC       RILD       RILM        SPR       CALD        GRD       ZCOR       ZDEN       PORZ        CNC   
# ...
  548.0000    10.3412    11.7419    11.7311   -25.4160    12.5680    71.9033     0.0230     2.4645     0.1109     0.2653
  548.5000    10.1978    11.8239    11.7295   -25.4160    12.5680    73.1118     0.0215     2.4622     0.1136     0.2669
  549.0000    10.0565    11.8239    11.5664   -25.4160    12.5680    74.3140     0.0215     2.4622     0.1145     0.2690
  549.5000     9.8484    11.7419    11.4727   -25.2647    12.5529    72.5049     0.0215     2.4622     0.1145     0.2671
  550.0000     9.8478    11.7419    11.3884   -25.2569    12.5529    70.9972     0.0215     2.4630     0.1127     0.2620
  550.5000     9.8478    11.6785    11.1708   -25.2076    12.5527    69.4895     0.0215     2.4600     0.1157     0.2665
  551.0000     9.8478    11.6151    11.2500   -25.1583    12.5526    68.5861     0.0200     2.4592     0.1166     0.2792
  551.5000     9.8478    11.5518    11.2515   -25.1089    12.5524    67.9848     0.0200     2.4623     0.1138     0.2846
  552.0000     9.7796    11.4884    11.1752   -25.1071    12.5523    67.9884     0.0200     2.4669     0.1105     0.2819
  552.5000     9.7728    11.4273    11.0994   -24.9544    12.5521    68.2934     0.0200     2.4728     0.1078     0.2807
  553.0000     9.5779    11.3495    11.1013   -24.8017    12.5520    68.9005     0.0200     2.4751     0.1066     0.2855
  553.5000     9.4458    11.2723    11.0259   -24.6490    12.5518    69.5077     0.0215     2.4714     0.1096     0.2900
  554.0000     9.4458    11.1955    10.9512   -24.4962    12.5517    70.1148     0.0215     2.4676     0.1105     0.2933
  554.5000     9.4458    11.1974    10.9530   -24.3432    12.5515    70.4703     0.0336     2.4736     0.1050     0.2909
  555.0000     9.5116    11.2775    11.0307   -24.4934    12.5514    71.0277     0.0396     2.4822     0.0999     0.2870
  555.5000     9.7119    11.2790    11.1089   -24.4916    12.5512    71.0306     0.0381     2.4925     0.0957     0.2864
  556.0000     9.9164    11.3592    11.1877   -24.6415    12.5511    70.7306     0.0321     2.4918     0.0969     0.2861
  556.5000     9.9855    11.4401    11.3458   -24.7913    12.5509    70.3816     0.0291     2.4880     0.0990     0.2849
  557.0000     9.8423    11.4420    11.5058   -24.9411    12.5508    71.6435     0.0275     2.4850     0.0999     0.2831
  557.5000     9.7119    11.4435    11.5073   -25.2419    12.5506    72.5535     0.0275     2.4850     0.1011     0.2810
  558.0000     9.6447    11.4450    11.5089   -25.3918    12.5505    71.3479     0.0336     2.4899     0.1005     0.2782
  558.5000     9.8478    11.4465    11.3461   -25.3903    12.5503    69.2360     0.0411     2.5001     0.0958     0.2740
  559.0000    10.2669    11.3686    10.8909   -25.3886    12.5502    67.4262     0.0457     2.5039     0.0908     0.2698
  559.5000    10.8535    11.2132    10.7419   -25.3871    12.5500    66.8242     0.0275     2.4956     0.0893     0.2665
  560.0000     9.9855    11.1369    10.7437   -25.3857    12.5498    67.4320     0.0230     2.4850     0.0977     0.2640
  560.5000     9.4458    11.0611    10.8199   -25.3843    12.5497    69.6504     0.0275     2.4858     0.1014     0.2616
  561.0000     9.3155    10.9858    10.8217   -25.2312    12.5495    71.9703     0.0275     2.4911     0.0992     0.2637
  561.5000     9.3155    10.8357    10.7479   -25.0785    12.5494    71.6711     0.0275     2.4941     0.0974     0.2646
  562.0000     9.3804    10.7616    10.6751   -25.0770    12.5492    71.3711     0.0396     2.4994     0.0959     0.2646
  562.5000     9.3804    10.5409    10.4570   -24.9243    12.5491    71.3747     0.0472     2.5047     0.0931     0.2647
  563.0000     9.3155    10.4692    10.3143   -24.7716    12.5489    71.6798     0.0442     2.5085     0.0892     0.2655
  563.5000     9.2510    10.5440    10.1036   -24.6185    12.5488    71.3805     0.0411     2.5101     0.0862     0.2673
  564.0000     9.1234    10.6191     9.9654   -24.4658    12.5486    71.0813     0.0517     2.5115     0.0844     0.2719
  564.5000     9.1234    10.6205     9.8978   -24.4643    12.5485    70.7821     0.0608     2.5093     0.0850     0.2891
  565.0000     8.9975    10.5482     9.9683   -24.3116    12.5483    72.2963     0.0653     2.5063     0.0871     0.2903
  565.5000     8.9975    10.3944     9.9697   -24.1588    12.5482    74.1119     0.0698     2.5025     0.0883     0.2884
  566.0000     8.9352    10.1900     9.9020   -24.0058    12.5480    76.2296     0.0728     2.4972     0.0907     0.2884
  566.5000     8.9352     9.9811     9.8349   -23.8531    12.5479    75.0248     0.0743     2.4877     0.0946     0.2960
  567.0000     8.9352     9.8443     9.6339   -23.8517    12.5477    75.0277     0.0698     2.4799     0.1000     0.3000
  567.5000     8.7510     9.7095     9.5003   -23.6989    12.5476    75.9369     0.0698     2.4753     0.1039     0.3051
  568.0000     8.6302     9.5765     9.3083   -23.6972    12.5474    75.9398     0.0683     2.4791     0.1063     0.3089
  568.5000     8.4441     9.4453     9.1810   -23.6957    12.5473    75.6399     0.0592     2.4890     0.1027     0.3068
  569.0000     8.2780     9.2513     9.0560   -23.6943    12.5471    75.6435     0.0517     2.4974     0.0951     0.3065
  569.5000     8.2207     8.9988     8.8707   -23.6929    12.5470    76.3515     0.0532     2.5063     0.0903     0.3071
  570.0000     8.0511     8.5127     8.5025   -23.5200    12.5468    78.6705     0.0513     2.5116     0.0864     0.3119
  570.5000     7.8840     7.9967     8.0523   -23.2358    12.5467    77.1635     0.0457     2.5124     0.0836     0.3162
  571.0000     7.6159     7.2047     7.4102   -23.2343    12.5465    76.8636     0.0532     2.5041     0.0827     0.3207
  571.5000     7.4589     6.3129     6.4067   -23.0816    12.5464    78.9820     0.0638     2.4837     0.0875     0.3258
  572.0000     7.3051     5.5269     5.0579   -23.2315    12.5462    82.3082     0.0683     2.4651     0.0990     0.3320
  572.5000     7.1049     5.3431     4.6904   -23.3810    12.5461    86.5414     0.0698     2.4112     0.1098     0.3466
  573.0000     5.8741     5.2332     4.7238   -23.5308    12.5459    91.6802     0.0774     2.3916     0.1415     0.3626
  573.5000     4.5551     5.1976     4.9594   -23.5294    12.5458    94.4022     0.0834     2.4120     0.1554     0.3723
  574.0000     4.6188     5.4233     5.4659   -23.6793    12.5456    91.3839     0.0638     2.4611     0.1508     0.3681
  574.5000     5.9310     5.8525     6.0432   -23.8291    12.5455    85.0424     0.0396     2.4845     0.1231     0.3321
  575.0000     7.4589     6.3633     6.8736   -23.9786    12.5453    78.7009     0.0411     2.5011     0.1026     0.3050
  575.5000     8.4523     7.0156     7.4195   -24.1288    12.5452    75.0784     0.0426     2.5072     0.0920     0.2924
  576.0000     8.4523     7.6812     7.8984   -24.4299    12.5450    75.6863     0.0442     2.5147     0.0881     0.2872
  576.5000     8.4523     8.4689     8.3501   -24.7307    12.5449    76.2934     0.0409     2.5200     0.0853     0.2854
  577.0000     8.4523     8.9552     8.7669   -25.0315    12.5447    76.5984     0.0366     2.5253     0.0819     0.2823
  577.5000     8.4523     9.2736     9.0148   -25.1817    12.5446    76.9034     0.0336     2.5254     0.0772     0.2802
  578.0000     8.5112     9.4049     9.2696   -25.4828    12.5444    78.1148     0.0336     2.5216     0.0751     0.2823
  578.5000     8.6302     9.4791     9.4657   -25.6324    12.5443    79.3269     0.0351     2.5163     0.0750     0.2863
  579.0000     8.6904     9.6062     9.5391   -25.9335    12.5441    78.7248     0.0396     2.5171     0.0785     0.2890
  579.5000     8.7510     9.7422     9.7348   -26.2342    12.5440    78.1235     0.0411     2.5178     0.0805     0.2893
  580.0000     8.7510     9.8801     9.8721   -26.3845    12.5438    79.0335     0.0336     2.5148     0.0805     0.2896
  580.5000     8.7510    10.0199    10.0113   -26.6852    12.5437    79.3385     0.0230     2.5109     0.0798     0.2923
  581.0000     8.9352    10.1621    10.2231   -26.8351    12.5435    77.5287     0.0170     2.5058     0.0814     0.2974
