~VERSION INFORMATION
 VERS.                2.0:   CWLS LOG ASCII STANDARD - VERSION 2.0
 WRAP.                 NO:   ONE LINE PER DEPTH STEP
~WELL INFORMATION
#MNEM.UNIT      DATA TYPE    INFORMATION
#----------   ------------   ------------------------------
 STRT.F           50.0000:   START DEPTH
 STOP.F         1152.0000:   STOP DEPTH
 STEP.F            0.5000:   STEP LENGTH
 NULL.          -999.2500:   NO VALUE
 COMP. FENIX & SCISSON INC:   COMPANY
 WELL.  NPR 3 #65 SX14-14:   WELL
 FLD .             TEAPOT:   FIELD
 LOC .      S14 T38N R78W:   LOCATION
 CNTY.            NATRONA:   COUNTY
 STAT.            WYOMING:   STATE
 CTRY. UNITED STATES OF AMERICA:   COUNTRY
 SRVC.              Welex:   SERVICE COMPANY
 DATE.        13-JAN-1979:   LOGDATE
 API .       490251073800:   API NUMBER
~CURVE INFORMATION
#MNEM.UNIT       API CODE    CURVE DESCRIPTION
#----------   ------------   ------------------------------
 DEPT.F                  :   
 SPR .MV     07 010 01 00:   SPONTANEOUS POTENTIAL
 SGRD.OHMM   07 220 05 00:   SHALLOW GUARD RESISTIVITY
 ILD .OHMM   07 120 46 00:   INDUCTION LOG DEEP
 ILM .OHMM   07 120 44 00:   INDUCTION LOG MEDIUM
 CALD.IN     45 280 60 00:   CALIPER
 GRD .GAPI   45 310 01 00:   GAMMA RAY FROM DENSITY LOG
 RHOB.G/C3   45 350 01 00:   BULK DENSITY
 DPHI.DEC    45 890 12 00:   DENSITY POROSITY SANDSTONE
 CORR.G/C3   45 356 01 00:   DENSITY CORRECTION
~PARAMETER INFORMATION
#MNEM.UNIT          VALUE    DESCRIPTION
#----------   ------------   ------------------------------
 PD  .                 GL:   PERMANENT DATUM
 EPD .F              5312:   ELEVATION PERMANENT DATUM
 LMF .                 KB:   LOG MEASURED FROM
 DAPD.F                 4:   FEET ABOVE PERMANENT DATUM
 DMF .                 KB:   DRILLING MEASURED FROM
 EKB .F              5316:   KELLING BUSHING
 EGL .F              5312:   GROUND LEVEL
 DATE.            1-13-79:   RUN DATE
 RUN .                  1:   RUN NUMBER
 DD  .F              1167:   DEPTH DRILLER
 DL  .F              1154:   DEPTH LOGGER
 BLI .F              1152:   BOTTOM LOG INTERVAL
 TLI .F                50:   TOP LOG INTERVAL
 CS  .IN            8.625:   CASING SIZE
 CBD .F                40:   CASING BOTTOM DRILLER
 CBL .F                60:   CASING BOTTOM LOGGER
 BS  .IN            7.875:   BIT SIZE
 BSD .F              1167:   BIT SIZE AT DEPTH
 DFT .            KCL MUD:   DRILLING FLUID TYPE
 DFD .                8.8:   DRILLING FLUID DENSITY
 DFV .                 42:   DRILLING FLUID VISCOSITY
 DFPH.                8.2:   DRILLING FLUID PH
 DFL .                7.7:   DRILLING FLUID LOSS
 MSS .                PIT:   MUD SAMPLE SOURCE
 RMS .OHMM            .29:   RESISTIVITY MUD SAMPLE
 MST .F                40:   MUD SAMPLE TEMPERATURE
 RMF .OHMM            .19:   RESISTIVITY MUD FILTRATE SAMPLE
 MFST.F                40:   MUD FILTRATE SAMPLE TEMPERATURE
 RMC .OHMM            .87:   RESISTIVITY MUD CAKE
 MCST.F                40:   MUD CAKE SAMPLE TEMPERATURE
 MFSS.           MEASURED:   MUD FILTRATE SAMPLE SOURCE
 MCSS.           MEASURED:   MUD CAKE SAMPLE SOURCE
 RMB .OHMM           .119:   RESISTIVITY MUD AT BHT
 BHT .F                97:   BOTTOM HOLE TEMPERATURE
 TCS .HRS              30:   TIME CURCULATED STOPPED
 MRT .F                97:   MAXIMUM RECORDED TEMPERATURE
 LUN .               8611:   LOGGING UNIT NUMBER
 LUL .             CASPER:   LOGGING UNIT LOCATION
 ENGI.            BENTSEN:   RECORDING ENGINEER
 WITN.              AMEND:   WITNESSED BY
 CLNT.            A2DTECH:   CLIENT CODE
 ORIG.       2", 5" PRINT:   ORIGIN OF DATA
 UWI .       490251073800:   UNIQUE WELL ID
 DICO. A2D Technologies, Inc.:   DIGITIZING COMPANY
~OTHER INFORMATION
~A   DEPT      SPR       SGRD        ILD        ILM       CALD        GRD       RHOB       DPHI       CORR   
# ...
  342.0000   -28.4526     8.4487     7.5974     7.8137     8.0506   112.1379     2.5242     0.0997     0.0040
  342.5000   -28.6512     8.2743     7.5124     7.7013     8.0722   110.4335     2.5059     0.1102    -0.0046
  343.0000   -28.8499     8.5737     7.4284     7.5905     8.0784   108.6555     2.4936     0.1082    -0.0113
  343.5000   -29.0486     8.9608     7.3453     7.4847     8.0722   109.4513     2.4968     0.1047    -0.0061
  344.0000   -29.2473     9.4296     7.2631     7.7906     8.0660   111.3185     2.5053     0.1011    -0.0009
  344.5000   -29.4460     9.3067     7.1819     8.1721     8.0597   112.0206     2.5129     0.0975     0.0043
  345.0000   -29.6447     8.9437     7.0816     8.5203     8.0535   110.6752     2.5205     0.0939     0.0095
  345.5000   -29.8433     8.5970     7.1472     8.3367     8.0471   109.3046     2.5282     0.0903     0.0148
  346.0000   -30.0421     8.2641     6.9124     8.0199     8.0422   107.9501     2.5330     0.0896     0.0200
  346.5000   -30.2408     7.9441     6.7657     7.7149     8.0599   109.6393     2.5250     0.0938     0.0252
  347.0000   -30.4420     7.6948     6.6220     7.4220     8.0778   110.1206     2.5147     0.0972     0.0304
  347.5000   -30.4996     7.7721     6.4814     7.1472     8.0754   108.6528     2.5105     0.1005     0.0356
  348.0000   -30.5005     7.8600     6.3438     7.2000     8.0667   109.7527     2.5130     0.1020     0.0409
  348.5000   -30.5012     7.9842     6.2090     7.2575     8.0579   112.4968     2.5217     0.0959     0.0461
  349.0000   -30.5002     7.7565     6.0772     7.3156     8.0491   114.6999     2.5303     0.0910     0.0513
  349.5000   -30.4244     7.3951     5.9482     7.3478     8.0403   113.4380     2.5355     0.0886     0.0540
  350.0000   -30.0700     7.0505     5.8336     7.0599     8.0315   114.4720     2.5116     0.0979     0.0390
  350.5000   -29.7266     6.8882     5.8595     6.8862     8.0228   117.0896     2.4942     0.1093     0.0237
  351.0000   -29.3699     7.2172     5.9108     6.9183     8.0242   119.0976     2.4839     0.1162     0.0117
  351.5000   -29.4481     7.5903     5.9625     6.9520     8.0295   117.3836     2.4774     0.1222    -0.0004
  352.0000   -29.6439     7.9842     6.0145     6.8764     8.0347   114.9613     2.4820     0.1199    -0.0037
  352.5000   -29.8422     7.9343     6.0669     6.7994     8.0400   112.5104     2.4863     0.1147    -0.0036
  353.0000   -30.0394     7.8844     6.1198     6.7230     8.0452   111.3410     2.4906     0.1124    -0.0033
  353.5000   -30.2379     7.8382     6.1731     6.6368     8.0505   110.8777     2.4848     0.1153    -0.0030
  354.0000   -30.3346     8.0012     6.2269     6.6364     8.0560   110.4095     2.4826     0.1182    -0.0028
  354.5000   -30.3861     8.2845     6.2812     6.8811     8.0600   111.3674     2.4879     0.1144    -0.0025
  355.0000   -30.4371     8.1643     6.3392     7.0759     8.0200   112.5445     2.4930     0.1106    -0.0022
  355.5000   -30.4888     8.0331     6.3316     7.2763     7.9773   112.6868     2.4947     0.1082    -0.0021
  356.0000   -30.5329     7.9040     6.3235     7.4847     7.9335   111.3418     2.4886     0.1106    -0.0071
  356.5000   -30.5755     7.7770     6.3154     7.4847     7.9273   112.0749     2.4841     0.1143    -0.0112
  357.0000   -30.6182     7.6520     6.3073     7.4091     7.9325   113.1381     2.4890     0.1116    -0.0054
  357.5000   -30.6608     7.5291     6.2993     7.3176     7.9382   112.8690     2.4940     0.1090     0.0006
  358.0000   -30.7035     7.4081     6.2913     7.2271     7.9389   111.1836     2.4989     0.1066     0.0059
  358.5000   -30.7462     7.2804     6.2232     7.1472     7.9238   111.4765     2.5038     0.1029     0.0048
  359.0000   -30.7888     7.3703     6.2771     7.2146     7.9220   109.7188     2.5087     0.0994     0.0034
  359.5000   -30.8314     7.5462     6.3822     7.3461     7.9211   107.5337     2.5132     0.0960     0.0020
  360.0000   -30.8745     7.7265     6.4891     7.4801     7.9203   107.8485     2.5270     0.0925     0.0006
  360.5000   -30.9432     7.9104     6.5977     7.6164     7.9195   109.4333     2.5303     0.0904     0.0022
  361.0000   -31.0544     8.1042     6.7081     7.7553     7.9187   110.7394     2.5220     0.0933     0.0075
  361.5000   -31.1650     8.4480     6.8204     7.8967     7.9178   109.8780     2.5158     0.0962     0.0128
  362.0000   -31.2758     9.5423     6.9346     8.0406     7.9170   109.0289     2.5215     0.0986     0.0181
  362.5000   -31.3865    10.6287     7.0165     8.0582     7.9162   108.8708     2.5289     0.0926     0.0234
  363.0000   -31.4976     8.0582     6.9946     7.9780     7.9153   110.5098     2.5205     0.0902     0.0271
  363.5000   -31.6086     8.2229     6.8167     7.9056     7.9145   112.1433     2.5085     0.0974     0.0214
  364.0000   -31.7013     8.3613     6.6433     7.8338     7.9136   112.2016     2.5079     0.1023     0.0156
  364.5000   -31.6403     7.7510     6.4741     7.7627     7.9128   110.8824     2.5064     0.1038     0.0096
  365.0000   -31.5777     7.3319     6.3093     7.6922     7.9120   109.4176     2.5004     0.1063     0.0080
  365.5000   -31.5155     6.9533     6.1999     7.6224     7.9111   107.9673     2.4944     0.1097     0.0080
  366.0000   -31.4535     7.1585     6.1030     7.5532     7.9103   106.7888     2.4885     0.1128     0.0080
  366.5000   -31.3915     7.3494     6.0077     7.4847     7.9094   106.9349     2.4851     0.1152     0.0080
  367.0000   -31.3295     7.2111     5.9138     7.4167     7.9086   108.5265     2.4822     0.1176     0.0080
  367.5000   -31.2328     7.0165     5.8214     7.3494     7.9078   110.1009     2.4808     0.1145     0.0079
  368.0000   -31.1044     7.0689     5.7304     7.2804     7.9069   110.2027     2.4880     0.1079     0.0144
  368.5000   -30.9770     7.1472     5.6746     7.2414     7.9061   107.4236     2.4954     0.1042     0.0250
  369.0000   -30.8823     6.8831     5.6746     7.2013     7.9052   106.3167     2.5028     0.1013     0.0357
  369.5000   -30.8402     6.6385     5.7025     7.1472     7.9044   107.5897     2.5088     0.0983     0.0417
  370.0000   -30.7975     7.0513     5.7368     7.1940     7.9042   108.9428     2.5049     0.1021     0.0477
  370.5000   -30.7549     7.2141     5.7713     7.2672     7.8776   109.9477     2.4985     0.1064     0.0486
  371.0000   -30.7124     6.8894     5.8060     7.3478     7.8431   108.6352     2.4986     0.1084     0.0492
  371.5000   -30.6000     7.3210     5.8410     7.3309     7.8084   107.5605     2.5031     0.1044     0.0501
  372.0000   -30.4607     8.0549     5.8761     7.3074     7.7736   109.8140     2.5172     0.0942     0.0565
  372.5000   -30.3210     7.8740     5.9115     7.2839     7.7389   110.5314     2.5029     0.0949     0.0562
  373.0000   -30.1813     7.5451     5.9471     7.2604     7.7040   107.3557     2.4817     0.1158     0.0487
  373.5000   -30.0416     7.4576     5.9829     7.2371     7.6692   105.7056     2.4699     0.1221     0.0411
  374.0000   -29.9020     7.4241     6.0189     7.2138     7.6358   106.9605     2.4705     0.1229     0.0399
  374.5000   -29.7615     7.3907     6.0553     7.1906     7.6229   107.5322     2.4668     0.1248     0.0371
  375.0000   -29.6213     7.3478     6.1093     7.1677     7.6542   106.4368     2.4634     0.1281     0.0231
  375.5000   -29.5207     7.7439     6.0842     7.1346     7.7207   105.3610     2.4604     0.1285     0.0095
  376.0000   -29.7284     8.1330     6.0341     7.0305     7.7868   104.2831     2.4666     0.1240    -0.0008
  376.5000   -29.9343     6.8882     5.9846     6.9268     7.8537   103.2019     2.4749     0.1194     0.0090
  377.0000   -30.1400     7.1081     5.9356     6.8249     7.9197   102.8730     2.4832     0.1147     0.0184
  377.5000   -30.3442     7.4160     5.8871     6.2537     7.9018   103.8925     2.4905     0.1098     0.0279
  378.0000   -30.4834     6.9703     5.8389     6.0533     7.8542   104.7779     2.4905     0.1110     0.0375
