~VERSION INFORMATION
 VERS.                2.0:   CWLS LOG ASCII STANDARD - VERSION 2.0
 WRAP.                 NO:   ONE LINE PER DEPTH STEP
~WELL INFORMATION
#MNEM.UNIT      DATA TYPE    INFORMATION
#----------   ------------   ------------------------------
 STRT.F           25.0000:   START DEPTH
 STOP.F          681.0000:   STOP DEPTH
 STEP.F            0.5000:   STEP LENGTH
 NULL.          -999.2500:   NO VALUE
 COMP. FENIX & SCISSON INC:   COMPANY
 WELL.    56-SX-34 #56-34:   WELL
 FLD .             TEAPOT:   FIELD
 LOC .      S34 T39N R78W:   LOCATION
 CNTY.            NATRONA:   COUNTY
 STAT.            WYOMING:   STATE
 CTRY. UNITED STATES OF AMERICA:   COUNTRY
 SRVC.            Unknown:   SERVICE COMPANY
 DATE.        28-JAN-1979:   LOGDATE
 API .       490251077200:   API NUMBER
~CURVE INFORMATION
#MNEM.UNIT       API CODE    CURVE DESCRIPTION
#----------   ------------   ------------------------------
 DEPT.F                  :   
 SPR .MV     05 010 01 00:   SPONTANEOUS POTENTIAL FROM RES.
 DRHO.G/C3   45 356 01 00:   DENSITY CORRECTION
 RHOB.G/C3   45 350 01 00:   BULK DENSITY
 DPHI.DEC    45 890 12 00:   DENSITY POROSITY SANDSTONE
 CALD.IN     45 280 60 00:   CALIPER
 GRD .GAPI   45 310 01 00:   GAMMA RAY FROM DENSITY LOG
 SN  .OHMM   05 040 16 00:   SHORT NORMAL 16'
 ILD .OHMM   05 120 46 00:   INDUCTION LOG DEEP RESISTIVITY
~PARAMETER INFORMATION
#MNEM.UNIT          VALUE    DESCRIPTION
#----------   ------------   ------------------------------
 PD  .                 GL:   PERMANENT DATUM
 EPD .F              5088:   ELEVATION PERMANENT DATUM
 LMF .                 KB:   LOG MEASURED FROM
 DAPD.F                 4:   FEET ABOVE PERMANENT DATUM
 DMF .                 KB:   DRILLING MEASURED FROM
 EKB .F              5092:   KELLING BUSHING
 EGL .F              5088:   GROUND LEVEL
 DATE.            1-28-79:   RUN DATE
 RUN .                  1:   RUN NUMBER
 DD  .F               680:   DEPTH DRILLER
 DL  .F               681:   DEPTH LOGGER
 BLI .F               679:   BOTTOM LOG INTERVAL
 TLI .F                40:   TOP LOG INTERVAL
 CS  .IN            8.625:   CASING SIZE
 CBD .F                40:   CASING BOTTOM DRILLER
 CBL .F                40:   CASING BOTTOM LOGGER
 BS  .IN            7.875:   BIT SIZE
 BSD .F               680:   BIT SIZE AT DEPTH
 DFT .                KCL:   DRILLING FLUID TYPE
 DFD .                8.9:   DRILLING FLUID DENSITY
 DFV .                 43:   DRILLING FLUID VISCOSITY
 DFPH.                8.5:   DRILLING FLUID PH
 DFL .                9.8:   DRILLING FLUID LOSS
 MSS .           FLOWLINE:   MUD SAMPLE SOURCE
 RMS .OHMM            1.5:   RESISTIVITY MUD SAMPLE
 MST .F                66:   MUD SAMPLE TEMPERATURE
 RMF .OHMM            1.3:   RESISTIVITY MUD FILTRATE SAMPLE
 MFST.F                76:   MUD FILTRATE SAMPLE TEMPERATURE
 RMC .OHMM            1.3:   RESISTIVITY MUD CAKE
 MCST.F                78:   MUD CAKE SAMPLE TEMPERATURE
 MFSS.           MEASURED:   MUD FILTRATE SAMPLE SOURCE
 MCSS.           MEASURED:   MUD CAKE SAMPLE SOURCE
 RMB .OHMM            1.3:   RESISTIVITY MUD AT BHT
 BHT .F                76:   BOTTOM HOLE TEMPERATURE
 TCS .HRS               3:   TIME CURCULATED STOPPED
 MRT .F                76:   MAXIMUM RECORDED TEMPERATURE
 LUN .               3006:   LOGGING UNIT NUMBER
 LUL .             CASPER:   LOGGING UNIT LOCATION
 ENGI.            ROLLINS:   RECORDING ENGINEER
 WITN.              AMEND:   WITNESSED BY
 CLNT.            A2DTECH:   CLIENT CODE
 ORIG.       2", 5" PRINT:   ORIGIN OF DATA
 UWI .       490251077200:   UNIQUE WELL ID
 DICO. A2D Technologies, Inc.:   DIGITIZING COMPANY
~OTHER INFORMATION
~A   DEPT      SPR       DRHO       RHOB       DPHI       CALD         GRD        SN        ILD   
# ...
  551.5000   -49.3744     0.0507     2.4386     0.1392     8.1526    78.4229    13.7948    15.4634
  552.0000   -49.3708     0.0451     2.4529     0.1292     8.1455    73.0809    13.7137    15.3712
  552.5000   -49.3672     0.0380     2.4672     0.1221     8.1383    75.9538    13.6221    15.2796
  553.0000   -49.3636     0.0309     2.4769     0.1244     8.1312    74.0097    13.5312    15.1885
  553.5000   -49.3601     0.0294     2.4689     0.1320     8.1241    73.8643    13.4408    15.0978
  554.0000   -49.3565     0.0364     2.4511     0.1404     8.1169    74.0861    13.3511    15.0076
  554.5000   -49.3529     0.0436     2.4398     0.1444     8.1111    73.7784    13.2619    14.9377
  555.0000   -49.3493     0.0415     2.4313     0.1470     8.1062    75.4436    13.1734    14.8619
  555.5000   -49.3458     0.0396     2.4250     0.1491     8.1014    77.3121    13.0854    14.7866
  556.0000   -49.3422     0.0377     2.4185     0.1502     8.0965    74.9365    12.9981    14.7114
  556.5000   -49.3386     0.0412     2.4158     0.1487     8.0916    72.5182    12.9113    14.6367
  557.0000   -49.3351     0.0451     2.4216     0.1471     8.0868    72.5912    12.8251    14.5623
  557.5000   -49.3315     0.0453     2.4279     0.1471     8.0819    75.6065    12.7394    14.4883
  558.0000   -49.3279     0.0449     2.4289     0.1482     8.0770    78.9710    12.6544    14.4146
  558.5000   -49.3243     0.0445     2.4251     0.1494     8.0721    76.4533    12.5699    14.3414
  559.0000   -49.3208     0.0441     2.4217     0.1489     8.0673    77.1809    12.4859    14.2685
  559.5000   -49.3172     0.0437     2.4234     0.1455     8.0624    76.5263    12.4025    14.1960
  560.0000   -49.3136     0.0417     2.4315     0.1429     8.0576    76.3042    12.3196    14.1238
  560.5000   -49.3101     0.0384     2.4318     0.1431     8.0576    76.7153    12.3010    14.0520
  561.0000   -49.3065     0.0351     2.4318     0.1433     8.0666    76.0843    12.2928    13.9806
  561.5000   -49.3029     0.0318     2.4318     0.1433     8.0754    76.0554    12.2846    13.9095
  562.0000   -49.2993     0.0285     2.4318     0.1462     8.0843    77.9988    12.2765    13.8749
  562.5000   -49.2958     0.0256     2.4274     0.1502     8.0932    77.0455    12.2683    13.8659
  563.0000   -49.2922     0.0255     2.4189     0.1541     8.1020    75.3144    12.2601    13.8570
  563.5000   -49.2886     0.0277     2.4114     0.1542     8.1109    74.3443    12.2520    13.8481
  564.0000   -49.2850     0.0307     2.4117     0.1465     8.1197    74.3997    12.2438    13.8391
  564.5000   -49.2815     0.0335     2.4333     0.1393     8.1284    80.8855    12.2357    13.8302
  565.0000   -49.2779     0.0336     2.4390     0.1375     8.1320    87.6020    12.2276    13.8213
  565.5000   -49.2743     0.0336     2.4439     0.1361     8.1242    85.6569    12.2194    13.8124
  566.0000   -49.2708     0.0331     2.4487     0.1377     8.1166    80.8677    12.2113    13.8034
  566.5000   -49.2672     0.0305     2.4481     0.1400     8.1089    81.0948    12.2032    13.7945
  567.0000   -49.2636     0.0278     2.4466     0.1440     8.1012    85.0278    12.1951    13.7856
  567.5000   -49.2600     0.0256     2.4346     0.1466     8.0934    85.9864    12.1870    13.7767
  568.0000   -49.2565     0.0255     2.4253     0.1470     8.0857    85.9560    12.1789    13.7678
  568.5000   -49.2529     0.0275     2.4244     0.1473     8.0785    80.9356    12.1708    13.7589
  569.0000   -49.2493     0.0302     2.4233     0.1469     8.0882    80.3659    12.1627    13.7524
  569.5000   -49.2458     0.0329     2.4227     0.1445     8.1418    80.0907    12.1546    13.7422
  570.0000   -49.2422     0.0356     2.4270     0.1428     8.1934    78.8623    12.1465    13.7267
  570.5000   -49.2386     0.0383     2.4327     0.1424     8.2339    77.4315    12.1384    13.7112
  571.0000   -49.2350     0.0410     2.4328     0.1419     8.2248    76.9392    12.1304    13.6957
  571.5000   -49.2315     0.0437     2.4328     0.1415     8.2127    76.9373    12.1223    13.6802
  572.0000   -49.2279     0.0464     2.4328     0.1410     8.2006    77.5162    12.1143    13.6647
  572.5000   -49.2243     0.0491     2.4330     0.1409     8.1884    79.4592    12.1062    13.6491
  573.0000   -49.2207     0.0486     2.4370     0.1409     8.1762    81.3981    12.0982    13.6339
  573.5000   -49.2173     0.0473     2.4372     0.1404     8.1640    82.5047    12.0901    13.5789
  574.0000   -49.2129     0.0460     2.4399     0.1389     8.1526    76.8049    12.0826    13.4811
  574.5000   -49.2060     0.0461     2.4456     0.1373     8.1462    76.8147    12.0824    13.3839
  575.0000   -49.2283     0.0468     2.4455     0.1374     8.1400    77.4611    12.0824    13.2873
  575.5000   -49.9354     0.0475     2.4451     0.1376     8.1314    78.0880    12.0824    13.1914
  576.0000   -50.6704     0.0428     2.4450     0.1377     8.0776    78.4297    12.0825    13.1308
  576.5000   -51.4030     0.0377     2.4459     0.1379     8.0252    76.4831    12.0838    13.1309
  577.0000   -52.1361     0.0365     2.4467     0.1380     7.9772    75.5655    12.0810    13.1313
  577.5000   -52.8660     0.0357     2.4454     0.1382     7.9495    81.6872    12.1969    13.1315
  578.0000   -53.5303     0.0378     2.4432     0.1384     7.9195    82.8523    12.4212    13.1313
  578.5000   -53.7663     0.0399     2.4421     0.1387     7.8890    81.3574    12.6522    13.1310
  579.0000   -53.7579     0.0414     2.4430     0.1389     7.8585    79.8430    12.8874    13.3117
  579.5000   -53.7604     0.0395     2.4438     0.1392     7.8281    81.4667    13.1270    13.5999
  580.0000   -53.5810     0.0376     2.4430     0.1409     7.7977    84.2339    13.3762    13.8944
  580.5000   -53.2620     0.0357     2.4380     0.1456     7.7735    83.6633    13.8938    14.1952
  581.0000   -52.9413     0.0353     2.4285     0.1502     7.7620    82.3322    14.3886    14.9200
  581.5000   -52.6128     0.0421     2.4192     0.1549     7.7504    76.5285    15.1395    15.8289
  582.0000   -52.2103     0.0544     2.4105     0.1558     7.7394    73.9140    15.9349    16.7000
  582.5000   -52.1313     0.0571     2.4115     0.1475     7.7486    71.3132    16.7087    18.5386
  583.0000   -52.0674     0.0428     2.4363     0.1417     7.7952    71.7957    18.7511    20.5187
  583.5000   -52.0017     0.0464     2.4369     0.1567     7.8404    54.5567    20.8844    23.1167
  584.0000   -51.9342     0.0655     2.3965     0.1803     7.8778    53.6049    23.5262    26.0308
  584.5000   -51.8670     0.0578     2.3520     0.2039     7.8629    54.2562    26.0308    25.1185
  585.0000   -51.7997     0.0496     2.3195     0.2043     7.8463    55.3082    25.2952    24.2418
  585.5000   -51.7326     0.0495     2.3181     0.1898     7.7748    55.2007    24.4535    23.3956
  586.0000   -51.6650     0.0774     2.3480     0.1758     7.5984    55.7724    23.6351    22.5789
  586.5000   -51.5946     0.0977     2.3716     0.1815     7.5628    57.5994    22.8434    21.7908
  587.0000   -51.6618     0.0976     2.3575     0.1920     7.7188    59.4103    21.8292    21.2390
  587.5000   -51.7566     0.0922     2.3369     0.1988     7.8908    61.2228    21.8407    21.2390
  588.0000   -51.8800     0.0877     2.3341     0.2035     8.0626    62.8402    21.8365    21.2390
  588.5000   -52.0115     0.0885     2.3217     0.2033     8.1988    62.1727    21.8365    21.2390
  589.0000   -52.1432     0.0890     2.3219     0.2031     8.2781    62.2062    21.8365    21.2390
  589.5000   -52.2737     0.0891     2.3225     0.2043     8.2947    65.3438    21.8365    21.2390
  590.0000   -52.3793     0.1089     2.3183     0.2058     8.3105    68.0272    21.8365    21.2390
  590.5000   -52.3763     0.1516     2.3134     0.2059     8.2819    68.6139    21.8365    21.2390
  591.0000   -52.3761     0.1943     2.3186     0.1994     8.1668    68.9223    21.8365    21.2390
  591.5000   -52.3762     0.2129     2.3328     0.1930     8.0391    68.4285    21.8365    21.2390
