~VERSION INFORMATION
 VERS.                2.0:   CWLS LOG ASCII STANDARD - VERSION 2.0
 WRAP.                 NO:   ONE LINE PER DEPTH STEP
~WELL INFORMATION
#MNEM.UNIT      DATA TYPE    INFORMATION
#----------   ------------   ------------------------------
 STRT.F           30.0000:   START DEPTH
 STOP.F          597.0000:   STOP DEPTH
 STEP.F            0.5000:   STEP LENGTH
 NULL.          -999.2500:   NO VALUE
 COMP. FENIX & SCISSON-U.S. NAVY:   COMPANY
 WELL.    NPR #3 #15-S-11:   WELL
 FLD .             TEAPOT:   FIELD
 LOC .      S11 T38N R78W:   LOCATION
 CNTY.            NATRONA:   COUNTY
 STAT.            WYOMING:   STATE
 CTRY. UNITED STATES OF AMERICA:   COUNTRY
 SRVC.       Schlumberger:   SERVICE COMPANY
 DATE.        22-FEB-1977:   LOGDATE
 API .       490251028000:   API NUMBER
~CURVE INFORMATION
#MNEM.UNIT       API CODE    CURVE DESCRIPTION
#----------   ------------   ------------------------------
 DEPT.F                  :   
 SPR .MV     07 010 01 00:   SPONTANEOUS POTENTIAL
 ILD .OHMM   07 120 46 00:   INDUCTION LOG DEEP RES
 ILM .OHMM   07 120 44 00:   INDUCTION LOG MEDIUM RES
 LL8 .OHMM   07 220 08 00:   LATEROLOG-8 RES
 CALD.IN     45 280 60 00:   CALIPER FROM DENSITY LOG
 GRD .GAPI   45 310 01 00:   GAMMA RAY FROM DENSITY LOG
 CORR.G/C3   45 356 01 00:   DENSITY CORRECTION
 RHOB.G/C3   45 350 01 00:   BULK DENSITY
 DPHI.DEC    45 890 12 00:   DENSITY POROSITY SANDSTONE
~PARAMETER INFORMATION
#MNEM.UNIT          VALUE    DESCRIPTION
#----------   ------------   ------------------------------
 PD  .                 GL:   PERMANENT DATUM
 EPD .F              5188:   ELEVATION PERMANENT DATUM
 LMF .                 KB:   LOG MEASURED FROM
 DAPD.F                 5:   FEET ABOVE PERMANENT DATUM
 DMF .                 KB:   DRILLING MEASURED FROM
 EKB .F              5193:   KELLING BUSHING
 EGL .F              5188:   GROUND LEVEL
 DATE.         22FEB-1977:   RUN DATE
 RUN .                  1:   RUN NUMBER
 DD  .F               598:   DEPTH DRILLER
 DL  .F               598:   DEPTH LOGGER
 BLI .F               597:   BOTTOM LOG INTERVAL
 TLI .F                35:   TOP LOG INTERVAL
 CS  .IN            8.625:   CASING SIZE
 CBD .F                42:   CASING BOTTOM DRILLER
 CBL .F                45:   CASING BOTTOM LOGGER
 BS  .IN            7.875:   BIT SIZE
 BSD .F               598:   BIT SIZE AT DEPTH
 DFT .                KCL:   DRILLING FLUID TYPE
 DFD .                8.7:   DRILLING FLUID DENSITY
 DFV .                 31:   DRILLING FLUID VISCOSITY
 DFPH.                  8:   DRILLING FLUID PH
 DFL .                7.2:   DRILLING FLUID LOSS
 MSS .           MUD TANK:   MUD SAMPLE SOURCE
 RMS .OHMM           .526:   RESISTIVITY MUD SAMPLE
 MST .F                70:   MUD SAMPLE TEMPERATURE
 RMF .OHMM           .515:   RESISTIVITY MUD FILTRATE SAMPLE
 MFST.F                71:   MUD FILTRATE SAMPLE TEMPERATURE
 RMC .OHMM            .77:   RESISTIVITY MUD CAKE
 MCST.F                70:   MUD CAKE SAMPLE TEMPERATURE
 MFSS.               MEAS:   MUD FILTRATE SAMPLE SOURCE
 MCSS.               CALC:   MUD CAKE SAMPLE SOURCE
 RMB .OHMM            .67:   RESISTIVITY MUD AT BHT
 BHT .F                55:   BOTTOM HOLE TEMPERATURE
 TCS .HRS            0600:   TIME CURCULATED STOPPED
 MRT .F                55:   MAXIMUM RECORDED TEMPERATURE
 LUN .               5642:   LOGGING UNIT NUMBER
 LUL .               CSPR:   LOGGING UNIT LOCATION
 ENGI.                FIX:   RECORDING ENGINEER
 WITN.         STUEBINGER:   WITNESSED BY
 CLNT.            A2DTECH:   CLIENT CODE
 ORIG.           5" PRINT:   ORIGIN OF DATA
 UWI .       490251028000:   UNIQUE WELL ID
 DICO. A2D Technologies, Inc.:   DIGITIZING COMPANY
~OTHER INFORMATION
~A   DEPT      SPR        ILD        ILM        LL8       CALD         GRD      CORR       RHOB       DPHI   
# ...
  431.5000   -25.1860    16.0626    19.2752    17.4603     8.1082    92.6113     0.0012     2.3676     0.1715
  432.0000   -24.8828    15.7342    19.1427    16.9871     8.1094    94.1218     0.0005     2.3699     0.1726
  432.5000   -24.7296    15.5191    19.0112    16.4131     8.1106    94.7292     0.0080     2.3751     0.1681
  433.0000   -24.2762    15.3076    18.7504    15.9683     8.1118    90.8366     0.0155     2.3932     0.1590
  433.5000   -24.2732    15.2031    18.4932    16.1927     8.1130    89.1939     0.0193     2.3992     0.1520
  434.0000   -24.4205    14.9959    18.2395    16.1950     8.1142    88.1497     0.0162     2.3872     0.1559
  434.5000   -24.5675    14.7909    17.8654    16.3096     8.1154    88.1609     0.0172     2.3835     0.1635
  435.0000   -24.8648    14.5890    17.4990    16.3119     8.1166    88.6788     0.0230     2.3805     0.1635
  435.5000   -24.8619    14.2911    17.0219    16.4267     8.1178    89.4074     0.0184     2.3782     0.1656
  436.0000   -24.8589    14.0957    16.6727    15.7630     8.1190    90.1943     0.0102     2.3812     0.1647
  436.5000   -25.0060    13.9998    16.3307    15.1255     8.1202    91.1982     0.0127     2.3985     0.1587
  437.0000   -25.1532    13.9045    16.1067    14.6144     8.1214    91.8078     0.0194     2.4143     0.1469
  437.5000   -25.1501    13.6205    16.1070    14.2184     8.1226    91.2912     0.0201     2.4031     0.1455
  438.0000   -25.1471    13.5275    16.1073    14.6186     8.1088    90.1502     0.0118     2.3993     0.1550
  438.5000   -24.9940    13.4355    16.2193    14.8241     8.0948    90.3564     0.0096     2.3964     0.1541
  439.0000   -24.9910    13.3443    16.2196    15.2414     8.0814    90.6426     0.0095     2.3941     0.1550
  439.5000   -24.8379    13.4381    16.2199    15.4550     8.0826    90.3303     0.0104     2.3926     0.1574
  440.0000   -24.8342    13.5325    16.2202    14.7285     8.0838    89.7197     0.0111     2.3896     0.1607
  440.5000   -24.5310    13.4404    16.1086    14.5281     8.0850    88.8488     0.0111     2.3866     0.1634
  441.0000   -24.3778    13.3490    15.8878    14.4302     8.1011    89.5495     0.0050     2.3844     0.1649
  441.5000   -24.2247    13.2581    15.6698    14.5328     8.1023    91.3053     0.0156     2.3957     0.1631
  442.0000   -23.9214    13.0772    15.4549    14.6356     8.1035    92.3644     0.0051     2.3935     0.1571
  442.5000   -23.7683    12.8987    15.0336    14.6377     8.1047    93.4234     0.0006     2.3844     0.1637
  443.0000   -23.7653    12.7226    14.8273    14.5391     8.1059    94.1822    -0.0001     2.3897     0.1589
  443.5000   -23.7623    12.5490    14.5232    14.3413     8.1071    95.7440     0.0007     2.3912     0.1564
  444.0000   -24.0603    12.4636    14.3240    13.7618     8.1083    98.4504     0.0014     2.3970     0.1594
  444.5000   -24.3569    12.3723    14.2252    13.2053     8.1096    99.4503     0.0067     2.4067     0.1528
  445.0000   -24.5048    12.2098    14.0272    12.6712     8.1108    96.8572     0.0149     2.4174     0.1477
  445.5000   -24.8014    12.1267    13.8379    12.4133     8.1120    94.0450     0.0382     2.4341     0.1380
  446.0000   -24.7984    12.0321    13.7428    12.6749     8.0979    93.9218     0.0480     2.4379     0.1281
  446.5000   -24.7954    11.8798    13.5543    13.0317     8.0994    94.8527     0.0465     2.4225     0.1251
  447.0000   -24.7924    11.8809    13.4612    13.2148     8.1006    96.5165     0.0337     2.4099     0.1338
  447.5000   -24.6393    11.9646    13.4614    13.2168     8.1018    99.0692     0.0217     2.3993     0.1446
  448.0000   -24.4862    12.0486    13.4617    13.1277     8.0878    99.6636     0.0127     2.3906     0.1549
  448.5000   -24.3330    12.1333    13.4619    13.0393     8.0743    96.3663     0.0030     2.3854     0.1609
  449.0000   -24.1799    12.1343    13.6496    13.0412     8.0453    95.4754     0.0165     2.3931     0.1578
  449.5000   -24.1769    12.1354    13.6499    13.2244     8.0169    94.7357     0.0375     2.4072     0.1443
  450.0000   -24.0245    12.1362    13.6524    13.4102     8.0219    94.2943     0.0179     2.3907     0.1509
  450.5000   -24.1010    12.1307    13.6803    13.3791     8.0705    94.0060    -0.0007     2.3696     0.1652
  451.0000   -24.1666    12.1257    13.7082    13.1357     8.0951    93.7177     0.0002     2.3742     0.1729
  451.5000   -24.1831    12.1207    13.7271    13.2336     8.1112    94.0300     0.0053     2.3809     0.1697
  452.0000   -24.1867    12.1189    13.4473    13.2391     8.1124    95.5435     0.0061     2.3847     0.1643
  452.5000   -24.3399    12.0364    13.1733    13.1534     8.1136    97.5075     0.0001     2.3899     0.1604
  453.0000   -24.7933    11.9547    12.8159    12.9785     8.1148    98.1201     0.0101     2.4012     0.1554
  453.5000   -24.9464    11.8734    12.5547    12.7143     8.1160    97.5315     0.0200     2.4230     0.1489
  454.0000   -25.3998    11.6304    12.3842    12.4543     8.1172   100.9970     0.0299     2.4478     0.1292
  454.5000   -25.8532    11.3143    12.3003    12.1997     8.1184   103.8619     0.0310     2.4358     0.1206
  455.0000   -26.0063    11.0830    12.2174    11.9677     8.1195   103.4234     0.0133     2.4192     0.1354
  455.5000   -25.8591    10.9315    12.2198    11.8890     8.1058    99.2312     0.0029     2.4260     0.1444
  456.0000   -25.7112    10.8571    12.2217    11.8952     8.1070    99.8438     0.0056     2.4410     0.1345
  456.5000   -25.8650    10.7832    12.1393    11.9002     8.1232   100.3063     0.0117     2.4470     0.1230
  457.0000   -26.4686    10.7098    12.2255    11.9051     8.1244    98.6667     0.0154     2.4388     0.1221
  457.5000   -26.9220    10.7110    12.2273    11.9101     8.1106    97.9279     0.0170     2.4275     0.1257
  458.0000   -26.6247    10.8611    12.2292    11.9150     8.1120    98.2402     0.0027     2.4170     0.1347
  458.5000   -26.0240    11.2441    12.4014    12.1695     8.1132    98.1021    -0.0047     2.4057     0.1455
  459.0000   -25.5795    11.6407    12.5762    12.2589     8.0992    96.3123    -0.0077     2.3937     0.1542
  459.5000   -25.4323    12.3038    12.7672    12.5206     8.1007    92.7207    -0.0062     2.3719     0.1642
  460.0000   -25.7363    13.0047    13.6689    13.0557     8.0866    88.5285    -0.0016     2.3456     0.1744
  460.5000   -25.4382    13.9370    14.7514    14.0917     8.1031    83.2853     0.0029     2.3035     0.1946
  461.0000   -24.5410    14.9360    16.8251    15.4214     8.1042    77.8919    -0.0001     2.2772     0.2186
  461.5000   -23.7933    16.6848    21.8846    22.7110     8.1054    77.1532     0.0022     2.2427     0.2361
  462.0000   -23.0455    19.1611    26.7480    30.5740     8.1066    78.8168     0.0105     2.2261     0.2566
  462.5000   -22.8975    21.5531    31.3637    32.9967     8.1078    80.3303     0.0030     2.2539     0.2490
  463.0000   -22.9012    23.9107    32.2483    31.2398     8.1090    82.2943     0.0000     2.2705     0.2324
  463.5000   -23.0543    26.1619    33.8528    29.7783     8.1102    76.7508    -0.0014     2.2735     0.2312
  464.0000   -23.3576    27.8441    35.7838    29.5499     8.1114    72.8589     0.0031     2.2735     0.2303
  464.5000   -23.6609    28.2343    37.0483    29.8031     8.1126    74.2222     0.0054     2.2727     0.2291
  465.0000   -23.6638    27.0892    38.3575    29.8155     8.1138    77.9880     0.0047     2.2690     0.2318
  465.5000   -23.6668    25.9900    37.8365    30.0346     8.1150    80.7027     0.0054     2.2660     0.2345
  466.0000   -23.6697    25.2832    34.3508    29.8403     8.1009    82.6667     0.0085     2.2705     0.2351
  466.5000   -23.5225    24.5961    32.2832    30.0596     8.0875    82.5285     0.0078     2.2915     0.2302
  467.0000   -23.5255    24.0932    31.1909    29.7463     8.0887    78.4865     0.0048     2.3088     0.2148
  467.5000   -23.6787    23.6006    30.1356    26.9410     8.0898    78.3483     0.0056     2.3283     0.2016
