~VERSION INFORMATION
 VERS.                2.0:   CWLS LOG ASCII STANDARD - VERSION 2.0
 WRAP.                 NO:   ONE LINE PER DEPTH STEP
~WELL INFORMATION
#MNEM.UNIT      DATA TYPE    INFORMATION
#----------   ------------   ------------------------------
 STRT.F           45.5000:   START DEPTH
 STOP.F          740.0000:   STOP DEPTH
 STEP.F            0.5000:   STEP LENGTH
 NULL.          -999.2500:   NO VALUE
 COMP. FENIX & SCISSON INC:   COMPANY
 WELL.       NPR 3 #22-14:   WELL
 FLD .             TEAPOT:   FIELD
 LOC .      S14 T38N R78W:   LOCATION
 CNTY.            NATRONA:   COUNTY
 STAT.            WYOMING:   STATE
 CTRY. UNITED STATES OF AMERICA:   COUNTRY
 SRVC.           BIRDWELL:   SERVICE COMPANY
 DATE.        23-DEC-1978:   LOGDATE
 API .       490251075800:   API NUMBER
~CURVE INFORMATION
#MNEM.UNIT       API CODE    CURVE DESCRIPTION
#----------   ------------   ------------------------------
 DEPT.F                  :   
 SPR .MV     05 010 01 00:   SPONTANEOUS POTENTIAL FROM RES.
 SN  .OHMM   05 040 16 00:   SHORT NORMAL 16"
 IL  .OHMM   05 120 00 00:   INDUCTION LOG
 CALD.IN     45 280 60 00:   CALIPER
 GRD .GAPI   45 310 01 00:   GAMMA RAY FROM DENSITY LOG
 RHOB.G/C3   45 350 01 00:   BULK DENSITY
 DPHI.DEC    45 890 12 00:   DENSITY POROSITY SANDSTONE
 CORR.G/C3   45 356 01 00:   DENSITY CORRECTION
~PARAMETER INFORMATION
#MNEM.UNIT          VALUE    DESCRIPTION
#----------   ------------   ------------------------------
 PD  .                 GL:   PERMANENT DATUM
 EPD .F              5212:   ELEVATION PERMANENT DATUM
 LMF .                 KB:   LOG MEASURED FROM
 DAPD.F                 4:   FEET ABOVE PERMANENT DATUM
 DMF .                 KB:   DRILLING MEASURED FROM
 EKB .F              5216:   KELLING BUSHING
 EGL .F              5212:   GROUND LEVEL
 DATE.           12-23-78:   RUN DATE
 RUN .                  1:   RUN NUMBER
 DD  .F               735:   DEPTH DRILLER
 DL  .F               740:   DEPTH LOGGER
 BLI .F               733:   BOTTOM LOG INTERVAL
 TLI .F                50:   TOP LOG INTERVAL
 CS  .IN            8.625:   CASING SIZE
 CBD .F                40:   CASING BOTTOM DRILLER
 CBL .F                40:   CASING BOTTOM LOGGER
 BS  .IN            7.875:   BIT SIZE
 BSD .F               735:   BIT SIZE AT DEPTH
 DFT .                KCL:   DRILLING FLUID TYPE
 DFD .                8.7:   DRILLING FLUID DENSITY
 DFV .                 35:   DRILLING FLUID VISCOSITY
 DFPH.               10.5:   DRILLING FLUID PH
 DFL .               11.6:   DRILLING FLUID LOSS
 MSS .           FLOWLINE:   MUD SAMPLE SOURCE
 RMS .OHMM             .5:   RESISTIVITY MUD SAMPLE
 MST .F                60:   MUD SAMPLE TEMPERATURE
 RMF .OHMM             .5:   RESISTIVITY MUD FILTRATE SAMPLE
 MFST.F                60:   MUD FILTRATE SAMPLE TEMPERATURE
 RMC .OHMM             .7:   RESISTIVITY MUD CAKE
 MCST.F                60:   MUD CAKE SAMPLE TEMPERATURE
 MFSS.           MEASURED:   MUD FILTRATE SAMPLE SOURCE
 MCSS.           MEASURED:   MUD CAKE SAMPLE SOURCE
 RMB .OHMM           .518:   RESISTIVITY MUD AT BHT
 BHT .F                58:   BOTTOM HOLE TEMPERATURE
 TCS .HRS               5:   TIME CURCULATED STOPPED
 MRT .F                58:   MAXIMUM RECORDED TEMPERATURE
 LUN .               2958:   LOGGING UNIT NUMBER
 LUL .             CASPER:   LOGGING UNIT LOCATION
 ENGI.         B. ROLLINS:   RECORDING ENGINEER
 WITN.              IMMEL:   WITNESSED BY
 CLNT.            A2DTECH:   CLIENT CODE
 ORIG.           5" PRINT:   ORIGIN OF DATA
 UWI .       490251075800:   UNIQUE WELL ID
 DICO. A2D Technologies, Inc.:   DIGITIZING COMPANY
~OTHER INFORMATION
~A   DEPT      SPR         SN         IL       CALD         GRD      RHOB       DPHI       CORR   
# ...
  329.0000  -999.2500     9.8110    10.1120     7.7700   102.2380     2.5130     0.1010     0.0190
  329.5000  -999.2500     9.8180    10.0910     7.7720   102.8440     2.5140     0.1010     0.0190
  330.0000  -999.2500     9.8260    10.0700     7.7760   103.5250     2.5140     0.0970     0.0190
  330.5000  -999.2500     9.8330    10.0490     7.7790   104.1700     2.5150     0.0930     0.0190
  331.0000  -999.2500     9.7750    10.0280     7.7830   103.1210     2.5190     0.0830     0.0180
  331.5000  -999.2500     9.7060    10.0070     7.7860   101.9600     2.5320     0.0740     0.0180
  332.0000  -999.2500     9.6370     9.9860     7.7890   100.7990     2.5470     0.0600     0.0180
  332.5000  -999.2500     9.5690     9.9650     7.8070    99.6420     2.5610     0.0640     0.0170
  333.0000  -999.2500     9.5000     9.9440     7.8350    99.2550     2.5750     0.0740     0.0160
  333.5000  -999.2500     9.4320     9.9230     7.8630    98.9840     2.5620     0.0830     0.0150
  334.0000  -999.2500     9.3630     9.9030     7.8890   101.1300     2.5450     0.0920     0.0140
  334.5000  -999.2500     9.2950     9.8820     7.8800   103.4350     2.5280     0.1020     0.0120
  335.0000  -999.2500     9.2210     9.8610     7.8710   104.6750     2.5100     0.1110     0.0130
  335.5000  -999.2500     9.3060     9.8340     7.8610   104.8610     2.5000     0.1160     0.0160
  336.0000  -999.2500     9.3110     9.8840     7.8520   104.9090     2.4910     0.1180     0.0190
  336.5000  -999.2500     9.3470     9.9530     7.8420   104.9550     2.4870     0.1180     0.0220
  337.0000  -999.2500     9.3830    10.0210     7.8330   105.0060     2.4840     0.1170     0.0220
  337.5000  -999.2500     9.4190    10.0900     7.8240   104.9720     2.4870     0.1110     0.0210
  338.0000  -999.2500     9.4560    10.1590     7.8140   102.5690     2.4970     0.1050     0.0210
  338.5000  -999.2500     9.5080    10.2640     7.8540    99.9630     2.5100     0.0980     0.0200
  339.0000  -999.2500     9.5890    10.4350     7.9280    99.1780     2.5180     0.1020     0.0210
  339.5000  -999.2500     9.6700    10.6050     7.9210    98.8330     2.5130     0.1070     0.0220
  340.0000  -999.2500     9.7520    10.7760     7.9070    98.7190     2.5050     0.1060     0.0220
  340.5000  -999.2500     9.8340    10.8830     7.8920    98.9140     2.5020     0.1030     0.0230
  341.0000  -999.2500     9.9250    10.8890     7.8780   101.1390     2.5060     0.1010     0.0240
  341.5000  -999.2500     9.9370    10.8950     7.8700   104.3720     2.5110     0.1000     0.0250
  342.0000  -999.2500     9.9500    10.9000     7.9290   104.7980     2.5150     0.1020     0.0260
  342.5000  -999.2500     9.9630    10.9060     7.9690   104.3660     2.5120     0.1030     0.0270
  343.0000  -999.2500     9.9760    10.9120     7.9310   102.5170     2.5090     0.1010     0.0280
  343.5000  -999.2500     9.9880    10.9180     7.8890   101.6520     2.5090     0.1000     0.0290
  344.0000  -999.2500    10.0010    10.9230     7.9480   102.1290     2.5130     0.0980     0.0300
  344.5000  -999.2500    10.0140    10.9290     8.0260   103.8850     2.5180     0.0960     0.0310
  345.0000  -999.2500    10.0260    10.9350     8.0050   105.3850     2.5200     0.0950     0.0320
  345.5000  -999.2500    10.0390    10.9410     7.9770   104.2610     2.5210     0.0930     0.0320
  346.0000  -999.2500    10.0520    10.9460     7.9510   102.8550     2.5220     0.0930     0.0330
  346.5000  -999.2500    10.0640    10.9520     7.9520   102.5270     2.5240     0.0960     0.0340
  347.0000  -999.2500    10.0770    10.9580     7.9600   100.9490     2.5230     0.0990     0.0340
  347.5000  -999.2500    10.0900    10.9640     7.9690    98.6030     2.5140     0.1020     0.0330
  348.0000  -999.2500    10.1030    10.9690     7.9710    98.0170     2.5130     0.1000     0.0300
  348.5000  -999.2500    10.1330    10.9750     7.9370    97.8320     2.5140     0.0980     0.0270
  349.0000  -999.2500    10.1840    10.9810     7.9090    97.9120     2.5160     0.1030     0.0250
  349.5000  -999.2500    10.2350    11.1340     7.9710    97.9840     2.5130     0.1070     0.0220
  350.0000  -999.2500    10.2850    11.3060     7.9490    98.0590     2.5070     0.1120     0.0200
  350.5000  -999.2500    10.3360    11.4770     7.9290    98.1390     2.5010     0.1150     0.0220
  351.0000  -999.2500    10.3860    11.6490     7.9090    98.1800     2.4950     0.1140     0.0230
  351.5000  -999.2500    10.5410    11.8200     7.8890    96.4240     2.4920     0.1130     0.0230
  352.0000  -999.2500    10.7090    11.9920     7.8690    94.4720     2.4930     0.1120     0.0240
  352.5000  -999.2500    10.8760    12.1640     7.8500    93.8460     2.4950     0.1120     0.0250
  353.0000  -999.2500    11.0440    12.3350     7.8300    93.7080     2.4960     0.1110     0.0260
  353.5000  -999.2500    11.2110    12.5070     7.8090    93.1680     2.4980     0.1110     0.0260
  354.0000  -999.2500    11.3780    12.6780     7.7960    92.6380     2.4980     0.1110     0.0270
  354.5000  -999.2500    11.5460    12.8500     7.9430    92.1910     2.4980     0.1110     0.0280
  355.0000  -999.2500    11.7130    13.0220     7.9130    92.1820     2.4980     0.1120     0.0340
  355.5000  -999.2500    11.8810    13.1930     7.8930    92.9280     2.4970     0.1130     0.0440
  356.0000  -999.2500    12.0400    13.3620     7.9590    93.7840     2.4950     0.1140     0.0530
  356.5000  -999.2500    12.3450    13.5230     7.9570    94.5910     2.4920     0.1130     0.0630
  357.0000  -999.2500    12.6350    13.6830     7.9280    94.6450     2.4910     0.1090     0.0730
  357.5000  -999.2500    12.9240    13.8440     7.8980    92.3010     2.5010     0.0970     0.0740
  358.0000  -999.2500    13.2140    14.0040     7.8870    91.1070     2.5100     0.0840     0.0680
  358.5000  -999.2500    13.5040    14.1650     7.8720    90.6030     2.5290     0.0720     0.0490
  359.0000  -999.2500    13.7940    14.3250     7.8580    90.1030     2.5510     0.0620     0.0310
  359.5000  -999.2500    14.0770    14.4860     7.8440    89.2750     2.5740     0.0590     0.0180
  360.0000  -999.2500    13.9840    14.7400     7.8300    88.4260     2.5790     0.0690     0.0200
  360.5000  -999.2500    13.8920    14.6440     7.8160    87.8840     2.5750     0.0780     0.0220
  361.0000  -999.2500    13.7620    14.4150     7.8020    87.3580     2.5610     0.0860     0.0220
  361.5000  -999.2500    13.4890    14.1860     7.7920    86.8370     2.5470     0.0950     0.0220
  362.0000  -999.2500    13.2160    13.9580     7.8590    86.3250     2.5320     0.1040     0.0220
  362.5000  -999.2500    12.9420    13.7950     7.9260    86.0050     2.5180     0.1130     0.0220
  363.0000  -999.2500    12.7230    13.7300     7.8900    86.6980     2.5040     0.1130     0.0220
  363.5000  -999.2500    12.6330    13.6650     7.8490    88.4330     2.4950     0.1130     0.0220
  364.0000  -999.2500    12.5210    13.6000     7.8140    89.5730     2.4930     0.1130     0.0220
  364.5000  -999.2500    12.4090    13.5350     7.8830    88.3090     2.4930     0.1130     0.0220
  365.0000  -999.2500    12.2960    13.4710     7.9480    87.2910     2.4930     0.1120     0.0220
  365.5000  -999.2500    12.1840    13.4060     7.9010    87.0000     2.4930     0.1120     0.0220
  366.0000  -999.2500    12.0710    13.3410     7.8720    86.7020     2.4950     0.1110     0.0220
  366.5000  -999.2500    11.9590    13.2760     7.8810    85.6800     2.4970     0.1110     0.0220
  367.0000  -999.2500    11.8470    13.2110     7.8890    84.3330     2.4990     0.1140     0.0220
  367.5000  -999.2500    11.7870    13.1470     7.8970    83.9500     2.4990     0.1160     0.0220
  368.0000  -999.2500    11.7440    13.0820     7.9050    83.8680     2.4920     0.1180     0.0220
  368.5000  -999.2500    11.7010    13.0170     7.9150    83.9460     2.4860     0.1200     0.0220
  369.0000  -999.2500    11.6580    12.9520     7.9340    85.2120     2.4840     0.1220     0.0220
