~VERSION INFORMATION
 VERS.                2.0:   CWLS LOG ASCII STANDARD - VERSION 2.0
 WRAP.                 NO:   ONE LINE PER DEPTH STEP
~WELL INFORMATION
#MNEM.UNIT      DATA TYPE    INFORMATION
#----------   ------------   ------------------------------
 STRT.F          371.0000:   START DEPTH
 STOP.F         1998.0000:   STOP DEPTH
 STEP.F            0.5000:   STEP LENGTH
 NULL.          -999.2500:   NO VALUE
 COMP.       ANADARKO PET:   COMPANY
 WELL. StX-21 NPR #3 #17-21:   WELL
 FLD .             TEAPOT:   FIELD
 LOC .      S21 T39N R78W:   LOCATION
 CNTY.            NATRONA:   COUNTY
 STAT.            WYOMING:   STATE
 CTRY. UNITED STATES OF AMERICA:   COUNTRY
 SRVC.            Unknown:   SERVICE COMPANY
 DATE.        11-OCT-1994:   LOGDATE
 API .       490252266400:   API NUMBER
~CURVE INFORMATION
#MNEM.UNIT       API CODE    CURVE DESCRIPTION
#----------   ------------   ------------------------------
 DEPT.F                  :   
 ROP .MIN/FT 91 810 01 00:   RATE OF DRILLING PENETRATION
 TGAS.UNITS  91 830 01 00:   TOTAL GAS FROM HOTWIRE
~PARAMETER INFORMATION
#MNEM.UNIT          VALUE    DESCRIPTION
#----------   ------------   ------------------------------
 DATE.         10-11-1994:   RUN DATE
 RUN .                  1:   RUN NUMBER
 DD  .F              1997:   DEPTH DRILLER
 BLI .F              2000:   BOTTOM LOG INTERVAL
 TLI .F               360:   TOP LOG INTERVAL
 CS  .IN                7:   CASING SIZE
 CBD .F               344:   CASING BOTTOM DRILLER
 ENGI.   C. TOWER R. HUSK:   RECORDING ENGINEER
 CLNT.            A2DTECH:   CLIENT CODE
 ORIG.         2.5" PRINT:   ORIGIN OF DATA
 UWI .       490252266400:   UNIQUE WELL ID
 DICO. A2D Technologies, Inc.:   DIGITIZING COMPANY
~OTHER INFORMATION
~A   DEPT        ROP       TGAS 
# ...
 1221.5000     0.3716    60.9410
 1222.0000     0.3717    60.9483
 1222.5000     0.3718    60.9555
 1223.0000     0.3719    60.9628
 1223.5000     0.3720    60.9700
 1224.0000     0.3721    60.6050
 1224.5000     0.3722    60.2405
 1225.0000     0.3723    59.8760
 1225.5000     0.3723    59.8835
 1226.0000     0.3724    59.8909
 1226.5000     0.3725    59.8983
 1227.0000     0.3726    60.2777
 1227.5000     0.3727    60.7562
 1228.0000     0.3728    61.4083
 1228.5000     0.3729    61.9264
 1229.0000     0.3730    62.5388
 1229.5000     0.3731    62.5463
 1230.0000     0.3732    62.5537
 1230.5000     0.3733    62.5612
 1231.0000     0.3733    62.5699
 1231.5000     0.3734    62.5771
 1232.0000     0.3735    62.2116
 1232.5000     0.3736    61.8478
 1233.0000     0.3737    61.8551
 1233.5000     0.3554    61.8623
 1234.0000     0.3555    61.4975
 1234.5000     0.3556    61.5050
 1235.0000     0.3373    61.5124
 1235.5000     0.3374    61.5198
 1236.0000     0.3191    61.5273
 1236.5000     0.3192    61.5347
 1237.0000     0.3144    61.5422
 1237.5000     0.3010    61.5496
 1238.0000     0.3011    62.0727
 1238.5000     0.2926    62.6802
 1239.0000     0.2829    62.6876
 1239.5000     0.2830    62.2884
 1240.0000     0.2831    60.4725
 1240.5000     0.2832    57.5046
 1241.0000     0.2833    54.1647
 1241.5000     0.2834    50.4529
 1242.0000     0.2651    43.7660
 1242.5000     0.2652    38.9385
 1243.0000     0.2469    33.3672
 1243.5000     0.2470    30.3993
 1244.0000     0.2471    28.8888
 1244.5000     0.2472    26.1749
 1245.0000     0.2472    23.1570
 1245.5000     0.2473    20.6207
 1246.0000     0.2474    18.8181
 1246.5000     0.2475    17.9530
 1247.0000     0.2476    17.0616
 1247.5000     0.2477    17.0702
 1248.0000     0.2478    17.0777
 1248.5000     0.2663    17.0851
 1249.0000     0.2664    17.0926
 1249.5000     0.2665    16.7281
 1250.0000     0.2665    16.7367
 1250.5000     0.4321    16.7440
 1251.0000     0.4506    16.7512
 1251.5000     0.4506    16.7585
 1252.0000     0.4507    16.7657
 1252.5000     0.4508    16.7730
 1253.0000     0.4509    16.7802
 1253.5000     0.4510    16.7876
 1254.0000     0.4511    16.7950
 1254.5000     0.4512    16.8025
 1255.0000     0.4513    16.8099
 1255.5000     0.4514    17.1893
 1256.0000     0.4515    17.1967
 1256.5000     0.4516    17.2041
 1257.0000     0.4517    17.2116
 1257.5000     0.4517    17.2190
 1258.0000     0.4518    17.4198
 1258.5000     0.4519    17.6058
 1259.0000     0.4520    18.3584
 1259.5000     0.4521    18.3656
 1260.0000     0.4522    18.3729
 1260.5000     0.4523    18.3801
 1261.0000     0.4524    18.4464
 1261.5000     0.4525    18.3942
 1262.0000     0.4526    18.4018
 1262.5000     0.4527    17.6653
 1263.0000     0.4528    17.2809
 1263.5000     0.4529    16.5248
 1264.0000     0.4529    15.8275
 1264.5000     0.4530    15.7563
 1265.0000     0.4531    15.4701
 1265.5000     0.4532    15.1055
 1266.0000     0.4533    15.1140
 1266.5000     0.4534    14.7496
 1267.0000     0.4535    14.7570
 1267.5000     0.4536    14.7645
 1268.0000     0.4537    14.7719
 1268.5000     0.4538    15.1525
 1269.0000     0.4539    15.1598
 1269.5000     0.4540    15.1670
 1270.0000     0.4541    15.1743
 1270.5000     0.4541    15.1815
 1271.0000     0.4542    15.1888
 1271.5000     0.4543    14.8240
 1272.0000     0.4544    14.8314
 1272.5000     0.4545    14.8388
 1273.0000     0.4546    14.8463
 1273.5000     0.4547    14.8537
 1274.0000     0.4511    14.8612
 1274.5000     0.4365    14.8686
 1275.0000     0.4366    14.8760
 1275.5000     0.4367    14.8835
 1276.0000     0.4368    14.8909
 1276.5000     0.4369    14.8983
 1277.0000     0.4370    15.1090
 1277.5000     0.4187    15.2866
 1278.0000     0.4188    15.6657
 1278.5000     0.4005    15.6730
 1279.0000     0.4006    15.6802
 1279.5000     0.4006    16.0594
 1280.0000     0.3824    16.0666
 1280.5000     0.5847    16.0738
 1281.0000     0.5823    16.0811
 1281.5000     0.5628    16.0884
 1282.0000     0.5481    16.0959
 1282.5000     0.5299    16.1033
 1283.0000     0.5300    16.1107
 1283.5000     0.5301    16.1182
 1284.0000     0.5301    16.1256
 1284.5000     0.5303    16.1331
 1285.0000     0.5487    16.1405
 1285.5000     0.5488    16.1479
 1286.0000     0.5489    16.1554
 1286.5000     0.5490    16.1628
 1287.0000     0.5491    16.1716
 1287.5000     0.5492    16.1789
 1288.0000     0.5493    16.1861
 1288.5000     0.5518    16.1934
 1289.0000     0.5678    16.2006
 1289.5000     0.5679    15.8360
 1290.0000     0.5680    15.8432
 1290.5000     0.5681    15.8505
 1291.0000     0.5682    15.8579
 1291.5000     0.5585    15.8653
 1292.0000     0.5500    15.8727
 1292.5000     0.5501    15.8802
 1293.0000     0.5502    15.8876
 1293.5000     0.5503    15.8950
 1294.0000     0.5504    15.9025
 1294.5000     0.5505    15.9099
 1295.0000     0.5689    15.7439
 1295.5000     0.5690    15.5529
 1296.0000     0.5667    15.5603
 1296.5000     0.5508    15.5691
 1297.0000     0.5509    15.5764
 1297.5000     0.5510    15.5836
 1298.0000     0.5511    15.5909
 1298.5000     0.5512    15.5981
 1299.0000     0.5611    15.6053
 1299.5000     0.5882    15.6126
 1300.0000     0.4963    15.6198
 1300.5000     0.4966    15.6273
 1301.0000     0.4969    16.0062
 1301.5000     0.4972    15.6416
 1302.0000     0.4930    16.0215
 1302.5000     0.4793    16.0289
 1303.0000     0.4612    16.0364
 1303.5000     0.4615    16.0438
 1304.0000     0.4434    16.0512
 1304.5000     0.4437    16.0587
 1305.0000     0.4256    16.0661
 1305.5000     0.4259    16.0736
 1306.0000     0.4261    16.0823
 1306.5000     0.4264    16.0895
 1307.0000     0.4083    16.0968
 1307.5000     0.4086    16.1040
 1308.0000     0.4088    16.1113
 1308.5000     0.4091    16.1185
 1309.0000     0.4094    16.1258
 1309.5000     0.4097    16.1331
 1310.0000     0.4136    16.1157
 1310.5000     0.4286    15.7756
 1311.0000     0.4289    15.4109
 1311.5000     0.4361    16.4064
 1312.0000     0.4478    16.4083
 1312.5000     0.4481    16.4101
 1313.0000     0.6263    16.4123
 1313.5000     0.6509    16.4142
 1314.0000     0.6511    16.4160
 1314.5000     0.6698    16.4178
 1315.0000     0.6701    16.4196
 1315.5000     0.6703    16.4213
 1316.0000     0.6706    16.4231
 1316.5000     0.6709    16.4251
 1317.0000     0.6711    16.4269
 1317.5000     0.6714    16.4288
 1318.0000     0.6717    16.4306
 1318.5000     0.6720    16.4324
 1319.0000     0.6722    16.4343
 1319.5000     0.6725    16.4362
 1320.0000     0.6728    16.4382
 1320.5000     0.6731    16.4399
 1321.0000     0.6733    16.4417
 1321.5000     0.6843    16.4436
 1322.0000     0.6923    16.4455
 1322.5000     0.6926    16.4476
 1323.0000     0.6929    16.4492
 1323.5000     0.6931    16.4513
 1324.0000     0.6934    16.4529
 1324.5000     0.6937    16.4549
 1325.0000     0.6939    16.4566
 1325.5000     0.6942    16.4585
 1326.0000     0.6967    16.4603
 1326.5000     0.7131    16.4622
 1327.0000     0.7134    16.4641
 1327.5000     0.7137    16.4659
 1328.0000     0.7140    16.4678
 1328.5000     0.7142    16.4696
 1329.0000     0.7145    16.4715
 1329.5000     0.7148    16.4733
 1330.0000     0.7151    16.4752
 1330.5000     0.7338    16.4771
 1331.0000     0.7340    16.4789
 1331.5000     0.7343    16.4811
 1332.0000     0.7530    16.4826
 1332.5000     0.7532    16.4845
 1333.0000     0.7719    16.4866
 1333.5000     0.7722    16.4884
 1334.0000     0.7908    16.4901
 1334.5000     0.7937    16.4919
 1335.0000     0.8097    16.4938
 1335.5000     0.8148    16.4957
 1336.0000     0.8287    16.4975
 1336.5000     0.8290    16.4994
 1337.0000     0.8292    16.5012
 1337.5000     0.8295    16.5031
 1338.0000     0.8298    16.5050
 1338.5000     0.8301    16.5068
 1339.0000     0.8304    16.5087
 1339.5000     0.8306    16.5105
 1340.0000     0.8309    16.5128
 1340.5000     0.8312    16.5146
 1341.0000     0.8131    16.5164
 1341.5000     0.8133    16.5182
 1342.0000     0.7732    16.5201
 1342.5000     0.6631    16.5219
