~VERSION INFORMATION
 VERS.                2.0:   CWLS LOG ASCII STANDARD - VERSION 2.0
 WRAP.                 NO:   ONE LINE PER DEPTH STEP
~WELL INFORMATION
#MNEM.UNIT      DATA TYPE    INFORMATION
#----------   ------------   ------------------------------
 STRT.F           30.0000:   START DEPTH
 STOP.F          597.0000:   STOP DEPTH
 STEP.F            0.5000:   STEP LENGTH
 NULL.          -999.2500:   NO VALUE
 COMP. FENIX & SCISSON-U.S. NAVY:   COMPANY
 WELL.    NPR #3 #15-S-11:   WELL
 FLD .             TEAPOT:   FIELD
 LOC .      S11 T38N R78W:   LOCATION
 CNTY.            NATRONA:   COUNTY
 STAT.            WYOMING:   STATE
 CTRY. UNITED STATES OF AMERICA:   COUNTRY
 SRVC.       Schlumberger:   SERVICE COMPANY
 DATE.        22-FEB-1977:   LOGDATE
 API .       490251028000:   API NUMBER
~CURVE INFORMATION
#MNEM.UNIT       API CODE    CURVE DESCRIPTION
#----------   ------------   ------------------------------
 DEPT.F                  :   
 SPR .MV     07 010 01 00:   SPONTANEOUS POTENTIAL
 ILD .OHMM   07 120 46 00:   INDUCTION LOG DEEP RES
 ILM .OHMM   07 120 44 00:   INDUCTION LOG MEDIUM RES
 LL8 .OHMM   07 220 08 00:   LATEROLOG-8 RES
 CALD.IN     45 280 60 00:   CALIPER FROM DENSITY LOG
 GRD .GAPI   45 310 01 00:   GAMMA RAY FROM DENSITY LOG
 CORR.G/C3   45 356 01 00:   DENSITY CORRECTION
 RHOB.G/C3   45 350 01 00:   BULK DENSITY
 DPHI.DEC    45 890 12 00:   DENSITY POROSITY SANDSTONE
~PARAMETER INFORMATION
#MNEM.UNIT          VALUE    DESCRIPTION
#----------   ------------   ------------------------------
 PD  .                 GL:   PERMANENT DATUM
 EPD .F              5188:   ELEVATION PERMANENT DATUM
 LMF .                 KB:   LOG MEASURED FROM
 DAPD.F                 5:   FEET ABOVE PERMANENT DATUM
 DMF .                 KB:   DRILLING MEASURED FROM
 EKB .F              5193:   KELLING BUSHING
 EGL .F              5188:   GROUND LEVEL
 DATE.         22FEB-1977:   RUN DATE
 RUN .                  1:   RUN NUMBER
 DD  .F               598:   DEPTH DRILLER
 DL  .F               598:   DEPTH LOGGER
 BLI .F               597:   BOTTOM LOG INTERVAL
 TLI .F                35:   TOP LOG INTERVAL
 CS  .IN            8.625:   CASING SIZE
 CBD .F                42:   CASING BOTTOM DRILLER
 CBL .F                45:   CASING BOTTOM LOGGER
 BS  .IN            7.875:   BIT SIZE
 BSD .F               598:   BIT SIZE AT DEPTH
 DFT .                KCL:   DRILLING FLUID TYPE
 DFD .                8.7:   DRILLING FLUID DENSITY
 DFV .                 31:   DRILLING FLUID VISCOSITY
 DFPH.                  8:   DRILLING FLUID PH
 DFL .                7.2:   DRILLING FLUID LOSS
 MSS .           MUD TANK:   MUD SAMPLE SOURCE
 RMS .OHMM           .526:   RESISTIVITY MUD SAMPLE
 MST .F                70:   MUD SAMPLE TEMPERATURE
 RMF .OHMM           .515:   RESISTIVITY MUD FILTRATE SAMPLE
 MFST.F                71:   MUD FILTRATE SAMPLE TEMPERATURE
 RMC .OHMM            .77:   RESISTIVITY MUD CAKE
 MCST.F                70:   MUD CAKE SAMPLE TEMPERATURE
 MFSS.               MEAS:   MUD FILTRATE SAMPLE SOURCE
 MCSS.               CALC:   MUD CAKE SAMPLE SOURCE
 RMB .OHMM            .67:   RESISTIVITY MUD AT BHT
 BHT .F                55:   BOTTOM HOLE TEMPERATURE
 TCS .HRS            0600:   TIME CURCULATED STOPPED
 MRT .F                55:   MAXIMUM RECORDED TEMPERATURE
 LUN .               5642:   LOGGING UNIT NUMBER
 LUL .               CSPR:   LOGGING UNIT LOCATION
 ENGI.                FIX:   RECORDING ENGINEER
 WITN.         STUEBINGER:   WITNESSED BY
 CLNT.            A2DTECH:   CLIENT CODE
 ORIG.           5" PRINT:   ORIGIN OF DATA
 UWI .       490251028000:   UNIQUE WELL ID
 DICO. A2D Technologies, Inc.:   DIGITIZING COMPANY
~OTHER INFORMATION
~A   DEPT      SPR        ILD        ILM        LL8       CALD         GRD      CORR       RHOB       DPHI   
# ...
  468.0000   -23.8318    23.2784    29.5215    25.5039     8.1060    78.9610     0.0168     2.3343     0.1940
  468.5000   -24.2859    22.9608    29.3225    25.6912     8.1072    80.3243     0.0169     2.3276     0.1952
  469.0000   -24.4390    22.0295    29.3271    25.8800     8.1084    83.9399     0.0139     2.3178     0.2000
  469.5000   -24.5921    21.1361    29.5352    25.8908     8.1096    84.7027     0.0102     2.3103     0.2060
  470.0000   -24.2940    20.7040    29.5398    25.7233     8.1108    83.9640     0.0027     2.3043     0.2096
  470.5000   -23.5469    21.7426    29.3186    25.3785     8.1119    82.9249    -0.0018     2.3005     0.2123
  471.0000   -23.8502    22.0474    28.9422    24.8712     8.0979    82.6366    -0.0047     2.3020     0.2141
  471.5000   -24.3036    22.0239    28.1581    24.5403     8.0994    83.5496     0.0043     2.3140     0.2075
  472.0000   -24.9072    21.4397    27.3931    24.2138     8.1006    84.7628     0.0081     2.3238     0.2005
  472.5000   -25.6609    21.1470    26.6500    23.7273     8.1018    85.8258     0.0044     2.3208     0.1999
  473.0000   -26.4146    21.0031    26.2880    23.2506     8.1030    87.1892     0.0014     2.3058     0.2113
  473.5000   -27.0182    21.1511    26.2931    22.9413     8.1041    89.6036    -0.0023     2.2915     0.2184
  474.0000   -27.3214    21.2997    26.2972    22.7926     8.0901    88.5646    -0.0038     2.2975     0.2207
  474.5000   -27.1742    21.1543    26.6675    22.8024     8.0916    88.2763     0.0105     2.3035     0.2107
  475.0000   -27.0270    21.0102    26.6716    22.8119     8.0928    88.2883     0.0143     2.3065     0.2131
  475.5000   -26.8798    21.1583    26.8608    24.1354     8.0940    87.0991     0.0165     2.2998     0.2092
  476.0000   -26.7326    21.1601    26.8649    24.8033     8.0952    87.2613     0.0083     2.2855     0.2176
  476.5000   -26.5855    21.0161    26.6829    24.6159     8.0963    90.8769     0.0339     2.3223     0.2155
  477.0000   -26.1387    20.8726    26.6881    23.6549     8.1125    93.2913     0.0241     2.3336     0.1986
  477.5000   -25.8414    20.5882    26.6922    22.8618     8.1286    94.2042     0.0129     2.3313     0.1941
  478.0000   -25.5433    20.1672    25.9680    22.2483     8.1146    95.7177     0.0024     2.3336     0.1977
  478.5000   -24.9464    19.7549    25.4388    22.1021     8.1008    92.4264     0.0017     2.3306     0.1922
  479.0000   -24.4981    19.3510    24.9203    22.1136     8.1023    91.2372     0.0010     2.3231     0.1964
  479.5000   -23.9012    19.3527    24.5818    22.1228     8.0883    90.3484     0.0003     2.3178     0.2012
  480.0000   -23.6039    19.3543    24.4162    21.9774     8.0897    89.1592     0.0003     2.3156     0.2057
  480.5000   -23.3058    19.2226    24.2518    21.5381     8.0909    89.0210     0.0003     2.3148     0.2066
  481.0000   -23.3095    19.0831    24.0884    20.9601     8.0921    89.7838    -0.0004     2.3163     0.2045
  481.5000   -23.6128    18.5598    23.9157    20.5390     8.0933    92.0480     0.0004     2.3291     0.2012
  482.0000   -23.7659    18.0510    23.2600    20.1263     8.0796    95.8138     0.0036     2.3426     0.1897
  482.5000   -24.0691    17.4151    22.4432    19.7219     8.0808    95.0751     0.0132     2.3411     0.1852
  483.0000   -24.2223    16.8637    21.4310    19.1927     8.0819    91.4835     0.0094     2.3381     0.1900
  483.5000   -24.3785    16.6331    20.7059    18.6777     8.0981    91.1952     0.0064     2.3366     0.1915
  484.0000   -24.6906    16.4065    20.1442    18.4291     8.0993    94.5105     0.0010     2.3343     0.1914
  484.5000   -24.9820    16.0710    19.7329    18.4369     8.1154    97.0751    -0.0024     2.3321     0.1947
  485.0000   -25.1357    15.7424    19.0660    18.4447     8.1166    96.9369     0.0006     2.3283     0.2011
  485.5000   -25.2888    15.4202    18.6767    17.9350     8.1178    96.6487     0.0021     2.3253     0.1983
  486.0000   -25.4419    15.1053    18.1700    17.0694     8.1040    99.2132     0.0037     2.3369     0.1878
  486.5000   -25.4449    14.7964    17.8004    16.1988     8.1052   100.5766     0.0052     2.3541     0.1787
  487.0000   -25.4479    14.5942    17.5587    15.9817     8.1064    99.2372     0.0030     2.3651     0.1742
  487.5000   -25.4508    14.3953    17.3202    16.1008     8.1076    96.9970    -0.0037     2.3542     0.1817
  488.0000   -25.1535    14.1988    17.2028    16.2191     8.1088    95.2072     0.0000     2.3425     0.1895
  488.5000   -25.0055    14.2000    17.0876    16.3382     8.1100    92.8168     0.0083     2.3513     0.1847
  489.0000   -24.5581    14.1031    17.0902    16.2326     8.0957    91.7778     0.0061     2.3636     0.1723
  489.5000   -24.4109    14.1046    17.2115    15.9064     8.0675    91.7898     0.0016     2.3613     0.1801
  490.0000   -24.4146    14.2037    17.2141    15.4796     8.0837    91.3513     0.0039     2.3583     0.1808
  490.5000   -24.7178    14.2049    17.2168    15.2737     8.0998    90.6126     0.0114     2.3544     0.1789
  491.0000   -25.0211    14.2061    17.2194    15.3859     8.1010    90.7748     0.0100     2.3458     0.1852
  491.5000   -25.4745    14.1092    17.2221    15.7144     8.1022    91.6877    -0.0005     2.3343     0.1945
  492.0000   -25.7777    14.0131    17.2248    16.0500     8.1034    87.6456     0.0063     2.3506     0.1834
  492.5000   -25.9460    14.0309    17.1087    15.9462     8.1046    87.0571     0.0123     2.3629     0.1737
  493.0000   -26.1081    14.0159    16.9934    15.4115     8.1207    87.5195     0.0011     2.3543     0.1818
  493.5000   -26.2378    13.9205    16.8789    14.7923     8.1219    89.1832    -0.0019     2.3516     0.1833
  494.0000   -26.2408    13.9217    16.7652    14.3953     8.1232    90.3964     0.0087     2.3696     0.1811
  494.5000   -26.3939    13.9229    16.7460    14.8129     8.1244    89.9580     0.0184     2.3787     0.1702
  495.0000   -26.3968    13.8281    16.4267    15.1209     8.1106    87.4174     0.0102     2.3666     0.1643
  495.5000   -26.3998    13.8261    16.2036    15.2321     8.1120    85.7778     0.0057     2.3636     0.1763
  496.0000   -26.2519    13.6343    15.8728    15.0307     8.0980    86.9910     0.0193     2.3772     0.1672
  496.5000   -26.2556    13.4452    15.5499    14.9320     8.0995    87.4535     0.0126     2.3757     0.1706
  497.0000   -26.1084    13.2586    15.3381    14.8354     8.1007    87.7658     0.0111     2.3727     0.1682
  497.5000   -25.8103    12.9994    15.0256    14.6380     8.1019    89.4294     0.0074     2.3749     0.1663
  498.0000   -25.6631    12.7339    14.7199    14.4448     8.1031    91.3349     0.0081     2.3884     0.1708
  498.5000   -25.2163    12.4735    14.4199    14.2527     8.1192    92.7971     0.0142     2.4005     0.1531
  499.0000   -25.0691    12.3030    14.2235    14.1590     8.1204    95.4984     0.0187     2.4042     0.1509
  499.5000   -24.7718    12.1351    13.9342    14.0674     8.1216    96.3858     0.0131     2.3989     0.1521
  500.0000   -24.7748    12.0476    13.8243    13.8817     8.1225    91.4414     0.0068     2.3899     0.1554
  500.5000   -25.1605    11.9886    13.7300    13.8875     8.1170    92.0526     0.0005     2.4027     0.1506
  501.0000   -25.5140    11.9297    13.6357    13.8933     8.1119    93.8650    -0.0030     2.3990     0.1521
  501.5000   -25.8068    11.8707    13.5411    13.8991     8.1068    95.0767     0.0053     2.4163     0.1531
  502.0000   -25.9525    11.8117    13.4508    13.9049     8.1017    92.0843     0.0121     2.4253     0.1336
  502.5000   -26.0966    11.7527    13.4539    13.9106     8.0979    90.4429     0.0091     2.4118     0.1436
  503.0000   -26.2392    11.7138    13.4569    13.2280     8.0990    92.7060     0.0114     2.4081     0.1496
  503.5000   -26.2332    11.7161    13.3672    13.2304     8.1000    96.7706     0.0189     2.4261     0.1340
  504.0000   -26.3789    11.7990    13.2781    13.2323     8.1011    98.6307     0.0151     2.4209     0.1370
