~VERSION INFORMATION
 VERS.                2.0:   CWLS LOG ASCII STANDARD - VERSION 2.0
 WRAP.                 NO:   ONE LINE PER DEPTH STEP
~WELL INFORMATION
#MNEM.UNIT      DATA TYPE    INFORMATION
#----------   ------------   ------------------------------
 STRT.F            9.0000:   START DEPTH
 STOP.F          512.0000:   STOP DEPTH
 STEP.F            0.5000:   STEP LENGTH
 NULL.          -999.2500:   NO VALUE
 COMP. LAWRENCE-ALLISON &AS:   COMPANY
 WELL. NPR 3 #61-21SX10UP2:   WELL
 FLD .             TEAPOT:   FIELD
 LOC .      S10 T38N R78W:   LOCATION
 CNTY.            NATRONA:   COUNTY
 STAT.            WYOMING:   STATE
 CTRY. UNITED STATES OF AMERICA:   COUNTRY
 SRVC.      Dresser Atlas:   SERVICE COMPANY
 DATE.        13-DEC-1984:   LOGDATE
 API .       490251100500:   API NUMBER
~CURVE INFORMATION
#MNEM.UNIT       API CODE    CURVE DESCRIPTION
#----------   ------------   ------------------------------
 DEPT.F                  :   
 PORD.DEC    45 890 12 00:   POROSITY DENSITY SANDSTONE
 CNCF.DEC    42 890 03 00:   NEUTRON POROSITY SANDSTONE
 GRD .GAPI   45 310 01 00:   GAMMA RAY FROM DENSITY LOG
 CALD.IN     45 280 60 00:   CALIPER FROM DENSITY LOG
 CORR.G/C3   45 356 01 00:   DENSITY CORRECTION
 DEN .G/C3   45 350 01 00:   COMPENSATED BULK DENSTIY
 AC  .US/F   60 520 00 00:   ACCOUSTIC
 RILD.OHMM   07 120 46 00:   INDUCTION LOG DEEP RESISTIVITY
 RILM.OHMM   07 120 44 00:   INDUCTION LOG MEDIUM RESISTIVITY
 RFOC.OHMM   07 220 04 00:   RESISTIVITY FOCUSED LOG
 SPR .MV     11 010 01 00:   SPONTANEOUS POTENTIAL FROM RES.
 RS  .OHMM   11 220 09 00:   RESISTIVITY SHALLOW
 RD  .OHMM   11 220 10 00:   RESISTIVITY DEEP
~PARAMETER INFORMATION
#MNEM.UNIT          VALUE    DESCRIPTION
#----------   ------------   ------------------------------
 PD  .                 GL:   PERMANENT DATUM
 EPD .F              5157:   ELEVATION PERMANENT DATUM
 LMF .                 GL:   LOG MEASURED FROM
 DMF .                 GL:   DRILLING MEASURED FROM
 EGL .F              5157:   GROUND LEVEL
 DATE.         12-13-1984:   RUN DATE
 RUN .                  1:   RUN NUMBER
 DD  .F               514:   DEPTH DRILLER
 DL  .F               513:   DEPTH LOGGER
 BLI .F               512:   BOTTOM LOG INTERVAL
 TLI .F                20:   TOP LOG INTERVAL
 CS  .IN            8.625:   CASING SIZE
 CBD .F                20:   CASING BOTTOM DRILLER
 CBL .F                20:   CASING BOTTOM LOGGER
 BS  .IN            7.875:   BIT SIZE
 BSD .F               514:   BIT SIZE AT DEPTH
 DFT .          KCL WATER:   DRILLING FLUID TYPE
 MSS .           FLOWLINE:   MUD SAMPLE SOURCE
 RMS .OHMM            .17:   RESISTIVITY MUD SAMPLE
 MST .F                95:   MUD SAMPLE TEMPERATURE
 RMF .OHMM            .08:   RESISTIVITY MUD FILTRATE SAMPLE
 MFST.F                95:   MUD FILTRATE SAMPLE TEMPERATURE
 RMC .OHMM            .14:   RESISTIVITY MUD CAKE
 MCST.F                95:   MUD CAKE SAMPLE TEMPERATURE
 MFSS.               CALC:   MUD FILTRATE SAMPLE SOURCE
 MCSS.               CALC:   MUD CAKE SAMPLE SOURCE
 TCS .HRS              10:   TIME CURCULATED STOPPED
 MRT .F               100:   MAXIMUM RECORDED TEMPERATURE
 LUN .               6270:   LOGGING UNIT NUMBER
 LUL .                 FM:   LOGGING UNIT LOCATION
 ENGI.            LEBSOCK:   RECORDING ENGINEER
 WITN.        GREG GROOMS:   WITNESSED BY
 CLNT.            A2DTECH:   CLIENT CODE
 ORIG.           5" PRINT:   ORIGIN OF DATA
 UWI .       490251100500:   UNIQUE WELL ID
 DICO. A2D Technologies, Inc.:   DIGITIZING COMPANY
~OTHER INFORMATION
~A    DEPT    PORD       CNCF        GRD       CALD       CORR        DEN          AC      RILD       RILM       RFOC        SPR         RS         RD   
# ...
   61.0000     0.1321     0.2873   102.3665     7.7966     0.0100     2.4594   105.9447     9.6502     7.1552     9.8828   -74.3458    24.7941  1776.0923
   61.5000     0.1358     0.2837   104.9207     7.7960    -0.0067     2.4571   105.8737     9.7799     7.2012     9.9464   -74.3518    24.9549  1787.8544
   62.0000     0.1391     0.2813   105.8183     7.7954    -0.0113     2.4487   105.7288     9.9805     7.2501    10.0194   -74.0565    25.1165  1799.6946
   62.5000     0.1397     0.2820   104.9086     7.7948    -0.0008     2.4427   105.4345    10.1148     7.4004    10.1451   -73.7641    25.1043  1824.2402
   63.0000     0.1361     0.2808   102.4930     7.7942     0.0052     2.4449   104.6858    10.3252     7.5599    10.2802   -73.6202    25.2716  1849.1206
   63.5000     0.1319     0.2748   102.3378     7.7936     0.0067     2.4532   103.9371    10.6078     7.8731    10.4186   -73.4748    25.4307  1887.2419
   64.0000     0.1280     0.2763   104.7399     7.8231     0.0051     2.4622   103.0374    10.9101     8.2158    10.4870   -73.1824    25.4184  1899.9042
   64.5000     0.1262     0.2775   104.8860     7.8378     0.0035     2.4667   101.6095    11.2149     8.8418    10.7010   -73.1884    25.7613  1939.2399
   65.0000     0.1250     0.2703   103.2218     7.8522     0.0005     2.4682   100.0306    11.6720     9.2779    10.8465   -73.0445    25.9282  1952.0824
   65.5000     0.1223     0.2631    97.4929     7.8364    -0.0011     2.4712    99.1310    12.1628     9.7355    11.1451   -73.0505    25.9152  1965.0103
   66.0000     0.1142     0.2604    94.4748     7.8056    -0.0042     2.4749    98.6841    12.5863    10.0745    11.4535   -73.0565    26.0836  1964.1622
   66.5000     0.1075     0.2632    96.4265     7.7899    -0.0058     2.4922    98.3883    12.9343    10.4253    11.8526   -73.0625    26.0679  2152.1833
   67.0000     0.1042     0.2674    98.9807     7.7743    -0.0013     2.5043    97.7905    13.2920    10.5670    11.9305   -73.2184    26.2399  2210.8059
   67.5000     0.1067     0.2735    99.5786     7.7586     0.0137     2.5050    96.6645    13.6595    10.0578    12.0056   -73.5242    26.4099  2256.9404
   68.0000     0.1127     0.2811    97.5121     7.7580     0.0619     2.4921    95.8403    13.8452     9.6413    12.2522   -73.8301    26.5810  2317.3320
   68.5000     0.1155     0.2759    93.3133     7.7574     0.0815     2.4838    95.3180    13.9341     9.3716    12.8569   -74.1359    26.3813  2348.9373
   69.0000     0.1025     0.2651    93.2352     7.7568     0.0799     2.4981    95.9278    13.7321     9.5639    13.3979   -74.1419    26.0050  2331.6719
   69.5000     0.0992     0.2603    94.1767     7.7562     0.0663     2.5124    96.7640    13.7246    10.1762    13.6750   -73.9980    25.9925  2298.7104
   70.0000     0.1007     0.2582    94.8797     7.7556     0.0360     2.5139    97.4493    13.5275    10.9033    13.1981   -73.8526    26.5298  2250.5288
   70.5000     0.1089     0.2576    91.0723     7.7700     0.0119     2.4905    97.9836    13.4263    11.6823    12.6512   -73.7086    26.5138  2218.7144
   71.0000     0.1168     0.2648    91.9036     7.7694    -0.0048     2.4821    98.2915    13.1418    12.3441    12.2969   -73.5647    26.1357  2187.3499
   71.5000     0.1234     0.2661    93.0683     7.7688    -0.0124     2.4723    98.4484    12.8633    12.8631    12.2049   -73.5722    25.9424  2126.6792
   72.0000     0.1292     0.2638    93.3495     7.7682    -0.0140     2.4640    98.9073    12.6786    12.1601    12.1981   -73.5782    25.9298  2096.6155
   72.5000     0.1322     0.2584    93.6546     7.7829    -0.0080     2.4541    99.2152    12.4965    11.5757    12.1914   -73.5842    25.9173  2056.7971
   73.0000     0.1304     0.2617    94.7249     7.7821     0.0040     2.4571    99.5986    12.4896    11.1739    12.1847   -73.5902    25.9048  2026.1516
   73.5000     0.1274     0.2654    96.6687     7.7815     0.0160     2.4646   100.1329    12.4827    10.7859    12.0096   -73.5962    25.8923  1995.5060
   74.0000     0.1281     0.2660    99.5080     7.7809     0.0220     2.4639   100.6672    12.4759    10.4841    11.7549   -73.6022    25.8798  1979.0002
   74.5000     0.1311     0.2612    99.0361     7.7803     0.0204     2.4548   101.2015    12.4690    10.2619    11.5055   -73.6082    25.8673  1952.6426
   75.0000     0.1372     0.2600    95.5723     7.7797     0.0158     2.4465   101.5094    12.6367    10.1852    11.3402   -73.6142    25.8549  1925.0355
   75.5000     0.1405     0.2640    93.3072     7.7791     0.0097     2.4411   100.9086    12.8067    10.1090    11.3339   -73.6202    25.8424  1924.3671
   76.0000     0.1408     0.2616    94.8072     7.7785     0.0142     2.4396    99.6981    12.9861    10.1740    11.3276   -73.6262    25.8299  1923.5682
   76.5000     0.1384     0.2459    95.2530     7.7779     0.0157     2.4411    97.1199    13.1644    10.3828    11.4083   -73.7821    25.8175  1977.0790
   77.0000     0.1288     0.2384    93.1385     7.7773     0.0096     2.4509    93.6645    13.4382    10.8193    11.6562   -73.7881    25.8050  2148.1921
   77.5000     0.1164     0.2342    84.0963     7.7767    -0.0026     2.4777    92.4729    13.7928    11.3529    12.6126   -73.7941    25.7925  2301.9141
   78.0000     0.1040     0.2345    83.4759     7.7610    -0.0087     2.5104    92.5766    13.8834    10.9536    14.5199   -73.8001    25.7801  2285.1914
   78.5000     0.0992     0.2397    89.2047     7.7604     0.0033     2.5073    93.8133    13.9726     9.6521    13.6306   -73.9560    25.7677  2175.9878
   79.0000     0.1074     0.2500    91.4577     7.7598     0.0184     2.4756    96.3714    13.7700     9.0001    12.0186   -73.9620    25.7552  2029.2737
   79.5000     0.1334     0.2524    94.0119     7.7592     0.0334     2.4469   100.0306    13.2920     8.6299    11.2824   -73.9680    25.7428  1918.9247
   80.0000     0.1434     0.2554    96.5661     7.7586     0.0342     2.4341   101.1271    12.8305     8.4452    11.1203   -74.1239    25.7304  1878.7031
   80.5000     0.1470     0.2588    97.0120     7.7580    -0.0044     2.4288   101.5226    12.2993     8.2644    11.1141   -73.9785    25.5401  1852.1453
   81.0000     0.1495     0.2591    96.5540     7.7574    -0.0166     2.4242   102.2973    11.8723     8.1550    11.0309   -73.6862    25.5278  1813.3236
   81.5000     0.1510     0.2537    95.1925     7.7719    -0.0211     2.4219   102.7955    11.4601     8.0942    10.7970   -73.3923    25.3389  1775.3157
   82.0000     0.1514     0.2498    91.4214     7.7713    -0.0212     2.4219   102.3063    11.2955     8.2031    10.5680   -73.2469    25.1514  1762.4185
   82.5000     0.1504     0.2517    90.7831     7.7707    -0.0183     2.4234   100.9220    11.2111     8.4287    10.3438   -73.1030    24.9653  1761.8101
   83.0000     0.1489     0.2562    90.9590     7.7701    -0.0123     2.4264    99.6450    11.1272     8.7222    10.4103   -73.2604    24.9532  1761.2018
   83.5000     0.1465     0.2765    90.4997     7.7695     0.0043     2.4316    98.6698    11.1211     9.0259    11.0773   -73.4163    24.9411  1772.8655
   84.0000     0.1447     0.2804    88.5358     7.7689     0.0132     2.4353    98.5234    11.1149     9.3402    11.6241   -73.4223    24.9290  1809.7271
   84.5000     0.1457     0.2602    87.3249     7.7683     0.0132     2.4346    99.4103    11.0318     8.8914    11.4571   -73.4283    24.9169  1847.1956
   85.0000     0.1490     0.2521    89.8791     7.7677     0.0131     2.4314   101.2418    11.0257     8.5827    10.9823   -73.4343    24.9024  1833.6180
   85.5000     0.1533     0.2527    94.5417     7.7671     0.0131     2.4259   102.6133    10.7173     8.4595    10.6007   -73.4403    24.8903  1758.1638
   86.0000     0.1548     0.2609    98.7526     7.7665     0.0100     2.4208   103.3686    10.4901     8.5138    10.4484   -73.4463    24.8783  1709.3975
   86.5000     0.1536     0.2630    99.8023     7.7659     0.0039     2.4179   103.6707    10.3395     8.6295    10.2982   -73.4523    25.0425  1685.2328
