~VERSION INFORMATION
 VERS.                2.0:   CWLS LOG ASCII STANDARD - VERSION 2.0
 WRAP.                 NO:   ONE LINE PER DEPTH STEP
~WELL INFORMATION
#MNEM.UNIT      DATA TYPE    INFORMATION
#----------   ------------   ------------------------------
 STRT.F           10.0000:   START DEPTH
 STOP.F          580.0000:   STOP DEPTH
 STEP.F            0.5000:   STEP LENGTH
 NULL.          -999.2500:   NO VALUE
 COMP. FENIX & SCISSON INC:   COMPANY
 WELL.     NPR 3 #28-S-34:   WELL
 FLD .        TEAPOT DOME:   FIELD
 LOC .      S34 T39N R78W:   LOCATION
 CNTY.            NATRONA:   COUNTY
 STAT.            WYOMING:   STATE
 CTRY. UNITED STATES OF AMERICA:   COUNTRY
 SRVC.           BIRDWELL:   SERVICE COMPANY
 DATE.        05-AUG-1978:   LOGDATE
 API .       490251068200:   API NUMBER
~CURVE INFORMATION
#MNEM.UNIT       API CODE    CURVE DESCRIPTION
#----------   ------------   ------------------------------
 DEPT.F                  :   
 SPR .MV     05 010 01 00:   SPONTANEOUS POTENTIAL FROM RES.
 IL  .OHMM   05 120 00 00:   INDUCTION LOG
 SN  .OHMM   05 040 16 00:   SHORT NORMAL 16"
 GRD .GAPI   45 310 01 00:   GAMMA RAY FROM DENSITY LOG
 CALD.IN     45 280 60 00:   CALIPER
 RHOB.G/C3   45 350 01 00:   BULK DENSITY
 DPHI.DEC    45 890 12 00:   DENSITY POROSITY SANDSTONE
 CORR.G/C3   45 356 01 00:   DENSITY CORRECTION
~PARAMETER INFORMATION
#MNEM.UNIT          VALUE    DESCRIPTION
#----------   ------------   ------------------------------
 PD  .                 GL:   PERMANENT DATUM
 EPD .F              5191:   ELEVATION PERMANENT DATUM
 LMF .                 KB:   LOG MEASURED FROM
 DAPD.F                 4:   FEET ABOVE PERMANENT DATUM
 DMF .                 KB:   DRILLING MEASURED FROM
 EKB .F              5195:   KELLING BUSHING
 EGL .F              5191:   GROUND LEVEL
 DATE.             8-5-78:   RUN DATE
 RUN .                  1:   RUN NUMBER
 DD  .F               570:   DEPTH DRILLER
 DL  .F               586:   DEPTH LOGGER
 BLI .F               580:   BOTTOM LOG INTERVAL
 TLI .F                30:   TOP LOG INTERVAL
 CS  .IN            8.625:   CASING SIZE
 BS  .IN            7.875:   BIT SIZE
 BSD .F               570:   BIT SIZE AT DEPTH
 DFT .                KCL:   DRILLING FLUID TYPE
 DFD .                8.6:   DRILLING FLUID DENSITY
 DFV .                 32:   DRILLING FLUID VISCOSITY
 DFPH.                9.5:   DRILLING FLUID PH
 MSS .          FLOW LINE:   MUD SAMPLE SOURCE
 RMS .OHMM             .9:   RESISTIVITY MUD SAMPLE
 MST .F                74:   MUD SAMPLE TEMPERATURE
 RMF .OHMM            .17:   RESISTIVITY MUD FILTRATE SAMPLE
 MFST.F                79:   MUD FILTRATE SAMPLE TEMPERATURE
 RMC .OHMM            .42:   RESISTIVITY MUD CAKE
 MCST.F                80:   MUD CAKE SAMPLE TEMPERATURE
 MFSS.               MEAS:   MUD FILTRATE SAMPLE SOURCE
 TCS .HRS               3:   TIME CURCULATED STOPPED
 LUN .               3006:   LOGGING UNIT NUMBER
 LUL .               CASP:   LOGGING UNIT LOCATION
 ENGI.             MILLER:   RECORDING ENGINEER
 WITN.           MCGINLEY:   WITNESSED BY
 CLNT.            A2DTECH:   CLIENT CODE
 ORIG.           5" PRINT:   ORIGIN OF DATA
 UWI .       490251068200:   UNIQUE WELL ID
 DICO. A2D Technologies, Inc.:   DIGITIZING COMPANY
~OTHER INFORMATION
~A   DEPT      SPR         IL         SN         GRD      CALD       RHOB       DPHI       CORR   
# ...
   91.0000   -15.3570     6.3510     5.6450    87.8140     7.7330     2.4580     0.1320     0.0070
   91.5000   -15.3750     6.3680     5.6340    86.5730     7.7480     2.4740     0.1230     0.0110
   92.0000   -15.3930     6.3430     5.6230    85.9530     7.7690     2.4750     0.1230     0.0050
   92.5000   -15.4120     6.3220     5.6120    88.5360     7.7780     2.4680     0.1290    -0.0010
   93.0000   -15.4300     6.3010     5.6010    88.6240     7.7840     2.4590     0.1320     0.0000
   93.5000   -15.4490     6.2800     5.5720    87.9680     7.7890     2.4620     0.1300     0.0030
   94.0000   -15.4670     6.2580     5.5390    87.4430     7.7940     2.4670     0.1230     0.0050
   94.5000   -15.4850     6.2370     5.5060    87.9640     7.7990     2.4720     0.1270     0.0070
   95.0000   -15.4900     6.2160     5.4720    88.4810     7.8040     2.4660     0.1320     0.0090
   95.5000   -15.4330     6.1950     5.4390    88.9310     7.8100     2.4590     0.1330     0.0090
   96.0000   -15.3770     6.1740     5.4060    92.9470     7.8150     2.4530     0.1340     0.0070
   96.5000   -15.3210     6.1530     5.3720    96.9020     7.8200     2.4540     0.1350     0.0050
   97.0000   -15.2650     6.1310     5.3480    96.2180     7.8250     2.4620     0.1290     0.0070
   97.5000   -15.2080     6.1100     5.3630    93.9670     7.8410     2.4690     0.1240     0.0100
   98.0000   -15.1520     6.0820     5.4210    91.8060     7.8590     2.4770     0.1190     0.0140
   98.5000   -15.0960     6.1270     5.4780    90.9770     7.8760     2.4840     0.1150     0.0170
   99.0000   -15.0410     6.2210     5.5350    90.7800     7.8940     2.4890     0.1200     0.0160
   99.5000   -14.9850     6.3140     5.5930    88.2900     7.9120     2.4790     0.1230     0.0110
  100.0000   -14.9290     6.4080     5.6500    85.5490     7.9300     2.4740     0.1230     0.0070
  100.5000   -14.9440     6.5010     5.7080    82.5570     7.9480     2.4780     0.1210     0.0030
  101.0000   -15.0310     6.5950     5.7650    84.2520     7.9640     2.4750     0.1240     0.0030
  101.5000   -15.1180     6.6890     5.8220    86.6070     7.9520     2.4700     0.1250     0.0030
  102.0000   -15.2050     6.7920     5.8630    88.6460     7.9390     2.4710     0.1240     0.0030
  102.5000   -15.2950     6.7920     5.8630    87.8980     7.9260     2.4740     0.1210     0.0030
  103.0000   -15.2840     6.7250     5.8630    86.3930     7.9130     2.4770     0.1240     0.0010
  103.5000   -15.2620     6.6640     5.8630    85.0390     7.9050     2.4790     0.1270    -0.0010
  104.0000   -15.2390     6.6030     5.8630    85.1040     7.9150     2.4710     0.1300    -0.0040
  104.5000   -15.2170     6.5420     5.8110    85.2530     7.9240     2.4620     0.1330    -0.0050
  105.0000   -15.1940     6.4810     5.7640    85.6490     7.9330     2.4530     0.1330    -0.0030
  105.5000   -15.1720     6.4200     5.7170    87.8000     7.9430     2.4550     0.1320    -0.0010
  106.0000   -15.1490     6.3590     5.6710    89.9880     7.9520     2.4610     0.1310     0.0020
  106.5000   -15.1270     6.2990     5.6240    92.2110     7.9600     2.4600     0.1300     0.0040
  107.0000   -15.1040     6.2380     5.5770    92.5830     7.9420     2.4570     0.1290     0.0060
  107.5000   -15.0820     6.1950     5.5300    92.0850     7.8890     2.4630     0.1260     0.0090
  108.0000   -15.0600     6.2290     5.4970    95.7520     7.8400     2.4760     0.1210     0.0110
  108.5000   -15.0370     6.2980     5.5650    96.2440     7.7910     2.4880     0.1160     0.0110
  109.0000   -15.0150     6.3660     5.6170    92.0020     7.7430     2.4890     0.1150     0.0100
  109.5000   -14.9920     6.4350     5.6700    88.3360     7.6940     2.4840     0.1160     0.0100
  110.0000   -14.9700     6.5030     5.7220    85.0000     7.6450     2.4840     0.1170     0.0090
  110.5000   -14.9470     6.5720     5.7740    84.4250     7.5960     2.4880     0.1190     0.0070
  111.0000   -14.9250     6.6400     5.8260    85.1100     7.5470     2.4820     0.1230     0.0050
  111.5000   -14.9010     6.7090     5.8900    92.2450     7.5220     2.4720     0.1260     0.0020
  112.0000   -14.9230     6.7290     5.9230    93.1110     7.5110     2.4710     0.1270    -0.0010
  112.5000   -14.9560     6.7350     5.9340    91.3790     7.5000     2.4700     0.1270    -0.0010
  113.0000   -14.9890     6.7400     5.9450    87.4790     7.4890     2.4690     0.1260    -0.0010
  113.5000   -15.0210     6.7440     5.9570    85.3350     7.4780     2.4690     0.1240    -0.0010
  114.0000   -15.0540     6.7490     5.9680    86.9390     7.4670     2.4750     0.1200    -0.0010
  114.5000   -15.0870     6.7540     5.9960    90.5800     7.4660     2.4810     0.1170    -0.0010
  115.0000   -15.1200     6.7590     6.0770    94.0830     7.4820     2.4870     0.1130    -0.0010
  115.5000   -15.1520     6.7640     6.1590    97.5340     7.4990     2.4930     0.1090    -0.0010
  116.0000   -15.1850     6.7690     6.2400    90.7730     7.5170     2.4980     0.1130     0.0000
  116.5000   -15.2180     6.7740     6.3210    79.9320     7.5340     2.4890     0.1190     0.0020
  117.0000   -15.2500     6.7780     6.4270    76.4680     7.5520     2.4790     0.1250     0.0040
  117.5000   -15.2830     6.7830     6.3750    77.0930     7.5690     2.4700     0.1240     0.0060
  118.0000   -15.2080     6.7880     6.2700    82.4710     7.5870     2.4730     0.1240     0.0080
  118.5000   -15.0260     6.7930     6.1650    88.1540     7.6040     2.4760     0.1230     0.0090
  119.0000   -14.8450     6.7170     6.0600    89.2840     7.6140     2.4740     0.1230     0.0100
  119.5000   -14.6640     6.6120     5.9550    88.8660     7.6240     2.4690     0.1270     0.0100
  120.0000   -14.5030     6.5060     5.8500    92.6550     7.6330     2.4760     0.1210     0.0110
  120.5000   -14.5000     6.4000     5.7450    92.5460     7.6430     2.4820     0.1230     0.0110
  121.0000   -14.5000     6.3100     5.6510    91.4490     7.6520     2.4750     0.1260     0.0100
  121.5000   -14.5000     6.3140     5.6510    90.3430     7.6620     2.4700     0.1250     0.0080
  122.0000   -14.5000     6.3210     5.6510    89.2450     7.6710     2.4740     0.1230     0.0070
  122.5000   -14.5000     6.3270     5.6510    88.5870     7.6810     2.4780     0.1210     0.0050
  123.0000   -14.5000     6.3330     5.6510    89.4850     7.6900     2.4790     0.1270     0.0040
  123.5000   -14.5000     6.3390     5.6510    90.4140     7.7000     2.4690     0.1320     0.0020
  124.0000   -14.5000     6.3450     5.6510    91.3220     7.7090     2.4580     0.1330     0.0010
  124.5000   -14.5000     6.3520     5.6510    90.3020     7.7190     2.4560     0.1330    -0.0010
  125.0000   -14.5000     6.3580     5.6510    89.2210     7.7240     2.4560     0.1300    -0.0010
  125.5000   -14.5000     6.3640     5.6510    88.6520     7.7160     2.4620     0.1280    -0.0020
  126.0000   -14.5000     6.3970     5.6500    91.1040     7.6930     2.4680     0.1250    -0.0020
  126.5000   -14.5000     6.4930     5.6580    93.1230     7.6710     2.4740     0.1230    -0.0030
  127.0000   -14.5000     6.5900     5.6830    90.4380     7.6490     2.4810     0.1210    -0.0030
  127.5000   -14.5000     6.6860     5.7080    88.8030     7.6430     2.4810     0.1230    -0.0040
  128.0000   -14.5000     6.7920     5.7330    89.2470     7.6410     2.4740     0.1260    -0.0050
  128.5000   -14.5000     6.7920     5.7580    90.4620     7.6380     2.4680     0.1270    -0.0050
  129.0000   -14.4930     6.7760     5.7830    91.3570     7.6360     2.4690     0.1250    -0.0020
  129.5000   -14.4840     6.7610     5.8080    90.0490     7.6340     2.4730     0.1210     0.0000
  130.0000   -14.4750     6.7470     5.8330    88.4960     7.6320     2.4770     0.1210     0.0020
  130.5000   -14.4650     6.7330     5.8570    87.5550     7.6290     2.4750     0.1220     0.0040
  131.0000   -14.4560     6.7180     5.8820    87.2220     7.6270     2.4750     0.1220     0.0060
