~VERSION INFORMATION
 VERS.                2.0:   CWLS LOG ASCII STANDARD - VERSION 2.0
 WRAP.                 NO:   ONE LINE PER DEPTH STEP
~WELL INFORMATION
#MNEM.UNIT      DATA TYPE    INFORMATION
#----------   ------------   ------------------------------
 STRT.F           30.0000:   START DEPTH
 STOP.F          626.0000:   STOP DEPTH
 STEP.F            0.5000:   STEP LENGTH
 NULL.          -999.2500:   NO VALUE
 COMP.       F D SERV INC:   COMPANY
 WELL.    63-2 SX-3 #63-3:   WELL
 FLD .             TEAPOT:   FIELD
 LOC .       S3 T38N R78W:   LOCATION
 CNTY.            NATRONA:   COUNTY
 STAT.            WYOMING:   STATE
 CTRY. UNITED STATES OF AMERICA:   COUNTRY
 SRVC.     Atlas Wireline:   SERVICE COMPANY
 DATE.        29-APR-1992:   LOGDATE
 API .       490252251900:   API NUMBER
~CURVE INFORMATION
#MNEM.UNIT       API CODE    CURVE DESCRIPTION
#----------   ------------   ------------------------------
 DEPT.F                  :   
 CALD.IN     45 280 60 00:   CALIPER FROM DENSITY
 CORR.G/C3   45 356 01 00:   DENSITY CORRECTION
 DEN .G/C3   45 350 01 00:   COMPENSATED BULK DENSTIY
 GRD .GAPI   45 310 01 00:   GAMMA RAY FROM DENSITY LOG
 PORD.DEC    45 890 12 00:   POROSITY DENSITY SANDSTONE
 RILD.OHMM   07 120 46 00:   INDUCTION LOG DEEP RESISTIVITY
 RILM.OHMM   07 120 44 00:   INDUCTION LOG MEDIUM RESISTIVITY
~PARAMETER INFORMATION
#MNEM.UNIT          VALUE    DESCRIPTION
#----------   ------------   ------------------------------
 PD  .                 GL:   PERMANENT DATUM
 EPD .F              5160:   ELEVATION PERMANENT DATUM
 LMF .                 KB:   LOG MEASURED FROM
 DAPD.F                 5:   FEET ABOVE PERMANENT DATUM
 DMF .                 KB:   DRILLING MEASURED FROM
 EKB .F              5165:   KELLING BUSHING
 EGL .F              5160:   GROUND LEVEL
 DATE.        29-APR-1992:   RUN DATE
 RUN .                  1:   RUN NUMBER
 DD  .F               630:   DEPTH DRILLER
 DL  .F               629:   DEPTH LOGGER
 BLI .F               626:   BOTTOM LOG INTERVAL
 CS  .IN            8.625:   CASING SIZE
 CBD .F                45:   CASING BOTTOM DRILLER
 CBL .F                45:   CASING BOTTOM LOGGER
 BS  .IN            7.875:   BIT SIZE
 BSD .F               630:   BIT SIZE AT DEPTH
 DFT .                AIR:   DRILLING FLUID TYPE
 LUN .            HL-6212:   LOGGING UNIT NUMBER
 LUL .             CASPER:   LOGGING UNIT LOCATION
 ENGI.             ZIEGEN:   RECORDING ENGINEER
 WITN.             STRONG:   WITNESSED BY
 CLNT.            A2DTECH:   CLIENT CODE
 ORIG.           5" PRINT:   ORIGIN OF DATA
 UWI .       490252251900:   UNIQUE WELL ID
 DICO. A2D Technologies, Inc.:   DIGITIZING COMPANY
~OTHER INFORMATION
~A   DEPT     CALD       CORR        DEN        GRD       PORD       RILD       RILM   
# ...
  348.5000     8.1435    -0.0004     2.5237   199.7324     0.0754     8.6692     8.6962
  349.0000     8.1429     0.0087     2.5207   200.3278     0.0775     8.4307     8.3971
  349.5000     8.1423     0.0087     2.5200   194.2707     0.0791     8.4295     8.1653
  350.0000     8.1615     0.0072     2.5216   190.3342     0.0797     8.4283     8.0388
  350.5000     8.1863     0.0117     2.5269   188.8113     0.0739     8.4267     7.9636
  351.0000     8.1854     0.0085     2.5335   190.0109     0.0711     8.4316     7.9401
  351.5000     8.1847     0.0025     2.5358   191.2126     0.0693     8.5020     7.9401
  352.0000     8.1839    -0.0018     2.5357   188.4824     0.0691     8.7189     8.1638
  352.5000     8.1832    -0.0002     2.5350   184.5460     0.0694     8.8385     8.4523
  353.0000     8.1674     0.0058     2.5372   181.2138     0.0682     8.8987     8.6330
  353.5000     8.1666     0.0179     2.5402   179.0901     0.0670     8.7131     8.8120
  354.0000     8.1659     0.0164     2.5387   182.4044     0.0692     8.2982     8.6800
  354.5000     8.1651     0.0104     2.5266   186.6251     0.0728     8.0135     8.4523
  355.0000     8.1644     0.0044     2.5032   191.1479     0.0945     7.7386     7.5109
  355.5000     8.1787    -0.0015     2.4542   200.3190     0.1213     6.7811     6.4465
  356.0000     8.2082     0.0015     2.3546   207.4435     0.1804     6.2379     5.6495
  356.5000     8.2074     0.0211     2.3510   206.8303     0.1822     5.9409     5.0553
  357.0000     8.2218     0.0151     2.3689   195.9445     0.1644     5.8986     4.9168
  357.5000     8.2208     0.0046     2.4926   184.7573     0.1045     5.8974     5.2339
  358.0000     8.2353    -0.0044     2.5461   179.6125     0.0674     6.0621     5.6889
  358.5000     8.2344    -0.0059     2.5491   182.3248     0.0611     6.2315     6.0981
  359.0000     8.2489    -0.0059     2.5483   180.1988     0.0629     6.6799     6.8149
  359.5000     8.2480     0.0002     2.5453   177.4709     0.0641     7.3189     7.3560
  360.0000     8.2473     0.0032     2.5438   178.3683     0.0644     8.0736     7.9401
  360.5000     8.2465    -0.0015     2.5453   179.8699     0.0635     9.0571     8.5705
  361.0000     8.2307    -0.0045     2.5475   182.2779     0.0623     9.7736     9.3963
  361.5000     8.2452    -0.0072     2.5498   181.0320     0.0611    10.2581    10.1958
  362.0000     8.2596     0.0019     2.5482   178.2351     0.0608    10.4723    10.4105
  362.5000     8.2737     0.0049     2.5460   177.1152     0.0633    10.5431    10.1252
  363.0000     8.2730     0.0064     2.5422   180.7294     0.0663    10.8371     9.9164
  363.5000     8.2722     0.0065     2.5309   182.5331     0.0726    11.2956    10.1958
  364.0000     8.2866     0.0050     2.5134   176.1798     0.0892    12.0213    11.3943
  364.5000     8.2858     0.0050     2.4724   161.6694     0.1055    12.7935    12.2138
  365.0000     8.3002     0.0201     2.4104   147.1589     0.1401    14.4930    13.4612
  365.5000     8.2992     0.0473     2.3846   140.5035     0.1573    16.0799    15.4674
  366.0000     8.2985     0.0624     2.3884   142.3072     0.1453    17.3521    16.8118
  366.5000     8.2978     0.0368     2.4177   146.2258     0.1335    19.3862    18.2732
  367.0000     8.2970    -0.0295     2.3846   148.3317     0.1670    21.0657    19.8616
  367.5000     8.3115    -0.0402     2.3115   148.6271     0.1980    23.2106    22.0426
  368.0000     8.3257    -0.0159     2.2783   149.5223     0.2249    24.7085    22.6636
  368.5000     8.3099     0.0007     2.2828   153.7430     0.2237    25.6031    22.8216
  369.0000     8.2790     0.0023     2.2858   154.0362     0.2213    25.7415    22.6407
  369.5000     8.2631    -0.0100     2.2767   150.0958     0.2258    25.3801    22.0426
  370.0000     8.2322    -0.0175     2.2330   148.5800     0.2562    25.5530    22.0426
  370.5000     8.2468    -0.0124     2.1885   148.2689     0.2767    25.3697    22.1962
  371.0000     8.2911     0.0024     2.1854   148.5623     0.2789    25.5412    22.6636
  371.5000     8.3507     0.0160     2.1930   147.9470     0.2725    26.0732    23.1408
  372.0000     8.3801     0.0070     2.2247   145.5211     0.2583    26.8017    24.2937
  372.5000     8.3944    -0.0035     2.2586   141.5847     0.2382    28.3262    25.8609
  373.0000     8.3786    -0.0156     2.2537   134.3250     0.2463    30.1459    27.9143
  373.5000     8.3779    -0.0095     2.1876   126.1590     0.2822    31.8605    30.3407
  374.0000     8.3769     0.0086     2.1078   121.9204     0.3310    33.6727    32.5231
  374.5000     8.3762     0.0207     2.1002   117.6819     0.3316    34.6154    33.6724
  375.0000     8.3907     0.0252     2.1213   118.5793     0.3096    35.5807    34.3814
  375.5000     8.3445     0.0268     2.1839   124.3106     0.2759    35.5734    34.3814
  376.0000     8.2684     0.0253     2.2419   129.7397     0.2455    36.8220    33.9071
  376.5000     8.2375     0.0193     2.2471   128.8244     0.2418    37.5891    33.4393
  377.0000     8.2367     0.0254     2.2079   125.1901     0.2521    36.5370    33.6928
  377.5000     8.2360     0.0299     2.1755   123.0664     0.2756    35.5153    34.6939
  378.0000     8.2352     0.0239     2.1627   122.1510     0.2910    34.5636    35.3501
  378.5000     8.2498     0.0133     2.1732   126.5029     0.2915    34.3160    34.6211
  379.0000     8.2488     0.0043     2.1905   131.0718     0.2741    33.8360    33.2079
  379.5000     8.2481     0.0061     2.2244   132.9982     0.2554    33.5951    30.9796
  380.0000     8.2473     0.0090     2.2719   135.4062     0.2388    32.8960    29.9221
  380.5000     8.2466     0.0030     2.3178   138.4184     0.2167    31.9887    28.9008
  381.0000     8.2459     0.0000     2.3483   141.4306     0.1751    31.3231    28.1088
  381.5000     8.2602     0.0030     2.3685   142.3303     0.1684    30.0393    26.9615
  382.0000     8.2922     0.0000     2.3648   140.2043     0.1711    28.6088    26.5895
  382.5000     8.3190     0.0046     2.3419   138.6848     0.1828    28.0135    26.4055
  383.0000     8.3181     0.0092     2.3178   140.1865     0.1931    27.6217    26.7748
  383.5000     8.3174     0.0092     2.3306   142.8966     0.1964    27.8098    26.2227
  384.0000     8.3317     0.0062     2.3441   145.9088     0.1892    28.1915    26.0412
  384.5000     8.3611     0.0002     2.3471   146.8084     0.1832    28.3819    26.5963
  385.0000     8.3757    -0.0043     2.3381   141.0571     0.1859    28.5737    27.5292
  385.5000     8.3747    -0.0058     2.3275   136.8186     0.1973    28.5678    27.9781
  386.0000     8.3589     0.0018     2.3177   134.0906     0.2007    28.3642    28.3048
  386.5000     8.3280     0.0033     2.3327   135.0299     0.1986    28.1356    27.9143
  387.0000     8.3122     0.0079     2.3568   140.8797     0.1856    27.5749    27.3386
  387.5000     8.2963     0.0124     2.3742   147.2557     0.1669    27.3786    26.2227
  388.0000     8.2654     0.0093     2.3877   152.7838     0.1588    26.6235    24.8053
  388.5000     8.2647     0.0033     2.3952   157.0045     0.1537    25.7101    23.3021
  389.0000     8.2790    -0.0043     2.3967   156.6934     0.1531    25.0010    21.2902
  389.5000     8.2934    -0.0055     2.3959   154.8718     0.1544    23.8105    20.4211
  390.0000     8.2926     0.0020     2.3906   153.0502     0.1573    22.3640    20.1394
  390.5000     8.3070     0.0021     2.3846   153.9476     0.1597    21.5968    19.8616
  391.0000     8.3060    -0.0024     2.3853   155.1493     0.1606    21.2947    19.7241
  391.5000     8.3053    -0.0069     2.3906   155.1382     0.1567    21.1431    19.7241
  392.0000     8.3046    -0.0099     2.3951   153.6187     0.1552    20.8473    19.7241
  392.5000     8.2887    -0.0038     2.3981   154.8182     0.1537    20.8430    19.7310
  393.0000     8.2880     0.0022     2.3989   155.1118     0.1516    20.9840    19.8616
  393.5000     8.2872     0.0038     2.3981   153.5919     0.1513    21.2730    20.0246
