~VERSION INFORMATION
 VERS.                2.0:   CWLS LOG ASCII STANDARD - VERSION 2.0
 WRAP.                 NO:   ONE LINE PER DEPTH STEP
~WELL INFORMATION
#MNEM.UNIT      DATA TYPE    INFORMATION
#----------   ------------   ------------------------------
 STRT.F          432.0000:   START DEPTH
 STOP.F         1258.0000:   STOP DEPTH
 STEP.F            0.5000:   STEP LENGTH
 NULL.          -999.2500:   NO VALUE
 COMP. FENIX & SCISSON INC:   COMPANY
 WELL.   12 SHX 34 #12-34:   WELL
 FLD .            WILDCAT:   FIELD
 LOC .      S34 T39N R78W:   LOCATION
 CNTY.            NATRONA:   COUNTY
 STAT.            WYOMING:   STATE
 CTRY. UNITED STATES OF AMERICA:   COUNTRY
 SRVC.              Welex:   SERVICE COMPANY
 DATE.        23-APR-1979:   LOGDATE
 API .       490251078200:   API NUMBER
~CURVE INFORMATION
#MNEM.UNIT       API CODE    CURVE DESCRIPTION
#----------   ------------   ------------------------------
 DEPT.F                  :   
 CALD.IN     45 280 60 00:   CALIPER
 GRD .GAPI   45 310 01 00:   GAMMA RAY FROM DENSITY LOG
 RHOB.G/C3   45 350 01 00:   BULK DENSITY
 DPHI.DEC    45 890 12 00:   DENSITY POROSITY SANDSTONE
 CORR.G/C3   45 356 01 00:   DENSITY CORRECTION
~PARAMETER INFORMATION
#MNEM.UNIT          VALUE    DESCRIPTION
#----------   ------------   ------------------------------
 PD  .                 GL:   PERMANENT DATUM
 EPD .F              5092:   ELEVATION PERMANENT DATUM
 LMF .                 KB:   LOG MEASURED FROM
 DAPD.F                10:   FEET ABOVE PERMANENT DATUM
 DMF .                 KB:   DRILLING MEASURED FROM
 EKB .F              5102:   KELLING BUSHING
 EGL .F              5092:   GROUND LEVEL
 DATE.            4-23-79:   RUN DATE
 RUN .                  1:   RUN NUMBER
 DD  .F              1260:   DEPTH DRILLER
 DL  .F              1260:   DEPTH LOGGER
 BLI .F              1258:   BOTTOM LOG INTERVAL
 TLI .F               446:   TOP LOG INTERVAL
 CS  .IN            9.625:   CASING SIZE
 CBD .F               440:   CASING BOTTOM DRILLER
 BS  .IN            8.375:   BIT SIZE
 BSD .F              1260:   BIT SIZE AT DEPTH
 DFT .                OIL:   DRILLING FLUID TYPE
 DFD .                8.7:   DRILLING FLUID DENSITY
 TCS .HRS               1:   TIME CURCULATED STOPPED
 ENGI.               REIN:   RECORDING ENGINEER
 WITN.              AMEND:   WITNESSED BY
 CLNT.            A2DTECH:   CLIENT CODE
 ORIG.           5" PRINT:   ORIGIN OF DATA
 UWI .       490251078200:   UNIQUE WELL ID
 DICO. A2D Technologies, Inc.:   DIGITIZING COMPANY
~OTHER INFORMATION
~A   DEPT     CALD         GRD      RHOB       DPHI       CORR   
# ...
  859.0000     8.5352    89.5871     2.5089     0.0246     0.0202
  859.5000     8.5340    88.4995     2.5168     0.0225     0.0264
  860.0000     8.5329    90.0299     2.5248     0.0194     0.0335
  860.5000     8.5317    91.0132     2.5327     0.0141     0.0367
  861.0000     8.5306    90.5031     2.5396     0.0089     0.0396
  861.5000     8.5294    90.4285     2.5391     0.0060     0.0389
  862.0000     8.5283    93.4013     2.5331     0.0097     0.0275
  862.5000     8.5271    96.5613     2.5272     0.0142     0.0187
  863.0000     8.5260    97.7541     2.5213     0.0188     0.0147
  863.5000     8.5248    94.0672     2.5154     0.0225     0.0132
  864.0000     8.5316    91.0337     2.5109     0.0221     0.0118
  864.5000     8.5434    89.0830     2.5138     0.0214     0.0104
  865.0000     8.5552    89.9167     2.5161     0.0209     0.0091
  865.5000     8.5635    91.1926     2.5110     0.0251     0.0098
  866.0000     8.5633    91.8329     2.5053     0.0298     0.0157
  866.5000     8.5634    88.9525     2.5031     0.0294     0.0218
  867.0000     8.5633    86.1260     2.5048     0.0293     0.0232
  867.5000     8.5633    85.3456     2.5060     0.0294     0.0248
  868.0000     8.5633    88.4526     2.5022     0.0322     0.0268
  868.5000     8.5633    91.4186     2.4899     0.0362     0.0336
  869.0000     8.5633    94.2445     2.4739     0.0401     0.0446
  869.5000     8.5633    93.2747     2.4555     0.0468     0.0560
  870.0000     8.5633    91.6534     2.4369     0.0571     0.0594
  870.5000     8.5633    90.0265     2.4182     0.0674     0.0544
  871.0000     8.5635    88.4005     2.4171     0.0777     0.0487
  871.5000     8.5760    86.7825     2.4263     0.0818     0.0431
  872.0000     8.6079    85.1571     2.4991     0.0440     0.0375
  872.5000     8.6392    85.7966     2.5236     0.0169     0.0312
  873.0000     8.6611    87.4413     2.5185     0.0197     0.0248
  873.5000     8.6575    89.1215     2.5104     0.0253     0.0207
  874.0000     8.6483    90.7877     2.5022     0.0308     0.0171
  874.5000     8.6390    91.8806     2.4941     0.0364     0.0167
  875.0000     8.6298    90.9564     2.4860     0.0419     0.0153
  875.5000     8.6215    88.8523     2.4781     0.0468     0.0127
  876.0000     8.6300    86.7588     2.4752     0.0461     0.0117
  876.5000     8.6442    84.6581     2.4834     0.0442     0.0111
  877.0000     8.6575    82.5304     2.4915     0.0422     0.0109
  877.5000     8.6750    80.3779     2.5000     0.0403     0.0103
  878.0000     8.6690    82.4086     2.5019     0.0391     0.0098
  878.5000     8.6623    84.6155     2.4956     0.0396     0.0093
  879.0000     8.6555    84.6501     2.4887     0.0404     0.0092
  879.5000     8.6487    84.5775     2.4830     0.0411     0.0083
  880.0000     8.6420    87.1148     2.4884     0.0393     0.0115
  880.5000     8.6352    89.9779     2.4963     0.0358     0.0145
  881.0000     8.6284    92.8656     2.5035     0.0323     0.0176
  881.5000     8.6219    93.9926     2.5006     0.0302     0.0207
  882.0000     8.6181    94.0133     2.4948     0.0324     0.0203
  882.5000     8.6145    93.9005     2.4933     0.0347     0.0159
  883.0000     8.6109    91.7593     2.5001     0.0369     0.0117
  883.5000     8.6073    89.0309     2.5049     0.0387     0.0076
  884.0000     8.6037    86.2442     2.4962     0.0416     0.0045
  884.5000     8.6000    87.2161     2.4871     0.0444     0.0025
  885.0000     8.5964    88.6779     2.4787     0.0459     0.0014
  885.5000     8.5928    86.8106     2.4778     0.0451     0.0009
  886.0000     8.5892    87.2352     2.4843     0.0431     0.0065
  886.5000     8.5856    89.1865     2.4959     0.0360     0.0138
  887.0000     8.5819    90.8736     2.5075     0.0280     0.0213
  887.5000     8.5783    92.3640     2.5212     0.0192     0.0289
  888.0000     8.5747    94.5355     2.5123     0.0263     0.0272
  888.5000     8.5711    96.9096     2.4953     0.0362     0.0205
  889.0000     8.5675    99.2746     2.4816     0.0403     0.0138
  889.5000     8.5638   101.0352     2.4825     0.0406     0.0070
  890.0000     8.5662   101.0439     2.4878     0.0403     0.0029
  890.5000     8.5704   100.0952     2.4935     0.0386     0.0039
  891.0000     8.5747    98.7924     2.4993     0.0359     0.0106
  891.5000     8.5789    97.4435     2.5050     0.0332     0.0169
  892.0000     8.5830    98.3354     2.5076     0.0305     0.0192
  892.5000     8.5697    99.6889     2.4998     0.0323     0.0162
  893.0000     8.5506   101.0289     2.4917     0.0355     0.0135
  893.5000     8.5312   101.6426     2.4904     0.0374     0.0107
  894.0000     8.5119   100.8629     2.4996     0.0353     0.0076
  894.5000     8.5134   100.0201     2.5023     0.0317     0.0100
  895.0000     8.5327    99.4062     2.4983     0.0315     0.0169
  895.5000     8.5520    98.7277     2.4948     0.0342     0.0237
  896.0000     8.5713    95.2424     2.5102     0.0273     0.0306
  896.5000     8.5830    91.1047     2.5267     0.0182     0.0375
  897.0000     8.5755    89.2815     2.5292     0.0140     0.0413
  897.5000     8.5405    90.5518     2.5308     0.0140     0.0434
  898.0000     8.5068    91.5893     2.5371     0.0125     0.0457
  898.5000     8.4860    88.5795     2.5428     0.0095     0.0479
  899.0000     8.5241    85.2586     2.5472     0.0068     0.0501
  899.5000     8.5639    83.6356     2.5416     0.0064     0.0523
  900.0000     8.6034    86.7026     2.5360     0.0100     0.0565
  900.5000     8.6437    91.5186     2.5300     0.0136     0.0630
  901.0000     8.6763    92.6578     2.5292     0.0152     0.0697
  901.5000     8.7196    87.5809     2.5246     0.0181     0.0759
  902.0000     8.7587    83.0302     2.5113     0.0266     0.0714
  902.5000     8.7982    85.6571     2.4965     0.0350     0.0530
  903.0000     8.8167    88.9587     2.4937     0.0329     0.0345
  903.5000     8.7793    89.1142     2.5075     0.0303     0.0161
  904.0000     8.7143    84.3465     2.5132     0.0278     0.0049
  904.5000     8.6485    80.9453     2.5063     0.0303     0.0050
  905.0000     8.6264    77.4448     2.4980     0.0337     0.0050
  905.5000     8.6227    76.4876     2.4897     0.0371     0.0050
  906.0000     8.6058    79.1771     2.4819     0.0405     0.0063
  906.5000     8.6208    82.0042     2.4872     0.0419     0.0081
  907.0000     8.6353    84.1633     2.4962     0.0404     0.0098
  907.5000     8.6600    84.3515     2.4980     0.0343     0.0116
  908.0000     8.6583    82.0762     2.4962     0.0317     0.0133
  908.5000     8.6514    80.0012     2.5009     0.0323     0.0151
  909.0000     8.6443    79.9297     2.5061     0.0308     0.0150
  909.5000     8.6373    82.1836     2.5114     0.0292     0.0146
  910.0000     8.6303    85.4485     2.5124     0.0300     0.0142
  910.5000     8.6233    85.6192     2.4995     0.0349     0.0137
  911.0000     8.6163    82.2557     2.4968     0.0391     0.0133
  911.5000     8.6093    78.9669     2.4884     0.0382     0.0129
  912.0000     8.6023    75.6589     2.4772     0.0430     0.0125
  912.5000     8.5953    74.1948     2.4746     0.0473     0.0120
  913.0000     8.5883    76.8136     2.4910     0.0475     0.0116
  913.5000     8.5827    79.6904     2.5055     0.0367     0.0110
  914.0000     8.5829    82.1846     2.4940     0.0285     0.0168
  914.5000     8.5828    79.1331     2.5094     0.0204     0.0240
  915.0000     8.5800    75.4598     2.5212     0.0185     0.0316
  915.5000     8.5769    71.8347     2.5034     0.0270     0.0303
  916.0000     8.5739    69.8074     2.4864     0.0336     0.0261
  916.5000     8.5708    74.6351     2.4858     0.0378     0.0215
  917.0000     8.5677    78.5648     2.4976     0.0382     0.0212
  917.5000     8.5646    81.8632     2.5108     0.0316     0.0244
  918.0000     8.5633    81.6282     2.5183     0.0253     0.0310
  918.5000     8.5721    81.6853     2.5068     0.0221     0.0254
  919.0000     8.5859    84.0899     2.4922     0.0336     0.0150
  919.5000     8.5998    86.7077     2.4887     0.0386     0.0061
