~VERSION INFORMATION
 VERS.                2.0:   CWLS LOG ASCII STANDARD - VERSION 2.0
 WRAP.                 NO:   ONE LINE PER DEPTH STEP
~WELL INFORMATION
#MNEM.UNIT      DATA TYPE    INFORMATION
#----------   ------------   ------------------------------
 STRT.F           19.0000:   START DEPTH
 STOP.F          600.0000:   STOP DEPTH
 STEP.F            0.5000:   STEP LENGTH
 NULL.          -999.2500:   NO VALUE
 COMP. FENIX & SCISSON INC:   COMPANY
 WELL.       NPR-3 #18-34:   WELL
 FLD .             TEAPOT:   FIELD
 LOC .      S34 T39N R78W:   LOCATION
 CNTY.            NATRONA:   COUNTY
 STAT.            WYOMING:   STATE
 CTRY. UNITED STATES OF AMERICA:   COUNTRY
 SRVC.           BIRDWELL:   SERVICE COMPANY
 DATE.        10-AUG-1978:   LOGDATE
 API .       490251068100:   API NUMBER
~CURVE INFORMATION
#MNEM.UNIT       API CODE    CURVE DESCRIPTION
#----------   ------------   ------------------------------
 DEPT.F                  :   
 SPR .MV     05 010 01 00:   SPONTANEOUS POTENTIAL FROM RES.
 SN  .OHMM   05 040 16 00:   SHORT NORMAL 16"
 ILD .OHMM   05 120 46 00:   INDUCTION LOG DEEP
 GRD .GAPI   45 310 01 00:   GAMMA RAY FROM DENSITY LOG
 CALD.IN     45 280 60 00:   CALIPER
 CORR.G/C3   45 356 01 00:   DENSITY CORRECTION
 DPHI.DEC    45 890 12 00:   DENSITY POROSITY SANDSTONE
 DEN .G/C3   45 350 01 00:   COMPENSATED BULK DENSTIY
~PARAMETER INFORMATION
#MNEM.UNIT          VALUE    DESCRIPTION
#----------   ------------   ------------------------------
 PD  .                 GL:   PERMANENT DATUM
 EPD .F              5159:   ELEVATION PERMANENT DATUM
 LMF .                 KB:   LOG MEASURED FROM
 DAPD.F                 4:   FEET ABOVE PERMANENT DATUM
 DMF .                 KB:   DRILLING MEASURED FROM
 EKB .F              5163:   KELLING BUSHING
 EGL .F              5159:   GROUND LEVEL
 DATE.            8-10-78:   RUN DATE
 RUN .                  1:   RUN NUMBER
 DD  .F               605:   DEPTH DRILLER
 DL  .F               606:   DEPTH LOGGER
 BLI .F               600:   BOTTOM LOG INTERVAL
 TLI .F                35:   TOP LOG INTERVAL
 CS  .IN            8.625:   CASING SIZE
 CBD .F                40:   CASING BOTTOM DRILLER
 BS  .IN            7.875:   BIT SIZE
 BSD .F               605:   BIT SIZE AT DEPTH
 DFT .                KCL:   DRILLING FLUID TYPE
 DFD .                8.7:   DRILLING FLUID DENSITY
 DFV .                 33:   DRILLING FLUID VISCOSITY
 DFPH.                  9:   DRILLING FLUID PH
 MSS .          FLOW LINE:   MUD SAMPLE SOURCE
 RMS .OHMM            .14:   RESISTIVITY MUD SAMPLE
 MST .F                88:   MUD SAMPLE TEMPERATURE
 MFSS.               MEAS:   MUD FILTRATE SAMPLE SOURCE
 MCSS.               MEAS:   MUD CAKE SAMPLE SOURCE
 TCS .HRS               1:   TIME CURCULATED STOPPED
 LUN .               3006:   LOGGING UNIT NUMBER
 LUL .               CASP:   LOGGING UNIT LOCATION
 ENGI.             MILLER:   RECORDING ENGINEER
 WITN.           MCGINLEY:   WITNESSED BY
 CLNT.            A2DTECH:   CLIENT CODE
 ORIG.           5" PRINT:   ORIGIN OF DATA
 UWI .       490251068100:   UNIQUE WELL ID
 DICO. A2D Technologies, Inc.:   DIGITIZING COMPANY
~OTHER INFORMATION
~A   DEPT      SPR         SN        ILD         GRD      CALD       CORR       DPHI        DEN   
# ...
  343.0000   -38.2168     6.4829     6.1317   103.7796     8.0098     0.0093     0.1319     2.4531
  343.5000   -38.1815     6.4440     6.1129   107.6133     8.0077     0.0108     0.1327     2.4532
  344.0000   -38.1465     6.4054     6.0941   111.7137     8.0055     0.0103     0.1339     2.4534
  344.5000   -38.1121     6.3670     6.0754   112.1387     8.0036     0.0095     0.1327     2.4535
  345.0000   -38.1684     6.3318     6.0568   107.5745     8.0105     0.0090     0.1333     2.4536
  345.5000   -38.3122     6.2464     5.9584   103.9166     8.0476     0.0103     0.1363     2.4509
  346.0000   -38.4554     6.1684     5.7781   103.9691     8.0830     0.0119     0.1409     2.4453
  346.5000   -38.5973     6.0914     5.6032   106.2749     8.0905     0.0143     0.1455     2.4398
  347.0000   -38.6685     6.0153     5.4336   109.8098     8.0672     0.0189     0.1516     2.4347
  347.5000   -38.5244     5.8870     5.2692   113.7636     8.0444     0.0228     0.1476     2.4338
  348.0000   -38.3874     5.7382     5.2193   115.8210     8.0419     0.0160     0.1409     2.4362
  348.5000   -38.2502     5.5931     5.2193   115.8605     8.0488     0.0090     0.1380     2.4413
  349.0000   -38.1147     5.4650     5.2192   111.8080     8.0630     0.0089     0.1364     2.4462
  349.5000   -38.0995     5.4835     5.2210   107.5042     8.0789     0.0090     0.1402     2.4498
  350.0000   -38.0998     5.5004     5.2181   103.0802     8.0604     0.0090     0.1460     2.4415
  350.5000   -38.0998     5.5156     4.9376   103.1496     8.0619     0.0097     0.1566     2.4252
  351.0000   -38.1860     5.5154     4.9404   103.8649     8.0618     0.0111     0.1699     2.4046
  351.5000   -38.3545     5.5152     4.9390   103.6449     8.0616     0.0157     0.1815     2.3831
  352.0000   -38.5246     5.5177     4.6898   102.2032     8.0619     0.0387     0.1735     2.3970
  352.5000   -38.6889     5.3461     4.5865   103.2628     8.0586     0.0601     0.1581     2.4240
  353.0000   -38.4302     5.1236     4.6062   104.2575     8.4302     0.0454     0.1427     2.4450
  353.5000   -38.3462     4.9846     4.6197   103.3704     8.7676     0.0236     0.1325     2.4584
  354.0000   -38.4217     5.0055     4.6331   102.0096     8.0639     0.0228     0.1243     2.4729
  354.5000   -38.4933     5.0210     4.6465   101.7955     8.0006     0.0229     0.1209     2.4726
  355.0000   -38.3505     5.0307     4.6600   103.9486     8.0059     0.0229     0.1228     2.4726
  355.5000   -38.1955     5.2708     4.6722   106.7551     8.0124     0.0230     0.1249     2.4726
  356.0000   -38.0988     5.5946     4.8473   108.7148     8.0179     0.0286     0.1228     2.4729
  356.5000   -38.1002     5.9369     5.2109   104.6750     8.0233     0.0298     0.1200     2.4748
  357.0000   -38.0997     5.9369     5.6425   101.5781     8.0287     0.0308     0.1201     2.4767
  357.5000   -38.0983     5.9369     5.8588   100.4609     8.0340     0.0317     0.1214     2.4774
  358.0000   -38.1636     5.9369     5.9917   101.8898     8.0396     0.0327     0.1170     2.4770
  358.5000   -38.2410     5.9374     5.8389   103.4367     8.0118     0.0296     0.1238     2.4768
  359.0000   -38.3188     5.9382     5.7223   102.3422     8.0059     0.0221     0.1361     2.4636
  359.5000   -38.3963     5.8678     5.4398   100.9542     8.0107     0.0143     0.1483     2.4420
  360.0000   -38.4747     5.7800     5.1802   103.6507     8.0155     0.0134     0.1612     2.4237
  360.5000   -38.4997     5.6250     4.9335   107.2334     8.0185     0.0274     0.1564     2.4137
  361.0000   -38.5001     5.4240     4.7169   110.8205     8.1248     0.0366     0.1481     2.4249
  361.5000   -38.5005     5.2287     4.7326   112.9844     8.2607     0.0260     0.1476     2.4338
  362.0000   -38.5012     5.0407     4.7473   108.9820     8.0854     0.0067     0.1428     2.4335
  362.5000   -38.4959     4.9846     4.7620   104.9071     8.0447     0.0185     0.1307     2.4516
  363.0000   -38.2540     5.0391     4.7767   101.9069     8.0460     0.0232     0.1185     2.4824
  363.5000   -37.4038     5.1501     4.7915   100.6891     8.0489     0.0239     0.1120     2.4865
  364.0000   -36.7789     5.3467     4.8394   100.4740     8.0516     0.0245     0.1106     2.4968
  364.5000   -36.1302     5.6000     5.1321   100.6154     8.0541     0.0255     0.1102     2.5001
  365.0000   -36.0952     5.8825     5.4426   100.7917     8.0567     0.0285     0.1073     2.5022
  365.5000   -36.0940     6.0825     5.7549   102.0585     8.0593     0.0309     0.1034     2.5042
  366.0000   -36.0801     6.3022     5.9816   103.5223     8.0618     0.0306     0.1020     2.5045
  366.5000   -36.0652     6.5281     6.2173   104.7316     8.0576     0.0303     0.1014     2.5045
  367.0000   -36.0504     6.6395     6.3164   102.2232     8.0526     0.0300     0.1032     2.5039
  367.5000   -36.0356     6.6520     6.3727    99.3022     8.0476     0.0297     0.1035     2.5027
  368.0000   -36.0208     6.6660     6.4292    98.9628     8.0426     0.0293     0.1030     2.5016
  368.5000   -36.0059     6.6800     6.4860   100.9637     8.0376     0.0291     0.1026     2.5043
  369.0000   -35.9911     6.6913     6.5241   102.4817     8.0326     0.0291     0.1051     2.5071
  369.5000   -35.9763     6.7414     6.5494    99.4878     8.0275     0.0297     0.1074     2.5050
  370.0000   -35.9615     6.8042     6.5748    98.0326     8.0221     0.0302     0.1076     2.5019
  370.5000   -35.9467     6.8676     6.6002   101.1823     8.0384     0.0307     0.1079     2.4988
  371.0000   -35.9318     6.9316     6.6258   104.0902     8.0576     0.0312     0.1081     2.4963
  371.5000   -35.9168     6.9421     6.7531   104.0391     8.0769     0.0318     0.1095     2.4957
  372.0000   -35.9011     6.9421     6.7375   104.1227     8.0962     0.0323     0.1115     2.4950
  372.5000   -35.9357     6.9421     6.7268   105.4845     8.1156     0.0328     0.1121     2.4944
  373.0000   -35.9777     6.9421     6.7160   105.2619     8.1251     0.0333     0.1121     2.4937
  373.5000   -36.0201     6.9421     6.7053    97.0400     8.1304     0.0339     0.1101     2.4949
  374.0000   -36.0629     6.9421     6.6945    91.3118     8.1357     0.0344     0.1071     2.4969
  374.5000   -36.0938     6.9421     6.6799    93.5809     8.1413     0.0348     0.1064     2.4989
  375.0000   -35.9788     6.9422     6.6638    98.2877     8.1265     0.0342     0.1080     2.4985
  375.5000   -35.8663     6.9421     6.6476   103.1988     8.1098     0.0337     0.1128     2.4888
  376.0000   -35.7531     6.9421     6.6302   101.2835     8.1052     0.0331     0.1175     2.4780
  376.5000   -35.8224     6.8314     6.5700    99.4572     8.1348     0.0325     0.1213     2.4718
  377.0000   -36.0560     6.6237     6.4179    97.8161     8.1622     0.0320     0.1237     2.4714
  377.5000   -36.2879     6.4219     6.2571    97.8296     8.1550     0.0314     0.1388     2.4505
  378.0000   -36.2041     6.2263     5.9546    97.9422     8.1454     0.0308     0.1553     2.4267
  378.5000   -36.0982     6.0366     5.6193   103.8295     8.1418     0.0307     0.1718     2.3988
  379.0000   -35.9934     5.8520     5.4150   110.2405     8.1388     0.0344     0.1763     2.3840
  379.5000   -35.8891     5.6707     5.4579   114.5114     8.5788     0.0900     0.1318     2.4692
  380.0000   -35.7842     5.6991     5.4896   109.4137     8.1201     0.0660     0.1030     2.4901
  380.5000   -35.7015     5.7308     5.5326   102.6841     8.1568     0.0397     0.0957     2.5089
  381.0000   -35.3560     5.7626     5.6250    95.7823     8.1852     0.0357     0.0922     2.5236
  381.5000   -34.7960     5.8539     5.7189    92.5525     8.2039     0.0349     0.1030     2.5117
  382.0000   -34.2535     6.0505     5.8286    92.1721     8.2228     0.0349     0.0998     2.5003
  382.5000   -33.6487     6.4593     6.5712    91.7922     8.2797     0.0349     0.0970     2.5064
  383.0000   -33.1921     6.9784     7.3743    88.4465     8.3409     0.0349     0.1046     2.5104
