~VERSION INFORMATION
 VERS.                2.0:   CWLS LOG ASCII STANDARD - VERSION 2.0
 WRAP.                 NO:   ONE LINE PER DEPTH STEP
~WELL INFORMATION
#MNEM.UNIT      DATA TYPE    INFORMATION
#----------   ------------   ------------------------------
 STRT.F            9.0000:   START DEPTH
 STOP.F          512.0000:   STOP DEPTH
 STEP.F            0.5000:   STEP LENGTH
 NULL.          -999.2500:   NO VALUE
 COMP. LAWRENCE-ALLISON &AS:   COMPANY
 WELL. NPR 3 #61-21SX10UP2:   WELL
 FLD .             TEAPOT:   FIELD
 LOC .      S10 T38N R78W:   LOCATION
 CNTY.            NATRONA:   COUNTY
 STAT.            WYOMING:   STATE
 CTRY. UNITED STATES OF AMERICA:   COUNTRY
 SRVC.      Dresser Atlas:   SERVICE COMPANY
 DATE.        13-DEC-1984:   LOGDATE
 API .       490251100500:   API NUMBER
~CURVE INFORMATION
#MNEM.UNIT       API CODE    CURVE DESCRIPTION
#----------   ------------   ------------------------------
 DEPT.F                  :   
 PORD.DEC    45 890 12 00:   POROSITY DENSITY SANDSTONE
 CNCF.DEC    42 890 03 00:   NEUTRON POROSITY SANDSTONE
 GRD .GAPI   45 310 01 00:   GAMMA RAY FROM DENSITY LOG
 CALD.IN     45 280 60 00:   CALIPER FROM DENSITY LOG
 CORR.G/C3   45 356 01 00:   DENSITY CORRECTION
 DEN .G/C3   45 350 01 00:   COMPENSATED BULK DENSTIY
 AC  .US/F   60 520 00 00:   ACCOUSTIC
 RILD.OHMM   07 120 46 00:   INDUCTION LOG DEEP RESISTIVITY
 RILM.OHMM   07 120 44 00:   INDUCTION LOG MEDIUM RESISTIVITY
 RFOC.OHMM   07 220 04 00:   RESISTIVITY FOCUSED LOG
 SPR .MV     11 010 01 00:   SPONTANEOUS POTENTIAL FROM RES.
 RS  .OHMM   11 220 09 00:   RESISTIVITY SHALLOW
 RD  .OHMM   11 220 10 00:   RESISTIVITY DEEP
~PARAMETER INFORMATION
#MNEM.UNIT          VALUE    DESCRIPTION
#----------   ------------   ------------------------------
 PD  .                 GL:   PERMANENT DATUM
 EPD .F              5157:   ELEVATION PERMANENT DATUM
 LMF .                 GL:   LOG MEASURED FROM
 DMF .                 GL:   DRILLING MEASURED FROM
 EGL .F              5157:   GROUND LEVEL
 DATE.         12-13-1984:   RUN DATE
 RUN .                  1:   RUN NUMBER
 DD  .F               514:   DEPTH DRILLER
 DL  .F               513:   DEPTH LOGGER
 BLI .F               512:   BOTTOM LOG INTERVAL
 TLI .F                20:   TOP LOG INTERVAL
 CS  .IN            8.625:   CASING SIZE
 CBD .F                20:   CASING BOTTOM DRILLER
 CBL .F                20:   CASING BOTTOM LOGGER
 BS  .IN            7.875:   BIT SIZE
 BSD .F               514:   BIT SIZE AT DEPTH
 DFT .          KCL WATER:   DRILLING FLUID TYPE
 MSS .           FLOWLINE:   MUD SAMPLE SOURCE
 RMS .OHMM            .17:   RESISTIVITY MUD SAMPLE
 MST .F                95:   MUD SAMPLE TEMPERATURE
 RMF .OHMM            .08:   RESISTIVITY MUD FILTRATE SAMPLE
 MFST.F                95:   MUD FILTRATE SAMPLE TEMPERATURE
 RMC .OHMM            .14:   RESISTIVITY MUD CAKE
 MCST.F                95:   MUD CAKE SAMPLE TEMPERATURE
 MFSS.               CALC:   MUD FILTRATE SAMPLE SOURCE
 MCSS.               CALC:   MUD CAKE SAMPLE SOURCE
 TCS .HRS              10:   TIME CURCULATED STOPPED
 MRT .F               100:   MAXIMUM RECORDED TEMPERATURE
 LUN .               6270:   LOGGING UNIT NUMBER
 LUL .                 FM:   LOGGING UNIT LOCATION
 ENGI.            LEBSOCK:   RECORDING ENGINEER
 WITN.        GREG GROOMS:   WITNESSED BY
 CLNT.            A2DTECH:   CLIENT CODE
 ORIG.           5" PRINT:   ORIGIN OF DATA
 UWI .       490251100500:   UNIQUE WELL ID
 DICO. A2D Technologies, Inc.:   DIGITIZING COMPANY
~OTHER INFORMATION
~A    DEPT    PORD       CNCF        GRD       CALD       CORR        DEN          AC      RILD       RILM       RFOC        SPR         RS         RD   
# ...
  165.0000     0.2603     0.3971    91.6717     7.7932     0.0343     2.2447   128.2803     2.6269     2.5598     3.1087   -76.4784     3.0574     5.0767
  165.5000     0.2545     0.3947    90.6130     7.7921     0.0297     2.2553   125.5700     2.6999     2.6679     3.4130   -76.4888     3.3213     5.6303
  166.0000     0.2389     0.3929    95.5783     7.8064     0.0206     2.2870   122.9352     2.7943     2.8195     3.8935   -76.4993     3.6585     6.5109
  166.5000     0.2005     0.3462   100.9955     7.8051     0.0266     2.3429   122.1872     2.9944     3.1724     4.2604   -76.6596     3.9743     7.0240
  167.0000     0.1930     0.2994   104.3042     7.8194     0.0371     2.3542   121.3637     3.5617     3.7003     4.0261   -76.6701     4.2284     7.2682
  167.5000     0.1899     0.2862   103.8479     7.8181     0.0279     2.3656   119.5591     4.3864     4.2860     3.9416   -76.6805     4.5935     8.1180
  168.0000     0.1826     0.2900   101.5843     7.8170     0.0097     2.3995   114.6601     5.0743     4.9017     5.1969   -76.8409     5.2022     9.7195
  168.5000     0.1477     0.2981   101.5798     7.8160     0.0051     2.4494   110.5913     5.6301     5.6269     7.2017   -76.6988     6.3151    11.3179
  169.0000     0.1243     0.3074   103.8343     7.8149     0.0307     2.4728   108.7867     6.0776     6.1331     7.5185   -76.7118     7.4561    12.9075
  169.5000     0.1160     0.3041   105.3358     7.8139     0.0442     2.4841   108.7934     6.4276     6.3477     7.4094   -76.7222     7.9329    13.6375
  170.0000     0.1157     0.3029   107.2892     7.7977     0.0381     2.4872   108.8756     6.8386     6.8025     7.2020   -76.5801     7.9291    14.0159
  170.5000     0.1213     0.3023   108.9413     7.7816     0.0516     2.4781   108.8823     6.9252     7.4438     7.1980   -76.5932     7.8159    13.5281
  171.0000     0.1245     0.2986   108.7861     7.7504     0.0515     2.4713   108.8135     6.8260     7.5986     7.1941   -76.4511     7.7581    13.4270
  171.5000     0.1248     0.2972   107.8780     7.7493     0.0409     2.4713   108.6617     6.6360     7.3861     7.1901   -76.3142     7.7538    13.7022
  172.0000     0.1232     0.3024   105.7651     7.7483     0.0333     2.4758   108.4377     6.5873     7.0810     7.2374   -76.0222     7.9682    13.8862
  172.5000     0.1206     0.3079   105.4593     7.7472     0.0317     2.4796   108.2298     6.4936     6.4208     7.3850   -75.8827     8.1886    14.0746
  173.0000     0.1197     0.3019   106.9608     7.7462     0.0377     2.4804   108.3891     6.2256     5.8628     7.6424   -75.4460     8.2426    14.1648
  173.5000     0.1201     0.3176   108.6130     7.7451     0.0315     2.4789   109.3015     5.7646     5.3161     7.8539   -75.3039     8.0121    13.7672
  174.0000     0.1228     0.3363   111.7711     7.7441     0.0209     2.4721   111.2705     5.3750     5.0612     7.7410   -75.0144     7.3682    12.8363
  174.5000     0.1400     0.3602   115.2304     7.7430     0.0027     2.4411   113.0130     5.1174     5.0240     6.5921   -74.7271     6.7761    11.8855
  175.0000     0.1654     0.3560   115.3765     7.7420    -0.0170     2.3943   114.5291     5.0096     4.9871     5.4976   -74.4382     6.4070    10.9289
  175.5000     0.1795     0.3427   115.0708     7.7409    -0.0186     2.3746   115.2151     5.0431     4.9850     5.3437   -74.2983     6.1855    10.2609
  176.0000     0.1824     0.3280   113.4096     7.7399    -0.0156     2.3844   114.9954     5.0762     5.0178     5.6861   -74.1589     6.0551    10.2460
  176.5000     0.1743     0.3102   107.0798     7.7388    -0.0172     2.3912   114.0964     5.1805     5.0508     5.7234   -74.3196     6.1795    10.6118
  177.0000     0.1712     0.3075   103.3102     7.7378    -0.0233     2.3927   113.3484     5.3617     5.1936     5.5238   -74.4799     6.3504    11.1344
  177.5000     0.1697     0.3124   103.3057     7.7367    -0.0340     2.3980   112.7513     5.5879     5.4167     5.6799   -74.6403     6.5715    11.6826
  178.0000     0.1604     0.3136   108.5723     7.7510    -0.0461     2.4109   112.1542     5.8643     5.7685     5.9210   -74.8007     6.8953    12.1731
  178.5000     0.1507     0.3076   110.9774     7.7649    -0.0386     2.4260   110.9534     6.1578     6.1513     6.2669   -75.1110     7.2351    12.8615
  179.0000     0.1468     0.2927   110.9729     7.7940    -0.0206     2.4343   109.8280     6.4224     6.6120     6.6506   -75.2714     7.5916    13.3087
  179.5000     0.1426     0.2889   110.2154     7.7929    -0.0071     2.4396   108.4718     6.8396     6.8433     6.8346   -75.2819     7.9657    13.9640
  180.0000     0.1381     0.2953   106.7470     7.7918     0.0049     2.4441   106.8730     7.2630     6.9849     7.1222   -75.2924     8.4164    14.7538
  180.5000     0.1287     0.2947   108.7003     7.7908     0.0184     2.4622   105.8297     7.5694     7.0799     7.6315   -75.3028     8.8311    15.4839
  181.0000     0.1251     0.2963   110.8042     7.7746     0.0183     2.4698   105.1486     7.8341     7.0770     7.9538   -75.3133     9.2022    16.2500
  181.5000     0.1251     0.2981   110.1973     7.7585     0.0106     2.4698   104.5047     8.1081     7.0250     8.1739   -75.3238     9.5889    16.9244
  182.0000     0.1254     0.2945   107.3313     7.7575     0.0014     2.4690   104.2078     8.3916     6.8770     8.3406   -75.3343     9.9227    17.3916
  182.5000     0.1264     0.2930   108.2304     7.7564    -0.0125     2.4660   104.2162     8.6248     6.8264     8.4529   -75.3448    10.1266    17.5032
  183.0000     0.1285     0.2912   109.8825     7.7554    -0.0244     2.4622   104.4493     8.9264     6.7763     8.5085   -75.3574    10.1934    17.4932
  183.5000     0.1336     0.2873   111.3840     7.7543    -0.0288     2.4577   104.8334     9.1745     6.6798     8.4436   -75.3678    10.1873    17.3485
  184.0000     0.1382     0.2677   112.8855     7.7382    -0.0225     2.4486   105.2174     9.0440     6.5847     8.3804   -75.2283    10.1119    16.9793
  184.5000     0.1370     0.2650   113.4834     7.7371    -0.0072     2.4456   105.7524     8.7312     6.4910     8.3758   -75.2388     9.8987    16.6180
  185.0000     0.1328     0.2726   113.4789     7.7360     0.0125     2.4509   106.2874     8.4293     6.3542     8.2555   -75.2492     9.4904    16.2457
  185.5000     0.1295     0.2877   113.1732     7.7501     0.0306     2.4577   106.8224     8.1946     6.2638     8.1368   -75.2596     9.2261    15.8081
  186.0000     0.1271     0.3086   112.2651     7.7490     0.0508     2.4637   107.2819     8.0221     6.1746     8.0199   -75.2701     9.0316    15.2777
  186.5000     0.1262     0.3156   110.7545     7.7480     0.0522     2.4668   107.5905     7.7446     6.0445     7.9047   -75.1306     8.9028    14.7481
  187.0000     0.1250     0.3081   110.1476     7.7620     0.0416     2.4683   107.9746     7.5290     5.9585     7.7911   -74.9911     8.8369    14.3360
  187.5000     0.1232     0.3023   111.3479     7.7609     0.0264     2.4705   108.5096     7.1185     5.8295     7.6790   -74.8516     8.6506    14.0326
  188.0000     0.1211     0.3045   113.1506     7.7599     0.0143     2.4736   109.2710     6.5841     5.6206     7.5617   -74.5622     8.5866    13.5461
  188.5000     0.1205     0.3024   113.4473     7.7435     0.0127     2.4766   110.1125     5.9226     5.3473     7.3474   -74.4201     8.4056    13.0765
  189.0000     0.1214     0.3009   110.1295     7.7425     0.0126     2.4773   110.9646     5.4781     4.9979     7.1003   -74.1333     8.2284    12.5358
  189.5000     0.1281     0.3064   106.5105     7.7414     0.0140     2.4743   111.9653     5.0185     4.6276     6.7120   -73.8413     7.7802    11.7696
  190.0000     0.1423     0.3076   103.4940     7.7404     0.0185     2.4683   113.3749     4.7120     4.4364     6.3009   -73.7018     7.0564    10.4530
  190.5000     0.1641     0.3061   103.7907     7.7547     0.0275     2.4456   113.6064     4.5490     4.5282     5.4789   -73.4123     6.3976     8.9667
