~VERSION INFORMATION
 VERS.                2.0:   CWLS LOG ASCII STANDARD - VERSION 2.0
 WRAP.                 NO:   ONE LINE PER DEPTH STEP
~WELL INFORMATION
#MNEM.UNIT      DATA TYPE    INFORMATION
#----------   ------------   ------------------------------
 STRT.F            0.0000:   START DEPTH
 STOP.F          545.0000:   STOP DEPTH
 STEP.F            0.1000:   STEP LENGTH
 NULL.          -999.2500:   NO VALUE
 COMP.       F D SERV INC:   COMPANY
 WELL. NAVAL PETROLEUM RESERVE 3 SX-3 #88-5-3:   WELL
 FLD .             TEAPOT:   FIELD
 LOC .       S3 T38N R78W:   LOCATION
 CNTY.            NATRONA:   COUNTY
 STAT.            WYOMING:   STATE
 CTRY. UNITED STATES OF AMERICA:   COUNTRY
 SRVC.     Atlas Wireline:   SERVICE COMPANY
 DATE.        14-OCT-1992:   LOGDATE
 API .       490252255700:   API NUMBER
~CURVE INFORMATION
#MNEM.UNIT       API CODE    CURVE DESCRIPTION
#----------   ------------   ------------------------------
 DEPT.F                  :   
 GRR .GAPI   07 310 01 00:   GAMMA RAY
 RILD.OHMM   07 120 46 00:   INDUCTION LOG DEEP RESISTIVITY
 RILM.OHMM   07 120 44 00:   INDUCTION LOG MEDIUM RESISTIVITY
~PARAMETER INFORMATION
#MNEM.UNIT          VALUE    DESCRIPTION
#----------   ------------   ------------------------------
 PD  .                 GL:   PERMANENT DATUM
 EPD .F              5152:   ELEVATION PERMANENT DATUM
 LMF .                 KB:   LOG MEASURED FROM
 DAPD.F                10:   FEET ABOVE PERMANENT DATUM
 DMF .                 KB:   DRILLING MEASURED FROM
 EKB .F              5162:   KELLING BUSHING
 EDF .F              5161:   DRILLING FLOOR
 EGL .F              5152:   GROUND LEVEL
 DATE.        14-OCT-1992:   RUN DATE
 RUN .                  1:   RUN NUMBER
 DD  .F               555:   DEPTH DRILLER
 DL  .F               552:   DEPTH LOGGER
 BLI .F               546:   BOTTOM LOG INTERVAL
 CS  .IN            8.625:   CASING SIZE
 CBD .F                85:   CASING BOTTOM DRILLER
 CBL .F                96:   CASING BOTTOM LOGGER
 BS  .IN            7.875:   BIT SIZE
 BSD .F               555:   BIT SIZE AT DEPTH
 DFT .           AIR FOAM:   DRILLING FLUID TYPE
 BHT .F                72:   BOTTOM HOLE TEMPERATURE
 TCS .HRS               2:   TIME CURCULATED STOPPED
 MRT .F                72:   MAXIMUM RECORDED TEMPERATURE
 LUN .            HL-6274:   LOGGING UNIT NUMBER
 LUL .             CASPER:   LOGGING UNIT LOCATION
 ENGI.             RAUTIO:   RECORDING ENGINEER
 WITN.        GARY STRONG:   WITNESSED BY
 CLNT.            A2DTECH:   CLIENT CODE
 ORIG.           5" PRINT:   ORIGIN OF DATA
 UWI .       490252255700:   UNIQUE WELL ID
 DICO. A2D Technologies, Inc.:   DIGITIZING COMPANY
~OTHER INFORMATION
~A    DEPT      GRR      RILD       RILM   
# ...
  145.6000   126.0004    10.6919    10.6854
  145.7000   126.2581    10.6976    10.7365
  145.8000   126.4264    10.7661    10.7599
  145.9000   126.4264    10.7661    10.7600
  146.0000   126.4264    10.8150    10.7801
  146.1000   126.4264    10.8409    10.8350
  146.2000   126.2074    10.8409    10.8352
  146.3000   125.5970    10.8581    10.8354
  146.4000   124.8240    10.9228    10.8355
  146.5000   124.0510    10.9920    10.9212
  146.6000   123.2296    10.9920    10.9868
  146.7000   122.1873    10.9920    11.0088
  146.8000   120.4204    11.0318    11.0634
  146.9000   119.9788    11.0683    11.0641
  147.0000   119.4635    11.0867    11.1405
  147.1000   118.9482    11.1451    11.1407
  147.2000   118.4329    11.1451    11.1862
  147.3000   118.0180    11.1451    11.2531
  147.4000   118.0256    11.1974    11.2964
  147.5000   118.3183    11.2641    11.3096
  147.6000   118.5409    11.3005    11.3751
  147.7000   118.9785    11.3201    11.3753
  147.8000   119.6312    11.3876    11.4344
  147.9000   120.4043    11.4579    11.4546
  148.0000   121.2292    11.5237    11.5293
  148.1000   122.2787    11.5924    11.6146
  148.2000   124.0240    11.6615    11.6298
  148.3000   124.9217    11.7310    11.6993
  148.4000   125.7706    11.7795    11.7769
  148.5000   126.4044    11.7992    11.7771
  148.6000   126.8232    11.9437    11.8285
  148.7000   127.0270    11.9437    11.8993
  148.8000   127.0158    12.0014    11.9417
  148.9000   126.7267    12.0266    11.9419
  149.0000   126.7267    12.0611    11.9476
  149.1000   126.5431    12.1101    12.0251
  149.2000   126.2855    12.1322    12.0253
  149.3000   125.7329    12.2789    12.0795
  149.4000   124.6467    12.2789    12.1517
  149.5000   123.3714    12.3391    12.2244
  149.6000   122.2222    12.4127    12.2782
  149.7000   120.8540    12.4500    12.2784
  149.8000   119.6789    12.4745    12.2786
  149.9000   118.9338    12.5488    12.3475
  150.0000   118.3820    12.6235    12.3809
  150.1000   117.7730    12.5908    12.4027
  150.2000   117.1640    12.5581    12.4245
  150.3000   116.5550    12.5553    12.4484
  150.4000   115.9460    12.6208    12.4479
  150.5000   115.3062    12.6200    12.5024
  150.6000   115.0599    12.6193    12.5333
  150.7000   114.8004    12.6776    12.5640
  150.8000   114.5410    12.7055    12.6193
  150.9000   114.1647    12.7048    12.6188
  151.0000   113.7217    12.7041    12.6182
  151.1000   113.4623    12.7034    12.6178
  151.2000   113.1915    12.7027    12.6172
  151.3000   112.6969    12.7020    12.6624
  151.4000   112.5874    12.7013    12.7038
  151.5000   112.4244    12.7006    12.7033
  151.6000   112.1650    12.6999    12.7027
  151.7000   111.9814    12.7215    12.7022
  151.8000   112.0461    12.7868    12.7017
  151.9000   112.5783    12.6978    12.6411
  152.0000   112.5766    12.6971    12.6130
  152.1000   113.1916    12.6964    12.6125
  152.2000   113.9628    12.6957    12.6120
  152.3000   114.7339    12.6950    12.6003
  152.4000   115.5051    12.6943    12.5240
  152.5000   116.2763    12.6936    12.4370
  152.6000   117.0702    12.6929    12.4366
  152.7000   118.2693    12.6920    12.4361
  152.8000   118.8901    12.6310    12.3985
  152.9000   119.6613    12.6033    12.3493
  153.0000   120.1882    12.6026    12.3488
  153.1000   120.5235    12.5789    12.3483
  153.2000   121.0370    12.5037    12.3477
  153.3000   121.5621    12.4273    12.2846
  153.4000   121.8603    12.4265    12.2616
  153.5000   122.0681    12.4259    12.2611
  153.6000   121.9908    12.3777    12.2606
  153.7000   121.7313    12.3037    12.2600
  153.8000   121.2281    12.2531    12.2595
  153.9000   120.2729    12.2524    12.2590
  154.0000   119.7477    12.2517    12.1943
  154.1000   118.8447    12.2509    12.1735
  154.2000   118.6322    12.1910    12.1326
  154.3000   118.3728    12.1652    12.0885
  154.4000   118.1133    12.1646    12.0880
  154.5000   117.8539    12.1639    12.0875
  154.6000   117.5944    12.1519    12.0870
  154.7000   117.3327    12.0787    12.0211
  154.8000   117.3306    12.0779    12.0027
  154.9000   117.3291    12.0773    11.9603
  155.0000   117.1572    12.0767    11.9189
  155.1000   116.8977    12.0406    11.9184
  155.2000   116.7231    11.9920    11.9179
  155.3000   116.7213    11.9797    11.9174
  155.4000   116.7195    11.9080    11.9169
  155.5000   116.7174    11.9073    11.8614
  155.6000   116.7159    11.9067    11.7905
  155.7000   116.5422    11.8590    11.7517
  155.8000   116.4120    11.8233    11.7512
  155.9000   116.4969    11.7991    11.7416
  156.0000   116.7090    11.7405    11.6692
  156.1000   116.7069    11.7398    11.6686
  156.2000   117.6057    11.7391    11.6682
  156.3000   118.6862    11.6802    11.6231
  156.4000   119.7990    11.6569    11.5868
  156.5000   120.8279    11.6563    11.5863
  156.6000   121.8566    11.6319    11.5858
  156.7000   122.8855    11.5746    11.5853
  156.8000   123.9144    11.5740    11.5848
  156.9000   125.1006    11.5732    11.5844
  157.0000   125.7538    11.5727    11.5839
  157.1000   126.1738    11.5254    11.5834
  157.2000   126.4296    11.4565    11.5589
  157.3000   126.5049    11.4117    11.5026
  157.4000   126.1978    11.4111    11.5021
  157.5000   125.6757    11.4105    11.5016
  157.6000   124.7877    11.4097    11.5012
  157.7000   124.3461    11.4092    11.5007
  157.8000   123.8290    11.4086    11.4633
  157.9000   123.4466    11.4435    11.4204
  158.0000   123.0951    11.4865    11.4199
  158.1000   122.6274    11.4859    11.4195
  158.2000   122.3680    11.4852    11.4189
  158.3000   122.0724    11.4845    11.4795
  158.4000   121.8490    11.4840    11.4973
  158.5000   121.5896    11.4833    11.4969
  158.6000   121.4667    11.4827    11.4964
  158.7000   121.3710    11.4821    11.4959
  158.8000   121.1115    11.4814    11.5012
  158.9000   120.8607    11.4808    11.5747
  159.0000   120.8586    11.4801    11.5743
  159.1000   120.4098    11.4795    11.5216
  159.2000   120.2547    11.5269    11.4935
  159.3000   120.2528    11.5580    11.4930
  159.4000   120.1554    11.5319    11.4739
  159.5000   119.9489    11.4770    11.4128
  159.6000   119.9576    11.4764    11.4123
  159.7000   120.2454    11.4756    11.4119
  159.8000   120.2438    11.4751    11.4114
  159.9000   120.6076    11.4744    11.4109
  160.0000   120.8408    11.4369    11.4105
  160.1000   120.8390    11.3941    11.4100
  160.2000   120.7275    11.3934    11.4095
  160.3000   120.2226    11.3928    11.4090
  160.4000   119.9325    11.3921    11.4085
  160.5000   119.2493    11.3915    11.3528
  160.6000   118.4745    11.3909    11.3290
  160.7000   117.4158    11.3531    11.2953
  160.8000   116.2250    11.3111    11.2499
  160.9000   115.3059    11.2958    11.2494
  161.0000   114.8028    11.2319    11.2490
  161.1000   114.5145    11.2312    11.2484
  161.2000   114.2839    11.2306    11.1916
  161.3000   114.2108    11.1819    11.1247
  161.4000   114.2090    11.1151    11.0925
  161.5000   114.4094    11.0744    11.0921
  161.6000   114.8060    11.0738    11.0916
  161.7000   114.8200    11.0732    11.0911
  161.8000   115.1025    11.0725    11.0906
  161.9000   115.1009    11.0133    11.0902
  162.0000   115.0991    10.9950    11.0898
  162.1000   115.0973    10.9944    11.0893
  162.2000   115.0955    10.9938    11.0888
  162.3000   115.1540    10.9932    11.0734
  162.4000   115.4098    10.9926    11.0114
  162.5000   115.6905    10.9919    11.0109
  162.6000   115.9215    10.9914    11.0105
  162.7000   115.9874    10.9907    10.9616
  162.8000   116.2803    10.9901    10.9337
  162.9000   116.5844    10.9631    10.9332
  163.0000   116.7067    10.9131    10.9328
  163.1000   117.1815    10.9125    10.9323
  163.2000   116.8791    10.9119    10.9319
  163.3000   116.4086    10.9113    10.9314
  163.4000   115.6997    10.9107    10.9310
  163.5000   114.9249    10.8728    10.9305
  163.6000   114.3632    10.8343    10.9301
  163.7000   114.1037    10.8178    10.9296
