~VERSION INFORMATION
 VERS.                2.0:   CWLS LOG ASCII STANDARD - VERSION 2.0
 WRAP.                 NO:   ONE LINE PER DEPTH STEP
~WELL INFORMATION
#MNEM.UNIT      DATA TYPE    INFORMATION
#----------   ------------   ------------------------------
 STRT.F            0.0000:   START DEPTH
 STOP.F          664.0000:   STOP DEPTH
 STEP.F            0.5000:   STEP LENGTH
 NULL.          -999.2500:   NO VALUE
 COMP. Fluor Daniel (NPOSR) Inc:   COMPANY
 WELL.      71-3-X-3 #3-3:   WELL
 FLD .             N.P.R.:   FIELD
 LOC .       S3 T38N R78W:   LOCATION
 CNTY.            NATRONA:   COUNTY
 STAT.            WYOMING:   STATE
 CTRY. UNITED STATES OF AMERICA:   COUNTRY
 SRVC.      Western Atlas:   SERVICE COMPANY
 DATE.        12-APR-1996:   LOGDATE
 API .       490252277200:   API NUMBER
~CURVE INFORMATION
#MNEM.UNIT       API CODE    CURVE DESCRIPTION
#----------   ------------   ------------------------------
 DEPT.F                  :   
 GRR .GAPI   07 310 01 00:   GAMMA RAY FROM RES. LOG.
 RILD.OHMM   07 120 46 00:   INDUCTION LOG DEEP RESISTIVITY
 RILM.OHMM   07 120 44 00:   INDUCTION LOG MEDIUM RESISTIVITY
~PARAMETER INFORMATION
#MNEM.UNIT          VALUE    DESCRIPTION
#----------   ------------   ------------------------------
 PD  .                 GL:   PERMANENT DATUM
 EPD .F              5118:   ELEVATION PERMANENT DATUM
 LMF .                 KB:   LOG MEASURED FROM
 DAPD.F                10:   FEET ABOVE PERMANENT DATUM
 DMF .                 KB:   DRILLING MEASURED FROM
 EKB .F              5128:   KELLING BUSHING
 EDF .F              5127:   DRILLING FLOOR
 EGL .F              5118:   GROUND LEVEL
 DATE.        12-APR-1996:   RUN DATE
 RUN .                  1:   RUN NUMBER
 DD  .F               670:   DEPTH DRILLER
 DL  .F               672:   DEPTH LOGGER
 BLI .F               664:   BOTTOM LOG INTERVAL
 CS  .IN            9.625:   CASING SIZE
 CBD .F                56:   CASING BOTTOM DRILLER
 CBL .F                57:   CASING BOTTOM LOGGER
 BS  .IN             8.75:   BIT SIZE
 BSD .F               670:   BIT SIZE AT DEPTH
 DFT .                AIR:   DRILLING FLUID TYPE
 MRT .F                84:   MAXIMUM RECORDED TEMPERATURE
 LUN .             HL6530:   LOGGING UNIT NUMBER
 LUL .             CASPER:   LOGGING UNIT LOCATION
 ENGI.             RAUTIO:   RECORDING ENGINEER
 WITN.              HARDY:   WITNESSED BY
 CLNT.            A2DTECH:   CLIENT CODE
 ORIG.       2", 5" PRINT:   ORIGIN OF DATA
 UWI .       490252277200:   UNIQUE WELL ID
 DICO. A2D Technologies, Inc.:   DIGITIZING COMPANY
~OTHER INFORMATION
~A    DEPT      GRR      RILD       RILM   
# ...
  364.0000   139.4172     7.2523     7.3401
  364.5000   139.0189     7.2197     7.3270
  365.0000   142.9259     7.1874     7.3140
  365.5000   145.8279     7.1551     7.3009
  366.0000   145.9915     7.1230     7.2702
  366.5000   144.3814     7.0312     7.2254
  367.0000   143.0345     7.0289     7.1619
  367.5000   140.9942     7.0306     7.1779
  368.0000   140.7390     7.0312     7.2056
  368.5000   141.4313     7.0312     7.2280
  369.0000   143.1943     7.0325     7.2050
  369.5000   142.8130     7.0344     7.1850
  370.0000   141.1130     7.0349     7.1654
  370.5000   140.8208     6.5680     6.7316
  371.0000   142.9655     6.1810     6.3022
  371.5000   145.9942     5.9426     6.0555
  372.0000   147.6095     5.7117     5.7808
  372.5000   147.9051     5.3825     5.6897
  373.0000   148.2200     5.4329     5.5851
  373.5000   148.5487     5.4832     5.6588
  374.0000   149.2812     5.4832     5.7705
  374.5000   150.4884     5.4832     5.8844
  375.0000   150.8693     5.4832     5.9570
  375.5000   150.4069     5.4695     6.0121
  376.0000   149.9079     5.3587     5.6586
  376.5000   148.1992     5.2561     5.4019
  377.0000   146.3573     5.1320     5.2733
  377.5000   144.8379     4.9548     5.2361
  378.0000   145.3515     5.0827     5.2353
  378.5000   144.8707     5.2222     5.3457
  379.0000   143.3700     5.2948     5.5519
  379.5000   142.2793     5.3570     5.7653
  380.0000   141.4870     5.5446     5.9570
  380.5000   140.7020     5.8571     6.1141
  381.0000   139.9338     6.1854     6.4259
  381.5000   139.5838     6.5368     6.7757
  382.0000   139.2464     6.6672     6.7980
  382.5000   139.3079     6.7769     6.8244
  383.0000   139.5678     6.5626     6.8396
  383.5000   137.8553     6.2327     6.5083
  384.0000   136.0925     5.8180     6.0549
  384.5000   136.0124     5.4329     5.6331
  385.0000   137.2733     5.0614     5.2407
  385.5000   140.9911     4.7318     5.0994
  386.0000   144.6653     4.8088     5.0114
  386.5000   145.1305     4.8989     5.0007
  387.0000   145.0571     4.9907     5.1782
  387.5000   143.8396     5.0820     5.4048
  388.0000   142.6059     5.1884     5.8283
  388.5000   142.3196     5.5977     6.2849
  389.0000   142.3181     6.0855     6.7532
  389.5000   142.3048     6.6532     7.0741
  390.0000   140.3859     6.9112     7.3626
  390.5000   137.4767     7.1881     7.4721
  391.0000   135.4240     7.4472     7.6222
  391.5000   134.1346     7.5543     7.7809
  392.0000   134.4325     7.6630     7.8265
  392.5000   137.4353     7.7809     7.8740
  393.0000   138.2647     7.8164     7.9218
  393.5000   135.7628     7.8527     7.9699
  394.0000   133.1218     7.8893     7.9989
  394.5000   132.2728     7.9259     7.9989
  395.0000   129.9393     7.9254     7.9989
  395.5000   126.9859     7.9253     7.9989
  396.0000   126.2757     7.9261     7.9999
  396.5000   126.8109     7.8833     8.0052
  397.0000   129.0771     7.8428     7.9194
  397.5000   132.3811     7.8024     7.9250
  398.0000   134.4597     7.7809     7.9255
  398.5000   135.1338     7.7809     7.9245
  399.0000   133.7769     7.8960     7.9741
  399.5000   130.9856     8.0045     8.0526
  400.0000   127.9324     8.1476     8.2784
  400.5000   124.7531     7.9898     8.6161
  401.0000   122.2759     7.6480     8.2470
  401.5000   121.1321     7.0806     7.5007
  402.0000   122.9604     6.4528     6.4548
  402.5000   127.9455     5.8807     5.5559
  403.0000   134.5961     5.5788     5.0570
  403.5000   144.1544     5.5357     4.7756
  404.0000   151.4952     5.4828     5.1238
  404.5000   146.6991     5.5017     5.6223
  405.0000   136.1426     5.5287     6.1806
  405.5000   127.3184     5.7744     6.8320
  406.0000   123.9109     6.2778     7.4967
  406.5000   123.8496     7.1326     8.2260
  407.0000   123.4958     8.1038     8.9736
  407.5000   122.9430     9.1840     9.4732
  408.0000   122.3847     9.2567     9.5286
  408.5000   122.0002     9.2876     9.4089
  409.0000   122.2722     9.3308     9.3118
  409.5000   123.6329     9.4404     9.2107
  410.0000   125.4436     9.7911     9.1840
  410.5000   127.3386    10.1548    10.3374
  411.0000   126.5208    10.6505    11.2122
  411.5000   119.1079    11.8150    11.8858
  412.0000   109.3233    13.1068    13.8877
  412.5000    91.8221    14.6903    16.0336
  413.0000    74.5230    16.4559    18.5110
  413.5000    63.2237    18.6656    21.6287
  414.0000    58.1264    21.1669    23.4072
  414.5000    54.7738    24.0427    25.2507
  415.0000    55.5140    25.8960    26.5623
  415.5000    59.3345    27.2479    27.7351
  416.0000    64.2335    27.5562    28.1002
  416.5000    67.1586    27.9905    28.2507
  417.0000    66.5825    27.7425    28.0284
  417.5000    63.1115    27.4791    27.6408
  418.0000    60.3433    27.7952    27.2585
  418.5000    60.6359    28.3341    26.7319
  419.0000    63.7005    29.2247    26.9793
  419.5000    67.6772    30.1321    28.2664
  420.0000    69.0358    31.1506    29.6094
  420.5000    69.1423    32.0845    31.0152
  421.0000    65.6906    33.2006    32.4409
  421.5000    61.8658    34.9909    33.9646
  422.0000    60.4079    36.9144    35.4741
  422.5000    60.2985    38.8938    37.0320
  423.0000    60.6325    41.2126    37.9296
  423.5000    61.1145    40.9285    38.6506
  424.0000    62.1622    40.5084    38.1503
  424.5000    63.3897    38.8320    37.2417
  425.0000    65.4469    37.0706    34.7080
  425.5000    66.9962    35.3891    31.8666
  426.0000    67.0528    34.1877    31.0357
  426.5000    66.7456    33.2363    30.1940
  427.0000    69.9278    32.3663    29.3608
  427.5000    74.6120    30.9519    28.5287
  428.0000    76.3204    29.3526    27.4788
  428.5000    75.3298    27.4808    26.1407
  429.0000    76.7095    27.7137    25.0313
  429.5000    80.2908    27.2296    24.8384
  430.0000    82.6783    27.2290    24.6054
  430.5000    81.4769    27.4119    25.0008
  431.0000    80.3389    27.8933    25.9200
  431.5000    79.5266    28.2008    26.8729
  432.0000    79.2002    28.7294    27.8609
  432.5000    77.7310    29.0422    28.5121
  433.0000    76.9600    28.2507    27.0459
  433.5000    77.2562    27.0645    25.3622
  434.0000    77.5350    25.9872    23.6785
  434.5000    77.9457    24.9528    21.7983
  435.0000    80.2636    23.4374    20.4099
  435.5000    85.1602    21.9390    19.4808
  436.0000    89.3872    20.6223    18.5999
  436.5000    89.7709    19.5447    17.8250
  437.0000    87.9103    18.9695    17.5876
  437.5000    86.0111    18.3398    17.3712
  438.0000    85.7091    17.9808    17.1803
  438.5000    87.4317    17.9511    17.0228
  439.0000    89.1362    17.9213    17.0228
  439.5000    89.2450    17.8916    17.0221
  440.0000    89.9937    17.8620    17.0227
  440.5000    90.8208    17.8242    17.1372
  441.0000    91.6625    17.9391    17.2603
  441.5000    92.0112    18.1489    17.3840
  442.0000    91.4712    18.3607    17.5086
  442.5000    88.1300    18.5751    17.6341
  443.0000    87.4816    18.7919    17.8580
  443.5000    88.2369    19.0112    17.9440
  444.0000    88.6190    19.2331    18.0303
  444.5000    87.4698    19.3654    18.1171
  445.0000    87.7645    19.4670    18.2043
  445.5000    88.4374    19.5678    18.2920
  446.0000    88.4241    19.6688    18.4063
  446.5000    88.4253    19.7256    18.6651
  447.0000    88.4202    19.6944    18.5279
  447.5000    88.2654    19.5701    18.3119
  448.0000    87.6588    19.4466    18.1004
  448.5000    88.2741    19.3239    17.8914
  449.0000    90.6167    19.2020    17.6849
  449.5000    92.4236    18.8898    17.4808
  450.0000    91.3922    18.5583    17.2796
  450.5000    89.3261    18.2327    17.0210
  451.0000    91.0589    17.9127    17.0242
  451.5000    93.8856    17.6680    16.8046
  452.0000    93.8454    17.4531    16.6406
  452.5000    92.4758    17.2431    16.4805
  453.0000    91.1015    17.0171    16.3232
  453.5000    90.1559    16.7178    16.0950
  454.0000    89.7667    16.5246    15.8688
  454.5000    90.0301    16.2566    15.6457
