~VERSION INFORMATION
 VERS.                2.0:   CWLS LOG ASCII STANDARD - VERSION 2.0
 WRAP.                 NO:   ONE LINE PER DEPTH STEP
~WELL INFORMATION
#MNEM.UNIT      DATA TYPE    INFORMATION
#----------   ------------   ------------------------------
 STRT.F           24.5000:   START DEPTH
 STOP.F          506.0000:   STOP DEPTH
 STEP.F            0.5000:   STEP LENGTH
 NULL.          -999.2500:   NO VALUE
 COMP. FENIX & SCISSON INC:   COMPANY
 WELL.    NPR 3 SX #44-10:   WELL
 FLD .        TEAPOT DOME:   FIELD
 LOC .      S10 T38N R78W:   LOCATION
 CNTY.            NATRONA:   COUNTY
 STAT.            WYOMING:   STATE
 CTRY. UNITED STATES OF AMERICA:   COUNTRY
 SRVC.           BIRDWELL:   SERVICE COMPANY
 DATE.        14-NOV-1978:   LOGDATE
 API .       490251074700:   API NUMBER
~CURVE INFORMATION
#MNEM.UNIT       API CODE    CURVE DESCRIPTION
#----------   ------------   ------------------------------
 DEPT.F                  :   
 SPR .MV     05 010 01 00:   SPONTANEOUS POTENTIAL FROM RES.
 IL  .OHMM   05 120 00 00:   INDUCTION LOG
 SN  .OHMM   05 040 16 00:   SHORT NORMAL 16"
 CALD.IN     45 280 60 00:   CALIPER
 GRD .GAPI   45 310 01 00:   GAMMA RAY FROM DENSITY LOG
 RHOB.G/C3   45 350 01 00:   BULK DENSITY
 DPHI.DEC    45 890 12 00:   DENSITY POROSITY SANDSTONE
 DRHO.G/C3   45 356 01 00:   DENSITY CORRECTION
~PARAMETER INFORMATION
#MNEM.UNIT          VALUE    DESCRIPTION
#----------   ------------   ------------------------------
 PD  .                 GL:   PERMANENT DATUM
 EPD .F              5211:   ELEVATION PERMANENT DATUM
 LMF .                 KB:   LOG MEASURED FROM
 DAPD.F                 4:   FEET ABOVE PERMANENT DATUM
 DMF .                 KB:   DRILLING MEASURED FROM
 EKB .F              5215:   KELLING BUSHING
 EGL .F              5211:   GROUND LEVEL
 DATE.           11-14-78:   RUN DATE
 RUN .                  1:   RUN NUMBER
 DD  .F               510:   DEPTH DRILLER
 DL  .F               506:   DEPTH LOGGER
 BLI .F               500:   BOTTOM LOG INTERVAL
 TLI .F                45:   TOP LOG INTERVAL
 CS  .IN            8.625:   CASING SIZE
 CBD .F                40:   CASING BOTTOM DRILLER
 CBL .F                40:   CASING BOTTOM LOGGER
 BS  .IN            7.875:   BIT SIZE
 BSD .F               510:   BIT SIZE AT DEPTH
 DFT .            SEA MUD:   DRILLING FLUID TYPE
 DFD .                8.7:   DRILLING FLUID DENSITY
 DFV .                 35:   DRILLING FLUID VISCOSITY
 DFPH.               10.5:   DRILLING FLUID PH
 MSS .            MUD PIT:   MUD SAMPLE SOURCE
 RMS .OHMM            .51:   RESISTIVITY MUD SAMPLE
 MST .F                54:   MUD SAMPLE TEMPERATURE
 RMF .OHMM            .45:   RESISTIVITY MUD FILTRATE SAMPLE
 MFST.F                54:   MUD FILTRATE SAMPLE TEMPERATURE
 RMC .OHMM             .5:   RESISTIVITY MUD CAKE
 MCST.F                60:   MUD CAKE SAMPLE TEMPERATURE
 MFSS.           MEASURED:   MUD FILTRATE SAMPLE SOURCE
 MCSS.           MEASURED:   MUD CAKE SAMPLE SOURCE
 RMB .OHMM            .49:   RESISTIVITY MUD AT BHT
 BHT .F                56:   BOTTOM HOLE TEMPERATURE
 TCS .HRS               2:   TIME CURCULATED STOPPED
 MRT .F                56:   MAXIMUM RECORDED TEMPERATURE
 LUN .               2958:   LOGGING UNIT NUMBER
 LUL .               CASP:   LOGGING UNIT LOCATION
 ENGI.             MILLER:   RECORDING ENGINEER
 WITN.           DINSMORE:   WITNESSED BY
 CLNT.            A2DTECH:   CLIENT CODE
 ORIG.       2", 5" PRINT:   ORIGIN OF DATA
 UWI .       490251074700:   UNIQUE WELL ID
 DICO. A2D Technologies, Inc.:   DIGITIZING COMPANY
~OTHER INFORMATION
~A   DEPT      SPR         IL         SN       CALD         GRD      RHOB       DPHI       DRHO   
# ...
  186.5000   -16.8930     7.3940     9.1710     7.9370    97.9040     2.5410     0.0890     0.2790
  187.0000   -18.2270     7.2530     8.9490     7.9500    97.4900     2.5490     0.0840     0.2760
  187.5000   -19.5020     7.1120     8.7270     7.9500    96.5040     2.5510     0.0810     0.2490
  188.0000   -20.7500     7.0560     8.5050     7.9500    95.5160     2.5480     0.0890     0.2060
  188.5000   -21.4770     7.0560     8.2840     7.9460    94.9050     2.5290     0.0950     0.1640
  189.0000   -20.2810     7.0560     8.0620     7.9390    95.0800     2.5110     0.1010     0.1210
  189.5000   -19.1170     7.0560     7.8400     7.9320    96.0780     2.5030     0.1070     0.0790
  190.0000   -18.6200     7.0560     7.6670     7.9240    97.0750     2.4950     0.1130     0.0430
  190.5000   -18.9260     7.0560     7.7380     7.9170    97.9320     2.4890     0.1120     0.0300
  191.0000   -19.2260     7.0560     7.9410     7.9110    97.9020     2.4910     0.1120     0.0250
  191.5000   -19.5210     7.3200     8.5200     7.9260    96.2150     2.4930     0.1110     0.0240
  192.0000   -20.1490     7.6390     9.0980     7.9060    94.5560     2.5010     0.1030     0.0210
  192.5000   -22.6080     7.9580     9.6540     7.8640    94.0100     2.5110     0.1060     0.0170
  193.0000   -21.5210     8.2760     9.7420     7.8230    94.4620     2.5040     0.1120     0.0130
  193.5000   -20.3760     8.5950     9.8470     7.7810    96.6200     2.4920     0.1190     0.0110
  194.0000   -19.2330     8.7230     9.9510     7.7400    98.8920     2.4790     0.1220     0.0100
  194.5000   -18.0950     8.7230    10.0560     7.6980    99.6170     2.4740     0.1200     0.0090
  195.0000   -17.0620     8.7280    10.1600     7.6700   100.3560     2.4860     0.1170     0.0080
  195.5000   -16.3880     8.7330    10.2650     7.7050   100.6900     2.4870     0.1140     0.0070
  196.0000   -15.7480     8.7380    10.3700     7.7680   100.5450     2.4900     0.1110     0.0060
  196.5000   -15.1410     8.7430    10.4740     7.8320    99.4510     2.4950     0.1090     0.0050
  197.0000   -15.8770     8.7480    10.5790     7.8950    96.5910     2.4970     0.1090     0.0040
  197.5000   -19.6170     8.7530    10.6830     7.9590    93.1590     2.4970     0.1100     0.0030
  198.0000   -17.5460     8.7570    10.7880     7.9860    91.6580     2.4970     0.1100     0.0030
  198.5000   -15.6510     8.7620    10.8830     7.9560    92.8300     2.4970     0.1080     0.0020
  199.0000   -15.8230     8.7670    10.8510     7.9250    94.0550     2.4970     0.1090     0.0030
  199.5000   -15.9580     8.7720    10.8200     7.9100    95.0580     2.4940     0.1110     0.0040
  200.0000   -15.8270     8.7770    10.7900     7.9130    96.1030     2.4920     0.1130     0.0060
  200.5000   -14.8870     8.7820    10.7600     7.9180    97.1480     2.4890     0.1150     0.0070
  201.0000   -13.9950     8.7870    10.7300     7.9240    98.1090     2.4920     0.1080     0.0080
  201.5000   -20.9230     8.7910    10.7000     7.9280    98.5370     2.5040     0.1000     0.0100
  202.0000   -17.6510     8.7970    10.6850     7.9870    98.8530     2.5160     0.0920     0.0110
  202.5000   -13.7820     8.8010    10.8330     8.0680    98.1120     2.5280     0.0860     0.0120
  203.0000   -14.6220     8.8040    10.9840     8.1080    97.3830     2.5390     0.0860     0.0140
  203.5000   -15.4150     8.6380    10.9080     8.1030    96.5930     2.5430     0.0860     0.0140
  204.0000   -16.2120     8.5600    10.7980     8.0990    95.7840     2.5430     0.0860     0.0110
  204.5000   -17.7260     8.4820    10.6870     8.0940    94.1050     2.5420     0.0860     0.0100
  205.0000   -19.0810     8.4040    10.5760     8.0900    92.2920     2.5420     0.0890     0.0090
  205.5000   -17.7900     8.3260    10.4660     8.0850    90.5090     2.5390     0.0920     0.0080
  206.0000   -16.3350     8.2540    10.3550     8.0810    90.8080     2.5270     0.0950     0.0080
  206.5000   -17.8670     8.0910    10.2440     8.0760    94.6460     2.5150     0.0980     0.0070
  207.0000   -19.2310     7.9390    10.1340     8.0710    97.7780     2.5120     0.1000     0.0060
  207.5000   -18.7260     7.7880    10.0230     8.0700    99.9560     2.5130     0.1030     0.0050
  208.0000   -18.2870     7.6370     9.9130     8.0700   100.6640     2.5150     0.1060     0.0040
  208.5000   -18.7430     7.4850     9.8020     8.0700   101.2830     2.5160     0.1090     0.0030
  209.0000   -22.1730     7.3340     9.6910     8.0700   101.1420     2.5040     0.1120     0.0020
  209.5000   -20.0470     7.1820     9.4370     8.0700   100.9420     2.4920     0.1140     0.0020
  210.0000   -17.7270     7.0310     9.1090     8.0620   101.5680     2.4820     0.1160     0.0010
  210.5000   -21.6350     6.8800     8.7820     8.0490   102.4970     2.4810     0.1180     0.0000
  211.0000   -20.8140     6.7280     8.4540     8.0380   102.8540     2.4800     0.1210    -0.0010
  211.5000   -19.5620     6.5100     7.9980     8.0200   103.1980     2.4740     0.1280    -0.0010
  212.0000   -18.3250     6.0950     7.5190     8.0710   103.3410     2.4620     0.1360    -0.0020
  212.5000   -18.5300     5.6800     7.0410     8.1220   103.4170     2.4470     0.1440    -0.0030
  213.0000   -18.9370     5.2300     6.5620     8.1200   103.5010     2.4300     0.1570    -0.0040
  213.5000   -19.3430     4.7380     6.2020     8.0530   103.0810     2.4070     0.1740    -0.0040
  214.0000   -19.7500     4.2470     5.6990     7.9920   100.9990     2.3720     0.2010    -0.0040
  214.5000   -20.1570     3.7550     5.2180     8.0140    98.0660     2.3350     0.2270    -0.0030
  215.0000   -20.5640     3.2830     4.7370     8.0370    95.0410     2.2910     0.2540     0.0040
  215.5000   -20.9710     3.2760     4.2550     8.0430    93.1810     2.2470     0.2670     0.0120
  216.0000   -21.3740     3.2690     3.7740     8.0280    93.1010     2.2320     0.2610     0.0190
  216.5000   -21.7210     3.2630     3.4060     8.0130    93.0850     2.2600     0.2370     0.0270
  217.0000   -21.4510     3.2560     3.5460     7.9980    93.8050     2.3110     0.2020     0.0270
  217.5000   -21.1710     3.2530     3.6590     7.9830    96.7850     2.3630     0.1790     0.0270
  218.0000   -20.8930     3.4550     3.7700     7.9680    99.7790     2.3910     0.1640     0.0230
  218.5000   -20.6190     3.8550     4.2180     7.9530   102.6210     2.4110     0.1420     0.0190
  219.0000   -20.3540     4.2560     4.6540     7.9460   102.7010     2.4320     0.1320     0.0140
  219.5000   -20.0690     4.6570     5.0890     7.9410   102.1890     2.4520     0.1280     0.0140
  220.0000   -20.9900     5.0570     5.5250     7.9360   101.7000     2.4720     0.1240     0.0140
  220.5000   -24.0210     5.4510     6.1860     7.9300   101.3110     2.4670     0.1290     0.0150
  221.0000   -20.5620     5.7690     6.8960     7.9250   100.9290     2.4620     0.1310     0.0150
  221.5000   -24.0780     6.0810     7.6050     7.9200   100.7260     2.4610     0.1290     0.0160
  222.0000   -21.8610     6.2550     7.7380     7.9150   100.7940     2.4700     0.1200     0.0220
  222.5000   -17.7600     6.3420     7.7380     7.9100   100.8670     2.4780     0.1110     0.0300
  223.0000   -18.1730     6.3760     7.7380     7.9050   101.2750     2.4860     0.1080     0.0380
  223.5000   -25.6980     6.1460     7.7380     7.9000   103.1770     2.4950     0.1060     0.0390
  224.0000   -22.8500     5.9170     7.7380     7.8950   105.0730     2.4990     0.1140     0.0390
  224.5000   -16.1860     5.6890     7.6210     7.8890   106.9570     2.4880     0.1260     0.0390
  225.0000   -16.1160     5.5510     7.4280     7.8840   109.2570     2.4670     0.1380     0.0390
  225.5000   -16.4420     5.5420     7.0930     7.8790   111.8180     2.4460     0.1520     0.0390
  226.0000   -16.7720     5.5330     6.7230     7.8740   114.3900     2.4210     0.1560     0.0390
  226.5000   -17.2720     5.5240     6.3520     7.8700   114.5540     2.4300     0.1460     0.0390
