~VERSION INFORMATION
 VERS.                2.0:   CWLS LOG ASCII STANDARD - VERSION 2.0
 WRAP.                 NO:   ONE LINE PER DEPTH STEP
~WELL INFORMATION
#MNEM.UNIT      DATA TYPE    INFORMATION
#----------   ------------   ------------------------------
 STRT.F           39.5000:   START DEPTH
 STOP.F          591.0000:   STOP DEPTH
 STEP.F            0.5000:   STEP LENGTH
 NULL.          -999.2500:   NO VALUE
 COMP. FENIX & SCISSON INC:   COMPANY
 WELL.      26 SX 3 #26-3:   WELL
 FLD .             TEAPOT:   FIELD
 LOC .       S3 T38N R78W:   LOCATION
 CNTY.            NATRONA:   COUNTY
 STAT.            WYOMING:   STATE
 CTRY. UNITED STATES OF AMERICA:   COUNTRY
 SRVC.           BIRDWELL:   SERVICE COMPANY
 DATE.        01-OCT-1978:   LOGDATE
 API .       490251071500:   API NUMBER
~CURVE INFORMATION
#MNEM.UNIT       API CODE    CURVE DESCRIPTION
#----------   ------------   ------------------------------
 DEPT.F                  :   
 SPR .MV     05 010 01 00:   SPONTANEOUS POTENTIAL FROM RES.
 SN  .OHMM   05 040 16 00:   SHORT NORMAL 16"
 ILD .OHMM   05 120 46 00:   INDUCTION LOG DEEP
 RHOB.G/C3   45 350 01 00:   BULK DENSITY
 CORR.G/C3   45 356 01 00:   DENSITY CORRECTION
 DPHI.DEC    45 890 12 00:   DENSITY POROSITY SANDSTONE
 GRD .GAPI   45 310 01 00:   GAMMA RAY FROM DENSITY LOG
 CALD.IN     45 280 60 00:   CALIPER
~PARAMETER INFORMATION
#MNEM.UNIT          VALUE    DESCRIPTION
#----------   ------------   ------------------------------
 PD  .                 GL:   PERMANENT DATUM
 EPD .F              5225:   ELEVATION PERMANENT DATUM
 LMF .                 KB:   LOG MEASURED FROM
 DAPD.F                 4:   FEET ABOVE PERMANENT DATUM
 DMF .                 KB:   DRILLING MEASURED FROM
 EKB .F              5229:   KELLING BUSHING
 EGL .F              5225:   GROUND LEVEL
 DATE.            10-1-78:   RUN DATE
 RUN .                  1:   RUN NUMBER
 DD  .F               600:   DEPTH DRILLER
 DL  .F               597:   DEPTH LOGGER
 BLI .F               591:   BOTTOM LOG INTERVAL
 TLI .F                60:   TOP LOG INTERVAL
 CS  .IN            8.625:   CASING SIZE
 CBD .F                40:   CASING BOTTOM DRILLER
 BS  .IN            7.875:   BIT SIZE
 BSD .F               600:   BIT SIZE AT DEPTH
 DFT .                KCL:   DRILLING FLUID TYPE
 DFD .                8.7:   DRILLING FLUID DENSITY
 DFV .                 34:   DRILLING FLUID VISCOSITY
 DFPH.                  9:   DRILLING FLUID PH
 DFL .                 10:   DRILLING FLUID LOSS
 MSS .            MUD PIT:   MUD SAMPLE SOURCE
 RMS .OHMM            .24:   RESISTIVITY MUD SAMPLE
 MST .F                65:   MUD SAMPLE TEMPERATURE
 RMF .OHMM            .45:   RESISTIVITY MUD FILTRATE SAMPLE
 MFST.F                65:   MUD FILTRATE SAMPLE TEMPERATURE
 RMC .OHMM             .4:   RESISTIVITY MUD CAKE
 MCST.F                65:   MUD CAKE SAMPLE TEMPERATURE
 MFSS.               MEAS:   MUD FILTRATE SAMPLE SOURCE
 TCS .HRS               3:   TIME CURCULATED STOPPED
 LUN .               2958:   LOGGING UNIT NUMBER
 LUL .               CASP:   LOGGING UNIT LOCATION
 ENGI.             MILLER:   RECORDING ENGINEER
 WITN.           DINSMORE:   WITNESSED BY
 CLNT.            A2DTECH:   CLIENT CODE
 ORIG.       2", 5" PRINT:   ORIGIN OF DATA
 UWI .       490251071500:   UNIQUE WELL ID
 DICO. A2D Technologies, Inc.:   DIGITIZING COMPANY
~OTHER INFORMATION
~A   DEPT      SPR         SN        ILD       RHOB       CORR       DPHI        GRD         CALD 
# ...
  120.5000   -12.4750     7.4197     7.6188     2.5050     0.0168     0.1126   183.7543     7.7930
  121.0000   -12.4750     7.4352     7.6048     2.4918     0.0163     0.1203   185.2787     7.7834
  121.5000   -12.4750     7.4469     7.5909     2.4787     0.0158     0.1222   182.3257     7.7738
  122.0000   -12.4750     7.4584     7.5770     2.4731     0.0152     0.1230   176.6754     7.7639
  122.5000   -12.4750     7.4699     7.5575     2.4711     0.0147     0.1152   171.0015     7.7678
  123.0000   -12.4750     7.4813     7.7255     2.4804     0.0141     0.1101   167.7628     7.7745
  123.5000   -12.4750     7.7366     8.0756     2.4909     0.0135     0.1066   167.2717     7.7813
  124.0000   -12.4750     8.2203     8.4417     2.5013     0.0133     0.1127   165.9784     7.7809
  124.5000   -12.4750     8.3535     8.8243     2.4941     0.0263     0.1144   157.7094     7.7793
  125.0000   -12.4750     8.4888     9.2251     2.4855     0.0401     0.1142   153.3949     7.7778
  125.5000   -12.4750     8.6263     9.7731     2.4875     0.0519     0.1098   154.1213     7.7762
  126.0000   -12.4750     8.7401     9.6679     2.4974     0.0549     0.1042   153.9973     7.7747
  126.5000   -12.4750     8.6220     9.4604     2.5174     0.0442     0.0987   151.5192     7.7731
  127.0000   -12.4750     8.5055     9.2577     2.5282     0.0311     0.0945   150.1910     7.7716
  127.5000   -12.4750     8.3906     9.0803     2.5234     0.0249     0.0942   151.4135     7.7700
  128.0000   -12.4750     8.2772     9.0947     2.5182     0.0217     0.0967   155.2871     7.7685
  128.5000   -12.4750     8.1426     9.1087     2.5129     0.0184     0.1010   157.2821     7.7669
  129.0000   -12.4750     8.2094     9.1226     2.5076     0.0146     0.1062   156.1295     7.7654
  129.5000   -12.4750     8.3221     9.1366     2.5023     0.0133     0.1064   156.3925     7.7638
  130.0000   -12.4750     8.4363     9.1506     2.4979     0.0139     0.1066   158.0145     7.7624
  130.5000   -12.4750     8.5519     9.1933     2.4986     0.0145     0.1002   160.6681     7.7624
  131.0000   -12.4750     8.6690     9.4998     2.5022     0.0151     0.0888   162.8353     7.7624
  131.5000   -12.4750     8.7523     9.7100     2.5197     0.0157     0.0775   162.8112     7.7624
  132.0000   -12.4750     8.7521     9.8603     2.5369     0.0163     0.0740   158.4181     7.7624
  132.5000   -12.4750     8.7521     9.8461     2.5539     0.0169     0.0750   155.2103     7.7624
  133.0000   -12.4750     8.7520     9.8320     2.5559     0.0167     0.0759   150.9327     7.7624
  133.5000   -12.4750     8.7520     9.8179     2.5465     0.0163     0.0824   145.0230     7.7624
  134.0000   -12.4750     8.7520     9.8038     2.5327     0.0160     0.0913   139.0276     7.7624
  134.5000   -12.4750     8.7520     9.7898     2.5166     0.0156     0.0966   138.4552     7.7624
  135.0000   -12.4750     8.7520     9.7758     2.5093     0.0153     0.0989   145.4647     7.7624
  135.5000   -12.4750     8.7529     9.3868     2.5024     0.0149     0.1012   152.0613     7.7624
  136.0000   -12.4750     8.7186     8.9090     2.4952     0.0146     0.1053   153.5308     7.7624
  136.5000   -12.4750     8.6521     8.8567     2.4969     0.0142     0.1094   158.8816     7.7624
  137.0000   -12.4750     8.5862     8.8047     2.5005     0.0139     0.1045   158.2103     7.7628
  137.5000   -12.4751     8.5207     8.7530     2.5042     0.0135     0.1013   146.8148     7.7491
  138.0000   -12.4749     8.3799     8.7016     2.5079     0.0132     0.1032   145.4255     7.7340
  138.5000   -12.4759     8.2332     8.6506     2.5055     0.0127     0.1058   148.1284     7.7188
  139.0000   -12.4101     8.1321     8.5998     2.5003     0.0122     0.1065   149.8432     7.7037
  139.5000   -12.3054     8.1321     8.5493     2.4990     0.0117     0.1064   148.3569     7.6887
  140.0000   -12.1999     8.1321     8.5072     2.4981     0.0111     0.1062   147.7475     7.6735
  140.5000   -12.0943     8.1321     8.4843     2.5009     0.0106     0.1022   149.8518     7.6584
  141.0000   -11.9889     8.1321     8.4614     2.5040     0.0101     0.1012   149.1966     7.6439
  141.5000   -11.8832     8.1321     8.4386     2.5067     0.0095     0.1060   148.5817     7.6435
  142.0000   -11.7772     8.1321     8.4158     2.5003     0.0091     0.1079   149.1476     7.6434
  142.5000   -11.6795     8.1321     8.3931     2.4954     0.0105     0.1068   147.6252     7.6425
  143.0000   -11.6967     8.1321     8.3705     2.4984     0.0120     0.1066   147.3316     7.6789
  143.5000   -11.7174     8.1321     8.3601     2.5009     0.0135     0.1076   147.1970     7.7201
  144.0000   -11.7376     8.1321     8.3693     2.5003     0.0150     0.1085   146.6803     7.7613
  144.5000   -11.7576     8.1321     8.3761     2.4955     0.0166     0.1084   146.2936     7.8026
  145.0000   -11.7776     8.1321     8.3828     2.4936     0.0203     0.1075   146.8535     7.8215
  145.5000   -11.7977     8.1321     8.3896     2.4945     0.0249     0.1010   147.0950     7.8218
  146.0000   -11.8177     8.1321     8.3963     2.4982     0.0295     0.0983   146.6857     7.8218
  146.5000   -11.8378     8.1321     8.4031     2.5042     0.0341     0.0954   146.7263     7.8218
  147.0000   -11.8578     8.1321     8.4099     2.5104     0.0368     0.0932   146.6069     7.8218
  147.5000   -11.8778     8.1321     8.4167     2.5175     0.0360     0.0915   157.7677     7.8218
  148.0000   -11.8979     8.1321     8.4234     2.5232     0.0352     0.0898   161.5350     7.8218
  148.5000   -11.9179     8.1321     8.4303     2.5230     0.0345     0.0888   165.5341     7.8218
  149.0000   -11.9380     8.1321     8.4356     2.5230     0.0337     0.0879   173.0333     7.8218
  149.5000   -11.9580     8.1321     8.4173     2.5231     0.0330     0.0882   173.2648     7.8218
  150.0000   -11.9780     8.1321     8.4002     2.5227     0.0323     0.0886   170.4458     7.8218
  150.5000   -11.9981     8.1321     8.3830     2.5165     0.0315     0.0927   163.2023     7.8218
  151.0000   -12.0181     8.1321     8.3659     2.5151     0.0288     0.0965   160.0195     7.8218
  151.5000   -12.0382     8.1321     8.3487     2.5150     0.0214     0.1007   156.8699     7.8218
  152.0000   -12.0583     8.1320     8.3317     2.5133     0.0148     0.1060   155.1950     7.8217
  152.5000   -12.0764     8.1318     8.3145     2.4999     0.0150     0.1058   155.9409     7.8219
  153.0000   -12.0759     8.1311     8.2976     2.4987     0.0150     0.1036   159.8698     7.8318
  153.5000   -12.0758     8.2071     8.2828     2.5016     0.0150     0.1018   164.1006     7.8426
  154.0000   -12.0758     8.4588     8.3790     2.5047     0.0150     0.1019   168.2515     7.8534
  154.5000   -12.0758     8.7394     8.4655     2.5055     0.0150     0.1021   168.2149     7.8641
  155.0000   -12.0758     9.1616     8.5521     2.5046     0.0150     0.1018   168.3976     7.8749
  155.5000   -12.0758     9.1399     8.5936     2.5052     0.0150     0.0998   169.3810     7.8856
  156.0000   -12.0758     9.0900     8.5701     2.5083     0.0150     0.0988   169.9501     7.8964
  156.5000   -12.0758     9.0426     8.5533     2.5114     0.0150     0.0983   165.3023     7.9071
  157.0000   -12.0758     8.9954     8.5366     2.5127     0.0165     0.1001   158.2898     7.9179
  157.5000   -12.0758     8.9486     8.5198     2.5091     0.0188     0.1048   157.6455     7.9286
  158.0000   -12.0758     8.9020     8.5031     2.5028     0.0212     0.1094   159.8813     7.9394
  158.5000   -12.0758     8.8556     8.4865     2.4977     0.0233     0.1098   164.1715     7.9502
  159.0000   -12.0758     8.8096     8.4698     2.4972     0.0243     0.1039   165.9653     7.9603
  159.5000   -12.0758     8.7637     8.4531     2.5022     0.0225     0.1019   164.8940     7.9622
  160.0000   -12.0758     8.7181     8.4358     2.5070     0.0168     0.1022   164.3440     7.9639
  160.5000   -12.0758     8.6721     8.3805     2.5070     0.0153     0.1035   166.4034     7.9655
