~VERSION INFORMATION
 VERS.                2.0:   CWLS LOG ASCII STANDARD - VERSION 2.0
 WRAP.                 NO:   ONE LINE PER DEPTH STEP
~WELL INFORMATION
#MNEM.UNIT      DATA TYPE    INFORMATION
#----------   ------------   ------------------------------
 STRT.F           28.0000:   START DEPTH
 STOP.F          468.0000:   STOP DEPTH
 STEP.F            0.5000:   STEP LENGTH
 NULL.          -999.2500:   NO VALUE
 COMP. FENIX & SCISSON INC:   COMPANY
 WELL. NAVAL PETROLEUM RESERVE 3 SX3F #35-3:   WELL
 FLD .             TEAPOT:   FIELD
 LOC .       S3 T38N R78W:   LOCATION
 CNTY.            NATRONA:   COUNTY
 STAT.            WYOMING:   STATE
 CTRY. UNITED STATES OF AMERICA:   COUNTRY
 SRVC.              Welex:   SERVICE COMPANY
 DATE.        07-JUL-1980:   LOGDATE
 API .       490251081700:   API NUMBER
~CURVE INFORMATION
#MNEM.UNIT       API CODE    CURVE DESCRIPTION
#----------   ------------   ------------------------------
 DEPT.F                  :   
 CORR.G/C3   45 356 01 00:   DENSITY CORRECTION
 RHOB.G/C3   45 350 01 00:   BULK DENSITY
 CALD.IN     45 280 60 00:   CALIPER
 GRD .GAPI   45 310 01 00:   GAMMA RAY FROM DENSITY LOG
 DPHI.DEC    45 890 12 00:   DENSITY POROSITY SANDSTONE
~PARAMETER INFORMATION
#MNEM.UNIT          VALUE    DESCRIPTION
#----------   ------------   ------------------------------
 PD  .                 GL:   PERMANENT DATUM
 EPD .F              5162:   ELEVATION PERMANENT DATUM
 LMF .                 KB:   LOG MEASURED FROM
 DAPD.F                 5:   FEET ABOVE PERMANENT DATUM
 DMF .                 KB:   DRILLING MEASURED FROM
 EKB .F              5167:   KELLING BUSHING
 EGL .F              5162:   GROUND LEVEL
 DATE.             7-7-80:   RUN DATE
 RUN .                  1:   RUN NUMBER
 DD  .F               470:   DEPTH DRILLER
 DL  .F               470:   DEPTH LOGGER
 BLI .F               468:   BOTTOM LOG INTERVAL
 TLI .F                30:   TOP LOG INTERVAL
 BS  .IN             6.25:   BIT SIZE
 BSD .F               470:   BIT SIZE AT DEPTH
 DFT .        ARI DRILLED:   DRILLING FLUID TYPE
 TCS .HRS             1.5:   TIME CURCULATED STOPPED
 MRT .F                74:   MAXIMUM RECORDED TEMPERATURE
 ENGI.            TOTHILL:   RECORDING ENGINEER
 WITN.             AMENDS:   WITNESSED BY
 CLNT.            A2DTECH:   CLIENT CODE
 ORIG.           5" PRINT:   ORIGIN OF DATA
 UWI .       490251081700:   UNIQUE WELL ID
 DICO. A2D Technologies, Inc.:   DIGITIZING COMPANY
~OTHER INFORMATION
~A   DEPT      CORR        RHOB       CALD       GRD        DPHI 
   28.0000    -0.4165     2.1114     6.2828    83.0303     0.3002
   28.5000    -0.3793     2.1295     6.2828    82.6263     0.3002
   29.0000    -0.3702     2.1535     6.2828    82.4242     0.2959
   29.5000    -0.3649     2.1769     6.2828    82.4330     0.2846
   30.0000    -0.3501     2.2063     6.2828    82.5458     0.2703
   30.5000    -0.3299     2.2350     6.2828    82.6564     0.2561
   31.0000    -0.3098     2.2548     6.2831    82.7658     0.2419
   31.5000    -0.3067     2.2770     6.3039    82.8746     0.2311
   32.0000    -0.3094     2.2930     6.3645    82.9858     0.2219
   32.5000    -0.2944     2.3222     6.4172    82.9577     0.2126
   33.0000    -0.3016     2.3346     6.4068    82.8195     0.2041
   33.5000    -0.3117     2.3468     6.4080    82.3638     0.1961
   34.0000    -0.3016     2.3587     6.4103    81.8954     0.1877
   34.5000    -0.2797     2.3699     6.4126    81.6733     0.1801
   35.0000    -0.2811     2.3760     6.4149    81.8214     0.1778
   35.5000    -0.2735     2.3834     6.4171    81.9763     0.1733
   36.0000    -0.2634     2.3964     6.4194    81.4181     0.1688
   36.5000    -0.2644     2.3991     6.4217    80.5112     0.1642
   37.0000    -0.2724     2.4017     6.4239    80.3822     0.1652
   37.5000    -0.2799     2.3981     6.4290    81.2252     0.1658
   38.0000    -0.2816     2.4011     6.4359    81.7686     0.1608
   38.5000    -0.2727     2.4133     6.4430    80.5927     0.1547
   39.0000    -0.2681     2.4255     6.4500    80.3877     0.1486
   39.5000    -0.2775     2.4325     6.4572    81.9789     0.1448
   40.0000    -0.2857     2.4388     6.4644    83.5151     0.1416
   40.5000    -0.2849     2.4370     6.4594    84.0037     0.1424
   41.0000    -0.2818     2.4395     6.4187    83.5967     0.1408
   41.5000    -0.2788     2.4418     6.3881    83.3929     0.1396
   42.0000    -0.2758     2.4386     6.4276    84.3863     0.1416
   42.5000    -0.2736     2.4323     6.4442    85.0535     0.1456
   43.0000    -0.2735     2.4239     6.4350    85.0712     0.1504
   43.5000    -0.2800     2.4140     6.3744    86.0328     0.1570
   44.0000    -0.2890     2.4029     6.3141    87.0273     0.1635
   44.5000    -0.2857     2.3965     6.2532    89.4610     0.1666
   45.0000    -0.2697     2.3921     6.2472    92.2039     0.1692
   45.5000    -0.2440     2.3950     6.2592    95.0813     0.1668
   46.0000    -0.2088     2.4074     6.2714   101.0297     0.1605
   46.5000    -0.1359     2.4262     6.2833   107.0449     0.1465
   47.0000    -0.0271     2.4613     6.2573   113.0608     0.1249
   47.5000     0.0820     2.4959     6.2267   116.9980     0.1032
   48.0000     0.1146     2.5107     6.1959   118.2132     0.0963
   48.5000     0.1041     2.4977     6.1655   117.4651     0.1097
   49.0000     0.0955     2.4893     6.1691   117.3682     0.1105
   49.5000     0.0822     2.4829     6.1853   118.9938     0.1145
   50.0000     0.0761     2.4812     6.1961   121.5964     0.1160
   50.5000     0.0902     2.4925     6.2135   122.2140     0.1095
   51.0000     0.0965     2.4861     6.2737   122.0673     0.1147
   51.5000     0.0759     2.4764     6.3353   121.8798     0.1202
   52.0000     0.0654     2.4707     6.3612   121.7007     0.1218
   52.5000     0.0552     2.4649     6.3471   121.1217     0.1287
   53.0000     0.0379     2.4604     6.3327   120.2134     0.1283
   53.5000     0.0448     2.4656     6.3235   119.3053     0.1246
   54.0000     0.0579     2.4748     6.3247   118.4070     0.1201
   54.5000     0.0687     2.4815     6.3258   119.7520     0.1157
   55.0000     0.0663     2.4767     6.3269   121.6257     0.1193
   55.5000     0.0629     2.4741     6.3280   121.4101     0.1214
   56.0000     0.0628     2.4755     6.3291   121.8963     0.1199
   56.5000     0.0723     2.4765     6.3301   122.6288     0.1174
   57.0000     0.0726     2.4821     6.3312   121.8661     0.1161
   57.5000     0.0720     2.4749     6.3323   120.9318     0.1211
   58.0000     0.0615     2.4709     6.3334   121.4171     0.1226
   58.5000     0.0513     2.4696     6.3345   122.3329     0.1248
   59.0000     0.0410     2.4632     6.3356   122.4805     0.1281
   59.5000     0.0331     2.4586     6.3366   121.8629     0.1306
   60.0000     0.0406     2.4573     6.3377   121.2489     0.1287
   60.5000     0.0526     2.4639     6.3388   120.9862     0.1259
   61.0000     0.0602     2.4708     6.3399   120.6782     0.1230
   61.5000     0.0479     2.4630     6.3410   120.3019     0.1284
   62.0000     0.0344     2.4542     6.3421   119.5609     0.1319
   62.5000     0.0423     2.4566     6.3432   118.8046     0.1293
   63.0000     0.0548     2.4658     6.3458   119.4787     0.1247
   63.5000     0.0593     2.4620     6.3490   120.4035     0.1238
   64.0000     0.0449     2.4542     6.3522   119.6878     0.1313
   64.5000     0.0534     2.4588     6.3554   118.3738     0.1290
   65.0000     0.0598     2.4644     6.3586   118.3206     0.1254
   65.5000     0.0604     2.4633     6.3617   118.6967     0.1275
   66.0000     0.0621     2.4605     6.3579   119.2594     0.1255
   66.5000     0.0759     2.4666     6.3437   120.6476     0.1214
   67.0000     0.0879     2.4778     6.3296   122.0096     0.1186
   67.5000     0.0734     2.4753     6.3156   123.0905     0.1204
   68.0000     0.0767     2.4736     6.3015   121.6639     0.1198
   68.5000     0.0825     2.4838     6.2873   120.9683     0.1159
   69.0000     0.0805     2.4810     6.2829   120.8783     0.1145
   69.5000     0.0672     2.4728     6.2828   120.8398     0.1198
   70.0000     0.0647     2.4723     6.2828   119.7717     0.1219
   70.5000     0.0618     2.4724     6.2894   119.2019     0.1221
   71.0000     0.0591     2.4672     6.3023   119.5469     0.1258
   71.5000     0.0563     2.4647     6.3197   120.8554     0.1254
   72.0000     0.0519     2.4614     6.3512   123.5086     0.1268
   72.5000     0.0504     2.4568     6.3825   123.2524     0.1299
   73.0000     0.0539     2.4609     6.3841   124.0715     0.1270
   73.5000     0.0621     2.4646     6.3839   125.1591     0.1254
   74.0000     0.0703     2.4696     6.3838   125.6401     0.1235
   74.5000     0.0784     2.4734     6.3838   124.2009     0.1205
   75.0000     0.0795     2.4730     6.3838   123.5370     0.1208
   75.5000     0.0672     2.4677     6.3838   123.3405     0.1244
   76.0000     0.0550     2.4625     6.3838   123.0567     0.1277
   76.5000     0.0583     2.4668     6.3838   122.1382     0.1245
   77.0000     0.0657     2.4704     6.3838   121.2403     0.1232
   77.5000     0.0485     2.4622     6.3839   120.3939     0.1283
   78.0000     0.0362     2.4652     6.3853   117.8525     0.1251
   78.5000     0.0528     2.4717     6.3885   116.3790     0.1217
   79.0000     0.0671     2.4782     6.3917   116.5992     0.1184
   79.5000     0.0727     2.4752     6.3949   116.3019     0.1194
   80.0000     0.0702     2.4760     6.3980   114.2876     0.1198
   80.5000     0.0646     2.4719     6.4012   113.8086     0.1212
   81.0000     0.0588     2.4635     6.4041   114.7455     0.1278
   81.5000     0.0527     2.4672     6.4040   114.2222     0.1270
   82.0000     0.0675     2.4784     6.4040   113.9323     0.1190
   82.5000     0.0775     2.4824     6.4040   115.2093     0.1150
   83.0000     0.0635     2.4740     6.4040   115.5780     0.1205
   83.5000     0.0714     2.4791     6.4040   115.2738     0.1158
   84.0000     0.0718     2.4822     6.4040   115.9403     0.1176
   84.5000     0.0627     2.4751     6.4040   117.2912     0.1203
   85.0000     0.0668     2.4756     6.4041   118.7512     0.1191
   85.5000     0.0717     2.4762     6.4041   120.6795     0.1197
   86.0000     0.0765     2.4734     6.4045   122.6120     0.1191
   86.5000     0.0790     2.4794     6.3771   124.1091     0.1185
   87.0000     0.0685     2.4725     6.3149   122.5767     0.1226
   87.5000     0.0581     2.4658     6.1988   120.7196     0.1266
   88.0000     0.0569     2.4657     6.1406   118.9763     0.1250
   88.5000     0.0580     2.4689     6.1409   118.0272     0.1230
