~VERSION INFORMATION
 VERS.                2.0:   CWLS LOG ASCII STANDARD - VERSION 2.0
 WRAP.                 NO:   ONE LINE PER DEPTH STEP
~WELL INFORMATION
#MNEM.UNIT      DATA TYPE    INFORMATION
#----------   ------------   ------------------------------
 STRT.F           32.0000:   START DEPTH
 STOP.F          688.5000:   STOP DEPTH
 STEP.F            0.5000:   STEP LENGTH
 NULL.          -999.2500:   NO VALUE
 COMP. FENIX & SCISSON INC:   COMPANY
 WELL.       NPR 3 #78-34:   WELL
 FLD .  TEAPOT DOME NPR-3:   FIELD
 LOC .      S34 T39N R78W:   LOCATION
 CNTY.            NATRONA:   COUNTY
 STAT.            WYOMING:   STATE
 CTRY. UNITED STATES OF AMERICA:   COUNTRY
 SRVC.           BIRDWELL:   SERVICE COMPANY
 DATE.        16-AUG-1978:   LOGDATE
 API .       490251070700:   API NUMBER
~CURVE INFORMATION
#MNEM.UNIT       API CODE    CURVE DESCRIPTION
#----------   ------------   ------------------------------
 DEPT.F                  :   
 SPR .MV     05 010 01 00:   SPONTANEOUS POTENTIAL
 SN  .OHMM   05 040 16 00:   SHORT NORMAL 16'
 ILD .OHMM   05 120 46 00:   INDUCTION LOG DEEP RESISTIVITY
 CALD.IN     45 280 60 00:   CALIPER
 GRD .GAPI   45 310 01 00:   GAMMA RAY FROM DENSITY LOG
 RHOB.G/C3   45 350 01 00:   BULK DENSITY
 DPHI.DEC    45 890 12 00:   DENSITY POROSITY SANDSTONE
 CORR.G/C3   45 356 01 00:   DENSITY CORRECTION
~PARAMETER INFORMATION
#MNEM.UNIT          VALUE    DESCRIPTION
#----------   ------------   ------------------------------
 PD  .                 GL:   PERMANENT DATUM
 EPD .F              5085:   ELEVATION PERMANENT DATUM
 LMF .                 KB:   LOG MEASURED FROM
 DAPD.F                 4:   FEET ABOVE PERMANENT DATUM
 DMF .                 KB:   DRILLING MEASURED FROM
 EKB .F              5089:   KELLING BUSHING
 EGL .F              5085:   GROUND LEVEL
 DATE.          8-16-1978:   RUN DATE
 RUN .                  1:   RUN NUMBER
 DD  .F               680:   DEPTH DRILLER
 DL  .F               688:   DEPTH LOGGER
 BLI .F               682:   BOTTOM LOG INTERVAL
 TLI .F                50:   TOP LOG INTERVAL
 CS  .IN            8.625:   CASING SIZE
 CBD .F                40:   CASING BOTTOM DRILLER
 BS  .IN            7.875:   BIT SIZE
 BSD .F               680:   BIT SIZE AT DEPTH
 DFT .                KCL:   DRILLING FLUID TYPE
 RMS .OHMM            .32:   RESISTIVITY MUD SAMPLE
 MST .F                64:   MUD SAMPLE TEMPERATURE
 RMF .OHMM             .3:   RESISTIVITY MUD FILTRATE SAMPLE
 MFST.F                76:   MUD FILTRATE SAMPLE TEMPERATURE
 RMC .OHMM            .16:   RESISTIVITY MUD CAKE
 MCST.F                64:   MUD CAKE SAMPLE TEMPERATURE
 MFSS.               MEAS:   MUD FILTRATE SAMPLE SOURCE
 MCSS.               MEAS:   MUD CAKE SAMPLE SOURCE
 TCS .HRS               1:   TIME CURCULATED STOPPED
 LUN .               3006:   LOGGING UNIT NUMBER
 LUL .               CASP:   LOGGING UNIT LOCATION
 ENGI.             MILLER:   RECORDING ENGINEER
 WITN.           MCGINLEY:   WITNESSED BY
 CLNT.            A2DTECH:   CLIENT CODE
 ORIG.           5" PRINT:   ORIGIN OF DATA
 UWI .       490251070700:   UNIQUE WELL ID
 DICO. A2D Technologies, Inc.:   DIGITIZING COMPANY
~OTHER INFORMATION
~A   DEPT      SPR         SN        ILD       CALD         GRD      RHOB       DPHI       CORR   
# ...
  639.5000   -32.1563     6.1724     4.9849     7.5986    83.2759     2.4954     0.1134     0.0499
  640.0000   -32.1552     6.0102     4.9232     7.5794    83.8018     2.4855     0.1217     0.0499
  640.5000   -32.1394     5.9146     4.9232     7.5692    83.5333     2.4747     0.1286     0.0499
  641.0000   -32.1262     5.9175     4.9232     7.5764    82.8169     2.4848     0.1193     0.0499
  641.5000   -32.1124     6.0253     4.9687     7.5829    78.9796     2.4979     0.1097     0.0494
  642.0000   -32.0985     6.3087     5.0609     7.5735    74.8135     2.5110     0.1002     0.0489
  642.5000   -32.0847     6.8045     5.2514     7.5451    72.4590     2.5195     0.0980     0.0485
  643.0000   -32.0709     7.3395     5.2491     7.5169    76.6320     2.5182     0.0999     0.0480
  643.5000   -32.0570     7.9188     5.8758     7.4886    81.1266     2.5165     0.1018     0.0475
  644.0000   -32.0432     8.0426     6.3106     7.4665    82.3755     2.5199     0.0989     0.0470
  644.5000   -32.0293     8.0775     6.7778     7.4670    85.0872     2.5199     0.0970     0.0465
  645.0000   -32.0155     8.1126     7.0459     7.4757    89.2388     2.5188     0.0974     0.0460
  645.5000   -32.0016     8.1478     7.1251     7.4927    89.0667     2.5177     0.0992     0.0476
  646.0000   -31.9874     8.2265     7.2092     7.5085    88.2915     2.5166     0.1019     0.0498
  646.5000   -31.9739     8.3366     7.2942     7.5521    87.5861     2.5154     0.1034     0.0521
  647.0000   -31.9927     8.4481     7.3803     7.5979    87.7163     2.5216     0.0968     0.0543
  647.5000   -32.1210     8.5611     7.4673     7.6437    87.8571     2.5309     0.0903     0.0556
  648.0000   -32.2442     8.6756     7.5554     7.6891    87.3913     2.5403     0.0839     0.0546
  648.5000   -32.3675     8.7917     7.6445     7.7259    85.6168     2.5497     0.0787     0.0537
  649.0000   -32.4908     8.9094     7.7347     7.7444    84.4108     2.5554     0.0746     0.0527
  649.5000   -32.6141     9.0287     7.8259     7.7654    85.2715     2.5564     0.0723     0.0517
  650.0000   -32.7373     9.1145     7.9182     7.7548    86.8315     2.5565     0.0722     0.0508
  650.5000   -32.8606     9.1142     8.0116     7.7307    88.3998     2.5529     0.0743     0.0498
  651.0000   -32.9839     9.1018     8.1061     7.7065    89.9738     2.5480     0.0773     0.0488
  651.5000   -33.1072     9.0926     8.2017     7.6824    91.5593     2.5431     0.0802     0.0479
  652.0000   -33.2309     9.0834     8.2370     7.6582    91.6727     2.5414     0.0782     0.0469
  652.5000   -33.3526     9.0742     8.2290     7.6469    89.7625     2.5437     0.0787     0.0459
  653.0000   -33.4143     9.0649     8.2237     7.6467    88.7367     2.5379     0.0818     0.0459
  653.5000   -33.4806     9.0557     8.2184     7.6467    87.6581     2.5321     0.0849     0.0459
  654.0000   -33.5473     9.0466     8.2130     7.6467    83.4219     2.5264     0.0880     0.0459
  654.5000   -33.6142     9.0374     8.2078     7.6467    80.5729     2.5211     0.0911     0.0459
  655.0000   -33.6811     9.0245     8.2025     7.6467    82.4749     2.5194     0.0943     0.0459
  655.5000   -33.7479     8.9993     8.1972     7.6468    84.3710     2.5207     0.0974     0.0459
  656.0000   -33.8148     8.9746     8.1919     7.6459    84.7608     2.5237     0.0969     0.0459
  656.5000   -33.8817     8.9501     8.1866     7.6304    84.1263     2.5267     0.0938     0.0459
  657.0000   -33.9485     8.9256     8.1813     7.6153    82.1315     2.5297     0.0918     0.0459
  657.5000   -34.0154     8.9011     8.1761     7.6071    81.4180     2.5309     0.0925     0.0459
  658.0000   -34.0822     8.8768     8.1708     7.6159    82.4951     2.5294     0.0937     0.0459
  658.5000   -34.1491     8.8525     8.1655     7.6249    83.5004     2.5280     0.0949     0.0459
  659.0000   -34.2160     8.8282     8.1469     7.6230    81.8039     2.5266     0.0961     0.0459
  659.5000   -34.2828     8.8041     8.1057     7.6165    79.9094     2.5252     0.0972     0.0459
  660.0000   -34.3497     8.7800     8.0646     7.6099    78.0557     2.5238     0.0974     0.0460
  660.5000   -34.4166     8.7559     8.0238     7.6034    76.9218     2.5224     0.0974     0.0486
  661.0000   -34.4834     8.7319     7.9832     7.5968    77.4227     2.5210     0.0988     0.0512
  661.5000   -34.5503     8.7080     7.9428     7.5903    77.8518     2.5196     0.1007     0.0537
  662.0000   -34.6171     8.6842     7.9026     7.5837    78.2670     2.5213     0.0979     0.0562
  662.5000   -34.6840     8.6604     7.8626     7.5771    79.9467     2.5291     0.0932     0.0572
  663.0000   -34.7509     8.6367     7.8228     7.5707    81.0867     2.5366     0.0885     0.0548
  663.5000   -34.8177     8.5751     7.7551     7.5704    81.3271     2.5393     0.0854     0.0526
  664.0000   -34.8846     8.4775     7.6274     7.5787    81.6147     2.5370     0.0904     0.0503
  664.5000   -34.9515     8.3810     7.5019     7.5869    82.5109     2.5356     0.0962     0.0480
  665.0000   -35.0183     8.2856     7.3785     7.5952    85.7844     2.5372     0.0916     0.0485
  665.5000   -35.0852     8.1913     7.2570     7.6035    87.5312     2.5387     0.0873     0.0491
  666.0000   -35.1548     8.1409     7.2010     7.6118    88.5285     2.5402     0.0887     0.0497
  666.5000   -35.1649     8.1101     7.1537     7.6201    89.4012     2.5418     0.0894     0.0525
  667.0000   -35.1577     8.0793     7.1068     7.6273    89.8519     2.5427     0.0868     0.0562
  667.5000   -35.1500     8.0487     7.0602     7.6144    84.3193     2.5433     0.0850     0.0599
  668.0000   -35.1425     8.0183     7.0139     7.5990    80.7050     2.5439     0.0854     0.0637
  668.5000   -35.1350     7.9879     6.9679     7.5837    82.8457     2.5450     0.0852     0.0627
  669.0000   -35.1275     7.9576     6.9222     7.5683    85.4895     2.5489     0.0833     0.0614
  669.5000   -35.1200     7.9275     6.8768     7.5530    85.7807     2.5518     0.0822     0.0600
  670.0000   -35.1125     7.8974     6.8317     7.5376    85.9640     2.5381     0.0878     0.0604
  670.5000   -35.1050     7.8675     6.7869     7.5222    85.7633     2.5304     0.0935     0.0611
  671.0000   -35.0976     7.8377     6.7424     7.5069    84.2339     2.5354     0.0901     0.0618
  671.5000   -35.0901     7.8081     6.6982     7.5251    84.8727     2.5421     0.0867     0.0625
  672.0000   -35.0826     7.7785     6.6542     7.5476    86.5677     2.5493     0.0832     0.0633
  672.5000   -35.0751     7.7490     6.6106     7.5675    86.7106     2.5522     0.0806     0.0637
  673.0000   -35.0676     7.7197     6.5672     7.5665    86.3610     2.5534     0.0802     0.0621
  673.5000   -35.0602     7.6904     6.5242     7.5527    87.3286     2.5546     0.0790     0.0606
  674.0000   -35.0527     7.6613     6.4772     7.5383    88.1672     2.5577     0.0741     0.0590
  674.5000   -35.0452     7.5774     6.4004     7.5240    87.0378     2.5608     0.0699     0.0574
  675.0000   -35.0377     7.4748     6.3246     7.5097    83.2150     2.5624     0.0738     0.0559
  675.5000   -35.0302     7.3736     6.2495     7.4954    80.5843     2.5561     0.0789     0.0561
  676.0000   -35.0227     7.2738     6.1756     7.4811    87.1543     2.5500     0.0840     0.0562
  676.5000   -35.0153     7.1753     6.1023     7.4668    92.9918     2.5438     0.0894     0.0564
  677.0000   -35.0078     7.1086     6.0632     7.4525    89.6264     2.5391     0.0869     0.0566
  677.5000   -35.0003     7.1015     6.0369     7.4471    84.5465     2.5374     0.0880     0.0568
  678.0000   -34.9928     7.0944     6.0108     7.4535    84.5033     2.5364     0.0918     0.0570
  678.5000   -34.9854     7.0874     5.9848     7.4632    88.9047     2.5322     0.0919     0.0571
  679.0000   -34.9784     7.0804     5.9589     7.4661    91.9152     2.5296     0.0906     0.0573
  679.5000   -34.9687     7.0733     5.9331     7.4345    92.7261     2.5393     0.0911     0.0575
