~VERSION INFORMATION
 VERS.                2.0:   CWLS LOG ASCII STANDARD - VERSION 2.0
 WRAP.                 NO:   ONE LINE PER DEPTH STEP
~WELL INFORMATION
#MNEM.UNIT      DATA TYPE    INFORMATION
#----------   ------------   ------------------------------
 STRT.F            3.0000:   START DEPTH
 STOP.F          515.0000:   STOP DEPTH
 STEP.F            0.5000:   STEP LENGTH
 NULL.          -999.2500:   NO VALUE
 COMP. LAWRENCE/ALLISON INC:   COMPANY
 WELL.      77-35 SX #3-3:   WELL
 FLD .             TEAPOT:   FIELD
 LOC .       S3 T38N R78W:   LOCATION
 CNTY.            NATRONA:   COUNTY
 STAT.            WYOMING:   STATE
 CTRY. UNITED STATES OF AMERICA:   COUNTRY
 SRVC.           Gearhart:   SERVICE COMPANY
 DATE.        24-JUN-1988:   LOGDATE
 API .       490251123200:   API NUMBER
~CURVE INFORMATION
#MNEM.UNIT       API CODE    CURVE DESCRIPTION
#----------   ------------   ------------------------------
 DEPT.F                  :   
 GRR .GAPI   07 310 01 00:   GAMMA RAY
 RILD.OHMM   07 120 46 00:   INDUCTION LOG DEEP RESISTIVITY
 RILM.OHMM   07 120 44 00:   INDUCTION LOG MEDIUM RESISTIVITY
~PARAMETER INFORMATION
#MNEM.UNIT          VALUE    DESCRIPTION
#----------   ------------   ------------------------------
 PD  .                 GL:   PERMANENT DATUM
 EPD .F              5154:   ELEVATION PERMANENT DATUM
 LMF .                 KB:   LOG MEASURED FROM
 DAPD.F                10:   FEET ABOVE PERMANENT DATUM
 DMF .                 KB:   DRILLING MEASURED FROM
 EKB .F              5164:   KELLING BUSHING
 EGL .F              5154:   GROUND LEVEL
 DATE.        24-JUN-1988:   RUN DATE
 RUN .                  1:   RUN NUMBER
 DD  .F               520:   DEPTH DRILLER
 DL  .F               523:   DEPTH LOGGER
 BLI .F             514.5:   BOTTOM LOG INTERVAL
 TLI .F                50:   TOP LOG INTERVAL
 CS  .IN            9.625:   CASING SIZE
 CBD .F                50:   CASING BOTTOM DRILLER
 CBL .F                50:   CASING BOTTOM LOGGER
 BS  .IN             8.75:   BIT SIZE
 BSD .F               520:   BIT SIZE AT DEPTH
 DFT .                AIR:   DRILLING FLUID TYPE
 TLAB.HRS            0645:   TIME LOGGER AT BOTTOM
 MRT .F                70:   MAXIMUM RECORDED TEMPERATURE
 LUN .               7597:   LOGGING UNIT NUMBER
 LUL .           GILLETTE:   LOGGING UNIT LOCATION
 ENGI.          HUCKFELDT:   RECORDING ENGINEER
 WITN.             STRONG:   WITNESSED BY
 CLNT.            A2DTECH:   CLIENT CODE
 ORIG.           5" PRINT:   ORIGIN OF DATA
 UWI .       490251123200:   UNIQUE WELL ID
 DICO. A2D Technologies, Inc.:   DIGITIZING COMPANY
~OTHER INFORMATION
~A    DEPT      GRR      RILD       RILM   
    3.0000    17.1801  -999.2500  -999.2500
    3.5000    16.2147  -999.2500  -999.2500
    4.0000    12.5973  -999.2500  -999.2500
    4.5000     8.9782  -999.2500  -999.2500
    5.0000    10.8262  -999.2500  -999.2500
    5.5000    19.0728  -999.2500  -999.2500
    6.0000    24.8804  -999.2500  -999.2500
    6.5000    29.4685  -999.2500  -999.2500
    7.0000    32.2273  -999.2500  -999.2500
    7.5000    33.4617  -999.2500  -999.2500
    8.0000    34.3913  -999.2500  -999.2500
    8.5000    35.0160  -999.2500  -999.2500
    9.0000    35.3358  -999.2500  -999.2500
    9.5000    35.3507  -999.2500  -999.2500
   10.0000    36.0165  -999.2500  -999.2500
   10.5000    43.3069  -999.2500  -999.2500
   11.0000    56.7406  -999.2500  -999.2500
   11.5000    63.7678  -999.2500  -999.2500
   12.0000    68.9656  -999.2500  -999.2500
   12.5000    72.9439  -999.2500  -999.2500
   13.0000    76.9223  -999.2500  -999.2500
   13.5000    79.3762  -999.2500  -999.2500
   14.0000    80.3058  -999.2500  -999.2500
   14.5000    78.1866  -999.2500  -999.2500
   15.0000    74.5429  -999.2500  -999.2500
   15.5000    73.3324  -999.2500  -999.2500
   16.0000    72.4064  -999.2500  -999.2500
   16.5000    71.8475  -999.2500  -999.2500
   17.0000    71.5538  -999.2500  -999.2500
   17.5000    71.8774  -999.2500  -999.2500
   18.0000    72.8069  -999.2500  -999.2500
   18.5000    74.9560  -999.2500  -999.2500
   19.0000    78.9343  -999.2500  -999.2500
   19.5000    78.9492  -999.2500  -999.2500
   20.0000    74.3910  -999.2500  -999.2500
   20.5000    72.2718  -999.2500  -999.2500
   21.0000    71.0671  -999.2500  -999.2500
   21.5000    74.5452  -999.2500  -999.2500
   22.0000    79.4185  -999.2500  -999.2500
   22.5000    81.7864  -999.2500  -999.2500
   23.0000    80.2769  -999.2500  -999.2500
   23.5000    79.6784  -999.2500  -999.2500
   24.0000    79.6970  -999.2500  -999.2500
   24.5000    80.3217  -999.2500  -999.2500
   25.0000    81.5561  -999.2500  -999.2500
   25.5000    82.1808  -999.2500  -999.2500
   26.0000    82.8055  -999.2500  -999.2500
   26.5000    83.4302  -999.2500  -999.2500
   27.0000    85.5792  -999.2500  -999.2500
   27.5000    85.2593  -999.2500  -999.2500
   28.0000    83.7835  -999.2500  -999.2500
   28.5000    82.8838  -999.2500  -999.2500
   29.0000    83.5085  -999.2500  -999.2500
   29.5000    84.7429  -999.2500  -999.2500
   30.0000    85.9773  -999.2500  -999.2500
   30.5000    86.6020  -999.2500  -999.2500
   31.0000    86.6170  -999.2500  -999.2500
   31.5000    86.0221  -999.2500  -999.2500
   32.0000    84.2078  -999.2500  -999.2500
   32.5000    81.7837  -999.2500  -999.2500
   33.0000    82.4247  -999.2500  -999.2500
   33.5000    84.9481  -999.2500  -999.2500
   34.0000    87.3200  -999.2500  -999.2500
   34.5000    87.0300  -999.2500  -999.2500
   35.0000    84.9108  -999.2500  -999.2500
   35.5000    82.7915  -999.2500  -999.2500
   36.0000    82.8065  -999.2500  -999.2500
   36.5000    85.8702  -999.2500  -999.2500
   37.0000    86.7997  -999.2500  -999.2500
   37.5000    86.8146  -999.2500  -999.2500
   38.0000    87.1344  -999.2500  -999.2500
   38.5000    89.8973  -999.2500  -999.2500
   39.0000    91.7378  -999.2500  -999.2500
   39.5000    92.3628  -999.2500  -999.2500
   40.0000    92.3808  -999.2500  -999.2500
   40.5000    91.7859  -999.2500  -999.2500
   41.0000    94.5448  -999.2500  -999.2500
   41.5000    96.3890  -999.2500  -999.2500
   42.0000    96.0953  -999.2500  -999.2500
   42.5000    94.8907  -999.2500  -999.2500
   43.0000    94.9093  -999.2500  -999.2500
   43.5000    96.7535  -999.2500  -999.2500
   44.0000    98.9026  -999.2500  -999.2500
   44.5000   100.1372  -999.2500  -999.2500
   45.0000    97.8558  -999.2500  -999.2500
   45.5000    90.7194  -999.2500  -999.2500
   46.0000    84.6367  -999.2500  -999.2500
   46.5000    81.6029  -999.2500  -999.2500
   47.0000    83.1422  -999.2500  -999.2500
   47.5000    86.8156  -999.2500  -999.2500
   48.0000    88.9647  -999.2500  -999.2500
   48.5000    90.1991  -999.2500  -999.2500
   49.0000    91.7385  -999.2500  -999.2500
   49.5000   102.7290  -999.2500  -999.2500
   50.0000   119.5489    79.9864   276.3794
   50.5000   136.9064     3.4382    49.8099
   51.0000   147.8969     2.1418     7.3807
   51.5000   150.6558     2.1625     3.7187
   52.0000   151.2804     3.3805     2.6210
   52.5000   152.5761     7.9787     2.6576
   53.0000   157.4116    14.0447     3.3005
   53.5000   156.8130    18.1833     4.1567
   54.0000   159.8767    12.6446     6.0229
   54.5000   156.2368     8.9794     7.7161
   55.0000   155.9431     7.8626    10.4756
   55.5000   158.4008     7.5390    11.2936
   56.0000   159.3304     7.8058    10.0963
   56.5000   159.6502     8.3180     8.7773
   57.0000   158.7505     9.0038     8.2985
   57.5000   156.3264     9.8242     8.0685
   58.0000   153.8862    10.0312     8.0112
   58.5000   152.3928     9.4186     7.9545
   59.0000   153.9358     8.8437     8.0093
   59.5000   153.9507     8.7198     8.1207
   60.0000   153.9657     8.7186     8.2917
   60.5000   153.9806     8.7788     8.4082
   61.0000   153.9955     8.7773     8.4062
   61.5000   154.0104     8.7150     8.2783
   62.0000   156.7692     8.7138     8.1148
   62.5000   159.2232     8.7737     8.1137
   63.0000   159.2381     8.7725     8.0561
   63.5000   159.2530     8.7713     8.0550
   64.0000   159.2682     8.7698     8.1107
   64.5000   159.2836     8.7076     8.2235
   65.0000   162.3503     8.7064     8.3385
   65.5000   162.6664     8.7052     8.3958
   66.0000   158.1118     8.7653     8.3944
   66.5000   155.0780     8.7028     8.3348
   67.0000   154.1745     8.7016     8.2148
   67.5000   159.3761     8.7004     8.1026
   68.0000   156.3423     8.6992     8.1012
   68.5000   153.3084     8.5774     8.1570
   69.0000   152.4086     8.5166     8.2134
   69.5000   152.4522     8.5154     8.1547
   70.0000   156.5649     8.5139     8.0968
   70.5000   160.6889     8.5128     8.0957
   71.0000   163.4477     8.5116     8.0946
   71.5000   165.2919     8.4512     8.0935
   72.0000   166.5263     8.4501     8.0923
   72.5000   166.2364     8.4489     8.0912
   73.0000   165.6415     8.4478     8.0901
   73.5000   164.1321     8.4466     8.0837
   74.0000   158.9641     8.4454     8.0315
   74.5000   158.6474     8.4443     7.9742
   75.0000   161.1281     8.4431     7.9731
   75.5000   161.7527     8.5011     7.9720
   76.0000   157.3415     8.6291     7.9709
   76.5000   154.4655     8.7392     8.0824
   77.0000   152.6549     8.8609     8.1380
   77.5000   151.4503     8.9221     8.3674
   78.0000   151.4652     8.9206     8.5436
   78.5000   152.0899     8.9822     8.5425
   79.0000   153.3243     9.0436     8.6012
   79.5000   154.5587     9.0423     8.6000
   80.0000   155.7932     9.0411     8.5989
   80.5000   157.0276     9.0398     8.5974
   81.0000   158.2623     9.0386     8.5363
   81.5000   158.9645     8.9745     8.5351
   82.0000   160.7346     8.9108     8.4745
   82.5000   161.3593     8.7246     8.3556
   83.0000   162.8986     8.6627     8.2963
   83.5000   163.8282     8.4820     8.1799
   84.0000   164.1480     8.4218     8.1218
   84.5000   157.7605     8.3038     8.0079
   85.0000   153.5071     8.1876     7.8406
   85.5000   151.6927     8.1295     7.7299
   86.0000   150.1833     8.0718     7.6172
   86.5000   149.8933     7.9588     7.4538
   87.0000   156.9207     7.9577     7.4096
   87.5000   156.9359     7.9012     7.3570
   88.0000   159.0882     7.8452     7.3560
   88.5000   159.1031     7.8441     7.4068
   89.0000   159.1180     7.8980     7.4056
   89.5000   158.8280     7.9522     7.4568
   90.0000   156.4039     8.0627     7.6136
   90.5000   155.1993     8.1750     7.6662
   91.0000   157.0435     8.2891     7.8274
   91.5000   158.5828     8.4045     7.9366
   92.0000   159.5124     8.5812     8.0472
   92.5000   157.0578     8.7004     8.1595
   93.0000   152.0425     8.8216     8.2730
   93.5000   147.6669     8.8822     8.2718
