~VERSION INFORMATION
 VERS.                2.0:   CWLS LOG ASCII STANDARD - VERSION 2.0
 WRAP.                 NO:   ONE LINE PER DEPTH STEP
~WELL INFORMATION
#MNEM.UNIT      DATA TYPE    INFORMATION
#----------   ------------   ------------------------------
 STRT.F           45.5000:   START DEPTH
 STOP.F          740.0000:   STOP DEPTH
 STEP.F            0.5000:   STEP LENGTH
 NULL.          -999.2500:   NO VALUE
 COMP. FENIX & SCISSON INC:   COMPANY
 WELL.       NPR 3 #22-14:   WELL
 FLD .             TEAPOT:   FIELD
 LOC .      S14 T38N R78W:   LOCATION
 CNTY.            NATRONA:   COUNTY
 STAT.            WYOMING:   STATE
 CTRY. UNITED STATES OF AMERICA:   COUNTRY
 SRVC.           BIRDWELL:   SERVICE COMPANY
 DATE.        23-DEC-1978:   LOGDATE
 API .       490251075800:   API NUMBER
~CURVE INFORMATION
#MNEM.UNIT       API CODE    CURVE DESCRIPTION
#----------   ------------   ------------------------------
 DEPT.F                  :   
 SPR .MV     05 010 01 00:   SPONTANEOUS POTENTIAL FROM RES.
 SN  .OHMM   05 040 16 00:   SHORT NORMAL 16"
 IL  .OHMM   05 120 00 00:   INDUCTION LOG
 CALD.IN     45 280 60 00:   CALIPER
 GRD .GAPI   45 310 01 00:   GAMMA RAY FROM DENSITY LOG
 RHOB.G/C3   45 350 01 00:   BULK DENSITY
 DPHI.DEC    45 890 12 00:   DENSITY POROSITY SANDSTONE
 CORR.G/C3   45 356 01 00:   DENSITY CORRECTION
~PARAMETER INFORMATION
#MNEM.UNIT          VALUE    DESCRIPTION
#----------   ------------   ------------------------------
 PD  .                 GL:   PERMANENT DATUM
 EPD .F              5212:   ELEVATION PERMANENT DATUM
 LMF .                 KB:   LOG MEASURED FROM
 DAPD.F                 4:   FEET ABOVE PERMANENT DATUM
 DMF .                 KB:   DRILLING MEASURED FROM
 EKB .F              5216:   KELLING BUSHING
 EGL .F              5212:   GROUND LEVEL
 DATE.           12-23-78:   RUN DATE
 RUN .                  1:   RUN NUMBER
 DD  .F               735:   DEPTH DRILLER
 DL  .F               740:   DEPTH LOGGER
 BLI .F               733:   BOTTOM LOG INTERVAL
 TLI .F                50:   TOP LOG INTERVAL
 CS  .IN            8.625:   CASING SIZE
 CBD .F                40:   CASING BOTTOM DRILLER
 CBL .F                40:   CASING BOTTOM LOGGER
 BS  .IN            7.875:   BIT SIZE
 BSD .F               735:   BIT SIZE AT DEPTH
 DFT .                KCL:   DRILLING FLUID TYPE
 DFD .                8.7:   DRILLING FLUID DENSITY
 DFV .                 35:   DRILLING FLUID VISCOSITY
 DFPH.               10.5:   DRILLING FLUID PH
 DFL .               11.6:   DRILLING FLUID LOSS
 MSS .           FLOWLINE:   MUD SAMPLE SOURCE
 RMS .OHMM             .5:   RESISTIVITY MUD SAMPLE
 MST .F                60:   MUD SAMPLE TEMPERATURE
 RMF .OHMM             .5:   RESISTIVITY MUD FILTRATE SAMPLE
 MFST.F                60:   MUD FILTRATE SAMPLE TEMPERATURE
 RMC .OHMM             .7:   RESISTIVITY MUD CAKE
 MCST.F                60:   MUD CAKE SAMPLE TEMPERATURE
 MFSS.           MEASURED:   MUD FILTRATE SAMPLE SOURCE
 MCSS.           MEASURED:   MUD CAKE SAMPLE SOURCE
 RMB .OHMM           .518:   RESISTIVITY MUD AT BHT
 BHT .F                58:   BOTTOM HOLE TEMPERATURE
 TCS .HRS               5:   TIME CURCULATED STOPPED
 MRT .F                58:   MAXIMUM RECORDED TEMPERATURE
 LUN .               2958:   LOGGING UNIT NUMBER
 LUL .             CASPER:   LOGGING UNIT LOCATION
 ENGI.         B. ROLLINS:   RECORDING ENGINEER
 WITN.              IMMEL:   WITNESSED BY
 CLNT.            A2DTECH:   CLIENT CODE
 ORIG.           5" PRINT:   ORIGIN OF DATA
 UWI .       490251075800:   UNIQUE WELL ID
 DICO. A2D Technologies, Inc.:   DIGITIZING COMPANY
~OTHER INFORMATION
~A   DEPT      SPR         SN         IL       CALD         GRD      RHOB       DPHI       CORR   
# ...
  450.5000  -999.2500     6.6120     7.0620     8.0710    99.7620     2.4150     0.1370     0.0860
  451.0000  -999.2500     6.7140     7.0270     8.0650   104.7940     2.4540     0.1220     0.0940
  451.5000  -999.2500     6.7660     6.9880     8.0590   105.8720     2.4750     0.1210     0.1000
  452.0000  -999.2500     6.8070     6.9500     8.0530   106.0390     2.4820     0.1170     0.0940
  452.5000  -999.2500     6.8490     6.9110     8.0470   107.6160     2.4860     0.1100     0.0810
  453.0000  -999.2500     6.8700     6.8720     8.0410   109.2570     2.5020     0.1030     0.0690
  453.5000  -999.2500     6.6150     6.8330     8.0350   109.5640     2.5180     0.0940     0.0690
  454.0000  -999.2500     6.4200     6.7840     8.0300   107.0840     2.5290     0.1000     0.0790
  454.5000  -999.2500     6.2260     6.5860     8.0300   104.3870     2.5130     0.1080     0.0910
  455.0000  -999.2500     6.0310     6.3880     8.0300   102.5030     2.5010     0.1150     0.0990
  455.5000  -999.2500     5.8220     6.1900     8.0300   102.2560     2.4890     0.1230     0.1050
  456.0000  -999.2500     5.9280     6.0960     8.0300   102.4860     2.4770     0.1310     0.1060
  456.5000  -999.2500     6.0760     6.0960     8.0300   103.3340     2.4650     0.1390     0.1050
  457.0000  -999.2500     6.2240     6.3300     8.0290   105.2540     2.4580     0.1390     0.1040
  457.5000  -999.2500     6.3720     6.6520     8.0100   107.1580     2.4520     0.1360     0.1030
  458.0000  -999.2500     6.5510     6.9740     7.9900   109.0770     2.4570     0.1300     0.1020
  458.5000  -999.2500     6.9350     7.2960     7.9700   109.8050     2.4650     0.1250     0.1010
  459.0000  -999.2500     7.3190     7.6180     7.9500   109.3720     2.4740     0.1190     0.0960
  459.5000  -999.2500     7.7020     7.9400     7.9310   107.1450     2.4830     0.1130     0.0880
  460.0000  -999.2500     8.0770     8.2630     7.9370   106.6410     2.4930     0.1070     0.0860
  460.5000  -999.2500     8.3920     8.5170     7.9440   106.7800     2.5040     0.1030     0.0850
  461.0000  -999.2500     8.7260     8.7020     7.9500   106.8950     2.5110     0.1020     0.0890
  461.5000  -999.2500     8.7260     8.8640     7.9410   107.0230     2.5150     0.1010     0.0990
  462.0000  -999.2500     8.8060     8.9700     7.9210   104.0720     2.5180     0.1010     0.1190
  462.5000  -999.2500     8.7260     8.8430     7.9010    99.5180     2.5170     0.1000     0.1400
  463.0000  -999.2500     8.6670     8.7490     7.8810    98.0770     2.5140     0.1030     0.1550
  463.5000  -999.2500     8.5600     8.6550     7.8600    98.0290     2.5120     0.1050     0.1710
  464.0000  -999.2500     8.4530     8.5620     7.8390    98.9070     2.5080     0.1080     0.1870
  464.5000  -999.2500     8.3470     8.4680     7.8180   101.4970     2.5030     0.1100     0.1970
  465.0000  -999.2500     8.2400     8.3740     7.7980   104.3290     2.4980     0.1090     0.1980
  465.5000  -999.2500     8.1330     8.2800     7.7770   107.1670     2.4960     0.1050     0.1920
  466.0000  -999.2500     8.0270     8.1860     7.7560   110.0030     2.5060     0.1000     0.1820
  466.5000  -999.2500     7.9590     8.0920     7.7360   112.8270     2.5150     0.0990     0.1730
  467.0000  -999.2500     7.7850     7.9670     7.7150   115.6780     2.5230     0.1050     0.1720
  467.5000  -999.2500     7.6060     7.5790     7.6940   117.5370     2.5140     0.1120     0.1750
  468.0000  -999.2500     7.4260     7.1910     7.6740   118.7150     2.5000     0.1190     0.1800
  468.5000  -999.2500     7.2460     6.8030     7.6530   118.8460     2.4870     0.1260     0.1830
  469.0000  -999.2500     7.0620     6.4510     7.6320   118.9860     2.4780     0.1260     0.1930
  469.5000  -999.2500     6.8520     6.2090     7.6110   119.4780     2.4740     0.1250     0.2430
  470.0000  -999.2500     6.5820     6.2640     7.6350   120.3070     2.4730     0.1110     0.3150
  470.5000  -999.2500     6.3120     6.3100     7.6820   119.1490     2.4590     0.0980     0.3070
  471.0000  -999.2500     6.0420     6.3570     7.7280   117.4340     2.4790     0.0850     0.2580
  471.5000  -999.2500     5.8220     6.4040     7.7380   115.7190     2.5250     0.0680     0.1610
  472.0000  -999.2500     5.9440     6.5160     7.7470   114.6350     2.5550     0.0860     0.0620
  472.5000  -999.2500     6.2340     6.9120     7.7550   116.0500     2.5660     0.0910     0.0300
  473.0000  -999.2500     6.7340     7.3080     7.7640   117.9110     2.5470     0.1140     0.0300
  473.5000  -999.2500     7.2330     7.7050     7.7730   119.6240     2.5070     0.1480     0.0380
  474.0000  -999.2500     7.7330     8.1010     7.7810   120.2490     2.4670     0.1420     0.0390
  474.5000  -999.2500     8.2330     8.2320     7.7890   120.6390     2.4390     0.1320     0.0380
  475.0000  -999.2500     8.4220     8.2950     7.8090   120.5750     2.4610     0.1220     0.0350
  475.5000  -999.2500     8.5330     8.3590     7.8220   120.5160     2.4810     0.1130     0.0310
  476.0000  -999.2500     8.6440     8.4220     7.6550   120.5020     2.4990     0.1060     0.0260
  476.5000  -999.2500     8.7550     8.4860     7.6980   121.5450     2.5020     0.1080     0.0240
  477.0000  -999.2500     8.8660     8.5490     7.7560   122.6240     2.5040     0.1130     0.0240
  477.5000  -999.2500     8.9670     8.6120     7.7880   123.6580     2.4970     0.1180     0.0280
  478.0000  -999.2500     9.0650     8.6760     7.7780   124.0100     2.4840     0.1220     0.0350
  478.5000  -999.2500     9.2210     8.7260     7.7690   122.8250     2.4800     0.1270     0.0530
  479.0000  -999.2500     9.1970     8.7260     7.7600   121.7140     2.4770     0.1330     0.0710
  479.5000  -999.2500     9.1390     8.7260     7.7510   123.3820     2.4670     0.1270     0.0800
  480.0000  -999.2500     9.0820     8.7260     7.7640   125.7040     2.4580     0.1190     0.0730
  480.5000  -999.2500     9.0240     8.7260     7.7790   127.8200     2.4720     0.1070     0.0660
  481.0000  -999.2500     8.9660     8.7260     7.7950   127.6720     2.4860     0.1110     0.0600
  481.5000  -999.2500     8.9090     8.7260     7.8090   126.2850     2.4980     0.1190     0.0540
  482.0000  -999.2500     8.8510     8.7260     7.7820   123.9750     2.4850     0.1260     0.0730
  482.5000  -999.2500     8.7940     8.7260     7.7510   120.9480     2.4780     0.1340     0.1050
  483.0000  -999.2500     8.7360     8.7260     7.7190   121.0720     2.4710     0.1410     0.1380
  483.5000  -999.2500     8.6780     8.7260     7.7080   123.3640     2.4530     0.1490     0.1620
  484.0000  -999.2500     8.6460     8.7260     7.8340   127.6240     2.4340     0.1440     0.1540
  484.5000  -999.2500     8.6460     8.7260     7.9750   128.6280     2.4520     0.1370     0.1600
  485.0000  -999.2500     8.6460     8.7260     7.9720   128.4550     2.4750     0.1290     0.1790
  485.5000  -999.2500     8.6460     8.7260     7.9240   127.3910     2.4950     0.1210     0.2060
  486.0000  -999.2500     8.6460     8.7260     7.7950   125.7320     2.4900     0.1130     0.2550
  486.5000  -999.2500     8.6460     8.7260     7.8230   122.4910     2.4880     0.1100     0.3030
  487.0000  -999.2500     8.6470     8.5840     7.8690   119.3370     2.4940     0.1090     0.3300
  487.5000  -999.2500     8.6480     8.0120     7.8750   116.1330     2.5000     0.0910     0.3430
  488.0000  -999.2500     8.3750     7.4400     7.7730   113.5750     2.5110     0.0710     0.2880
  488.5000  -999.2500     8.1170     7.1270     7.7660   111.7380     2.5460     0.0450     0.1990
  489.0000  -999.2500     7.8590     7.1270     7.8090   110.5070     2.5820     0.0140     0.1130
  489.5000  -999.2500     7.6010     7.1270     7.7890   110.7670     2.6170     0.0410     0.0570
  490.0000  -999.2500     7.3420     7.1270     7.7470   111.1050     2.6500     0.0730     0.0570
  490.5000  -999.2500     6.9970     7.0090     7.8040   111.4380     2.5890     0.1060     0.0690
