~VERSION INFORMATION
 VERS.                2.0:   CWLS LOG ASCII STANDARD - VERSION 2.0
 WRAP.                 NO:   ONE LINE PER DEPTH STEP
~WELL INFORMATION
#MNEM.UNIT      DATA TYPE    INFORMATION
#----------   ------------   ------------------------------
 STRT.F            0.0000:   START DEPTH
 STOP.F         2758.0000:   STOP DEPTH
 STEP.F            0.5000:   STEP LENGTH
 NULL.          -999.2500:   NO VALUE
 COMP. FENIX & SCISSON INC:   COMPANY
 WELL.       402A #402-20:   WELL
 FLD .             TEAPOT:   FIELD
 LOC .      S20 T39N R78W:   LOCATION
 CNTY.            NATRONA:   COUNTY
 STAT.            WYOMING:   STATE
 CTRY. UNITED STATES OF AMERICA:   COUNTRY
 SRVC.      NL McCullough:   SERVICE COMPANY
 DATE.        15-JUL-1965:   LOGDATE
 API .       490251021100:   API NUMBER
~CURVE INFORMATION
#MNEM.UNIT       API CODE    CURVE DESCRIPTION
#----------   ------------   ------------------------------
 DEPT.F                  :   
 GR  .GAPI   30 310 01 00:   GAMMA RAY
 CALI.IN     70 280 01 00:   CALIPER
~PARAMETER INFORMATION
#MNEM.UNIT          VALUE    DESCRIPTION
#----------   ------------   ------------------------------
 PD  .                 GL:   PERMANENT DATUM
 LMF .                 GL:   LOG MEASURED FROM
 DMF .                 GL:   DRILLING MEASURED FROM
 DATE.            7-15-65:   RUN DATE
 RUN .                  1:   RUN NUMBER
 DL  .F              2759:   DEPTH LOGGER
 BLI .F              2758:   BOTTOM LOG INTERVAL
 TLI .F              2100:   TOP LOG INTERVAL
 CS  .IN                7:   CASING SIZE
 ENGI. FITZSIMMONS/COWLTHORPE:   RECORDING ENGINEER
 WITN.             HUDSON:   WITNESSED BY
 CLNT.            A2DTECH:   CLIENT CODE
 ORIG.           5" PRINT:   ORIGIN OF DATA
 UWI .       490251021100:   UNIQUE WELL ID
 DICO. A2D Technologies, Inc.:   DIGITIZING COMPANY
~OTHER INFORMATION
~A    DEPT      GR         CALI 
# ...
  729.0000  -999.2500     6.0007
  729.5000  -999.2500     5.9968
  730.0000  -999.2500     5.9928
  730.5000  -999.2500     5.9943
  731.0000  -999.2500     5.9963
  731.5000  -999.2500     5.9983
  732.0000  -999.2500     6.0002
  732.5000  -999.2500     6.0022
  733.0000  -999.2500     6.0041
  733.5000  -999.2500     6.0061
  734.0000  -999.2500     6.0080
  734.5000  -999.2500     6.0099
  735.0000  -999.2500     6.0119
  735.5000  -999.2500     6.0138
  736.0000  -999.2500     6.0158
  736.5000  -999.2500     6.0177
  737.0000  -999.2500     6.0197
  737.5000  -999.2500     6.0216
  738.0000  -999.2500     6.0236
  738.5000  -999.2500     6.0255
  739.0000  -999.2500     6.0275
  739.5000  -999.2500     6.0294
  740.0000  -999.2500     6.0314
  740.5000  -999.2500     6.0345
  741.0000  -999.2500     6.0403
  741.5000  -999.2500     6.0462
  742.0000  -999.2500     6.0525
  742.5000  -999.2500     6.0356
  743.0000  -999.2500     6.0157
  743.5000  -999.2500     5.9958
  744.0000  -999.2500     5.9756
  744.5000  -999.2500     5.9779
  745.0000  -999.2500     5.9863
  745.5000  -999.2500     5.9948
  746.0000  -999.2500     6.0033
  746.5000  -999.2500     6.0118
  747.0000  -999.2500     6.0202
  747.5000  -999.2500     6.0287
  748.0000  -999.2500     5.9747
  748.5000  -999.2500     5.9656
  749.0000  -999.2500     5.9827
  749.5000  -999.2500     6.0002
  750.0000  -999.2500     6.0128
  750.5000  -999.2500     6.0116
  751.0000  -999.2500     6.0106
  751.5000  -999.2500     6.0097
  752.0000  -999.2500     6.0087
  752.5000  -999.2500     6.0078
  753.0000  -999.2500     6.0068
  753.5000  -999.2500     6.0058
  754.0000  -999.2500     6.0049
  754.5000  -999.2500     6.0039
  755.0000  -999.2500     6.0030
  755.5000  -999.2500     6.0020
  756.0000  -999.2500     6.0010
  756.5000  -999.2500     6.0001
  757.0000  -999.2500     5.9991
  757.5000  -999.2500     5.9982
  758.0000  -999.2500     5.9972
  758.5000  -999.2500     5.9963
  759.0000  -999.2500     5.9953
  759.5000  -999.2500     5.9943
  760.0000  -999.2500     5.9934
  760.5000  -999.2500     5.9926
  761.0000  -999.2500     5.9926
  761.5000  -999.2500     5.9926
  762.0000  -999.2500     5.9926
  762.5000  -999.2500     5.9926
  763.0000  -999.2500     5.9926
  763.5000  -999.2500     5.9926
  764.0000  -999.2500     5.9926
  764.5000  -999.2500     5.9926
  765.0000  -999.2500     5.9926
  765.5000  -999.2500     5.9926
  766.0000  -999.2500     5.9926
  766.5000  -999.2500     5.9926
  767.0000  -999.2500     5.9926
  767.5000  -999.2500     5.9926
  768.0000  -999.2500     5.9926
  768.5000  -999.2500     5.9926
  769.0000  -999.2500     5.9926
  769.5000  -999.2500     5.9926
  770.0000  -999.2500     5.9927
  770.5000  -999.2500     5.9890
  771.0000  -999.2500     5.9844
  771.5000  -999.2500     5.9799
  772.0000  -999.2500     5.9750
  772.5000  -999.2500     5.9600
  773.0000  -999.2500     5.9326
  773.5000  -999.2500     5.9299
  774.0000  -999.2500     5.9276
  774.5000  -999.2500     5.9253
  775.0000  -999.2500     5.9229
  775.5000  -999.2500     5.9206
  776.0000  -999.2500     5.9183
  776.5000  -999.2500     5.9159
  777.0000  -999.2500     5.9136
  777.5000  -999.2500     5.9125
  778.0000  -999.2500     5.9125
  778.5000  -999.2500     5.9125
  779.0000  -999.2500     5.9125
  779.5000  -999.2500     5.9125
  780.0000  -999.2500     5.9125
  780.5000  -999.2500     5.9125
  781.0000  -999.2500     5.9125
  781.5000  -999.2500     5.9125
  782.0000  -999.2500     5.9125
  782.5000  -999.2500     5.9125
  783.0000  -999.2500     5.9125
  783.5000  -999.2500     5.9125
  784.0000  -999.2500     5.9125
  784.5000  -999.2500     5.9125
  785.0000  -999.2500     5.9125
  785.5000  -999.2500     5.9124
  786.0000  -999.2500     5.9081
  786.5000  -999.2500     5.8975
  787.0000  -999.2500     5.8925
  787.5000  -999.2500     5.8924
  788.0000  -999.2500     5.8933
  788.5000  -999.2500     5.8977
  789.0000  -999.2500     5.9019
  789.5000  -999.2500     5.9061
  790.0000  -999.2500     5.9103
  790.5000  -999.2500     5.9145
  791.0000  -999.2500     5.9187
  791.5000  -999.2500     5.9230
  792.0000  -999.2500     5.9272
  792.5000  -999.2500     5.9317
  793.0000  -999.2500     5.9251
  793.5000  -999.2500     5.9152
  794.0000  -999.2500     5.9051
  794.5000  -999.2500     5.8948
  795.0000  -999.2500     5.8901
  795.5000  -999.2500     5.8869
  796.0000  -999.2500     5.8837
  796.5000  -999.2500     5.8805
  797.0000  -999.2500     5.8773
  797.5000  -999.2500     5.8740
  798.0000  -999.2500     5.8653
  798.5000  -999.2500     5.8520
  799.0000  -999.2500     5.8524
  799.5000  -999.2500     5.8524
  800.0000  -999.2500     5.8524
  800.5000  -999.2500     5.8524
  801.0000  -999.2500     5.8524
  801.5000  -999.2500     5.8524
  802.0000  -999.2500     5.8529
  802.5000  -999.2500     5.8538
  803.0000  -999.2500     5.8546
  803.5000  -999.2500     5.8555
  804.0000  -999.2500     5.8564
  804.5000  -999.2500     5.8572
  805.0000  -999.2500     5.8581
  805.5000  -999.2500     5.8590
  806.0000  -999.2500     5.8598
  806.5000  -999.2500     5.8607
  807.0000  -999.2500     5.8616
  807.5000  -999.2500     5.8624
  808.0000  -999.2500     5.8633
  808.5000  -999.2500     5.8642
  809.0000  -999.2500     5.8650
  809.5000  -999.2500     5.8659
  810.0000  -999.2500     5.8668
  810.5000  -999.2500     5.8676
  811.0000  -999.2500     5.8685
  811.5000  -999.2500     5.8694
  812.0000  -999.2500     5.8702
  812.5000  -999.2500     5.8711
  813.0000  -999.2500     5.8719
  813.5000  -999.2500     5.8691
  814.0000  -999.2500     5.8623
  814.5000  -999.2500     5.8555
  815.0000  -999.2500     5.8524
  815.5000  -999.2500     5.8524
  816.0000  -999.2500     5.8524
  816.5000  -999.2500     5.8524
  817.0000  -999.2500     5.8524
  817.5000  -999.2500     5.8524
  818.0000  -999.2500     5.8524
  818.5000  -999.2500     5.8524
  819.0000  -999.2500     5.8524
  819.5000  -999.2500     5.8524
  820.0000  -999.2500     5.8524
  820.5000  -999.2500     5.8524
  821.0000  -999.2500     5.8524
  821.5000  -999.2500     5.8524
  822.0000  -999.2500     5.8524
  822.5000  -999.2500     5.8524
  823.0000  -999.2500     5.8524
  823.5000  -999.2500     5.8524
  824.0000  -999.2500     5.8524
  824.5000  -999.2500     5.8524
  825.0000  -999.2500     5.8524
  825.5000  -999.2500     5.8524
  826.0000  -999.2500     5.8524
  826.5000  -999.2500     5.8524
  827.0000  -999.2500     5.8524
  827.5000  -999.2500     5.8524
  828.0000  -999.2500     5.8524
  828.5000  -999.2500     5.8524
  829.0000  -999.2500     5.8524
  829.5000  -999.2500     5.8524
  830.0000  -999.2500     5.8524
  830.5000  -999.2500     5.8524
  831.0000  -999.2500     5.8524
  831.5000  -999.2500     5.8524
  832.0000  -999.2500     5.8524
  832.5000  -999.2500     5.8524
  833.0000  -999.2500     5.8524
  833.5000  -999.2500     5.8524
  834.0000  -999.2500     5.8524
  834.5000  -999.2500     5.8524
  835.0000  -999.2500     5.8524
  835.5000  -999.2500     5.8524
  836.0000  -999.2500     5.8524
  836.5000  -999.2500     5.8524
  837.0000  -999.2500     5.8524
  837.5000  -999.2500     5.8524
  838.0000  -999.2500     5.8524
  838.5000  -999.2500     5.8524
  839.0000  -999.2500     5.8524
  839.5000  -999.2500     5.8524
  840.0000  -999.2500     5.8520
  840.5000  -999.2500     5.8512
  841.0000  -999.2500     5.8504
  841.5000  -999.2500     5.8496
  842.0000  -999.2500     5.8488
  842.5000  -999.2500     5.8480
  843.0000  -999.2500     5.8472
  843.5000  -999.2500     5.8464
  844.0000  -999.2500     5.8456
  844.5000  -999.2500     5.8448
  845.0000  -999.2500     5.8440
  845.5000  -999.2500     5.8432
  846.0000  -999.2500     5.8424
  846.5000  -999.2500     5.8416
  847.0000  -999.2500     5.8408
  847.5000  -999.2500     5.8400
  848.0000  -999.2500     5.8392
  848.5000  -999.2500     5.8384
  849.0000  -999.2500     5.8376
  849.5000  -999.2500     5.8368
  850.0000  -999.2500     5.8360
