~VERSION INFORMATION
 VERS.                2.0:   CWLS LOG ASCII STANDARD - VERSION 2.0
 WRAP.                 NO:   ONE LINE PER DEPTH STEP
~WELL INFORMATION
#MNEM.UNIT      DATA TYPE    INFORMATION
#----------   ------------   ------------------------------
 STRT.F            0.0000:   START DEPTH
 STOP.F         4535.0000:   STOP DEPTH
 STEP.F            0.5000:   STEP LENGTH
 NULL.          -999.2500:   NO VALUE
 COMP.   FLUOR DANIEL INC:   COMPANY
 WELL.     56 X 15 #56-15:   WELL
 FLD .             TEAPOT:   FIELD
 LOC .      S15 T38N R78W:   LOCATION
 CNTY.            NATRONA:   COUNTY
 STAT.            WYOMING:   STATE
 CTRY. UNITED STATES OF AMERICA:   COUNTRY
 SRVC.      Dresser Atlas:   SERVICE COMPANY
 DATE.        03-MAY-1984:   LOGDATE
 API .       490252268500:   API NUMBER
~CURVE INFORMATION
#MNEM.UNIT       API CODE    CURVE DESCRIPTION
#----------   ------------   ------------------------------
 DEPT.F                  :   
 CNC .DEC    42 890 03 00:   NEUTRON POROSITY SANDSTONE
 PORD.DEC    45 890 12 00:   POROSITY DENSITY SANDSTONE
 RHOB.G/C3   45 350 01 00:   BULK DENSITY
 CORR.G/C3   45 356 01 00:   DENSITY CORRECTION
 DT  .US/F   60 520 00 00:   INTERVAL TRANSIT TIME
 RILD.OHMM   07 120 46 00:   INDUCTION LOG DEEP RESISTIVITY
 RILM.OHMM   07 120 44 00:   INDUCTION LOG MEDIUM RESISTIVITY
 CALR.IN     07 280 01 00:   CALIPER FROM RESISTIVITY
 GRR .GAPI   07 310 01 00:   GAMMA RAY FROM RESISTIVITY LOG
 SPR .MV     07 010 01 00:   SPONTANEOUS POTENTIAL
 RFOC.OHMM   07 220 04 00:   RESISTIVITY FOCUSED LOG
~PARAMETER INFORMATION
#MNEM.UNIT          VALUE    DESCRIPTION
#----------   ------------   ------------------------------
 PD  .                 GL:   PERMANENT DATUM
 EPD .F              5326:   ELEVATION PERMANENT DATUM
 LMF .                 KB:   LOG MEASURED FROM
 DAPD.F                12:   FEET ABOVE PERMANENT DATUM
 DMF .                 KB:   DRILLING MEASURED FROM
 EKB .F              5338:   KELLING BUSHING
 EDF .F              5337:   DRILLING FLOOR
 EGL .F              5326:   GROUND LEVEL
 DATE.        03-MAY-1984:   RUN DATE
 RUN .                  1:   RUN NUMBER
 DD  .F              4547:   DEPTH DRILLER
 DL  .F              4539:   DEPTH LOGGER
 BLI .F              4536:   BOTTOM LOG INTERVAL
 TLI .F              1021:   TOP LOG INTERVAL
 CS  .IN            8.625:   CASING SIZE
 CBD .F              1027:   CASING BOTTOM DRILLER
 CBL .F              1021:   CASING BOTTOM LOGGER
 BS  .IN            7.875:   BIT SIZE
 BSD .F              4547:   BIT SIZE AT DEPTH
 DFT .            KCL GEL:   DRILLING FLUID TYPE
 DFD .                9.1:   DRILLING FLUID DENSITY
 DFV .                 44:   DRILLING FLUID VISCOSITY
 DFPH.                  8:   DRILLING FLUID PH
 DFL .               14.5:   DRILLING FLUID LOSS
 MSS .            MUDTANK:   MUD SAMPLE SOURCE
 RMS .OHMM           0.56:   RESISTIVITY MUD SAMPLE
 MST .F                73:   MUD SAMPLE TEMPERATURE
 RMF .OHMM           0.42:   RESISTIVITY MUD FILTRATE SAMPLE
 MFST.F                73:   MUD FILTRATE SAMPLE TEMPERATURE
 RMC .OHMM           0.71:   RESISTIVITY MUD CAKE
 MCST.F                73:   MUD CAKE SAMPLE TEMPERATURE
 MFSS.               MEAS:   MUD FILTRATE SAMPLE SOURCE
 MCSS.               CALC:   MUD CAKE SAMPLE SOURCE
 RMB .OHMM           0.29:   RESISTIVITY MUD AT BHT
 BHT .F               141:   BOTTOM HOLE TEMPERATURE
 TCS .HRS             3.5:   TIME CURCULATED STOPPED
 MRT .F               125:   MAXIMUM RECORDED TEMPERATURE
 LUN .               6302:   LOGGING UNIT NUMBER
 LUL .               CODY:   LOGGING UNIT LOCATION
 ENGI.              GETTY:   RECORDING ENGINEER
 WITN.           JENNINGS:   WITNESSED BY
 CLNT.            A2DTECH:   CLIENT CODE
 ORIG.           5" PRINT:   ORIGIN OF DATA
 UWI .       490252268500:   UNIQUE WELL ID
 DICO. A2D Technologies, Inc.:   DIGITIZING COMPANY
~OTHER INFORMATION
~A    DEPT     CNC       PORD       RHOB       CORR         DT       RILD       RILM       CALR         GRR       SPR       RFOC   
# ...
 3111.0000     0.1682     0.1233     2.4537     0.1558    75.0754    17.5099    16.3990     7.9823    85.6480   -49.8082    15.1184
 3111.5000     0.1591     0.1194     2.4484     0.1362    74.8528    17.5055    16.8454     7.9525    79.6301   -49.8097    15.6333
 3112.0000     0.1565     0.1109     2.4549     0.0909    73.9523    17.7475    16.9618     7.9376    75.3521   -49.5113    15.9609
 3112.5000     0.1541     0.1040     2.4770     0.0668    73.3526    17.7432    17.0787     7.9378    73.6085   -49.0630    16.4078
 3113.0000     0.1511     0.1015     2.4853     0.0623    72.9792    17.7394    17.0775     7.9529    75.4101   -47.9950    16.9854
 3113.5000     0.1514     0.0995     2.4875     0.0940    72.9065    17.7359    16.9581     7.9681    77.8132   -46.6674    17.3408
 3114.0000     0.1550     0.0904     2.4890     0.0909    73.0619    17.7322    16.8397     7.9832    80.2163   -45.6194    15.8401
 3114.5000     0.1622     0.0835     2.5078     0.0848    73.0656    17.6052    16.6355     8.0134    81.7172   -44.4215    15.5126
 3115.0000     0.1683     0.0847     2.5139     0.0789    72.9192    17.3590    16.3122     8.0135    82.9173   -43.2235    16.2828
 3115.5000     0.1680     0.0865     2.5123     0.0774    72.7711    17.1163    16.0238     8.0287    83.5159   -41.8756    16.1679
 3116.0000     0.1677     0.0881     2.5093     0.0743    72.9265    16.6443    15.7060     8.0438    84.7152   -40.8276    15.7228
 3116.5000     0.1662     0.0931     2.5055     0.0713    73.7597    16.1853    15.4885     8.0439    87.7199   -39.7597    14.9746
 3117.0000     0.1638     0.0979     2.5010     0.0653    74.5929    15.8486    15.1683     8.0441    89.8222   -38.7319    14.5623
 3117.5000     0.1616     0.1046     2.4934     0.0592    74.5965    15.5062    14.8547     8.0592    88.6163   -38.1337    14.7640
 3118.0000     0.1629     0.1121     2.4821     0.0577    74.4493    15.1952    14.5476     8.0594    85.3051   -37.5354    14.4416
 3118.5000     0.1706     0.1143     2.4625     0.0638    74.3775    14.9827    14.2956     8.0595    82.5955   -37.0871    14.2558
 3119.0000     0.1776     0.1101     2.4641     0.0668    74.7591    14.7732    14.1403     8.0597    80.4531   -36.7887    14.1552
 3119.5000     0.1798     0.1024     2.4746     0.0668    74.9136    14.6681    13.9512     8.0598    78.9799   -36.7902    14.0558
 3120.0000     0.1770     0.1009     2.4873     0.0623    75.1435    14.6651    13.7580     8.0600    80.7815   -37.0915    13.9562
 3120.5000     0.1707     0.1027     2.4866     0.0638    75.2225    14.6622    13.7321     8.0601    84.0869   -37.7326    13.7618
 3121.0000     0.1701     0.1058     2.4843     0.0608    75.2262    14.6592    13.6610     8.0603    88.5953   -38.4440    13.4762
 3121.5000     0.1716     0.1085     2.4753     0.0517    75.2307    14.6555    13.6600     8.0604    89.1940   -38.8953    13.3659
 3122.0000     0.1776     0.1069     2.4737     0.0439    75.2343    14.5512    13.5646     8.0606    88.8902   -39.4964    13.2863
 3122.5000     0.1786     0.1024     2.4808     0.0426    75.0862    14.4477    13.5637     8.0757    88.9225   -39.7977    13.2845
 3123.0000     0.1750     0.1003     2.4880     0.0487    74.7891    14.2456    13.5628     8.0759    89.1852   -39.9491    13.4690
 3123.5000     0.1774     0.1048     2.4872     0.0547    74.3402    13.9493    13.4679     8.0760    89.7830   -40.1005    13.4667
 3124.0000     0.1810     0.1103     2.4782     0.0457    73.8914    13.7542    13.2813     8.0762    90.3816   -40.1119    12.9153
 3124.5000     0.1861     0.1112     2.4744     0.0426    74.2730    13.4654    13.0973     8.0763    91.8825   -40.2537    12.3823
 3125.0000     0.1873     0.1112     2.4676     0.0487    75.3324    13.1726    12.9159     8.0765    93.6841   -40.4050    11.7834
 3125.5000     0.1851     0.1108     2.4684     0.0612    76.3165    13.0028    12.7370     8.0766    95.7864   -40.4065    11.4718
 3126.0000     0.1834     0.1087     2.4714     0.0713    76.6217    13.0002    12.6481     8.0768    95.1101   -40.4079    11.7118
 3126.5000     0.1831     0.1048     2.4766     0.0608    76.4745    12.9976    12.5597     8.0619    91.2686   -40.2591    11.8740
 3127.0000     0.1825     0.1039     2.4826     0.0426    76.4028    12.9949    12.5740     8.0471    88.5590   -40.1109    12.0385
 3127.5000     0.1816     0.1102     2.4773     0.0321    76.1652    12.9923    12.6455     8.0472    87.3531   -39.8126    12.1208
 3128.0000     0.1804     0.1099     2.4690     0.0260    75.8821    12.9897    12.5570     8.0474    87.0494   -39.4943    12.2037
 3128.5000     0.1780     0.1084     2.4689     0.0230    75.5850    12.8080    12.4693     8.0475    86.7457   -38.9163    12.1175
 3129.0000     0.1768     0.1063     2.4765     0.0215    75.2870    12.6283    12.3243     8.0477    86.7428   -38.4680    12.0317
 3129.5000     0.1816     0.1057     2.4780     0.0366    75.2906    12.4517    12.0424     8.0479    87.7164   -38.0193    11.7004
 3130.0000     0.1907     0.1069     2.4742     0.0562    75.6713    12.2776    11.7934     8.0480    90.9468   -37.5713    11.2213
 3130.5000     0.1961     0.1160     2.4629     0.0623    76.7354    12.0222    11.7063     8.0481    89.7409   -37.1230    10.7618
 3131.0000     0.1979     0.1205     2.4554     0.0517    77.6403    11.6906    11.5486     8.0483    87.0313   -36.8246    10.6859
 3131.5000     0.1964     0.1165     2.4591     0.0366    77.7193    11.3682    11.3887     8.0484    85.5246   -36.8261    10.7589
 3132.0000     0.1967     0.1141     2.4652     0.0335    77.7229    11.1317    11.1532     8.0486    86.1232   -36.8279    10.6827
 3132.5000     0.2006     0.1166     2.4614     0.0369    77.7266    10.8996    10.7721     8.0487    87.6240   -36.9793    10.3886
 3133.0000     0.2031     0.1196     2.4575     0.0517    77.7302    10.6728    10.2606     8.0489    88.8619   -37.1306    10.3153
 3133.5000     0.2028     0.1196     2.4523     0.0668    77.8847    10.3785     9.6386     8.0640    90.0235   -37.4319    10.1716
 3134.0000     0.2034     0.1190     2.4515     0.0728    77.7375    10.0225     8.5653     8.0792    90.6221   -38.0331    10.0299
 3134.5000     0.2055     0.1177     2.4538     0.0608    78.0437     9.6787     7.9232     8.0793    91.8222   -38.6342     9.7538
 3135.0000     0.2082     0.1159     2.4568     0.0487    78.8769     9.2179     7.4540     8.0795    98.1351   -39.2354     9.3478
 3135.5000     0.2116     0.1117     2.4658     0.0411    79.4084     8.2408     7.2999     8.0796   107.4555   -40.0065     8.3691
 3136.0000     0.2097     0.0987     2.4816     0.0302    79.8645     7.6924     7.3502     8.0798   113.7684   -40.7379     7.5925
 3136.5000     0.2055     0.0939     2.4993     0.0185    80.1698     7.9073     7.6623     8.0799   114.3670   -41.3391     6.8880
 3137.0000     0.1971     0.0903     2.5072     0.0306    79.8697     8.4740     8.1556     8.0501   109.2506   -41.7903     6.6984
 3137.5000     0.1913     0.0894     2.5079     0.0517    78.6056     9.4673     8.9873     8.0502   100.8266   -42.0916     7.6424
 3138.0000     0.1901     0.0887     2.5071     0.0713    76.8634    10.9507    10.5421     8.0354    88.1922   -42.2430     9.5434
 3138.5000     0.1940     0.0881     2.5071     0.0683    75.8112    12.9329    11.8905     8.0505    83.6780   -42.2444    10.9754
 3139.0000     0.1934     0.0890     2.5064     0.0608    75.5123    13.8597    13.1620     8.0507    83.6751   -42.2459    12.2509
 3139.5000     0.1925     0.0963     2.5018     0.0608    75.6676    14.2726    13.6258     8.0508    83.6722   -42.5475    13.0394
 3140.0000     0.1919     0.1059     2.4845     0.0743    75.9729    14.8491    14.0085     8.0510    82.3858   -43.1487    12.6804
 3140.5000     0.1916     0.1066     2.4739     0.0713    76.1274    15.0544    14.1054     8.0511    80.9596   -44.3495    12.5910
 3141.0000     0.1926     0.1056     2.4777     0.0668    76.0556    15.3680    14.2024     8.0513    80.9560   -45.7003    12.5893
