~VERSION INFORMATION
 VERS.                2.0:   CWLS LOG ASCII STANDARD - VERSION 2.0
 WRAP.                 NO:   ONE LINE PER DEPTH STEP
~WELL INFORMATION
#MNEM.UNIT      DATA TYPE    INFORMATION
#----------   ------------   ------------------------------
 STRT.F           33.5000:   START DEPTH
 STOP.F          680.0000:   STOP DEPTH
 STEP.F            0.5000:   STEP LENGTH
 NULL.          -999.2500:   NO VALUE
 COMP. FENIX & SCISSON INC:   COMPANY
 WELL.       NPR 3 #66-34:   WELL
 FLD .             TEAPOT:   FIELD
 LOC .      S34 T39N R78W:   LOCATION
 CNTY.            NATRONA:   COUNTY
 STAT.            WYOMING:   STATE
 CTRY. UNITED STATES OF AMERICA:   COUNTRY
 SRVC.           BIRDWELL:   SERVICE COMPANY
 DATE.        12-AUG-1978:   LOGDATE
 API .       490251068400:   API NUMBER
~CURVE INFORMATION
#MNEM.UNIT       API CODE    CURVE DESCRIPTION
#----------   ------------   ------------------------------
 DEPT.F                  :   
 SPR .MV     05 010 01 00:   SPONTANEOUS POTENTIAL FROM RES.
 SN  .OHMM   05 040 16 00:   SHORT NORMAL 16"
 IL  .OHMM   05 120 00 00:   INDUCTION LOG
 CORR.G/C3   45 356 01 00:   DENSITY CORRECTION
 GRD .GAPI   45 310 01 00:   GAMMA RAY FROM DENSITY LOG
 RHOB.G/C3   45 350 01 00:   BULK DENSITY
 DPHI.DEC    45 890 12 00:   DENSITY POROSITY SANDSTONE
 CALD.IN     45 280 60 00:   CALIPER
~PARAMETER INFORMATION
#MNEM.UNIT          VALUE    DESCRIPTION
#----------   ------------   ------------------------------
 PD  .                 GL:   PERMANENT DATUM
 EPD .F              5078:   ELEVATION PERMANENT DATUM
 LMF .                 KB:   LOG MEASURED FROM
 DAPD.F                 4:   FEET ABOVE PERMANENT DATUM
 DMF .                 KB:   DRILLING MEASURED FROM
 EKB .F              5082:   KELLING BUSHING
 EGL .F              5078:   GROUND LEVEL
 DATE.            8-12-78:   RUN DATE
 RUN .                  1:   RUN NUMBER
 DD  .F               675:   DEPTH DRILLER
 DL  .F               686:   DEPTH LOGGER
 BLI .F               680:   BOTTOM LOG INTERVAL
 TLI .F                50:   TOP LOG INTERVAL
 CS  .IN            8.625:   CASING SIZE
 CBD .F                40:   CASING BOTTOM DRILLER
 BS  .IN            7.875:   BIT SIZE
 BSD .F               675:   BIT SIZE AT DEPTH
 DFT .                KCL:   DRILLING FLUID TYPE
 DFL .               10.4:   DRILLING FLUID LOSS
 MSS .          FLOW LINE:   MUD SAMPLE SOURCE
 RMS .OHMM            .18:   RESISTIVITY MUD SAMPLE
 MST .F                90:   MUD SAMPLE TEMPERATURE
 RMF .OHMM            .16:   RESISTIVITY MUD FILTRATE SAMPLE
 MFST.F                90:   MUD FILTRATE SAMPLE TEMPERATURE
 RMC .OHMM            .32:   RESISTIVITY MUD CAKE
 MCST.F                90:   MUD CAKE SAMPLE TEMPERATURE
 MFSS.               MEAS:   MUD FILTRATE SAMPLE SOURCE
 TCS .HRS               3:   TIME CURCULATED STOPPED
 LUN .               3006:   LOGGING UNIT NUMBER
 LUL .               CASP:   LOGGING UNIT LOCATION
 ENGI.             MILLER:   RECORDING ENGINEER
 WITN.           MCGINLEY:   WITNESSED BY
 CLNT.            A2DTECH:   CLIENT CODE
 ORIG.           5" PRINT:   ORIGIN OF DATA
 UWI .       490251068400:   UNIQUE WELL ID
 DICO. A2D Technologies, Inc.:   DIGITIZING COMPANY
~OTHER INFORMATION
~A   DEPT      SPR         SN         IL       CORR         GRD      RHOB       DPHI       CALD   
# ...
  600.5000   -34.2506     7.9801     8.0690     0.0330    67.2768     2.4252     0.1576     7.4095
  601.0000   -33.1320     8.1602     8.4153     0.0226    67.0922     2.4115     0.1624     7.3882
  601.5000   -32.3846     8.3988     8.9399     0.0121    66.9128     2.3922     0.1769     7.3979
  602.0000   -32.1469     8.6443     9.4972     0.0026    66.7737     2.3673     0.1928     7.4292
  602.5000   -32.2496     8.8970    10.0893     0.0023    66.0911     2.3423     0.2126     7.4678
  603.0000   -32.2554     9.1571    10.7183     0.0089    61.2548     2.3173     0.2275     7.5069
  603.5000   -32.1742     9.4191    11.2146     0.0179    57.2804     2.2943     0.2407     7.5080
  604.0000   -32.1156     9.5836    11.4528     0.0263    54.9234     2.2726     0.2540     7.4807
  604.5000   -32.5010     9.7474    11.6909     0.0243    53.5811     2.2527     0.2592     7.4531
  605.0000   -32.8965     9.9140    11.8498     0.0228    52.7575     2.2508     0.2566     7.4819
  605.5000   -33.2896    10.0031    11.8279     0.0259    52.4720     2.2581     0.2538     7.7175
  606.0000   -33.4853    10.0909    11.8054     0.0285    52.1886     2.2663     0.2512     7.9781
  606.5000   -33.6770    10.1371    11.7824     0.0284    51.8717     2.2687     0.2504     8.0766
  607.0000   -33.5899    10.1371    11.7601     0.0287    50.7856     2.2705     0.2480     8.0596
  607.5000   -33.4586    10.1371    11.7415     0.0340    49.6825     2.2873     0.2215     8.0402
  608.0000   -33.3163    10.0954    11.8939     0.0367    48.5802     2.3403     0.2006     8.0010
  608.5000   -33.6692    10.0260    12.0245     0.0250    48.2931     2.3715     0.1859     7.9616
  609.0000   -34.1480     9.9574    12.1564     0.0179    51.7019     2.3685     0.1896     7.8875
  609.5000   -34.2542     9.8893    12.2932     0.0383    55.8187     2.3705     0.1830     7.8109
  610.0000   -34.1924     9.8217    12.2932     0.0544    56.6462     2.3677     0.1866     7.7352
  610.5000   -34.1264     9.7545    12.2932     0.0494    54.4936     2.3605     0.1937     7.6680
  611.0000   -34.0607     9.6826    12.2932     0.0442    51.7748     2.3534     0.1972     7.6220
  611.5000   -33.9959     9.7189    12.2935     0.0427    50.5941     2.3482     0.1989     7.6080
  612.0000   -33.9302     9.7599    12.2932     0.0434    50.8793     2.3464     0.2017     7.6145
  612.5000   -34.0386     9.8008    12.0556     0.0441    55.2499     2.3464     0.2029     7.6218
  613.0000   -34.2980     9.8617    11.7696     0.0509    60.1140     2.3498     0.1940     7.6110
  613.5000   -34.5577     9.8394    11.4903     0.0594    61.5013     2.3574     0.1846     7.5869
  614.0000   -34.7007     9.7965    11.2146     0.0680    59.7680     2.3852     0.1752     7.5643
  614.5000   -34.7000     9.7539    11.0635     0.0714    58.1323     2.4050     0.1650     7.5730
  615.0000   -34.6999     9.7114    10.9127     0.0636    57.9098     2.3994     0.1680     7.6180
  615.5000   -34.7004     9.6691    10.8102     0.0558    57.7080     2.4028     0.1676     7.6621
  616.0000   -34.6970     9.6269    10.8936     0.0484    57.6959     2.4043     0.1610     7.6779
  616.5000   -34.9145     9.5937    10.9686     0.0463    57.9631     2.3941     0.1708     7.6378
  617.0000   -35.2316     9.6403    11.0105     0.0504    58.3988     2.3929     0.1726     7.5985
  617.5000   -35.5283     9.6789    10.7263     0.0584    58.8399     2.3962     0.1723     7.5654
  618.0000   -35.6608     9.7178    10.5048     0.0664    59.2838     2.3944     0.1722     7.5948
  618.5000   -35.8004     9.7567    10.2872     0.0745    58.9780     2.3919     0.1749     7.6214
  619.0000   -36.0106     9.7715    10.0758     0.0836    58.3912     2.3896     0.1729     7.5814
  619.5000   -36.4740     9.6605     9.8931     0.0973    58.2832     2.3956     0.1668     7.5390
  620.0000   -36.9215     9.5835     9.7201     0.1092    58.9008     2.4164     0.1606     7.5939
  620.5000   -37.3038     9.5060     9.5492     0.1136    59.5089     2.4213     0.1558     7.7382
  621.0000   -37.3857     9.5608     9.3854     0.1143    59.1025     2.4211     0.1566     7.8220
  621.5000   -37.1219     9.6166     9.3330     0.1102    58.7415     2.4161     0.1601     7.7977
  622.0000   -36.8664     9.6728     9.4303     0.1032    59.6679     2.4111     0.1634     7.7915
  622.5000   -36.8196     9.7292     9.4976     0.0935    60.6379     2.4062     0.1654     7.8108
  623.0000   -37.3990     9.7860     9.5659     0.0843    61.1014     2.4050     0.1640     7.8300
  623.5000   -38.0274     9.8614     9.6328     0.0805    60.5736     2.4053     0.1659     7.8501
  624.0000   -38.6728     9.8197     9.6804     0.0848    59.9190     2.4110     0.1637     7.8965
  624.5000   -38.9792     9.7564     9.3361     0.0899    60.9782     2.4313     0.1439     7.9426
  625.0000   -39.0696     9.6825     9.0798     0.0842    62.9938     2.4300     0.1490     7.9906
  625.5000   -39.0220     9.7092     8.9954     0.0791    65.0589     2.4232     0.1558     8.0064
  626.0000   -38.9725     9.7424     9.0282     0.0948    65.6548     2.4259     0.1507     8.0126
  626.5000   -38.9214     9.7760     9.0662     0.1044    65.8251     2.4303     0.1471     8.0184
  627.0000   -39.1019     9.8096     9.1044     0.0883    67.8239     2.4297     0.1558     8.0152
  627.5000   -39.4688     9.8433     9.1424     0.0722    69.4715     2.4130     0.1652     7.9999
  628.0000   -39.8353     9.8617     9.1632     0.0662    69.2018     2.3967     0.1742     7.9847
  628.5000   -40.0907     9.5389     9.0500     0.0722    70.1934     2.3943     0.1742     7.9695
  629.0000   -40.0214     9.3232     8.8885     0.0792    71.7887     2.4149     0.1618     7.9542
  629.5000   -39.9584     9.1124     8.7298     0.0819    69.4514     2.4160     0.1598     7.9389
  630.0000   -39.9087     8.9491     8.5740     0.0795    69.5334     2.4183     0.1546     7.9230
  630.5000   -40.1264     8.8423     8.4210     0.0729    69.3608     2.4237     0.1511     7.9154
  631.0000   -40.3483     8.7367     8.2707     0.0608    67.8014     2.4254     0.1564     7.9082
  631.5000   -40.4763     8.6720     8.1553     0.0486    69.6108     2.4120     0.1648     7.9079
  632.0000   -40.3908     8.6918     8.0654     0.0363    70.5333     2.3975     0.1722     7.9388
  632.5000   -40.2938     8.7063     7.9841     0.0356    66.8415     2.3894     0.1733     7.9241
  633.0000   -40.9693     8.7207     8.0839     0.0435    64.2542     2.3928     0.1705     7.9039
  633.5000   -41.7627     8.7353     8.1769     0.0523    68.7828     2.4090     0.1626     7.9397
  634.0000   -42.3759     8.7520     8.2709     0.0543    68.7810     2.4177     0.1560     7.9798
  634.5000   -42.5934     8.6646     8.3592     0.0545    68.0536     2.4242     0.1569     8.0008
  635.0000   -42.3072     8.5612     8.2454     0.0603    69.7998     2.4357     0.1464     7.9694
  635.5000   -42.1310     8.4590     8.1405     0.0662    71.5514     2.4507     0.1333     7.9380
  636.0000   -42.2887     8.4050     8.0369     0.0695    70.4449     2.4646     0.1271     7.9068
  636.5000   -42.4389     8.3647     7.9346     0.0625    68.5462     2.4656     0.1315     7.8818
  637.0000   -42.4607     8.3400     7.8326     0.0555    66.6332     2.4633     0.1289     7.8889
  637.5000   -42.3966     8.3178     7.7677     0.0542    64.9032     2.4661     0.1265     7.9194
  638.0000   -42.3320     8.2956     7.8194     0.0600    64.8902     2.4666     0.1273     7.9492
  638.5000   -42.2975     8.2828     7.8594     0.0667    67.9588     2.4683     0.1249     7.9481
  639.0000   -42.8070     8.3047     7.9075     0.0719    73.0337     2.4757     0.1195     7.9238
  639.5000   -43.7152     8.3200     7.8858     0.0682    71.3548     2.4768     0.1195     7.8991
  640.0000   -44.6282     8.3352     7.8498     0.0610    68.9553     2.4760     0.1195     7.8745
  640.5000   -45.1830     8.3510     7.8140     0.0489    69.3974     2.4727     0.1284     7.8669
