~VERSION INFORMATION
 VERS.                2.0:   CWLS LOG ASCII STANDARD - VERSION 2.0
 WRAP.                 NO:   ONE LINE PER DEPTH STEP
~WELL INFORMATION
#MNEM.UNIT      DATA TYPE    INFORMATION
#----------   ------------   ------------------------------
 STRT.F           12.5000:   START DEPTH
 STOP.F          604.0000:   STOP DEPTH
 STEP.F            0.5000:   STEP LENGTH
 NULL.          -999.2500:   NO VALUE
 COMP. FENIX & SCISSON INC:   COMPANY
 WELL.   SX-3 NPR 3 #61-3:   WELL
 FLD .             TEAPOT:   FIELD
 LOC .       S3 T38N R78W:   LOCATION
 CNTY.            NATRONA:   COUNTY
 STAT.            WYOMING:   STATE
 CTRY. UNITED STATES OF AMERICA:   COUNTRY
 SRVC.           BIRDWELL:   SERVICE COMPANY
 DATE.        03-DEC-1978:   LOGDATE
 API .       490251074100:   API NUMBER
~CURVE INFORMATION
#MNEM.UNIT       API CODE    CURVE DESCRIPTION
#----------   ------------   ------------------------------
 DEPT.F                  :   
 SPR .MV     05 010 01 00:   SPONTANEOUS POTENTIAL FROM RES.
 SN  .OHMM   05 040 16 00:   SHORT NORMAL 16"
 IL  .OHMM   05 120 00 00:   INDUCTION LOG
 CALD.IN     45 280 60 00:   CALIPER
 GRD .GAPI   45 310 01 00:   GAMMA RAY FROM DENSITY LOG
 DEN .G/C3   45 350 01 00:   COMPENSATED BULK DENSTIY
 CORR.G/C3   45 356 01 00:   DENSITY CORRECTION
 DPHI.DEC    45 890 12 00:   DENSITY POROSITY SANDSTONE
~PARAMETER INFORMATION
#MNEM.UNIT          VALUE    DESCRIPTION
#----------   ------------   ------------------------------
 PD  .                 GL:   PERMANENT DATUM
 EPD .F              5099:   ELEVATION PERMANENT DATUM
 LMF .                 KB:   LOG MEASURED FROM
 DAPD.F                 4:   FEET ABOVE PERMANENT DATUM
 DMF .                 KB:   DRILLING MEASURED FROM
 EKB .F              5103:   KELLING BUSHING
 EGL .F              5099:   GROUND LEVEL
 DATE.            12-3-78:   RUN DATE
 RUN .                  1:   RUN NUMBER
 DD  .F               615:   DEPTH DRILLER
 DL  .F               604:   DEPTH LOGGER
 BLI .F               598:   BOTTOM LOG INTERVAL
 TLI .F                40:   TOP LOG INTERVAL
 CS  .IN            8.625:   CASING SIZE
 CBL .F                35:   CASING BOTTOM LOGGER
 BS  .IN            7.875:   BIT SIZE
 BSD .F               615:   BIT SIZE AT DEPTH
 DFT .                KCL:   DRILLING FLUID TYPE
 DFD .                8.8:   DRILLING FLUID DENSITY
 DFV .                 42:   DRILLING FLUID VISCOSITY
 DFPH.               12.2:   DRILLING FLUID PH
 DFL .                 10:   DRILLING FLUID LOSS
 MSS .           FLOWLINE:   MUD SAMPLE SOURCE
 RMS .OHMM            .24:   RESISTIVITY MUD SAMPLE
 MST .F                58:   MUD SAMPLE TEMPERATURE
 RMF .OHMM             .3:   RESISTIVITY MUD FILTRATE SAMPLE
 MFST.F                54:   MUD FILTRATE SAMPLE TEMPERATURE
 RMC .OHMM            .34:   RESISTIVITY MUD CAKE
 MCST.F                56:   MUD CAKE SAMPLE TEMPERATURE
 MFSS.           MEASURED:   MUD FILTRATE SAMPLE SOURCE
 MCSS.           MEASURED:   MUD CAKE SAMPLE SOURCE
 RMB .OHMM            .27:   RESISTIVITY MUD AT BHT
 BHT .F                56:   BOTTOM HOLE TEMPERATURE
 TCS .HRS               3:   TIME CURCULATED STOPPED
 MRT .F                52:   MAXIMUM RECORDED TEMPERATURE
 LUN .               2958:   LOGGING UNIT NUMBER
 LUL .                CPR:   LOGGING UNIT LOCATION
 ENGI.            ROLLINS:   RECORDING ENGINEER
 WITN.              AMEND:   WITNESSED BY
 CLNT.            A2DTECH:   CLIENT CODE
 ORIG.       2", 5" PRINT:   ORIGIN OF DATA
 UWI .       490251074100:   UNIQUE WELL ID
 DICO. A2D Technologies, Inc.:   DIGITIZING COMPANY
~OTHER INFORMATION
~A   DEPT      SPR         SN         IL       CALD         GRD       DEN       CORR       DPHI   
# ...
  458.0000   -45.9542    14.6326    17.5968     8.0775    81.8562     2.3728    -0.0018     0.1909
  458.5000   -45.9344    14.6420    17.5736     8.0782    82.8624     2.3740    -0.0012     0.1968
  459.0000   -45.9145    14.6514    17.7554     8.0790    82.9251     2.3673    -0.0007     0.2174
  459.5000   -45.8947    14.6607    18.0079     8.0797    84.1828     2.3317     0.0034     0.2412
  460.0000   -45.8748    14.6700    18.2643     8.0803    86.7489     2.2949     0.0099     0.2650
  460.5000   -45.8550    14.6794    18.5230     8.0756    88.6280     2.2583     0.0272     0.2842
  461.0000   -45.8351    14.6888    18.7501     8.0625    84.4894     2.2140     0.0445     0.2810
  461.5000   -45.8153    14.6981    18.6897     8.0495    82.6314     2.2362     0.0572     0.2643
  462.0000   -45.7954    14.7075    18.6295     8.0365    82.6281     2.2801     0.0546     0.2280
  462.5000   -45.7756    14.7168    18.5695     8.0234    82.8337     2.3241     0.0464     0.1859
  463.0000   -45.7557    14.7263    18.5097     8.0104    82.9982     2.3688     0.0333     0.1895
  463.5000   -45.7358    14.7357    18.4500     8.0007    82.3491     2.3735     0.0252     0.1957
  464.0000   -45.7158    14.7444    18.3354     8.0003    80.9379     2.3650     0.0247     0.1995
  464.5000   -45.6966    14.6844    18.0419     7.9997    79.9814     2.3562     0.0240     0.2007
  465.0000   -45.7078    14.6269    17.7531     7.9991    79.9180     2.3530     0.0236     0.1998
  465.5000   -45.7896    14.5696    17.4690     7.9986    79.7325     2.3532     0.0285     0.1973
  466.0000   -45.8657    14.5125    17.1893     7.9980    77.6346     2.3592     0.0332     0.1933
  466.5000   -46.0918    14.4557    16.9142     7.9974    76.4314     2.3655     0.0299     0.1915
  467.0000   -46.3394    14.3990    16.6421     7.9969    77.2598     2.3719     0.0264     0.1911
  467.5000   -46.5881    14.3416    16.4243     7.9963    78.9225     2.3721     0.0229     0.1911
  468.0000   -46.7737    14.2093    16.2869     7.9957    79.8376     2.3723     0.0194     0.1889
  468.5000   -46.9207    14.0757    16.1515     7.9952    78.7626     2.3760     0.0160     0.1851
  469.0000   -47.0667    13.9434    16.0173     7.9946    77.0639     2.3798     0.0125     0.1835
  469.5000   -47.2127    13.8123    15.8842     7.9940    75.9913     2.3825     0.0091     0.1858
  470.0000   -47.3589    13.6824    15.7296     7.9934    77.0175     2.3804     0.0070     0.1883
  470.5000   -47.5050    13.5537    15.7430     7.9929    78.2148     2.3762     0.0058     0.1911
  471.0000   -47.6567    13.4264    15.7590     7.9923    79.4358     2.3719     0.0073     0.1948
  471.5000   -47.6908    13.3178    15.7754     7.9917    79.8356     2.3649     0.0088     0.1986
  472.0000   -47.6908    13.3044    15.7917     7.9912    79.4620     2.3580     0.0104     0.2023
  472.5000   -47.6897    13.2909    15.8080     7.9906    78.8919     2.3513     0.0119     0.2033
  473.0000   -47.7185    13.2775    15.8243     7.9900    79.1963     2.3503     0.0134     0.2016
  473.5000   -47.9798    13.2642    15.8404     7.9894    79.8374     2.3517     0.0149     0.2000
  474.0000   -48.2438    13.2508    15.8572     7.9889    79.8615     2.3540     0.0164     0.1983
  474.5000   -48.5071    13.2374    15.8752     7.9883    79.9024     2.3563     0.0179     0.1975
  475.0000   -48.7702    13.2241    15.7599     7.9878    79.9417     2.3587     0.0197     0.1967
  475.5000   -49.0403    13.2108    15.6275     7.9872    79.9833     2.3604     0.0274     0.1959
  476.0000   -49.1356    13.1974    15.4957     7.9866    80.1918     2.3615     0.0355     0.1841
  476.5000   -49.1874    13.1381    15.3650     7.9860    81.2485     2.3779     0.0394     0.1759
  477.0000   -49.2381    13.0789    15.2354     7.9855    82.3118     2.3955     0.0395     0.1755
  477.5000   -49.2893    13.0199    15.1069     7.9849    82.8289     2.3968     0.0395     0.1773
  478.0000   -49.3407    12.9613    14.9794     7.9843    82.8220     2.3969     0.0395     0.1791
  478.5000   -49.3920    12.9028    14.8531     7.9838    82.7938     2.3917     0.0395     0.1809
  479.0000   -49.4433    12.8447    14.7278     7.9832    81.8466     2.3886     0.0395     0.1815
  479.5000   -49.4947    12.7868    14.6035     7.9826    80.1827     2.3875     0.0395     0.1815
  480.0000   -49.5460    12.7291    14.4804     7.9820    80.2677     2.3865     0.0395     0.1815
  480.5000   -49.5973    12.6718    14.3582     7.9815    80.6345     2.3860     0.0395     0.1768
  481.0000   -49.6486    12.6146    14.2371     7.9812    81.0114     2.3890     0.0395     0.1711
  481.5000   -49.7000    12.5578    14.1170     7.9823    81.5839     2.3992     0.0395     0.1654
  482.0000   -49.7513    12.5012    13.9979     7.9833    83.2558     2.4094     0.0395     0.1603
  482.5000   -49.8024    12.4448    13.8798     7.9843    84.7969     2.4188     0.0395     0.1637
  483.0000   -49.8535    12.3887    13.7627     7.9853    85.2139     2.4159     0.0395     0.1663
  483.5000   -49.9202    12.3104    13.6467     7.9863    85.4211     2.4133     0.0395     0.1633
  484.0000   -50.0903    12.2206    13.5315     7.9874    85.4092     2.4158     0.0395     0.1623
  484.5000   -50.2629    12.1323    13.4174     7.9884    85.5655     2.4182     0.0395     0.1619
  485.0000   -50.4352    12.0445    13.3042     7.9894    85.8649     2.4201     0.0395     0.1632
  485.5000   -50.6074    11.9574    13.1920     7.9904    87.6707     2.4201     0.0395     0.1649
  486.0000   -50.7795    11.8709    13.0760     7.9914    90.2067     2.4177     0.0395     0.1665
  486.5000   -50.9517    11.7850    13.0458     7.9924    89.7151     2.4129     0.0395     0.1675
  487.0000   -51.1239    11.7039    13.0142     7.9935    87.2406     2.4090     0.0395     0.1667
  487.5000   -51.2962    11.7039    12.9828     7.9945    85.7774     2.4106     0.0395     0.1679
  488.0000   -51.4683    11.7039    12.9514     7.9955    84.9748     2.4096     0.0395     0.1683
  488.5000   -51.6411    11.7039    12.9201     7.9965    83.9251     2.4081     0.0395     0.1654
  489.0000   -51.7595    11.7039    12.8888     7.9975    81.8459     2.4120     0.0395     0.1627
  489.5000   -51.8462    11.7039    12.8577     7.9985    81.8588     2.4189     0.0395     0.1620
  490.0000   -51.9324    11.7039    12.8014     7.9995    83.5178     2.4207     0.0395     0.1641
  490.5000   -52.0186    11.7039    12.6934     8.0006    84.9975     2.4189     0.0395     0.1651
  491.0000   -52.1048    11.7039    12.5864     8.0016    85.0181     2.4172     0.0395     0.1651
  491.5000   -52.1911    11.7039    12.4802     8.0026    84.7961     2.4161     0.0395     0.1631
  492.0000   -52.2773    11.7039    12.3749     8.0036    84.5578     2.4169     0.0395     0.1609
  492.5000   -52.3635    11.7039    12.2705     8.0046    84.3206     2.4208     0.0391     0.1611
  493.0000   -52.4498    11.7039    12.1670     8.0056    84.0874     2.4234     0.0384     0.1607
  493.5000   -52.5358    11.7039    12.0644     8.0067    83.6480     2.4238     0.0378     0.1591
  494.0000   -52.6211    11.7039    12.0264     8.0077    83.1296     2.4251     0.0371     0.1576
  494.5000   -52.7143    11.7039    12.0134     8.0087    82.5904     2.4280     0.0364     0.1563
  495.0000   -53.0075    11.7039    12.0005     8.0097    82.1929     2.4318     0.0357     0.1499
  495.5000   -53.3146    11.7039    11.9876     8.0107    84.7404     2.4392     0.0350     0.1436
  496.0000   -53.6209    11.7039    11.9747     8.0117    88.4155     2.4465     0.0343     0.1411
  496.5000   -53.9271    11.7039    11.9619     8.0128    86.7286     2.4539     0.0336     0.1396
  497.0000   -54.2332    11.7039    11.9490     8.0138    83.8187     2.4561     0.0329     0.1415
  497.5000   -54.5392    11.7039    11.9362     8.0148    82.0753     2.4533     0.0322     0.1497
  498.0000   -54.8453    11.7039    11.9229     8.0158    81.7661     2.4413     0.0315     0.1578
