~VERSION INFORMATION
 VERS.                2.0:   CWLS LOG ASCII STANDARD - VERSION 2.0
 WRAP.                 NO:   ONE LINE PER DEPTH STEP
~WELL INFORMATION
#MNEM.UNIT      DATA TYPE    INFORMATION
#----------   ------------   ------------------------------
 STRT.F           30.0000:   START DEPTH
 STOP.F          562.0000:   STOP DEPTH
 STEP.F            0.5000:   STEP LENGTH
 NULL.          -999.2500:   NO VALUE
 COMP. LAWRENCE/ALLISON INC:   COMPANY
 WELL. NPR 3 #53-16-SX-10:   WELL
 FLD .             TEAPOT:   FIELD
 LOC .      S10 T38N R78W:   LOCATION
 CNTY.            NATRONA:   COUNTY
 STAT.            WYOMING:   STATE
 CTRY. UNITED STATES OF AMERICA:   COUNTRY
 SRVC.      Dresser Atlas:   SERVICE COMPANY
 DATE.        27-AUG-1984:   LOGDATE
 API .       490251098200:   API NUMBER
~CURVE INFORMATION
#MNEM.UNIT       API CODE    CURVE DESCRIPTION
#----------   ------------   ------------------------------
 DEPT.F                  :   
 RILD.OHMM   07 120 46 00:   INDUCTION LOG DEEP RESISTIVITY
 RILM.OHMM   07 120 44 00:   INDUCTION LOG MEDIUM RESISTIVITY
 RFOC.OHMM   07 220 04 00:   RESISTIVITY FOCUSED LOG
 SPR .MV     07 010 01 00:   SPONTANEOUS POTENTIAL
 AC  .US/F   60 520 00 00:   ACOUSTIC SONIC
 DEN .G/C3   45 350 01 00:   COMPENSATED BULK DENSTIY
 CORR.G/C3   45 356 01 00:   DENSITY CORRECTION
 CNC .DEC    42 890 01 00:   NEUTRON POROSITY LIMESTONE
 CALD.IN     45 280 60 00:   CALIPER
 GRD .GAPI   45 310 01 00:   GAMMA RAY FROM DENSITY LOG
 PORD.DEC    45 890 10 00:   POROSITY DENSITY LIMESTONE
~PARAMETER INFORMATION
#MNEM.UNIT          VALUE    DESCRIPTION
#----------   ------------   ------------------------------
 PD  .                 GL:   PERMANENT DATUM
 EPD .F              5199:   ELEVATION PERMANENT DATUM
 LMF .                 GL:   LOG MEASURED FROM
 DMF .                 GL:   DRILLING MEASURED FROM
 EGL .F              5199:   GROUND LEVEL
 DATE.            8-27-84:   RUN DATE
 RUN .                  1:   RUN NUMBER
 DD  .F               550:   DEPTH DRILLER
 DL  .F               549:   DEPTH LOGGER
 BLI .F               547:   BOTTOM LOG INTERVAL
 TLI .F                30:   TOP LOG INTERVAL
 CS  .IN            9.625:   CASING SIZE
 CBD .F                40:   CASING BOTTOM DRILLER
 CBL .F                44:   CASING BOTTOM LOGGER
 BS  .IN            7.875:   BIT SIZE
 BSD .F               550:   BIT SIZE AT DEPTH
 DFT .          KCL/WATER:   DRILLING FLUID TYPE
 MSS .           MUD TANK:   MUD SAMPLE SOURCE
 RMS .OHMM            .28:   RESISTIVITY MUD SAMPLE
 MST .F                78:   MUD SAMPLE TEMPERATURE
 TCS .HRS               4:   TIME CURCULATED STOPPED
 LUN .               4082:   LOGGING UNIT NUMBER
 LUL .          ROOSEVELT:   LOGGING UNIT LOCATION
 ENGI.            FRANCIS:   RECORDING ENGINEER
 WITN.              FIVAS:   WITNESSED BY
 CLNT.            A2DTECH:   CLIENT CODE
 ORIG.       2", 5" PRINT:   ORIGIN OF DATA
 UWI .       490251098200:   UNIQUE WELL ID
 DICO. A2D Technologies, Inc.:   DIGITIZING COMPANY
~OTHER INFORMATION
~A   DEPT     RILD       RILM       RFOC        SPR         AC        DEN       CORR          CNC     CALD         GRD      PORD   
# ...
  213.0000     7.6984     8.1169     8.6979   -28.0651   105.7429     2.4887     0.0655     0.2517     8.6058   122.1757     0.1140
  213.5000     7.7314     8.1632     8.9522   -27.9185   105.4509     2.4792     0.0536     0.2417     8.6044   116.8196     0.1176
  214.0000     7.7646     8.0919     8.9272   -27.7693   105.7382     2.4668     0.0234     0.2383     8.6030   114.8082     0.1234
  214.5000     7.7949     8.0405     8.9052   -27.6676   105.9431     2.4665    -0.0071     0.2397     8.6016   118.5017     0.1277
  215.0000     7.7597     7.9895     8.8833   -27.5517   105.6636     2.4761     0.0060     0.2380     8.6002   123.2268     0.1217
  215.5000     7.7206     7.9388     8.8615   -27.2275   105.3860     2.4860     0.0221     0.2332     8.5988   126.0411     0.1162
  216.0000     7.6817     7.8884     8.8397   -26.8389   105.5072     2.4865     0.0251     0.2292     8.5974   127.8074     0.1159
  216.5000     7.6431     7.8383     8.8180   -26.4492   105.8773     2.4820     0.0121     0.2303     8.5960   129.3628     0.1186
  217.0000     7.6046     7.7953     8.7963   -26.0599   106.2439     2.4776     0.0044     0.2373     8.5946   128.7686     0.1207
  217.5000     7.5664     7.8047     8.7747   -25.6702   106.5732     2.4757     0.0179     0.2533     8.5932   126.7000     0.1222
  218.0000     7.5283     7.8134     8.7531   -25.2811   106.6019     2.4737     0.0314     0.2632     8.5918   125.3485     0.1237
  218.5000     7.4905     7.8222     8.7318   -24.8922   106.4578     2.4741     0.0413     0.2565     8.5904   125.3069     0.1237
  219.0000     7.4524     7.8310     8.7093   -24.7752   106.3855     2.4855     0.0489     0.2508     8.5890   123.4755     0.1177
  219.5000     7.4359     7.8399     8.7222   -24.9303   106.8356     2.4953     0.0563     0.2488     8.5876   121.5762     0.1116
  220.0000     7.4260     7.8486     8.7367   -25.0856   107.2850     2.4955     0.0630     0.2463     8.5862   120.8668     0.1111
  220.5000     7.4163     7.8573     8.7512   -25.2413   107.2860     2.4955     0.0544     0.2438     8.5848   122.5102     0.1107
  221.0000     7.4066     7.8665     8.7657   -25.3969   106.5078     2.4953     0.0358     0.2423     8.5834   124.0938     0.1099
  221.5000     7.3969     7.8174     8.7809   -25.5533   105.7068     2.5035     0.0231     0.2432     8.5820   125.6854     0.1058
  222.0000     7.3871     7.7635     8.7892   -25.7045   104.9059     2.5148     0.0396     0.2495     8.5805   127.2730     0.0989
  222.5000     7.3791     7.7100     8.7022   -25.6107   104.1053     2.5261     0.0578     0.2537     8.5791   128.5297     0.0921
  223.0000     7.2486     7.6521     8.6398   -25.4926   102.9962     2.5287     0.0622     0.2500     8.5777   127.9977     0.0880
  223.5000     7.0663     7.4634     8.5781   -25.3741   103.9708     2.5203     0.0629     0.2464     8.5763   127.0152     0.0935
  224.0000     6.8885     7.2620     8.5168   -25.2113   105.2222     2.5100     0.0528     0.2508     8.5749   126.0546     0.0990
  224.5000     6.7152     7.0660     8.3933   -24.9719   106.3856     2.5006     0.0423     0.2565     8.5735   125.4127     0.1046
  225.0000     6.5463     6.8753     8.0663   -24.7334   106.8650     2.4965     0.0392     0.2567     8.5721   125.7644     0.1088
  225.5000     6.3816     6.7660     7.7568   -24.4947   107.4870     2.4932     0.0391     0.2583     8.5707   126.0896     0.1109
  226.0000     6.2211     6.7275     7.5120   -24.2563   108.4589     2.4898     0.0392     0.2647     8.5693   126.4151     0.1130
  226.5000     6.0400     6.6893     7.6306   -24.0168   109.4970     2.4866     0.0370     0.2698     8.5679   126.8049     0.1150
  227.0000     5.8320     6.5606     7.7231   -23.8199   109.9713     2.4889     0.0342     0.2658     8.5665   127.2460     0.1144
  227.5000     5.6311     6.2094     7.9102   -23.6691   109.7495     2.4916     0.0313     0.2593     8.5661   127.6671     0.1131
  228.0000     5.4371     5.8771     8.0882   -23.5184   109.1884     2.4911     0.0283     0.2553     8.5704   128.9081     0.1138
  228.5000     5.2498     5.5625     7.8540   -23.3675   109.1884     2.4796     0.0248     0.2618     8.5745   130.1349     0.1186
  229.0000     5.0494     5.2881     6.9478   -23.2166   111.0217     2.4550     0.0214     0.2700     8.5787   129.5453     0.1286
  229.5000     5.0708     5.3227     5.9021   -23.0657   113.0368     2.4313     0.0169     0.2741     8.5827   126.7670     0.1447
  230.0000     5.1388     5.4734     5.4814   -22.9148   115.0519     2.4151     0.0194     0.2723     8.5852   125.8965     0.1583
  230.5000     5.3937     5.7286     6.2496   -22.7636   116.1022     2.4223     0.0269     0.2701     8.5842   127.4966     0.1481
  231.0000     5.6612     5.9956     7.1476   -22.6126   113.8848     2.4507     0.0343     0.2689     8.5833   126.6511     0.1312
  231.5000     5.9419     6.2751     8.2509   -22.4620   111.0301     2.4841     0.0417     0.2634     8.5823   124.1148     0.1143
  232.0000     6.2367     6.5676     8.2376   -22.3486   108.1753     2.5031     0.0493     0.2580     8.5813   122.6485     0.1054
  232.5000     6.4652     6.8737     8.1224   -22.2312   106.9485     2.5031     0.0625     0.2525     8.5804   125.5205     0.1059
  233.0000     6.6840     7.1729     8.0478   -22.1136   106.6291     2.5032     0.0830     0.2471     8.5794   128.2579     0.1047
  233.5000     6.9102     7.2300     7.9401   -21.9950   106.2826     2.5061     0.0871     0.2416     8.5785   126.7663     0.1028
  234.0000     7.1069     7.2959     8.0033   -21.8821   105.8076     2.5082     0.0729     0.2411     8.5775   123.0943     0.1029
  234.5000     7.0655     7.3727     8.1221   -21.9870   105.2806     2.5053     0.0583     0.2410     8.5765   119.4074     0.1050
  235.0000     6.7702     6.9765     8.2426   -22.0457   104.3315     2.5025     0.0535     0.2400     8.5756   115.8011     0.1072
  235.5000     6.1902     6.5233     8.3650   -21.8886   103.4028     2.4997     0.0510     0.2428     8.5746   116.9079     0.1096
  236.0000     5.6600     6.0972     8.4705   -21.7370   102.9760     2.4975     0.0428     0.2460     8.5736   118.9647     0.1100
  236.5000     5.1751     5.6991     8.0668   -21.6762   103.3247     2.4976     0.0344     0.2503     8.5727   119.9149     0.1102
  237.0000     5.0035     5.3281     6.9018   -21.6733   106.3387     2.4939     0.0373     0.2565     8.5717   116.8226     0.1270
  237.5000     5.0013     5.1435     5.9050   -21.5378   110.4910     2.4674     0.0445     0.2516     8.5707   115.5251     0.1541
  238.0000     5.0026     5.2724     4.8662   -20.9611   113.6822     2.4207     0.0388     0.2455     8.5698   117.7822     0.1734
  238.5000     5.0029     5.4187     5.5814   -20.4071   114.6994     2.3902     0.0329     0.2477     8.5688   120.7336     0.1652
  239.0000     5.0029     5.5690     6.6769   -19.8564   113.0976     2.3899     0.0306     0.2493     8.5679   123.6392     0.1487
  239.5000     5.2299     5.7234     7.8693   -19.4414   110.0353     2.4289     0.0350     0.2441     8.5669   123.2987     0.1321
  240.0000     5.5098     5.9376     7.5328   -19.3195   106.9439     2.4566     0.0389     0.2400     8.5659   120.9837     0.1344
  240.5000     5.8046     6.2144     7.1729   -19.1928   106.2588     2.4562     0.0347     0.2388     8.5650   119.8279     0.1357
  241.0000     6.1153     6.5041     7.1069   -19.0673   106.2189     2.4535     0.0347     0.2358     8.5640   123.4284     0.1337
  241.5000     6.4425     6.8073     7.7760   -18.9415   106.1824     2.4587     0.0371     0.2318     8.5630   126.5007     0.1282
  242.0000     6.7873     7.1246     8.2860   -18.8158   105.4893     2.4687     0.0378     0.2280     8.5621   124.6918     0.1231
  242.5000     7.1505     7.4567     8.6522   -18.6901   104.8505     2.4784     0.0249     0.2339     8.5611   122.5476     0.1181
  243.0000     7.4198     7.7948     8.7179   -18.5658   104.0715     2.4867     0.0115     0.2417     8.5601   120.4166     0.1146
