~VERSION INFORMATION
 VERS.                2.0:   CWLS LOG ASCII STANDARD - VERSION 2.0
 WRAP.                 NO:   ONE LINE PER DEPTH STEP
~WELL INFORMATION
#MNEM.UNIT      DATA TYPE    INFORMATION
#----------   ------------   ------------------------------
 STRT.F          436.0000:   START DEPTH
 STOP.F         2160.0000:   STOP DEPTH
 STEP.F            0.5000:   STEP LENGTH
 NULL.          -999.2500:   NO VALUE
 COMP.   FLUOR DANIEL INC:   COMPANY
 WELL. NAVAL PETROLEUM RESERVE 3 X-29 #31-29:   WELL
 FLD .            WILDCAT:   FIELD
 LOC .      S29 T39N R78W:   LOCATION
 CNTY.            NATRONA:   COUNTY
 STAT.            WYOMING:   STATE
 CTRY. UNITED STATES OF AMERICA:   COUNTRY
 SRVC.            Unknown:   SERVICE COMPANY
 DATE.        25-JUN-1995:   LOGDATE
 API .       490252272300:   API NUMBER
~CURVE INFORMATION
#MNEM.UNIT       API CODE    CURVE DESCRIPTION
#----------   ------------   ------------------------------
 DEPT.F                  :   
 ROP .FT/HR  91 810 01 00:   RAT OF DRILLING PENETRATION
 TGAS.TC/CC  91 830 01 00:   TOTAL GAS UNIT
~PARAMETER INFORMATION
#MNEM.UNIT          VALUE    DESCRIPTION
#----------   ------------   ------------------------------
 EPD .F              5058:   ELEVATION PERMANENT DATUM
 EKB .F              5068:   KELLING BUSHING
 EGL .F              5058:   GROUND LEVEL
 DATE.        25-JUN-1995:   RUN DATE
 RUN .                  1:   RUN NUMBER
 ENGI.     C.TOWER/R.HUSK:   RECORDING ENGINEER
 CLNT.            A2DTECH:   CLIENT CODE
 ORIG.           5" PRINT:   ORIGIN OF DATA
 UWI .       490252272300:   UNIQUE WELL ID
 DICO. A2D Technologies, Inc.:   DIGITIZING COMPANY
~OTHER INFORMATION
~A   DEPT        ROP     TGAS   
# ...
 1894.0000     0.5175     7.1250
 1894.5000     0.5172     7.1287
 1895.0000     0.5263     6.9428
 1895.5000     0.5260     6.9474
 1896.0000     0.5257     6.9509
 1896.5000     0.5573     7.1434
 1897.0000     0.6754     7.1472
 1897.5000     0.6469     7.1509
 1898.0000     0.6372     7.1554
 1898.5000     0.6463     7.3477
 1899.0000     0.6459     7.5401
 1899.5000     0.6456     7.5438
 1900.0000     0.6453     7.7362
 1900.5000     0.6198     7.9285
 1901.0000     0.6194     7.9322
 1901.5000     0.6185     7.1698
 1902.0000     0.6440     7.1698
 1902.5000     0.9656     7.1698
 1903.0000     0.9745     7.1698
 1903.5000     0.9647     7.1698
 1904.0000     0.9642     7.3585
 1904.5000     0.9638     7.5472
 1905.0000     0.9539     7.5472
 1905.5000     0.9630     7.7358
 1906.0000     0.8966     7.9245
 1906.5000     0.7740     7.9245
 1907.0000     0.8017     7.9245
 1907.5000     0.8106     7.9245
 1908.0000     0.8101     7.9245
 1908.5000     0.8096     7.7358
 1909.0000     0.8092     7.7358
 1909.5000     0.8087     7.7358
 1910.0000     0.8082     7.7358
 1910.5000     0.8078     7.7358
 1911.0000     0.7885     7.7358
 1911.5000     0.7881     7.7358
 1912.0000     0.7970     7.7358
 1912.5000     1.0315     7.7358
 1913.0000     1.0121     7.5460
 1913.5000     1.0117     7.1698
 1914.0000     1.0112     6.9811
 1914.5000     1.0108     7.1698
 1915.0000     1.0103     7.1698
 1915.5000     1.0098     7.1698
 1916.0000     1.0094     7.5472
 1916.5000     1.0183     8.1132
 1917.0000     1.0178     8.6792
 1917.5000     0.9704     8.6792
 1918.0000     1.2330     8.6792
 1918.5000     1.2890     8.6792
 1919.0000     1.2885     8.2857
 1919.5000     1.2410     7.8912
 1920.0000     1.0150     7.7358
 1920.5000     1.0240     7.5472
 1921.0000     1.0235     7.3585
 1921.5000     1.0230     7.5472
 1922.0000     1.0226     7.5472
 1922.5000     1.0215     7.5472
 1923.0000     1.0122     7.5472
 1923.5000     1.0212     7.5472
 1924.0000     1.2463     7.1698
 1924.5000     1.2269     7.1698
 1925.0000     1.2360     7.1698
 1925.5000     1.2449     7.1698
 1926.0000     1.0282     7.1698
 1926.5000     0.9995     7.1698
 1927.0000     1.0085     7.1698
 1927.5000     1.0174     7.1698
 1928.0000     1.0263     7.1698
 1928.5000     1.0258     7.1698
 1929.0000     1.0348     7.1698
 1929.5000     1.0342     7.1698
 1930.0000     1.0338     7.1698
 1930.5000     1.0333     7.1698
 1931.0000     1.0329     7.1698
 1931.5000     1.0230     7.1698
 1932.0000     1.0225     7.1698
 1932.5000     1.0221     7.1698
 1933.0000     1.0216     7.1698
 1933.5000     1.0211     7.1698
 1934.0000     1.0112     7.1698
 1934.5000     1.0107     7.4412
 1935.0000     0.9915     7.5472
 1935.5000     0.8031     7.5472
 1936.0000     0.7933     7.5472
 1936.5000     0.8210     7.7358
 1937.0000     0.8393     7.9245
 1937.5000     0.8294     7.9245
 1938.0000     0.6691     7.9245
 1938.5000     0.6499     7.9245
 1939.0000     0.6494     7.7358
 1939.5000     0.6584     7.7358
 1940.0000     0.6677     7.5472
 1940.5000     0.6762     7.5472
 1941.0000     0.6757     7.5472
 1941.5000     0.6658     7.5472
 1942.0000     0.6654     7.5472
 1942.5000     0.6649     7.5472
 1943.0000     0.6644     7.3585
 1943.5000     0.6734     7.1698
 1944.0000     0.8139     7.1698
 1944.5000     0.8134     7.1698
 1945.0000     0.8130     7.1698
 1945.5000     0.8125     7.1698
 1946.0000     0.8119     7.3585
 1946.5000     0.8115     7.3585
 1947.0000     0.8204     7.5472
 1947.5000     0.8294     7.5472
 1948.0000     0.8384     7.5472
 1948.5000     1.0352     7.5472
 1949.0000     1.0348     7.5472
 1949.5000     1.0343     7.5472
 1950.0000     1.0432     7.5472
 1950.5000     1.0396     7.5472
 1951.0000     1.0360     7.5472
 1951.5000     1.0438     7.7358
 1952.0000     0.9688     7.7358
 1952.5000     0.7998     7.9245
 1953.0000     0.8000     7.9245
 1953.5000     0.7908     7.9245
 1954.0000     0.7910     7.9245
 1954.5000     0.7912     7.7358
 1955.0000     0.8008     7.5472
 1955.5000     0.8010     7.5472
 1956.0000     0.8011     7.5472
 1956.5000     0.8013     7.3585
 1957.0000     0.8109     7.1698
 1957.5000     0.8012     7.1698
 1958.0000     0.7421     7.1698
 1958.5000     0.6611     7.3585
 1959.0000     0.6613     7.5472
 1959.5000     0.6709     7.5472
 1960.0000     0.6711     7.5472
 1960.5000     0.6807     7.5472
 1961.0000     0.6808     7.5472
 1961.5000     0.6810     7.5472
 1962.0000     0.6812     7.1698
 1962.5000     0.6814     7.1698
 1963.0000     0.6816     7.3585
 1963.5000     0.6818     7.1517
 1964.0000     0.6256     6.7925
 1964.5000     0.5221     6.7925
 1965.0000     0.5038     6.9811
 1965.5000     0.5133     7.1698
 1966.0000     0.5230     7.1698
 1966.5000     0.5232     7.1698
 1967.0000     0.5233     7.1698
 1967.5000     0.5235     7.1698
 1968.0000     0.5237     7.1698
 1968.5000     0.5239     6.9811
 1969.0000     0.5241     7.1698
 1969.5000     0.5243     7.1698
 1970.0000     0.5244     7.1698
 1970.5000     0.5246     7.1698
 1971.0000     0.5248     7.1698
 1971.5000     0.5250     7.1698
 1972.0000     0.5252     7.1698
 1972.5000     0.5254     7.1698
 1973.0000     0.5256     7.1698
 1973.5000     0.5352     7.1698
 1974.0000     0.5464     7.1698
 1974.5000     0.5543     7.1698
 1975.0000     0.5639     7.1698
 1975.5000     0.5641     7.1698
 1976.0000     0.5643     7.1698
 1976.5000     0.5645     7.1698
 1977.0000     0.5647     7.1698
 1977.5000     0.5649     7.1698
 1978.0000     0.5556     7.1698
 1978.5000     0.5558     7.1698
 1979.0000     0.5560     7.1698
 1979.5000     0.5562     6.9811
 1980.0000     0.5376     6.9811
 1980.5000     0.5284     6.9811
 1981.0000     0.5192     7.1698
 1981.5000     0.5194     7.1698
 1982.0000     0.5384     6.9811
 1982.5000     0.5386     6.7925
 1983.0000     0.5481     6.7925
 1983.5000     0.5577     6.7925
 1984.0000     0.5673     6.7925
 1984.5000     0.5675     6.7925
 1985.0000     0.5677     6.7925
 1985.5000     0.5679     6.7925
 1986.0000     0.5680     6.7925
 1986.5000     0.5588     6.7925
 1987.0000     0.5590     6.7925
 1987.5000     0.5592     6.7925
 1988.0000     0.5594     6.7925
 1988.5000     0.5596     6.7925
 1989.0000     0.5598     6.7925
 1989.5000     0.5600     6.7925
 1990.0000     0.5602     6.7925
 1990.5000     0.5604     6.7925
 1991.0000     0.5605     6.7925
 1991.5000     0.5607     6.7925
 1992.0000     0.5703     6.7925
 1992.5000     0.5705     6.7925
 1993.0000     0.5707     6.7925
 1993.5000     0.5615     6.9811
 1994.0000     0.7729     6.9811
 1994.5000     0.8156     7.1698
 1995.0000     0.8158     7.1698
 1995.5000     0.8160     7.1698
 1996.0000     0.6094     7.1698
 1996.5000     0.5344     7.1698
 1997.0000     0.5440     7.1698
 1997.5000     0.5442     6.9811
 1998.0000     0.5349     6.9811
 1998.5000     0.5352     6.9811
 1999.0000     0.5353     6.9811
 1999.5000     0.5355     6.9811
 2000.0000     0.5451     6.9811
 2000.5000     0.5472     6.9811
 2001.0000     0.5500     6.9811
 2001.5000     0.5528     6.7981
 2002.0000     0.5555     6.8000
 2002.5000     0.5583     6.8019
 2003.0000     0.5616     6.8041
 2003.5000     0.5424     6.8060
 2004.0000     0.5420     6.8078
 2004.5000     0.5417     6.7588
 2005.0000     0.5319     6.8115
 2005.5000     0.5221     6.8133
 2006.0000     0.5312     6.8152
 2006.5000     0.5402     6.8170
 2007.0000     0.5398     6.8151
 2007.5000     0.5583     6.4433
 2008.0000     0.5579     6.4456
 2008.5000     0.5584     6.4475
 2009.0000     0.5666     6.4493
 2009.5000     0.5661     6.2620
 2010.0000     0.5752     6.2643
 2010.5000     0.5654     6.4549
 2011.0000     0.5650     6.4566
 2011.5000     0.5646     6.4585
 2012.0000     0.5643     6.6491
 2012.5000     0.5639     6.8396
 2013.0000     0.5541     6.8415
 2013.5000     0.5444     6.8437
 2014.0000     0.5345     6.6569
 2014.5000     0.5247     6.4696
 2015.0000     0.5150     6.4719
