~VERSION INFORMATION
 VERS.                2.0:   CWLS LOG ASCII STANDARD - VERSION 2.0
 WRAP.                 NO:   ONE LINE PER DEPTH STEP
~WELL INFORMATION
#MNEM.UNIT      DATA TYPE    INFORMATION
#----------   ------------   ------------------------------
 STRT.F            8.0000:   START DEPTH
 STOP.F          970.0000:   STOP DEPTH
 STEP.F            0.1000:   STEP LENGTH
 NULL.          -999.2500:   NO VALUE
 COMP.       F D SERV INC:   COMPANY
 WELL. N P R 3 STX-35 #15-35:   WELL
 FLD .             TEAPOT:   FIELD
 LOC .      S35 T39N R78W:   LOCATION
 CNTY.            NATRONA:   COUNTY
 STAT.            WYOMING:   STATE
 CTRY. UNITED STATES OF AMERICA:   COUNTRY
 SRVC.     Atlas Wireline:   SERVICE COMPANY
 DATE.        02-FEB-1992:   LOGDATE
 API .       490252250100:   API NUMBER
~CURVE INFORMATION
#MNEM.UNIT       API CODE    CURVE DESCRIPTION
#----------   ------------   ------------------------------
 DEPT.F                  :   
 GRR .GAPI   07 310 01 00:   GAMMA RAY
 RILD.OHMM   07 120 46 00:   INDUCTION LOG DEEP RESISTIVITY
 RILM.OHMM   07 120 44 00:   INDUCTION LOG MEDIUM RESISTIVITY
~PARAMETER INFORMATION
#MNEM.UNIT          VALUE    DESCRIPTION
#----------   ------------   ------------------------------
 PD  .                 GL:   PERMANENT DATUM
 EPD .F              5084:   ELEVATION PERMANENT DATUM
 LMF .                 KB:   LOG MEASURED FROM
 DAPD.F                10:   FEET ABOVE PERMANENT DATUM
 DMF .                 KB:   DRILLING MEASURED FROM
 EKB .F              5094:   KELLING BUSHING
 EDF .F              5093:   DRILLING FLOOR
 EGL .F              5084:   GROUND LEVEL
 DATE.        02-FEB-1982:   RUN DATE
 RUN .                  1:   RUN NUMBER
 DD  .F               980:   DEPTH DRILLER
 CS  .IN            8.625:   CASING SIZE
 BSD .F               980:   BIT SIZE AT DEPTH
 DFT .                AIR:   DRILLING FLUID TYPE
 LUN .            HL-6272:   LOGGING UNIT NUMBER
 LUL .             CASPER:   LOGGING UNIT LOCATION
 ENGI.       R. RASMLSSEN:   RECORDING ENGINEER
 WITN.          G. STRONG:   WITNESSED BY
 CLNT.            A2DTECH:   CLIENT CODE
 ORIG.           5" PRINT:   ORIGIN OF DATA
 UWI .       490252250100:   UNIQUE WELL ID
 DICO. A2D Technologies, Inc.:   DIGITIZING COMPANY
~OTHER INFORMATION
~A    DEPT      GRR      RILD       RILM   
# ...
  554.0000   121.3029     7.5067     7.0453
  554.1000   121.8690     7.5066     7.0459
  554.2000   122.6440     7.5065     7.0467
  554.3000   124.0806     7.5064     7.0473
  554.4000   125.3301     7.5063     7.0480
  554.5000   126.5102     7.5062     7.0487
  554.6000   127.5016     7.5061     7.0494
  554.7000   128.3189     7.5060     7.0500
  554.8000   128.3195     7.5059     7.0509
  554.9000   128.0837     7.5058     7.0514
  555.0000   128.1996     7.5057     7.0521
  555.1000   128.4479     7.5056     7.0528
  555.2000   128.6962     7.5054     7.0535
  555.3000   128.9445     7.4741     7.0542
  555.4000   129.2310     7.4533     7.0548
  555.5000   129.6510     7.4532     7.0555
  555.6000   130.1470     7.4531     7.0562
  555.7000   130.6432     7.4530     7.0569
  555.8000   131.0941     7.4529     7.0576
  555.9000   131.3519     7.4250     7.0584
  556.0000   132.0663     7.4011     7.0589
  556.1000   132.6270     7.4010     7.0596
  556.2000   132.9949     7.4009     7.0603
  556.3000   133.2433     7.4008     7.0610
  556.4000   133.5100     7.3673     7.0618
  556.5000   134.0788     7.3494     7.0624
  556.6000   134.0793     7.3493     7.0631
  556.7000   134.2364     7.3432     7.0826
  556.8000   134.3830     7.2982     7.1136
  556.9000   134.3368     7.2980     7.1143
  557.0000   134.0817     7.2979     7.1150
  557.1000   133.8427     7.2979     7.1157
  557.2000   133.5957     7.2861     7.1164
  557.3000   133.3485     7.2472     7.1171
  557.4000   133.1013     7.2470     7.1178
  557.5000   132.8543     7.2469     7.1185
  557.6000   132.5726     7.2468     7.1192
  557.7000   132.3599     7.2468     7.1198
  557.8000   131.9546     7.2467     7.1205
  557.9000   131.4600     7.2465     7.1212
  558.0000   130.9655     7.2464     7.1219
  558.1000   130.4575     7.2463     7.1226
  558.2000   129.9753     7.2463     7.1233
  558.3000   129.2942     7.2462     7.1240
  558.4000   128.2893     7.2461     7.1246
  558.5000   126.9749     7.2459     7.1254
  558.6000   125.5757     7.2458     7.1261
  558.7000   125.0149     7.2457     7.1267
  558.8000   125.0154     7.2457     7.1274
  558.9000   125.1757     7.2456     7.1281
  559.0000   125.6338     7.2454     7.1288
  559.1000   126.2776     7.2453     7.1295
  559.2000   126.5307     7.2452     7.1302
  559.3000   127.0170     7.2451     7.1309
  559.4000   127.5130     7.2451     7.1316
  559.5000   128.1420     7.2450     7.1200
  559.6000   128.8076     7.2448     7.0836
  559.7000   129.3267     7.2447     7.0845
  559.8000   130.1653     7.2446     7.0851
  559.9000   130.5983     7.2446     7.0858
  560.0000   131.0942     7.2444     7.0865
  560.1000   131.4839     7.2443     7.0871
  560.2000   131.7323     7.2442     7.0878
  560.3000   131.9837     7.2441     7.0885
  560.4000   131.9843     7.2440     7.0892
  560.5000   131.9848     7.2440     7.0899
  560.6000   131.8507     7.2439     7.0906
  560.7000   131.6036     7.2437     7.0912
  560.8000   131.3815     7.2436     7.0921
  560.9000   131.3822     7.2435     7.0926
  561.0000   131.1648     7.2187     7.0933
  561.1000   130.9178     7.1932     7.0940
  561.2000   130.7788     7.1931     7.0882
  561.3000   130.7262     7.1930     7.0464
  561.4000   130.4775     7.1929     7.0470
  561.5000   130.4781     7.1928     7.0193
  561.6000   130.2876     7.1927     6.9997
  561.7000   130.1767     7.1800     6.9899
  561.8000   130.0958     7.1427     6.9526
  561.9000   129.8488     7.1426     6.9535
  562.0000   129.5735     7.1425     6.9220
  562.1000   129.3544     7.1156     6.9066
  562.2000   129.1073     7.0749     6.9073
  562.3000   128.8604     7.0437     6.9080
  562.4000   128.6681     7.0431     6.9087
  562.5000   128.6687     7.0029     6.9093
  562.6000   128.1736     6.9629     6.8829
  562.7000   127.8719     6.9462     6.8629
  562.8000   127.6249     6.9316     6.8541
  562.9000   127.4608     6.8861     6.8159
  563.0000   127.4331     6.8026     6.7781
  563.1000   127.1595     6.8025     6.7405
  563.2000   127.1601     6.7746     6.7248
  563.3000   127.1607     6.7166     6.7123
  563.4000   127.2726     6.6510     6.6705
  563.5000   127.4644     6.6129     6.5883
  563.6000   127.4650     6.5698     6.5555
  563.7000   127.4657     6.5376     6.5191
  563.8000   127.4662     6.5003     6.4994
  563.9000   127.4669     6.4632     6.4837
  564.0000   127.4675     6.4263     6.4111
  564.1000   127.4978     6.3894     6.3756
  564.2000   127.7713     6.3171     6.3402
  564.3000   127.9945     6.2731     6.2854
  564.4000   128.5784     6.1975     6.2266
  564.5000   129.5484     6.1161     6.1850
  564.6000   130.7879     6.0765     6.0687
  564.7000   132.0166     6.0017     6.0093
  564.8000   132.5125     5.9702     5.9422
  564.9000   133.2047     5.9125     5.8758
  565.0000   133.5250     5.8614     5.8036
  565.1000   133.5256     5.8279     5.7042
  565.2000   133.4633     5.7946     5.6419
  565.3000   132.9217     5.7562     5.5789
  565.4000   132.0247     5.7561     5.5002
  565.5000   131.5430     5.7356     5.4266
  565.6000   131.4106     5.7162     5.3965
  565.7000   131.4709     5.7161     5.3622
  565.8000   131.7191     5.7160     5.3367
  565.9000   131.9675     5.7159     5.3071
  566.0000   132.2157     5.7158     5.2898
  566.1000   132.4641     5.7158     5.2903
  566.2000   132.7124     5.7157     5.2909
  566.3000   132.9937     5.7118     5.2914
  566.4000   133.5335     5.6759     5.2919
  566.5000   133.9861     5.6758     5.3077
  566.6000   134.3110     5.6757     5.3384
  566.7000   134.5591     5.6757     5.3692
  566.8000   134.7461     5.6756     5.4053
  566.9000   134.7467     5.6755     5.4057
  567.0000   134.7475     5.6754     5.4250
  567.1000   134.7480     5.6754     5.4564
  567.2000   134.7486     5.6754     5.4880
  567.3000   134.7492     5.6880     5.5216
  567.4000   134.7151     5.7147     5.5516
  567.5000   134.4478     5.7146     5.5836
  567.6000   134.2206     5.7145     5.6315
  567.7000   133.8007     5.7389     5.6876
  567.8000   133.3061     5.7543     5.7191
  567.9000   132.8115     5.7645     5.7198
  568.0000   132.3092     5.7942     5.7468
  568.1000   131.4258     5.7941     5.7995
  568.2000   130.8239     5.8233     5.8538
  568.3000   130.2274     5.8566     5.8877
  568.4000   129.6415     5.8901     5.9244
  568.5000   128.9353     5.9158     5.9871
  568.6000   128.4031     5.9164     6.0320
  568.7000   128.1745     5.9568     6.0669
  568.8000   127.5790     5.9842     6.1105
  568.9000   127.0751     6.0184     6.1799
  569.0000   126.7633     6.0399     6.2156
  569.1000   126.2593     6.0452     6.2515
  569.2000   125.3810     6.0818     6.3081
  569.3000   124.9766     6.1146     6.3679
  569.4000   124.7770     6.1240     6.4003
  569.5000   124.8704     6.1419     6.4010
  569.6000   125.1566     6.1770     6.4342
  569.7000   125.6866     6.2123     6.4467
  569.8000   125.6871     6.2526     6.4637
  569.9000   126.0396     6.2835     6.5011
  570.0000   126.4147     6.3194     6.5386
  570.1000   126.7957     6.3556     6.5393
  570.2000   127.5385     6.3919     6.5687
  570.3000   128.4134     6.4284     6.5861
  570.4000   128.4139     6.4652     6.5867
  570.5000   128.4146     6.5315     6.5874
  570.6000   128.4151     6.5849     6.5881
  570.7000   128.4551     6.6225     6.5887
  570.8000   128.7189     6.6604     6.5893
  570.9000   128.7195     6.7014     6.5740
  571.0000   128.7201     6.7013     6.5450
  571.1000   128.7207     6.7284     6.5456
  571.2000   128.7214     6.7669     6.5101
  571.3000   128.7477     6.7948     6.5017
  571.4000   129.3278     6.7971     6.4828
  571.5000   129.5340     6.8419     6.4580
  571.6000   129.7822     6.8418     6.4556
  571.7000   129.9346     6.8665     6.4147
  571.8000   129.9353     6.8893     6.4152
  571.9000   129.9359     6.8970     6.3929
  572.0000   129.9364     6.9371     6.3721
  572.1000   129.7578     6.9370     6.3727
