~VERSION INFORMATION
 VERS.                2.0:   CWLS LOG ASCII STANDARD - VERSION 2.0
 WRAP.                 NO:   ONE LINE PER DEPTH STEP
~WELL INFORMATION
#MNEM.UNIT      DATA TYPE    INFORMATION
#----------   ------------   ------------------------------
 STRT.F           32.0000:   START DEPTH
 STOP.F         1006.0000:   STOP DEPTH
 STEP.F            0.5000:   STEP LENGTH
 NULL.          -999.2500:   NO VALUE
 COMP. FENIX & SCISSON INC:   COMPANY
 WELL.        NPR-3 #54-2:   WELL
 FLD .             TEAPOT:   FIELD
 LOC .       S2 T38N R78W:   LOCATION
 CNTY.            NATRONA:   COUNTY
 STAT.            WYOMING:   STATE
 CTRY. UNITED STATES OF AMERICA:   COUNTRY
 SRVC.              Welex:   SERVICE COMPANY
 DATE.        08-SEP-1977:   LOGDATE
 API .       490251041600:   API NUMBER
~CURVE INFORMATION
#MNEM.UNIT       API CODE    CURVE DESCRIPTION
#----------   ------------   ------------------------------
 DEPT.F                  :   
 CALD.IN     45 280 60 00:   CALIPER FROM DENSITY LOG
 GRD .GAPI   45 310 01 00:   GAMMA RAY FROM DENSITY LOG
 CORR.G/C3   45 356 01 00:   DENSITY CORRECTION
 DPHI.DEC    45 890 12 00:   DENSITY POROSITY SANDSTONE
 RHOB.G/C3   45 350 01 00:   BULK DENSITY
 SPR .MV     07 010 01 00:   SPONTANEOUS POTENTIAL
 ILD .OHMM   07 120 46 00:   INDUCTION LOG DEEP
 ILM .OHMM   07 120 44 00:   INDUCTION LOG MEDIUM
 SGRD.OHMM   07 221 05 00:   SHALLOW SHORT GUARD RESISTIVITY
~PARAMETER INFORMATION
#MNEM.UNIT          VALUE    DESCRIPTION
#----------   ------------   ------------------------------
 PD  .                 GL:   PERMANENT DATUM
 EPD .F              5160:   ELEVATION PERMANENT DATUM
 LMF .                 KB:   LOG MEASURED FROM
 DAPD.F                10:   FEET ABOVE PERMANENT DATUM
 DMF .                 KB:   DRILLING MEASURED FROM
 EKB .F              5170:   KELLING BUSHING
 EGL .F              5160:   GROUND LEVEL
 DATE.        08-SEP-1977:   RUN DATE
 RUN .                  1:   RUN NUMBER
 DD  .F              1000:   DEPTH DRILLER
 DL  .F              1008:   DEPTH LOGGER
 BLI .F              1006:   BOTTOM LOG INTERVAL
 TLI .F                47:   TOP LOG INTERVAL
 CS  .IN            8.625:   CASING SIZE
 BS  .IN             6.75:   BIT SIZE
 BSD .F              1000:   BIT SIZE AT DEPTH
 DFT .            KCL MUD:   DRILLING FLUID TYPE
 DFD .                9.1:   DRILLING FLUID DENSITY
 BHT .F               100:   BOTTOM HOLE TEMPERATURE
 TCS .HRS            0230:   TIME CURCULATED STOPPED
 MRT .F               100:   MAXIMUM RECORDED TEMPERATURE
 ENGI.          D. LAWSON:   RECORDING ENGINEER
 WITN.         HARRINGTON:   WITNESSED BY
 CLNT.            A2DTECH:   CLIENT CODE
 ORIG.           5" PRINT:   ORIGIN OF DATA
 UWI .       490251041600:   UNIQUE WELL ID
 DICO. A2D Technologies, Inc.:   DIGITIZING COMPANY
~OTHER INFORMATION
~A   DEPT     CALD         GRD       CORR      DPHI         RHOB      SPR        ILD        ILM       SGRD   
# ...
  616.0000     6.9464    87.1705     0.0101     0.1230     2.4481   -43.4650     7.2982     7.8781    12.1379
  616.5000     6.9479    91.9732     0.0072     0.1248     2.4407   -43.4500     7.2539     7.8287    11.3328
  617.0000     6.9493    94.2300     0.0044     0.1262     2.4303   -43.4351     7.2098     7.7796    10.8767
  617.5000     6.9508    89.1721     0.0015     0.1271     2.4273   -43.4201     7.1676     7.7307    11.2687
  618.0000     6.9523    85.1557     0.0017     0.1250     2.4453   -43.4051     7.1735     7.7368    11.6730
  618.5000     6.9538    89.8090     0.0078     0.1214     2.4581   -43.3902     7.1285     7.7416    11.5196
  619.0000     6.9405    95.6581     0.0155     0.1178     2.4732   -43.2257     7.0867     7.8002    10.8303
  619.5000     6.9419    96.7239     0.0202     0.1124     2.4627   -43.0613     7.0926     7.8593    10.3243
  620.0000     6.9433    95.3981     0.0173     0.1162     2.4523   -42.8998     7.0481     7.9738    10.7690
  620.5000     6.9299    92.1291     0.0069     0.1216     2.4448   -42.7354     7.0554     7.9787    11.2329
  621.0000     6.9314    87.2158     0.0011     0.1242     2.4397   -42.5710     7.0613     8.0391    11.7168
  621.5000     6.9176    82.9005     0.0012     0.1254     2.4360   -42.2571     7.1657     8.1000    11.5610
  622.0000     6.9041    82.6161     0.0014     0.1257     2.4345   -42.0927     7.2716     8.1051    11.4884
  622.5000     6.9060    84.1352     0.0030     0.1257     2.4361   -41.9283     7.3790     8.0529    10.3614
  623.0000     6.9075    86.3969     0.0047     0.1241     2.4406   -41.7638     7.4881     8.0024    11.3463
  623.5000     6.8936    89.2564     0.0063     0.1220     2.4467   -41.5994     7.5988     7.8973    12.1675
  624.0000     6.8656    91.9665     0.0080     0.1190     2.4580   -41.7346     7.8185     7.9035    12.6041
  624.5000     6.8518    95.1250     0.0126     0.1157     2.4737   -41.7190     7.9892     8.0186    12.3526
  625.0000     6.8536    91.7065     0.0143     0.1115     2.4828   -41.7040     8.1635     8.1919    12.1884
  625.5000     6.8551    83.9532     0.0160     0.1082     2.4836   -41.6891     8.3417     8.3690    13.1634
  626.0000     6.8566    84.4211     0.0146     0.1135     2.4761   -41.5007     8.5238     8.5498    13.3533
  626.5000     6.8581    85.7858     0.0133     0.1183     2.4612   -41.2108     8.6498     8.7346    12.9986
  627.0000     6.8596    85.6558     0.0119     0.1192     2.4545   -41.0463     8.7776     8.8619    12.9149
  627.5000     6.8611    83.5826     0.0106     0.1180     2.4673   -40.7318     8.9073     8.9910    12.9250
  628.0000     6.8626    82.1074     0.0107     0.1167     2.4719   -40.5680     9.0390     9.0591    13.2046
  628.5000     6.8641    79.2868     0.0109     0.1158     2.4689   -40.4036     9.1726     9.1277    13.8691
  629.0000     6.8506    77.0641     0.0125     0.1170     2.4637   -40.2392     9.1802     9.2606    14.2676
  629.5000     6.8521    76.0324     0.0127     0.1185     2.4615   -40.0747     9.2517     9.3955    14.7794
  630.0000     6.8536    77.2525     0.0128     0.1199     2.4571   -39.9103     9.2594     9.5324    14.2831
  630.5000     6.8551    78.9163     0.0129     0.1214     2.4534   -39.8954     9.2671     9.8742    14.7979
  631.0000     6.8566    80.7295     0.0131     0.1235     2.4475   -40.0304     9.2089    10.2281    15.4354
  631.5000     6.8581    81.9448     0.0134     0.1258     2.4393   -40.0154     9.2825    10.4492    15.0230
  632.0000     6.8596    82.4127     0.0149     0.1279     2.4333   -40.1499     9.4197    10.4557    15.8887
  632.5000     6.8611    82.2827     0.0150     0.1294     2.4311   -40.1345     9.5589    10.3184    15.5718
  633.0000     6.8472    80.8074     0.0167     0.1293     2.4327   -40.2695     9.7002    10.2521    15.0512
  633.5000     6.8338    78.1363     0.0168     0.1275     2.4402   -40.2541     9.7757    10.1877    15.4836
  634.0000     6.8207    72.4708     0.0200     0.1224     2.4500   -40.3890     9.7838    10.2665    15.5985
  634.5000     6.8222    76.0826     0.0202     0.1173     2.4598   -40.3737     9.8599    10.4160    14.9730
  635.0000     6.8087    79.6895     0.0218     0.1167     2.4636   -40.3587     9.8681    10.5678    15.1937
  635.5000     6.7953    82.1006     0.0220     0.1197     2.4554   -40.3438     9.7406    10.7217    15.2032
  636.0000     6.7818    83.3159     0.0221     0.1250     2.4472   -40.3288     9.6147    10.7284    15.3184
  636.5000     6.7833    83.6295     0.0223     0.1298     2.4315   -40.4637     9.4231    10.7351    14.8063
  637.0000     6.7848    82.1591     0.0224     0.1300     2.4294   -40.4484     9.1753    10.7418    14.3113
  637.5000     6.7863    77.8437     0.0226     0.1289     2.4421   -40.4335     9.1178    10.7485    13.5485
  638.0000     6.7878    74.7242     0.0212     0.1282     2.4287   -40.4185     9.0624    10.7552    13.4613
  638.5000     6.7893    76.3879     0.0199     0.1319     2.4228   -40.4036     9.0718    10.8366    13.9464
  639.0000     6.8057    77.6032     0.0185     0.1326     2.4318   -40.5384     9.0149    10.9187    14.4468
  639.5000     6.8072    76.5763     0.0171     0.1292     2.4431   -40.5222     8.9602    11.0777    14.3561
  640.0000     6.8087    74.5290     0.0158     0.1232     2.4521   -40.5082     8.9695    11.2391    13.6832
  640.5000     6.8102    69.4080     0.0160     0.1212     2.4544   -40.4933     8.9770    11.3242    13.8848
  641.0000     6.8117    71.9376     0.0146     0.1221     2.4425   -40.4783     8.9844    11.4892    14.6849
  641.5000     6.8580    80.9178     0.0148     0.1233     2.4351   -40.6131     8.9919    11.7375    16.1900
  642.0000     6.9044    83.5448     0.0149     0.1253     2.4284   -40.5979     8.9994    12.1583    17.4824
  642.5000     6.9507    81.7040     0.0151     0.1280     2.4224   -40.7326     9.0069    12.8584    16.3229
  643.0000     6.9821    79.6352     0.0152     0.1304     2.4195   -40.7175     9.0144    13.3193    13.2692
  643.5000     6.9985    77.9955     0.0138     0.1330     2.4188   -40.7025     9.0845    12.9638    13.3697
  644.0000     7.0150    75.4617     0.0140     0.1342     2.4204   -40.6865     9.0294    11.4527    13.0126
  644.5000     7.0165    75.1220     0.0126     0.1333     2.4241   -40.6715     9.0369    10.2588    12.4908
  645.0000     7.0180    80.8076     0.0143     0.1315     2.4302   -40.6577     9.0444     9.3173    12.5854
  645.5000     7.0195    85.0265     0.0190     0.1287     2.4385   -40.6429     8.9877     8.9440    12.8576
  646.0000     7.0209    78.0863     0.0221     0.1248     2.4430   -40.7774     8.6910     8.7657    13.2270
  646.5000     7.0075    75.6484     0.0253     0.1236     2.4401   -40.7623     8.3445     8.5910    13.4178
  647.0000     6.9791    78.4036     0.0254     0.1245     2.4327   -40.8969     8.1235     8.5370    12.9713
  647.5000     6.9357    81.4202     0.0241     0.1264     2.4260   -40.8819     7.9083     8.4821    12.6248
  648.0000     6.8924    84.5260     0.0225     0.1308     2.4148   -40.8670     7.8058     8.4289    12.3710
  648.5000     6.8490    80.6607     0.0183     0.1386     2.3991   -41.0003     7.8149     8.3760    12.3779
  649.0000     6.8206    80.0774     0.0154     0.1417     2.3969   -40.9866     7.8203     8.2673    12.1317
  649.5000     6.7922    80.5502     0.0126     0.1381     2.4052   -41.2279     7.9347     8.1575    12.1400
  650.0000     6.7638    82.6574     0.0128     0.1330     2.4195   -41.4051     7.9953     8.2521    12.1482
  650.5000     6.7782    81.7010     0.0110     0.1297     2.4285   -41.6878     7.9456     8.6468    12.1565
  651.0000     6.7925    80.6266     0.0092     0.1263     2.4376   -41.8210     7.9511     9.0414    12.2493
  651.5000     6.8004    78.8599     0.0101     0.1221     2.4475   -41.9716     7.9156     9.4092    12.6896
  652.0000     6.8021    72.1605     0.0103     0.1176     2.4619   -42.1107     7.8434     9.8082    13.2369
