~VERSION INFORMATION
 VERS.                2.0:   CWLS LOG ASCII STANDARD - VERSION 2.0
 WRAP.                 NO:   ONE LINE PER DEPTH STEP
~WELL INFORMATION
#MNEM.UNIT      DATA TYPE    INFORMATION
#----------   ------------   ------------------------------
 STRT.F           33.0000:   START DEPTH
 STOP.F          694.0000:   STOP DEPTH
 STEP.F            0.5000:   STEP LENGTH
 NULL.          -999.2500:   NO VALUE
 COMP. FENIX & SCISSON INC:   COMPANY
 WELL.  NPR 3 #64 S 34-34:   WELL
 FLD .             TEAPOT:   FIELD
 LOC .      S34 T39N R78W:   LOCATION
 CNTY.            NATRONA:   COUNTY
 STAT.            WYOMING:   STATE
 CTRY. UNITED STATES OF AMERICA:   COUNTRY
 SRVC.              Welex:   SERVICE COMPANY
 DATE.        28-APR-1977:   LOGDATE
 API .       490251034600:   API NUMBER
~CURVE INFORMATION
#MNEM.UNIT       API CODE    CURVE DESCRIPTION
#----------   ------------   ------------------------------
 DEPT.F                  :   
 CALD.IN     45 280 60 00:   CALIPER FROM DENSITY LOG
 GRD .GAPI   45 310 01 00:   GAMMA RAY FROM DENSITY LOG
 CORR.G/C3   45 356 01 00:   DENSITY CORRECTION
 DPHI.DEC    45 890 12 00:   DENSITY POROSITY SANDSTONE
 RHOB.G/C3   45 350 01 00:   BULK DENSITY
 SPR .MV     07 010 01 00:   SPONTANEOUS POTENTIAL
 ILD .OHMM   07 120 46 00:   INDUCTION LOG DEEP
 ILM .OHMM   07 120 44 00:   INDUCTION LOG MEDIUM
 SGRD.OHMM   07 221 05 00:   SHALLOW SHORT GUARD RESISTIVITY
~PARAMETER INFORMATION
#MNEM.UNIT          VALUE    DESCRIPTION
#----------   ------------   ------------------------------
 PD  .                 GL:   PERMANENT DATUM
 EPD .F              5079:   ELEVATION PERMANENT DATUM
 LMF .                 GL:   LOG MEASURED FROM
 DMF .                 GL:   DRILLING MEASURED FROM
 EGL .F              5079:   GROUND LEVEL
 DATE.        28-APR-1977:   RUN DATE
 RUN .                  1:   RUN NUMBER
 DD  .F               735:   DEPTH DRILLER
 DL  .F               697:   DEPTH LOGGER
 BLI .F               695:   BOTTOM LOG INTERVAL
 TLI .F                32:   TOP LOG INTERVAL
 CS  .IN            8.625:   CASING SIZE
 BS  .IN               12:   BIT SIZE
 BSD .F               735:   BIT SIZE AT DEPTH
 DFT .            KCL MUD:   DRILLING FLUID TYPE
 DFD .                9.0:   DRILLING FLUID DENSITY
 BHT .F                74:   BOTTOM HOLE TEMPERATURE
 TCS .HRS            0100:   TIME CURCULATED STOPPED
 MRT .F                74:   MAXIMUM RECORDED TEMPERATURE
 ENGI.            C. DOAK:   RECORDING ENGINEER
 WITN.           ROB LYON:   WITNESSED BY
 CLNT.            A2DTECH:   CLIENT CODE
 ORIG.           5" PRINT:   ORIGIN OF DATA
 UWI .       490251034600:   UNIQUE WELL ID
 DICO. A2D Technologies, Inc.:   DIGITIZING COMPANY
~OTHER INFORMATION
~A   DEPT     CALD        GRD       CORR       DPHI       RHOB        SPR        ILD        ILM       SGRD   
# ...
  398.0000     7.9381   108.5312     0.0109     0.1363     2.4470   -39.9922     8.0503     8.9586    10.1288
  398.5000     7.9380   107.8087     0.0125     0.1386     2.4493   -39.9910     7.9451     9.0272    10.2769
  399.0000     7.9371   106.3443     0.0141     0.1419     2.4374   -39.9898     7.8958     9.0335    10.2132
  399.5000     7.9362   103.0996     0.0142     0.1446     2.4284   -39.9885     7.9026     9.0398    10.0799
  400.0000     7.9352   102.3723     0.0161     0.1463     2.4247   -39.9873     8.0732     8.9205    10.0724
  400.5000     7.9336   102.9917     0.0189     0.1436     2.4368   -39.9863     8.0208     8.7415     9.9962
  401.0000     7.9320   102.5674     0.0189     0.1382     2.4443   -39.9877     7.9720     8.6865     9.8922
  401.5000     7.9304   101.8464     0.0190     0.1346     2.4497   -39.9890     7.9770     8.5722     9.6288
  402.0000     7.9288   101.1254     0.0175     0.1321     2.4535   -39.9902     7.9820     8.5789     9.1799
  402.5000     7.9271   102.6299     0.0161     0.1327     2.4536   -39.9914     7.9868     8.5236     9.1225
  403.0000     7.9255   103.8377     0.0132     0.1351     2.4506   -39.9926     7.8723     8.4711     9.1920
  403.5000     7.9239   104.8971     0.0132     0.1380     2.4432   -39.9938     7.7245     8.3021     9.1981
  404.0000     7.9223   106.2533     0.0118     0.1425     2.4388   -39.9950     7.6230     8.2497     9.1405
  404.5000     7.9207   103.7519     0.0133     0.1442     2.4366   -39.9962     7.5240     8.1413     9.1467
  405.0000     7.9190   103.6191     0.0164     0.1388     2.4442   -39.9975     7.4755     7.9788     9.1528
  405.5000     7.9174   104.6142     0.0195     0.1335     2.4540   -39.9987     7.4285     7.9286     9.1588
  406.0000     7.9158   106.2611     0.0195     0.1325     2.4526   -39.9999     7.3320     7.8243     9.1649
  406.5000     7.9142   107.8843     0.0196     0.1359     2.4459   -40.0011     7.2345     7.6681     9.1709
  407.0000     7.9125   109.4066     0.0181     0.1397     2.4400   -40.0023     7.0423     7.5150     8.9885
  407.5000     7.9109   111.2216     0.0182     0.1414     2.4401   -40.0035     6.9007     7.3132     8.7491
  408.0000     7.9093   112.8130     0.0198     0.1364     2.4461   -40.0047     6.8111     7.1166     8.5751
  408.5000     7.9077   110.8082     0.0231     0.1344     2.4530   -40.0060     6.6752     6.9252     8.4629
  409.0000     7.9061   108.6272     0.0259     0.1366     2.4463   -40.0072     6.4520     6.7390     8.2947
  409.5000     7.9044   106.5786     0.0260     0.1392     2.4404   -40.0084     6.2796     6.5173     8.2416
  410.0000     7.9028   104.6785     0.0228     0.1415     2.4375   -40.0096     6.1543     6.4258     7.9132
  410.5000     7.9012   103.3957     0.0184     0.1421     2.4390   -40.0108     6.1146     6.2164     6.7076
  411.0000     7.8996   103.8992     0.0141     0.1420     2.4414   -40.0120     6.1619     6.1773     6.0507
  411.5000     7.8980   107.1702     0.0142     0.1396     2.4444   -40.0132     6.2086     6.3120     6.9527
  412.0000     7.8963   108.9613     0.0174     0.1348     2.4512   -40.0144     6.2556     6.4486     8.9238
  412.5000     7.8947   110.0148     0.0203     0.1312     2.4566   -40.0157     6.3467     6.5881     9.2438
  413.0000     7.8931   110.6292     0.0219     0.1287     2.4604   -40.0169     6.4392     6.6842     8.9355
  413.5000     7.8915   110.7984     0.0234     0.1254     2.4642   -40.0181     6.5331     6.8289     8.4020
  414.0000     7.8899   110.0774     0.0250     0.1227     2.4688   -40.0193     6.6744     6.9767     8.2349
  414.5000     7.8882   109.2080     0.0251     0.1215     2.4718   -40.0205     6.7716     7.1277     8.2975
  415.0000     7.8866   108.3386     0.0206     0.1253     2.4637   -40.0217     6.8703     7.2316     8.8974
  415.5000     7.8850   107.5935     0.0176     0.1295     2.4555   -40.0229     6.9704     7.3371     9.0899
  416.0000     7.8834   109.7156     0.0147     0.1339     2.4444   -40.0242     6.9748     7.3927     9.0959
  416.5000     7.8818   111.9620     0.0133     0.1393     2.4377   -40.0254     6.8831     7.3973     8.8536
  417.0000     7.8801   113.7632     0.0103     0.1413     2.4385   -40.0266     6.7926     7.4019     8.5570
  417.5000     7.8785   114.9710     0.0104     0.1443     2.4356   -40.0278     6.7499     7.4065     8.3290
  418.0000     7.8769   115.2886     0.0089     0.1481     2.4274   -40.0290     6.7075     7.4111     8.1634
  418.5000     7.8753   112.1937     0.0090     0.1526     2.4200   -40.0302     6.6193     7.3125     8.1125
  419.0000     7.8737   110.8783     0.0091     0.1541     2.4193   -40.0314     6.4811     7.0689     8.0619
  419.5000     7.8720   113.1256     0.0106     0.1522     2.4194   -40.0326     6.3505     6.7383     7.9578
  420.0000     7.8704   115.2236     0.0137     0.1483     2.4225   -40.0339     6.1037     6.4679     7.9068
  420.5000     7.8688   114.9477     0.0168     0.1435     2.4315   -40.0351     5.8185     6.1229     7.8588
  421.0000     7.8672   112.5947     0.0198     0.1399     2.4414   -40.0363     5.5083     5.7164     7.3895
  421.5000     7.8656   110.5383     0.0214     0.1380     2.4437   -40.0375     5.2874     5.3001     7.1927
  422.0000     7.8639   111.5978     0.0214     0.1386     2.4280   -40.0387     5.0754     5.1228     7.1467
  422.5000     7.8636   113.3990     0.0170     0.1481     2.4154   -40.0399     4.9049     4.9172     6.9574
  423.0000     7.8633   113.8597     0.0095     0.1672     2.3997   -40.0411     4.7739     4.8518     5.3905
  423.5000     7.8630   111.6603     0.0051     0.1762     2.3743   -40.0424     4.8107     4.9233     4.2637
  424.0000     7.8628   109.7523    -0.0009     0.1803     2.3751   -40.0436     4.9833     5.0299     3.5892
  424.5000     7.8625   110.5150    -0.0053     0.1651     2.3939   -40.0448     5.1980     5.3569     7.1711
  425.0000     7.8622   111.8712    -0.0083     0.1575     2.4082   -40.0460     5.5741     5.6658     7.7429
  425.5000     7.8619   112.6339    -0.0067     0.1554     2.4158   -40.0472     5.8953     5.9511     7.9104
  426.0000     7.8616   109.5390    -0.0036     0.1533     2.4189   -40.0484     6.1919     6.1648     7.9706
  426.5000     7.8613   108.2245    -0.0036     0.1518     2.4227   -40.0496     6.4141     6.4752     7.9195
  427.0000     7.8610   109.8774    -0.0050     0.1496     2.4258   -40.0509     6.5983     6.7077     8.1484
  427.5000     7.8607   110.7884    -0.0020     0.1454     2.4333   -40.0521     6.7878     6.9485     8.3824
  428.0000     7.8604   110.8093     0.0086     0.1355     2.4379   -40.0533     6.8867     7.1980     8.5033
  428.5000     7.8601   110.8301     0.0147     0.1301     2.4552   -40.0545     7.0357     7.2525     8.0524
  429.0000     7.8598   110.9993     0.0178     0.1277     2.4635   -40.0557     7.0889     7.3085     7.9457
  429.5000     7.8595   111.9104     0.0193     0.1256     2.4674   -40.0569     7.1923     7.4679     8.4629
  430.0000     7.8592   112.0796     0.0209     0.1234     2.4697   -40.0581     7.2467     7.5746     8.8272
  430.5000     7.8589   112.1004     0.0225     0.1216     2.4720   -40.0593     7.3016     7.6368     9.0182
  431.0000     7.8587   111.5278     0.0225     0.1195     2.4751   -40.0606     7.4080     7.6898     8.9605
  431.5000     7.8584   110.0650     0.0226     0.1186     2.4789   -40.0618     7.4641     7.6414     8.9046
  432.0000     7.8581   108.4537     0.0211     0.1167     2.4827   -40.0630     7.5206     7.6463     9.1619
  432.5000     7.8577   106.9909     0.0182     0.1167     2.4820   -40.0642     7.5776     7.7043     9.2315
  433.0000     7.8575   107.1601     0.0198     0.1167     2.4806   -40.0654     7.6349     7.7637     9.3662
  433.5000     7.8572   108.5163     0.0228     0.1151     2.4807   -40.0666     7.6397     7.8225     9.4375
  434.0000     7.8569   109.7241     0.0289     0.1094     2.4890   -40.0678     7.6444     7.8818     9.5212
