~VERSION INFORMATION
 VERS.                2.0:   CWLS LOG ASCII STANDARD - VERSION 2.0
 WRAP.                 NO:   ONE LINE PER DEPTH STEP
~WELL INFORMATION
#MNEM.UNIT      DATA TYPE    INFORMATION
#----------   ------------   ------------------------------
 STRT.F            0.0000:   START DEPTH
 STOP.F          523.0000:   STOP DEPTH
 STEP.F            0.1000:   STEP LENGTH
 NULL.          -999.2500:   NO VALUE
 COMP.       F D SERV INC:   COMPANY
 WELL. NAVAL PETROLEUM RESERVE 3 SX-3 #87-3:   WELL
 FLD .             TEAPOT:   FIELD
 LOC .       S3 T38N R78W:   LOCATION
 CNTY.            NATRONA:   COUNTY
 STAT.            WYOMING:   STATE
 CTRY. UNITED STATES OF AMERICA:   COUNTRY
 SRVC.      Western Atlas:   SERVICE COMPANY
 DATE.        22-NOV-1992:   LOGDATE
 API .       490252254300:   API NUMBER
~CURVE INFORMATION
#MNEM.UNIT       API CODE    CURVE DESCRIPTION
#----------   ------------   ------------------------------
 DEPT.F                  :   
 GRR .GAPI   07 310 01 00:   GAMMA RAY
 RILD.OHMM   07 120 46 00:   INDUCTION LOG DEEP RESISTIVITY
 RILM.OHMM   07 120 44 00:   INDUCTION LOG MEDIUM RESISTIVITY
~PARAMETER INFORMATION
#MNEM.UNIT          VALUE    DESCRIPTION
#----------   ------------   ------------------------------
 PD  .                 GL:   PERMANENT DATUM
 EPD .F              5129:   ELEVATION PERMANENT DATUM
 LMF .                 KB:   LOG MEASURED FROM
 DAPD.F                10:   FEET ABOVE PERMANENT DATUM
 DMF .                 KB:   DRILLING MEASURED FROM
 EKB .F              5139:   KELLING BUSHING
 EDF .F              5138:   DRILLING FLOOR
 EGL .F              5129:   GROUND LEVEL
 DATE.        22-NOV-1992:   RUN DATE
 RUN .                  1:   RUN NUMBER
 DD  .F               530:   DEPTH DRILLER
 DL  .F               531:   DEPTH LOGGER
 BLI .F               530:   BOTTOM LOG INTERVAL
 TLI .F                58:   TOP LOG INTERVAL
 CS  .IN            8.625:   CASING SIZE
 CBD .F                58:   CASING BOTTOM DRILLER
 CBL .F                58:   CASING BOTTOM LOGGER
 BS  .IN            7.875:   BIT SIZE
 BSD .F               530:   BIT SIZE AT DEPTH
 DFT .           AIR FOAM:   DRILLING FLUID TYPE
 MRT .F                73:   MAXIMUM RECORDED TEMPERATURE
 LUN .            HL-6274:   LOGGING UNIT NUMBER
 LUL .             CASPER:   LOGGING UNIT LOCATION
 ENGI.       P. RASMUSSEN:   RECORDING ENGINEER
 WITN.          G. STRONG:   WITNESSED BY
 CLNT.            A2DTECH:   CLIENT CODE
 ORIG.           5" PRINT:   ORIGIN OF DATA
 UWI .       490252254300:   UNIQUE WELL ID
 DICO. A2D Technologies, Inc.:   DIGITIZING COMPANY
~OTHER INFORMATION
~A    DEPT      GRR      RILD       RILM   
# ...
  273.0000   153.7553     7.5336     7.5494
  273.1000   152.8766     7.5327     7.5177
  273.2000   151.8931     7.5316     7.4962
  273.3000   151.1214     7.5308     7.4958
  273.4000   150.6280     7.5299     7.4953
  273.5000   150.1206     7.5289     7.4948
  273.6000   149.1650     7.5280     7.4945
  273.7000   148.5448     7.5270     7.4941
  273.8000   148.3017     7.5261     7.4937
  273.9000   148.4359     7.5251     7.4933
  274.0000   148.9351     7.5242     7.4928
  274.1000   149.8004     7.5233     7.4924
  274.2000   149.9986     7.5223     7.4920
  274.3000   150.5288     7.5214     7.4746
  274.4000   151.0861     7.5205     7.4391
  274.5000   151.3904     7.5195     7.4387
  274.6000   152.1988     7.5185     7.4383
  274.7000   152.4158     7.5176     7.4379
  274.8000   152.9847     7.5165     7.4375
  274.9000   153.5035     7.5157     7.4371
  275.0000   153.8462     7.5148     7.4367
  275.1000   154.5972     7.4975     7.3944
  275.2000   154.8333     7.4607     7.3842
  275.3000   154.8929     7.4597     7.3838
  275.4000   154.7639     7.4200     7.3834
  275.5000   154.5853     7.3772     7.3830
  275.6000   154.5822     7.3538     7.3825
  275.7000   154.5786     7.3529     7.3475
  275.8000   154.3748     7.3520     7.3305
  275.9000   154.2715     7.3510     7.3301
  276.0000   154.0916     7.3501     7.3296
  276.1000   153.6621     7.3492     7.3292
  276.2000   153.6588     7.3483     7.3288
  276.3000   153.4356     7.3473     7.3284
  276.4000   153.1874     7.3463     7.3280
  276.5000   152.8315     7.3455     7.3276
  276.6000   152.3894     7.3446     7.3272
  276.7000   152.1357     7.3437     7.3268
  276.8000   151.4137     7.3428     7.3264
  276.9000   151.2247     7.3418     7.3260
  277.0000   150.9684     7.3409     7.3256
  277.1000   150.1946     7.3400     7.3252
  277.2000   148.7475     7.3391     7.3248
  277.3000   147.5922     7.3382     7.3244
  277.4000   147.7921     7.3372     7.3240
  277.5000   148.0342     7.3363     7.3236
  277.6000   148.2763     7.3677     7.3232
  277.7000   148.5185     7.3858     7.3227
  277.8000   148.7840     7.3848     7.3224
  277.9000   149.6671     7.3839     7.3219
  278.0000   150.4797     7.3828     7.3215
  278.1000   151.4290     7.3820     7.3278
  278.2000   152.8077     7.3811     7.3718
  278.3000   154.8024     7.3802     7.3714
  278.4000   155.7618     7.3793     7.3710
  278.5000   156.9232     7.3783     7.3706
  278.6000   157.8905     7.3774     7.3702
  278.7000   158.5519     7.3765     7.3698
  278.8000   159.0107     7.3756     7.3694
  278.9000   159.0070     7.3747     7.3690
  279.0000   158.8014     7.3737     7.3686
  279.1000   158.5533     7.3728     7.3560
  279.2000   158.3052     7.3719     7.3166
  279.3000   157.9896     7.3710     7.3161
  279.4000   157.1822     7.3700     7.3158
  279.5000   156.2905     7.3655     7.3154
  279.6000   155.8042     7.3169     7.3150
  279.7000   155.6652     7.3161     7.3094
  279.8000   155.7148     7.2894     7.2633
  279.9000   155.9607     7.2634     7.2629
  280.0000   155.9577     7.2626     7.2357
  280.1000   155.9547     7.2616     7.2117
  280.2000   156.2083     7.2608     7.2036
  280.3000   156.6239     7.2311     7.1609
  280.4000   156.8659     7.2085     7.1219
  280.5000   157.1488     7.1977     7.0814
  280.6000   157.5540     7.1557     7.0218
  280.7000   157.8940     7.0744     6.9625
  280.8000   158.2271     7.0559     6.9612
  280.9000   158.9892     7.0550     6.9216
  281.0000   161.6589     7.0414     6.8518
  281.1000   162.7721     7.0007     6.7957
  281.2000   163.9946     6.9546     6.7693
  281.3000   164.9967     6.8868     6.7655
  281.4000   165.6755     6.8568     6.7215
  281.5000   166.1689     6.8406     6.6888
  281.6000   166.4079     6.7884     6.6508
  281.7000   166.0933     6.6658     6.6274
  281.8000   165.7291     6.5601     6.5874
  281.9000   165.4809     6.4745     6.3112
  282.0000   165.2004     6.3837     6.2134
  282.1000   164.3404     6.2926     6.1088
  282.2000   164.3379     6.2552     6.0211
  282.3000   163.7419     6.1493     5.9531
  282.4000   163.0334     6.0987     5.8849
  282.5000   162.7146     6.0447     5.8519
  282.6000   161.9123     5.9867     5.8186
  282.7000   161.4621     5.9429     5.7856
  282.8000   160.9687     5.7908     5.7526
  282.9000   160.2534     5.7902     5.7216
  283.0000   159.2696     5.7688     5.7212
  283.1000   158.2775     5.7355     5.7209
  283.2000   158.0316     5.7079     5.7018
  283.3000   157.4106     5.7071     5.6806
  283.4000   157.0618     5.6761     5.6803
  283.5000   157.0588     5.6434     5.6799
  283.6000   157.0727     5.6260     5.6514
  283.7000   157.3540     5.6253     5.6192
  283.8000   157.7625     5.6247     5.6004
  283.9000   158.1009     5.6240     5.6001
  284.0000   158.4357     5.6737     5.5998
  284.1000   158.8867     5.7194     5.5995
  284.2000   159.1491     5.7406     5.5992
  284.3000   159.3710     5.7430     5.5836
  284.4000   159.9493     5.7791     5.5596
  284.5000   160.9048     5.7785     5.5589
  284.6000   162.4033     5.7778     5.5273
  284.7000   164.8658     5.7771     5.5201
  284.8000   166.5691     5.7764     5.5028
  284.9000   167.3458     5.7756     5.4715
  285.0000   167.7024     5.8059     5.4429
  285.1000   167.8703     5.8381     5.4425
  285.2000   167.8673     5.8705     5.4162
  285.3000   167.8638     5.9030     5.3854
  285.4000   167.6549     5.9351     5.3663
  285.5000   167.1070     5.9344     5.3616
  285.6000   166.2750     5.9336     5.3285
  285.7000   165.2918     5.9329     5.3282
  285.8000   164.2290     5.9433     5.3075
  285.9000   163.3244     5.9762     5.2906
  286.0000   162.6787     6.0138     5.2903
  286.1000   162.1853     6.0131     5.2900
  286.2000   161.5803     5.9692     5.2605
  286.3000   160.5943     5.9148     5.2527
  286.4000   159.6133     5.8690     5.2372
  286.5000   158.8173     5.7640     5.2156
  286.6000   158.0788     5.7020     5.2140
  286.7000   157.1153     5.6371     5.1788
  286.8000   155.6408     5.5882     5.1786
  286.9000   153.9392     5.5401     5.1614
  287.0000   153.1078     5.4467     5.1420
  287.1000   152.5763     5.3848     5.1418
  287.2000   152.5164     5.2998     5.1414
  287.3000   152.7214     5.2098     5.1412
  287.4000   152.7177     5.1502     5.1409
  287.5000   152.7149     5.1495     5.1406
  287.6000   152.8816     5.1488     5.1403
  287.7000   153.1237     5.1483     5.1400
  287.8000   153.3092     5.1477     5.1398
  287.9000   153.3062     5.1470     5.1395
  288.0000   154.0390     5.1464     5.1531
  288.1000   154.7716     5.1457     5.1748
  288.2000   155.3717     5.1728     5.1745
  288.3000   155.8589     5.1803     5.1743
  288.4000   156.3079     5.1941     5.1739
  288.5000   156.3042     5.2153     5.1896
  288.6000   155.8858     5.2147     5.2095
  288.7000   155.2410     5.2444     5.2093
  288.8000   154.5026     5.2498     5.2089
  288.9000   153.8024     5.2660     5.2087
  289.0000   153.2728     5.2852     5.2264
  289.1000   151.6814     5.2845     5.2445
  289.2000   149.2805     5.2837     5.2484
  289.3000   147.4920     5.3095     5.2806
  289.4000   146.8685     5.3389     5.3075
  289.5000   146.6185     5.3685     5.3372
  289.6000   145.8796     5.3928     5.3672
  289.7000   144.7619     5.3920     5.4036
  289.8000   143.9328     5.4206     5.4662
  289.9000   143.5928     5.4284     5.5265
  290.0000   143.6099     5.4277     5.5890
  290.1000   143.8879     5.4351     5.6685
  290.2000   144.3028     5.4662     5.7559
  290.3000   144.6378     5.5401     5.8236
  290.4000   145.4539     5.5648     5.9824
  290.5000   147.0889     5.5776     6.1206
  290.6000   148.3980     5.5985     6.2545
  290.7000   149.0787     5.6615     6.3487
  290.8000   149.4684     5.7330     6.4242
  290.9000   149.8253     5.8187     6.5477
  291.0000   150.2545     5.8959     6.6451
  291.1000   150.4948     5.9766     6.7095
