~VERSION INFORMATION
 VERS.                2.0:   CWLS LOG ASCII STANDARD - VERSION 2.0
 WRAP.                 NO:   ONE LINE PER DEPTH STEP
~WELL INFORMATION
#MNEM.UNIT      DATA TYPE    INFORMATION
#----------   ------------   ------------------------------
 STRT.F            0.0000:   START DEPTH
 STOP.F          663.0000:   STOP DEPTH
 STEP.F            0.1000:   STEP LENGTH
 NULL.          -999.2500:   NO VALUE
 COMP.   FLUOR DANIEL INC:   COMPANY
 WELL.     62-6 X 3 #62-3:   WELL
 FLD .             TEAPOT:   FIELD
 LOC .       S3 T38N R78W:   LOCATION
 CNTY.            NATRONA:   COUNTY
 STAT.            WYOMING:   STATE
 CTRY. UNITED STATES OF AMERICA:   COUNTRY
 SRVC.      Western Atlas:   SERVICE COMPANY
 DATE.        11-APR-1995:   LOGDATE
 API .       490252270400:   API NUMBER
~CURVE INFORMATION
#MNEM.UNIT       API CODE    CURVE DESCRIPTION
#----------   ------------   ------------------------------
 DEPT.F                  :   
 GRR .GAPI   07 310 01 00:   GAMMA RAY
 RILD.OHMM   07 120 46 00:   INDUCTION LOG DEEP RESISTIVITY
 RILM.OHMM   07 120 44 00:   INDUCTION LOG MEDIUM RESISTIVITY
~PARAMETER INFORMATION
#MNEM.UNIT          VALUE    DESCRIPTION
#----------   ------------   ------------------------------
 PD  .                 GL:   PERMANENT DATUM
 EPD .F              5157:   ELEVATION PERMANENT DATUM
 LMF .                 KB:   LOG MEASURED FROM
 DAPD.F                10:   FEET ABOVE PERMANENT DATUM
 DMF .                 KB:   DRILLING MEASURED FROM
 EKB .F              5167:   KELLING BUSHING
 EDF .F              5166:   DRILLING FLOOR
 EGL .F              5157:   GROUND LEVEL
 DATE.        11-APR-1995:   RUN DATE
 RUN .                  1:   RUN NUMBER
 DD  .F               671:   DEPTH DRILLER
 DL  .F               671:   DEPTH LOGGER
 BLI .F               663:   BOTTOM LOG INTERVAL
 TLI .F                95:   TOP LOG INTERVAL
 CS  .IN            9.625:   CASING SIZE
 CBD .F                95:   CASING BOTTOM DRILLER
 CBL .F                95:   CASING BOTTOM LOGGER
 BS  .IN             8.75:   BIT SIZE
 BSD .F               671:   BIT SIZE AT DEPTH
 DFT .                AIR:   DRILLING FLUID TYPE
 MRT .F                90:   MAXIMUM RECORDED TEMPERATURE
 LUN .            HL 6530:   LOGGING UNIT NUMBER
 LUL .             CASPER:   LOGGING UNIT LOCATION
 ENGI.      PAT RASMUSSEN:   RECORDING ENGINEER
 WITN.        GARY STRONG:   WITNESSED BY
 CLNT.            A2DTECH:   CLIENT CODE
 ORIG.           5" PRINT:   ORIGIN OF DATA
 UWI .       490252270400:   UNIQUE WELL ID
 DICO. A2D Technologies, Inc.:   DIGITIZING COMPANY
~OTHER INFORMATION
~A    DEPT      GRR      RILD       RILM   
# ...
  637.0000    99.8612     8.0331     8.2509
  637.1000   100.5259     8.0334     8.2514
  637.2000   100.9826     8.0336     8.2520
  637.3000   101.4695     8.0338     8.2525
  637.4000   102.3125     8.0340     8.2531
  637.5000   103.2934     8.0065     8.2537
  637.6000   103.8481     7.9789     8.2543
  637.7000   104.5635     7.9792     8.2548
  637.8000   105.3370     7.9768     8.2190
  637.9000   105.8124     7.9245     8.1985
  638.0000   105.9668     7.8838     8.1801
  638.1000   106.0287     7.8701     8.1426
  638.2000   106.2878     7.8461     8.1432
  638.3000   106.5758     7.8162     8.1438
  638.4000   106.5774     7.8164     8.1028
  638.5000   106.3951     7.8166     8.0882
  638.6000   106.2793     7.8169     8.0888
  638.7000   106.1860     7.8170     8.0894
  638.8000   105.9809     7.8173     8.0899
  638.9000   105.9831     7.7964     8.0905
  639.0000   105.9852     7.7637     8.0912
  639.1000   105.7677     7.7639     8.0916
  639.2000   105.6869     7.7641     8.0621
  639.3000   105.6887     7.7643     8.0364
  639.4000   105.6905     7.7645     8.0370
  639.5000   105.6923     7.7386     8.0376
  639.6000   105.6941     7.7113     8.0382
  639.7000   105.6963     7.7115     7.9949
  639.8000   105.4882     7.7117     7.9833
  639.9000   105.2328     7.7119     7.9570
  640.0000   105.0980     7.7121     7.9289
  640.1000   105.0236     7.7123     7.9193
  640.2000   104.7998     7.6895     7.8748
  640.3000   104.8019     7.6595     7.8754
  640.4000   104.5590     7.6597     7.8759
  640.5000   103.9034     7.6599     7.8764
  640.6000   103.4450     7.6601     7.8770
  640.7000   103.1896     7.6603     7.8775
  640.8000   102.9341     7.6605     7.8781
  640.9000   102.6787     7.6607     7.8786
  641.0000   102.4014     7.6610     7.8793
  641.1000   102.4030     7.6612     7.9175
  641.2000   102.5955     7.6614     7.9355
  641.3000   103.0006     7.6616     7.9361
  641.4000   103.4151     7.6618     7.9366
  641.5000   103.6742     7.6873     7.9418
  641.6000   103.9459     7.7156     7.9934
  641.7000   104.5257     7.7250     7.9939
  641.8000   104.7530     7.7697     7.9945
  641.9000   104.8308     7.7699     8.0221
  642.0000   105.1061     7.7701     8.0516
  642.1000   105.5301     7.7703     8.0522
  642.2000   105.7412     7.7705     8.0527
  642.3000   105.7463     7.7708     8.0534
  642.4000   106.0467     7.7773     8.0953
  642.5000   106.0483     7.8253     8.1109
  642.6000   106.2218     7.8255     8.1114
  642.7000   106.4809     7.8257     8.1120
  642.8000   106.6570     7.8259     8.1125
  642.9000   106.6972     7.8261     8.1131
  643.0000   106.9623     7.8264     8.1138
  643.1000   106.9645     7.8266     8.1143
  643.2000   106.9659     7.8268     8.1148
  643.3000   106.9677     7.8270     8.1372
  643.4000   106.8516     7.8272     8.1728
  643.5000   106.5962     7.8275     8.1734
  643.6000   106.3409     7.8277     8.1740
  643.7000   106.0701     7.8279     8.1745
  643.8000   105.8301     7.8281     8.1751
  643.9000   105.5007     7.8283     8.1757
  644.0000   105.1488     7.8285     8.1762
  644.1000   104.7970     7.8288     8.1768
  644.2000   104.4451     7.8290     8.1774
  644.3000   104.0933     7.8292     8.1780
  644.4000   103.7414     7.8294     8.1785
  644.5000   103.3895     7.8296     8.1791
  644.6000   103.0377     7.8736     8.1797
  644.7000   102.6858     7.8846     8.1802
  644.8000   102.4700     7.8848     8.1808
  644.9000   102.4174     7.8850     8.1814
  645.0000   102.1518     7.8852     8.1821
  645.1000   101.5707     7.8854     8.1825
  645.2000   101.3494     7.8857     8.1831
  645.3000   101.0940     7.8859     8.1837
  645.4000   100.5706     7.8861     8.1842
  645.5000    99.9799     7.8863     8.1848
  645.6000    99.6796     7.8704     8.1854
  645.7000    99.1668     7.8322     8.1860
  645.8000    98.5668     7.8324     8.1865
  645.9000    98.3550     7.8327     8.1871
  646.0000    98.0995     7.8329     8.1877
  646.1000  -999.2500     7.8037     8.1882
  646.2000  -999.2500     7.7792     8.1888
  646.3000  -999.2500     7.7794     8.1895
  646.4000  -999.2500     7.7747     8.1482
  646.5000  -999.2500     7.7261     8.1335
  646.6000  -999.2500     7.6841     8.1341
  646.7000  -999.2500     7.6392     8.1347
  646.8000  -999.2500     7.6203     8.1277
  646.9000  -999.2500     7.6205     8.0792
  647.0000  -999.2500     7.6109     8.0236
  647.1000  -999.2500     7.5682     7.9859
  647.2000  -999.2500     7.5685     7.9393
  647.3000  -999.2500     7.4920     7.9139
  647.4000  -999.2500     7.4345     7.9016
  647.5000  -999.2500     7.4132     7.8554
  647.6000  -999.2500     7.3989     7.8058
  647.7000  -999.2500     7.3490     7.7638
  647.8000  -999.2500     7.2612     7.7184
  647.9000  -999.2500     7.2112     7.6992
  648.0000  -999.2500     7.1775     7.6818
  648.1000  -999.2500     7.1355     7.6467
  648.2000  -999.2500     7.0753     7.6454
  648.3000  -999.2500     7.0036     7.5946
  648.4000  -999.2500     6.9627     7.5563
  648.5000  -999.2500     6.9184     7.5121
  648.6000  -999.2500     6.8447     7.4907
  648.7000  -999.2500     6.7647     7.4765
  648.8000  -999.2500     6.6857     7.4259
  648.9000  -999.2500     6.5784     7.3370
  649.0000  -999.2500     6.4480     7.2865
  649.1000  -999.2500     6.4083     7.1837
  649.2000  -999.2500     6.2795     7.0836
  649.3000  -999.2500     6.2483     7.0005
  649.4000  -999.2500     6.1631     6.9183
  649.5000  -999.2500     6.1081     6.8332
  649.6000  -999.2500     6.0969     6.7036
  649.7000  -999.2500     6.0662     6.6675
  649.8000  -999.2500     6.0664     6.5994
  649.9000  -999.2500     6.0323     6.5439
  650.0000  -999.2500     6.0528     6.5208
  650.1000  -999.2500     6.0669     6.5212
  650.2000  -999.2500     6.0671     6.5217
  650.3000  -999.2500     6.0673     6.5222
  650.4000  -999.2500     6.0702     6.5226
  650.5000  -999.2500     6.1099     6.5497
  650.6000  -999.2500     6.1100     6.6092
  650.7000  -999.2500     6.1102     6.6620
  650.8000  -999.2500     6.1300     6.6687
  650.9000  -999.2500     6.1664     6.7097
  651.0000  -999.2500     6.1960     6.7102
  651.1000  -999.2500     6.1966     6.7751
  651.2000  -999.2500     6.2395     6.8309
  651.3000  -999.2500     6.2704     6.8720
  651.4000  -999.2500     6.2833     6.9134
  651.5000  -999.2500     6.3012     6.9591
  651.6000  -999.2500     6.3500     7.0493
  651.7000  -999.2500     6.4206     7.0884
  651.8000  -999.2500     6.4608     7.0996
  651.9000  -999.2500     6.4971     7.1242
  652.0000  -999.2500     6.5654     7.1839
  652.1000  -999.2500     6.6202     7.2607
  652.2000  -999.2500     6.6432     7.3027
  652.3000  -999.2500     6.6621     7.3033
  652.4000  -999.2500     6.7388     7.3413
  652.5000  -999.2500     6.7835     7.4158
  652.6000  -999.2500     6.8190     7.4821
  652.7000  -999.2500     6.8595     7.5122
  652.8000  -999.2500     6.9270     7.5268
  652.9000  -999.2500     7.0187     7.6189
  653.0000  -999.2500     7.1103     7.6758
  653.1000  -999.2500     7.2020     7.7339
  653.2000  -999.2500     7.2936     7.7919
  653.3000  -999.2500     7.3853     7.8499
  653.4000  -999.2500     7.4769     7.9079
  653.5000  -999.2500     7.5686     7.9660
  653.6000  -999.2500     7.6602     8.0240
  653.7000  -999.2500     7.7519     8.0820
  653.8000  -999.2500     7.8499     8.1400
  653.9000  -999.2500     7.8933     8.1981
  654.0000  -999.2500     8.0113     8.2722
  654.1000  -999.2500     8.0988     8.3606
  654.2000  -999.2500     8.1662     8.4090
  654.3000  -999.2500     8.2523     8.4097
  654.4000  -999.2500     8.3013     8.4969
  654.5000  -999.2500     8.3571     8.5639
  654.6000  -999.2500     8.4432     8.6155
  654.7000  -999.2500     8.4743     8.6502
  654.8000  -999.2500     8.5001     8.6671
  654.9000  -999.2500     8.5337     8.7731
  655.0000  -999.2500     8.5419     8.8353
  655.1000  -999.2500     8.5936     8.8781
