~VERSION INFORMATION
 VERS.                2.0:   CWLS LOG ASCII STANDARD - VERSION 2.0
 WRAP.                 NO:   ONE LINE PER DEPTH STEP
~WELL INFORMATION
#MNEM.UNIT      DATA TYPE    INFORMATION
#----------   ------------   ------------------------------
 STRT.F           50.0000:   START DEPTH
 STOP.F         1152.0000:   STOP DEPTH
 STEP.F            0.5000:   STEP LENGTH
 NULL.          -999.2500:   NO VALUE
 COMP. FENIX & SCISSON INC:   COMPANY
 WELL.  NPR 3 #65 SX14-14:   WELL
 FLD .             TEAPOT:   FIELD
 LOC .      S14 T38N R78W:   LOCATION
 CNTY.            NATRONA:   COUNTY
 STAT.            WYOMING:   STATE
 CTRY. UNITED STATES OF AMERICA:   COUNTRY
 SRVC.              Welex:   SERVICE COMPANY
 DATE.        13-JAN-1979:   LOGDATE
 API .       490251073800:   API NUMBER
~CURVE INFORMATION
#MNEM.UNIT       API CODE    CURVE DESCRIPTION
#----------   ------------   ------------------------------
 DEPT.F                  :   
 SPR .MV     07 010 01 00:   SPONTANEOUS POTENTIAL
 SGRD.OHMM   07 220 05 00:   SHALLOW GUARD RESISTIVITY
 ILD .OHMM   07 120 46 00:   INDUCTION LOG DEEP
 ILM .OHMM   07 120 44 00:   INDUCTION LOG MEDIUM
 CALD.IN     45 280 60 00:   CALIPER
 GRD .GAPI   45 310 01 00:   GAMMA RAY FROM DENSITY LOG
 RHOB.G/C3   45 350 01 00:   BULK DENSITY
 DPHI.DEC    45 890 12 00:   DENSITY POROSITY SANDSTONE
 CORR.G/C3   45 356 01 00:   DENSITY CORRECTION
~PARAMETER INFORMATION
#MNEM.UNIT          VALUE    DESCRIPTION
#----------   ------------   ------------------------------
 PD  .                 GL:   PERMANENT DATUM
 EPD .F              5312:   ELEVATION PERMANENT DATUM
 LMF .                 KB:   LOG MEASURED FROM
 DAPD.F                 4:   FEET ABOVE PERMANENT DATUM
 DMF .                 KB:   DRILLING MEASURED FROM
 EKB .F              5316:   KELLING BUSHING
 EGL .F              5312:   GROUND LEVEL
 DATE.            1-13-79:   RUN DATE
 RUN .                  1:   RUN NUMBER
 DD  .F              1167:   DEPTH DRILLER
 DL  .F              1154:   DEPTH LOGGER
 BLI .F              1152:   BOTTOM LOG INTERVAL
 TLI .F                50:   TOP LOG INTERVAL
 CS  .IN            8.625:   CASING SIZE
 CBD .F                40:   CASING BOTTOM DRILLER
 CBL .F                60:   CASING BOTTOM LOGGER
 BS  .IN            7.875:   BIT SIZE
 BSD .F              1167:   BIT SIZE AT DEPTH
 DFT .            KCL MUD:   DRILLING FLUID TYPE
 DFD .                8.8:   DRILLING FLUID DENSITY
 DFV .                 42:   DRILLING FLUID VISCOSITY
 DFPH.                8.2:   DRILLING FLUID PH
 DFL .                7.7:   DRILLING FLUID LOSS
 MSS .                PIT:   MUD SAMPLE SOURCE
 RMS .OHMM            .29:   RESISTIVITY MUD SAMPLE
 MST .F                40:   MUD SAMPLE TEMPERATURE
 RMF .OHMM            .19:   RESISTIVITY MUD FILTRATE SAMPLE
 MFST.F                40:   MUD FILTRATE SAMPLE TEMPERATURE
 RMC .OHMM            .87:   RESISTIVITY MUD CAKE
 MCST.F                40:   MUD CAKE SAMPLE TEMPERATURE
 MFSS.           MEASURED:   MUD FILTRATE SAMPLE SOURCE
 MCSS.           MEASURED:   MUD CAKE SAMPLE SOURCE
 RMB .OHMM           .119:   RESISTIVITY MUD AT BHT
 BHT .F                97:   BOTTOM HOLE TEMPERATURE
 TCS .HRS              30:   TIME CURCULATED STOPPED
 MRT .F                97:   MAXIMUM RECORDED TEMPERATURE
 LUN .               8611:   LOGGING UNIT NUMBER
 LUL .             CASPER:   LOGGING UNIT LOCATION
 ENGI.            BENTSEN:   RECORDING ENGINEER
 WITN.              AMEND:   WITNESSED BY
 CLNT.            A2DTECH:   CLIENT CODE
 ORIG.       2", 5" PRINT:   ORIGIN OF DATA
 UWI .       490251073800:   UNIQUE WELL ID
 DICO. A2D Technologies, Inc.:   DIGITIZING COMPANY
~OTHER INFORMATION
~A   DEPT      SPR       SGRD        ILD        ILM       CALD        GRD       RHOB       DPHI       CORR   
   50.0000  -999.2500  -999.2500  -999.2500  -999.2500  -999.2500   100.6423  -999.2500  -999.2500  -999.2500
   50.5000  -999.2500  -999.2500  -999.2500  -999.2500  -999.2500   100.6423  -999.2500  -999.2500  -999.2500
   51.0000  -999.2500  -999.2500  -999.2500  -999.2500  -999.2500   104.4960  -999.2500  -999.2500  -999.2500
   51.5000  -999.2500  -999.2500  -999.2500  -999.2500  -999.2500    96.7885  -999.2500  -999.2500  -999.2500
   52.0000  -999.2500  -999.2500  -999.2500  -999.2500  -999.2500   100.8510  -999.2500  -999.2500  -999.2500
   52.5000  -999.2500  -999.2500  -999.2500  -999.2500  -999.2500    99.6194  -999.2500  -999.2500  -999.2500
   53.0000  -999.2500  -999.2500  -999.2500  -999.2500  -999.2500    98.1512  -999.2500  -999.2500  -999.2500
   53.5000  -999.2500  -999.2500  -999.2500  -999.2500  -999.2500    95.7911  -999.2500  -999.2500  -999.2500
   54.0000  -999.2500  -999.2500  -999.2500  -999.2500  -999.2500    92.0976  -999.2500  -999.2500  -999.2500
   54.5000  -999.2500  -999.2500  -999.2500  -999.2500  -999.2500    88.5861  -999.2500  -999.2500  -999.2500
   55.0000  -999.2500  -999.2500  -999.2500  -999.2500  -999.2500    88.5801  -999.2500  -999.2500  -999.2500
   55.5000  -999.2500  -999.2500  -999.2500  -999.2500  -999.2500    88.6946  -999.2500  -999.2500  -999.2500
   56.0000  -999.2500  -999.2500  -999.2500  -999.2500  -999.2500    87.7405  -999.2500  -999.2500  -999.2500
   56.5000  -999.2500  -999.2500  -999.2500  -999.2500  -999.2500    85.0147  -999.2500  -999.2500  -999.2500
   57.0000  -999.2500  -999.2500  -999.2500  -999.2500  -999.2500    84.8952  -999.2500  -999.2500  -999.2500
   57.5000  -999.2500  -999.2500  -999.2500  -999.2500  -999.2500    84.7298  -999.2500  -999.2500  -999.2500
   58.0000  -999.2500  -999.2500  -999.2500  -999.2500  -999.2500    86.3119  -999.2500  -999.2500  -999.2500
   58.5000  -999.2500  -999.2500  -999.2500  -999.2500  -999.2500    90.9248  -999.2500  -999.2500  -999.2500
   59.0000  -999.2500  -999.2500  -999.2500  -999.2500  -999.2500    95.3771  -999.2500  -999.2500  -999.2500
   59.5000  -999.2500  -999.2500  -999.2500  -999.2500  -999.2500    99.8178  -999.2500  -999.2500  -999.2500
   60.0000    -1.1469     0.8716     1.0010     0.9303  -999.2500   104.2766  -999.2500  -999.2500     0.0536
   60.5000    -5.4314     2.5472     0.6765     1.7363  -999.2500   108.8670     2.0594     0.2440     0.0140
   61.0000    -9.1825     4.4249     0.4887     3.2318  -999.2500   109.6740     2.2303     0.1732    -0.0192
   61.5000   -10.3886     4.7807     0.4026     3.7065  -999.2500   108.0876     2.4013     0.1301     0.0242
   62.0000   -11.8552     5.3196     0.2722     4.8693  -999.2500   107.3392     2.4567     0.1282     0.0158
   62.5000   -13.3356     5.3019     0.2163     5.3526  -999.2500   109.5305     2.4632     0.1234     0.0118
   63.0000   -14.8208     5.2832     0.2624     5.7932  -999.2500   110.6676     2.4717     0.1194     0.0304
   63.5000   -16.3079     5.2690     0.3558     5.9584  -999.2500   109.0432     2.4800     0.1162     0.0471
   64.0000   -17.6620     5.5809     0.4744     5.9846  -999.2500   109.2993     2.4788     0.1175     0.0430
   64.5000   -18.3085     5.8478     1.4440     6.0676  -999.2500   112.2485     2.4755     0.1198     0.0411
   65.0000   -19.0014     6.1281     3.9664     6.2089  -999.2500   115.1656     2.4721     0.1221     0.0419
   65.5000   -19.6902     6.4216     4.2366     6.3535  -999.2500   116.8822     2.4687     0.1244     0.0475
   66.0000   -20.0874     6.7323     4.5054     6.5014  -999.2500   118.2948     2.4654     0.1278     0.0455
   66.5000   -20.4725     6.9562     4.6018     6.6139  -999.2500   119.7021     2.4620     0.1307     0.0313
   67.0000   -20.8595     6.7795     4.7182     6.6881  -999.2500   121.1155     2.4587     0.1289     0.0162
   67.5000   -21.2480     6.6260     5.3028     6.7631  -999.2500   122.5484     2.4552     0.1322     0.0124
   68.0000   -21.6456     6.4526     5.9839     6.8391  -999.2500   122.4655     2.4518     0.1353     0.0103
   68.5000   -21.4597     6.6369     6.2809     6.9146  -999.2500   119.6442     2.4615     0.1277     0.0083
   69.0000   -21.1670     7.0153     6.1879     7.0076  -999.2500   116.7987     2.4725     0.1208     0.0130
   69.5000   -20.8717     7.4206     6.1218     7.1718     8.3113   114.2810     2.4834     0.1139     0.0187
   70.0000   -20.5743     7.8477     6.0564     7.3409     8.3175   114.9125     2.4908     0.1110     0.0245
   70.5000   -20.3242     7.9842     5.9977     7.5145     8.3381   115.8208     2.4914     0.1138     0.0300
   71.0000   -20.8384     7.9842     6.2401     7.6907     8.3515   116.6620     2.4793     0.1233     0.0259
   71.5000   -21.3678     7.9842     6.5171     7.8382     8.3488   115.5951     2.4550     0.1350     0.0160
   72.0000   -22.2819     7.9842     6.3920     7.2848     8.3553   113.9956     2.4626     0.1299     0.0078
   72.5000   -23.3203     7.9842     6.2394     6.7001     8.3459   112.5745     2.4769     0.1196     0.0153
   73.0000   -23.8390     7.9842     6.0904     6.8147     8.3293   113.7937     2.4915     0.1093     0.0273
   73.5000   -23.6918     8.3780     5.9450     6.8882     8.3125   112.4367     2.5060     0.0986     0.0393
   74.0000   -23.5496     8.9301     5.7803     6.3979     8.2958   110.1408     2.5109     0.1018     0.0514
   74.5000   -23.4052     8.2660     5.7803     6.5242     8.2790   111.6215     2.4909     0.1159     0.0520
   75.0000   -23.2618     7.2721     5.7741     6.7243     8.2624   113.1131     2.4715     0.1230     0.0519
   75.5000   -23.1183     7.3807     5.7672     6.9305     8.2459   112.2775     2.4754     0.1186     0.0519
   76.0000   -22.9749     7.5830     5.7602     7.1431     8.2641   113.2811     2.4818     0.1154     0.0499
   76.5000   -22.8312     7.6954     5.7533     7.3478     8.3323   116.8773     2.4887     0.1123     0.0462
   77.0000   -22.6883     7.5855     5.7463     7.2656     8.4012   119.9985     2.4860     0.1149     0.0424
   77.5000   -22.5405     7.4139     5.7393     7.1725     8.4193   118.5815     2.4810     0.1182     0.0420
   78.0000   -22.6396     7.4148     5.7281     7.0816     8.4302   114.6691     2.4795     0.1182     0.0467
   78.5000   -22.8355     7.7214     5.7304     6.4078     8.4409   111.3074     2.4834     0.1134     0.0580
   79.0000   -23.0349     7.9109     5.5574     5.7983     8.4514   110.4278     2.4879     0.1084     0.0691
   79.5000   -23.2376     7.4097     5.4247     5.2532     8.5451   109.4865     2.4918     0.1054     0.0804
   80.0000   -23.2284     6.9817     5.2951     5.0357     8.7163   108.6721     2.4847     0.1127     0.0921
   80.5000   -23.1262     6.8249     5.2104     5.3728     8.8874   110.6617     2.4726     0.1227     0.0811
   81.0000   -23.0213     6.9059     5.1822     5.8246     9.0588   112.9209     2.4607     0.1349     0.0655
   81.5000   -22.9196     7.0019     5.1546     6.3441     9.2306   115.1780     2.4502     0.1325     0.0494
   82.0000   -22.7539     7.0832     5.1271     6.3432     9.4090   114.5873     2.4533     0.1297     0.0478
   82.5000   -22.5801     6.8922     5.0996     6.2519     9.4497   113.3264     2.4454     0.1431     0.0510
   83.0000   -22.3602     6.5858     5.0797     6.1880     9.4063   112.9634     2.4272     0.1533     0.0544
   83.5000   -22.0902     6.2809     5.1849     6.1069     9.3615   113.7058     2.4144     0.1560     0.0644
   84.0000   -21.5718     6.2809     5.3341     6.0507     9.3175   114.3029     2.4165     0.1593     0.0805
   84.5000   -21.0444     7.1346     5.5422     6.3074     9.2766   113.6137     2.4122     0.1589     0.0912
   85.0000   -20.5182     7.9543     5.7584     6.6525     9.1387   112.5586     2.4226     0.1449     0.0697
   85.5000   -20.3669     8.8002     5.9830     7.4380     8.9877   112.2456     2.4654     0.1230     0.0489
   86.0000   -20.2334     9.1866     6.2232     8.1330     8.4571   114.2259     2.4953     0.1109     0.0284
