~VERSION INFORMATION
 VERS.                2.0:   CWLS LOG ASCII STANDARD - VERSION 2.0
 WRAP.                 NO:   ONE LINE PER DEPTH STEP
~WELL INFORMATION
#MNEM.UNIT      DATA TYPE    INFORMATION
#----------   ------------   ------------------------------
 STRT.F            0.0000:   START DEPTH
 STOP.F          404.0000:   STOP DEPTH
 STEP.F            0.1000:   STEP LENGTH
 NULL.          -999.2500:   NO VALUE
 COMP.   FLUOR DANIEL INC:   COMPANY
 WELL.   62-1 X 10 #62-10:   WELL
 FLD .             TEAPOT:   FIELD
 LOC .      S10 T38N R78W:   LOCATION
 CNTY.            NATRONA:   COUNTY
 STAT.            WYOMING:   STATE
 CTRY. UNITED STATES OF AMERICA:   COUNTRY
 SRVC.      Western Atlas:   SERVICE COMPANY
 DATE.        29-MAR-1995:   LOGDATE
 API .       490252270300:   API NUMBER
~CURVE INFORMATION
#MNEM.UNIT       API CODE    CURVE DESCRIPTION
#----------   ------------   ------------------------------
 DEPT.F                  :   
 GRR .GAPI   07 310 01 00:   GAMMA RAY
 RILD.OHMM   07 120 46 00:   INDUCTION LOG DEEP RESISTIVITY
 RILM.OHMM   07 120 44 00:   RESITIVITY LONG MEDIUM
~PARAMETER INFORMATION
#MNEM.UNIT          VALUE    DESCRIPTION
#----------   ------------   ------------------------------
 PD  .                 GL:   PERMANENT DATUM
 EPD .F              5160:   ELEVATION PERMANENT DATUM
 LMF .                 KB:   LOG MEASURED FROM
 DAPD.F                10:   FEET ABOVE PERMANENT DATUM
 DMF .                 KB:   DRILLING MEASURED FROM
 EKB .F              5170:   KELLING BUSHING
 EDF .F              5169:   DRILLING FLOOR
 EGL .F              5160:   GROUND LEVEL
 DATE.        29-MAR-1995:   RUN DATE
 RUN .                  1:   RUN NUMBER
 DD  .F               455:   DEPTH DRILLER
 DL  .F               416:   DEPTH LOGGER
 BLI .F               408:   BOTTOM LOG INTERVAL
 TLI .F                95:   TOP LOG INTERVAL
 CS  .IN            9.625:   CASING SIZE
 CBD .F                95:   CASING BOTTOM DRILLER
 CBL .F                95:   CASING BOTTOM LOGGER
 BS  .IN             8.75:   BIT SIZE
 BSD .F               455:   BIT SIZE AT DEPTH
 DFT .                AIR:   DRILLING FLUID TYPE
 MRT .F               204:   MAXIMUM RECORDED TEMPERATURE
 LUN .            HL 6530:   LOGGING UNIT NUMBER
 LUL .             CASPER:   LOGGING UNIT LOCATION
 ENGI.        VERN RAUTIO:   RECORDING ENGINEER
 WITN.        GARY STRONG:   WITNESSED BY
 CLNT.            A2DTECH:   CLIENT CODE
 ORIG.           5" PRINT:   ORIGIN OF DATA
 UWI .       490252270300:   UNIQUE WELL ID
 DICO. A2D Technologies, Inc.:   DIGITIZING COMPANY
~OTHER INFORMATION
~A    DEPT      GRR      RILD       RILM   
# ...
  145.6000   121.5686     6.7127     5.8272
  145.7000   121.6784     6.7481     5.8273
  145.8000   122.0006     6.7598     5.8275
  145.9000   122.5352     6.7600     5.8597
  146.0000   123.3786     6.7746     5.8684
  146.1000   124.5430     6.8075     5.8686
  146.2000   125.2634     6.8081     5.8687
  146.3000   126.0645     6.8554     5.8689
  146.4000   126.9936     6.8555     5.8708
  146.5000   127.7648     6.8825     5.9101
  146.6000   128.5261     6.9037     5.9103
  146.7000   129.1101     6.9165     5.9104
  146.8000   129.5542     6.9522     5.9289
  146.9000   130.0682     6.9524     5.9519
  147.0000   130.4495     6.9526     5.9521
  147.1000   130.6184     6.9528     5.9523
  147.2000   130.5750     6.9779     5.9939
  147.3000   130.3167     7.0016     5.9940
  147.4000   130.0151     7.0018     6.0172
  147.5000   129.8039     7.0020     6.0361
  147.6000   129.2139     7.0022     6.0468
  147.7000   128.4428     7.0024     6.0785
  147.8000   127.6718     7.0328     6.0787
  147.9000   126.8682     7.0516     6.1128
  148.0000   125.7919     7.0518     6.1214
  148.1000   124.3222     7.0604     6.1215
  148.2000   123.1807     7.1024     6.1217
  148.3000   122.6196     7.1511     6.1219
  148.4000   122.4736     7.1512     6.1220
  148.5000   122.6063     7.1514     6.1222
  148.6000   123.1203     7.1516     6.1224
  148.7000   123.6802     7.1655     6.1485
  148.8000   123.9143     7.2019     6.1654
  148.9000   124.5502     7.2021     6.1655
  149.0000   125.0317     7.2023     6.1657
  149.1000   125.2887     7.2365     6.1659
  149.2000   125.6012     7.2529     6.1661
  149.3000   126.0935     7.2531     6.1968
  149.4000   126.0935     7.2533     6.1852
  149.5000   126.3167     7.2535     6.1843
  149.6000   126.7523     7.2537     6.2097
  149.7000   127.1324     7.2539     6.2099
  149.8000   127.3001     7.2861     6.2100
  149.9000   127.3448     7.3049     6.2102
  150.0000   127.6018     7.3051     6.2536
  150.1000   127.6030     7.3052     6.2972
  150.2000   127.7104     7.3051     6.2972
  150.3000   127.9658     7.3051     6.2972
  150.4000   128.2212     7.3051     6.2662
  150.5000   128.5130     7.3051     6.2536
  150.6000   128.5140     7.3051     6.2536
  150.7000   128.6857     7.3051     6.2536
  150.8000   128.8181     7.3051     6.2536
  150.9000   128.8193     7.3051     6.2536
  151.0000   128.8487     7.3051     6.2876
  151.1000   129.1235     7.3051     6.2972
  151.2000   129.1246     7.3051     6.2972
  151.3000   129.1258     7.3051     6.2972
  151.4000   129.2670     7.3051     6.3041
  151.5000   129.4299     7.3051     6.3410
  151.6000   129.4311     7.3051     6.3410
  151.7000   129.4323     7.3051     6.3410
  151.8000   129.4337     7.3051     6.3648
  151.9000   129.4347     7.3051     6.3852
  152.0000   129.2790     7.3051     6.3852
  152.1000   129.0260     7.3051     6.3852
  152.2000   128.7111     7.3051     6.3852
  152.3000   128.2039     7.3051     6.3852
  152.4000   127.6309     7.3051     6.4121
  152.5000   126.9683     7.3051     6.4297
  152.6000   126.3807     7.3051     6.4297
  152.7000   125.7473     7.3051     6.4297
  152.8000   125.1435     7.3051     6.4297
  152.9000   124.8277     7.3051     6.4297
  153.0000   124.0182     7.3051     6.4598
  153.1000   123.5431     7.3051     6.4745
  153.2000   123.0359     7.3051     6.4745
  153.3000   122.6719     7.3051     6.4745
  153.4000   122.5146     7.3051     6.4745
  153.5000   122.5158     7.3051     6.4745
  153.6000   122.5170     7.3051     6.4745
  153.7000   122.5185     7.3051     6.4745
  153.8000   122.5195     7.3051     6.4745
  153.9000   122.5207     7.3051     6.4745
  154.0000   122.6345     7.2835     6.4745
  154.1000   122.9550     7.2545     6.4745
  154.2000   123.4470     7.2545     6.4745
  154.3000   123.7323     7.2545     6.4745
  154.4000   123.9578     7.2545     6.4521
  154.5000   124.2132     7.2545     6.4297
  154.6000   124.5981     7.2545     6.4297
  154.7000   125.1077     7.2545     6.4297
  154.8000   125.6173     7.2545     6.4297
  154.9000   126.1527     7.2545     6.3976
  155.0000   126.6365     7.2545     6.3852
  155.1000   127.1461     7.2545     6.3852
  155.2000   127.5093     7.2545     6.3852
  155.3000   127.7647     7.2545     6.3852
  155.4000   128.0201     7.2545     6.3852
  155.5000   128.2715     7.2545     6.3852
  155.6000   128.2729     7.2545     6.3572
  155.7000   128.0631     7.2156     6.3410
  155.8000   127.8101     7.2043     6.3410
  155.9000   127.4413     7.2043     6.3410
  156.0000   126.7974     7.2043     6.3410
  156.1000   125.7819     7.2043     6.3410
  156.2000   124.6602     7.2043     6.3102
  156.3000   123.0677     7.1544     6.2972
  156.4000   121.4698     7.1544     6.2972
  156.5000   120.3440     7.1283     6.2869
  156.6000   119.5825     7.1049     6.2536
  156.7000   118.9344     7.1049     6.2536
  156.8000   118.9358     7.1020     6.2536
  156.9000   118.9370     7.0557     6.2536
  157.0000   118.9382     7.0557     6.2536
  157.1000   119.0890     7.0557     6.2536
  157.2000   119.4465     7.0771     6.2536
  157.3000   119.9015     7.1049     6.2536
  157.4000   120.1642     7.1049     6.2104
  157.5000   120.7543     7.1049     6.2104
  157.6000   121.1833     7.1049     6.2104
  157.7000   122.0260     7.1049     6.2104
  157.8000   122.8058     7.1049     6.2104
  157.9000   123.3154     7.1049     6.2104
  158.0000   123.8009     7.1049     6.2104
  158.1000   124.0798     7.1049     6.2104
  158.2000   124.0808     7.1049     6.2104
  158.3000   124.0821     7.1049     6.1914
  158.4000   124.2192     7.1049     6.1674
  158.5000   124.3861     7.1049     6.1674
  158.6000   124.3873     7.1049     6.1674
  158.7000   124.3886     7.1096     6.1674
  158.8000   124.6375     7.1544     6.1674
  158.9000   124.8929     7.1544     6.1674
  159.0000   125.1483     7.1544     6.1523
  159.1000   125.4037     7.1544     6.1248
  159.2000   125.7170     7.1701     6.1248
  159.3000   126.2162     7.2043     6.1248
  159.4000   126.5088     7.2043     6.0937
  159.5000   126.9442     7.2043     6.0824
  159.6000   127.2841     7.2390     6.0824
  159.7000   127.6617     7.2545     6.0824
  159.8000   128.4706     7.2545     6.0777
  159.9000   130.0244     7.2433     6.0403
  160.0000   131.9458     7.2043     6.0403
  160.1000   132.1810     7.2043     6.0403
  160.2000   132.2498     7.1667     6.0199
  160.3000   131.9726     7.1544     5.9847
  160.4000   131.4654     7.1325     5.9497
  160.5000   130.8697     7.0908     5.9149
  160.6000   129.8413     7.0557     5.8749
  160.7000   128.6361     7.0557     5.8460
  160.8000   128.0266     7.0157     5.8118
  160.9000   127.5773     7.0069     5.7618
  161.0000   127.3243     6.9579     5.7141
  161.1000   127.0713     6.8934     5.7069
  161.2000   126.8183     6.8531     5.6353
  161.3000   126.5317     6.8131     5.6049
  161.4000   126.3123     6.7677     5.5721
  161.5000   126.2323     6.7337     5.5216
  161.6000   125.9825     6.6943     5.4572
  161.7000   125.5534     6.6362     5.3995
  161.8000   125.3004     6.5705     5.3679
  161.9000   125.0305     6.5274     5.3309
  162.0000   125.0317     6.4465     5.3054
  162.1000   125.0329     6.4112     5.2743
  162.2000   125.1765     6.3458     5.2297
  162.3000   125.4319     6.2927     5.1768
  162.4000   125.7347     6.2559     5.1440
  162.5000   126.2443     6.2122     5.0781
  162.6000   126.5474     6.1401     5.0248
  162.7000   127.1686     6.0981     4.9663
  162.8000   127.6139     6.0686     4.9084
  162.9000   128.0929     5.9881     4.8511
  163.0000   128.7924     5.8993     4.7946
  163.1000   129.3020     5.8122     4.7376
  163.2000   129.8728     5.6801     4.6834
  163.3000   130.5449     5.5716     4.6289
  163.4000   131.1324     5.4839     4.5586
  163.5000   131.5133     5.3884     4.4903
  163.6000   131.6875     5.2945     4.4380
  163.7000   131.6549     5.1813     4.3862
