~VERSION INFORMATION
 VERS.                2.0:   CWLS LOG ASCII STANDARD - VERSION 2.0
 WRAP.                 NO:   ONE LINE PER DEPTH STEP
~WELL INFORMATION
#MNEM.UNIT      DATA TYPE    INFORMATION
#----------   ------------   ------------------------------
 STRT.F           11.5000:   START DEPTH
 STOP.F          583.0000:   STOP DEPTH
 STEP.F            0.5000:   STEP LENGTH
 NULL.          -999.2500:   NO VALUE
 COMP.    FENIX & SCISSON:   COMPANY
 WELL.      41 SX 3 #41-3:   WELL
 FLD .             TEAPOT:   FIELD
 LOC .       S3 T38N R78W:   LOCATION
 CNTY.            NATRONA:   COUNTY
 STAT.            WYOMING:   STATE
 CTRY. UNITED STATES OF AMERICA:   COUNTRY
 SRVC.            Unknown:   SERVICE COMPANY
 DATE.        01-DEC-1978:   LOGDATE
 API .       490251074000:   API NUMBER
~CURVE INFORMATION
#MNEM.UNIT       API CODE    CURVE DESCRIPTION
#----------   ------------   ------------------------------
 DEPT.F                  :   
 SPR .MV     05 010 01 00:   SPONTANEOUS POTENTIAL FROM RES.
 SN  .OHMM   05 040 16 00:   SHORT NORMAL 16"
 IL  .OHMM   05 120 00 00:   INDUCTION LOG
 GRD .GAPI   45 310 01 00:   GAMMA RAY FROM DENSITY LOG
 CALD.IN     45 280 60 00:   CALIPER
 DEN .G/C3   45 350 01 00:   COMPENSATED BULK DENSTIY
 CORR.G/C3   45 356 01 00:   DENSITY CORRECTION
 DPHI.DEC    45 890 12 00:   DENSITY POROSITY SANDSTONE
~PARAMETER INFORMATION
#MNEM.UNIT          VALUE    DESCRIPTION
#----------   ------------   ------------------------------
 PD  .                 GL:   PERMANENT DATUM
 EPD .F              5150:   ELEVATION PERMANENT DATUM
 LMF .                 KB:   LOG MEASURED FROM
 DAPD.F                 4:   FEET ABOVE PERMANENT DATUM
 DMF .                 KB:   DRILLING MEASURED FROM
 EKB .F              5154:   KELLING BUSHING
 EGL .F              5150:   GROUND LEVEL
 DATE.            12-1-78:   RUN DATE
 RUN .                  1:   RUN NUMBER
 DD  .F               600:   DEPTH DRILLER
 DL  .F               582:   DEPTH LOGGER
 BLI .F               576:   BOTTOM LOG INTERVAL
 TLI .F                42:   TOP LOG INTERVAL
 CS  .IN            8.625:   CASING SIZE
 CBD .F                40:   CASING BOTTOM DRILLER
 CBL .F                41:   CASING BOTTOM LOGGER
 BS  .IN            7.875:   BIT SIZE
 BSD .F               600:   BIT SIZE AT DEPTH
 DFT .                KCL:   DRILLING FLUID TYPE
 DFD .                8.8:   DRILLING FLUID DENSITY
 DFV .                 35:   DRILLING FLUID VISCOSITY
 DFPH.               11.2:   DRILLING FLUID PH
 DFL .               11.6:   DRILLING FLUID LOSS
 MSS .          FLOW LINE:   MUD SAMPLE SOURCE
 RMS .OHMM            .36:   RESISTIVITY MUD SAMPLE
 MST .F                52:   MUD SAMPLE TEMPERATURE
 RMF .OHMM            .36:   RESISTIVITY MUD FILTRATE SAMPLE
 MFST.F                55:   MUD FILTRATE SAMPLE TEMPERATURE
 RMC .OHMM            .42:   RESISTIVITY MUD CAKE
 MCST.F                60:   MUD CAKE SAMPLE TEMPERATURE
 MFSS.           MEASURED:   MUD FILTRATE SAMPLE SOURCE
 MCSS.           MEASURED:   MUD CAKE SAMPLE SOURCE
 RMB .OHMM            .32:   RESISTIVITY MUD AT BHT
 BHT .F                58:   BOTTOM HOLE TEMPERATURE
 MRT .F                58:   MAXIMUM RECORDED TEMPERATURE
 LUN .               2958:   LOGGING UNIT NUMBER
 LUL .                CPR:   LOGGING UNIT LOCATION
 ENGI.            ROLLINS:   RECORDING ENGINEER
 WITN.              AMEND:   WITNESSED BY
 CLNT.            A2DTECH:   CLIENT CODE
 ORIG.       2", 5" PRINT:   ORIGIN OF DATA
 UWI .       490251074000:   UNIQUE WELL ID
 DICO. A2D Technologies, Inc.:   DIGITIZING COMPANY
~OTHER INFORMATION
~A   DEPT      SPR         SN         IL         GRD      CALD        DEN       CORR       DPHI   
# ...
  538.0000   -57.4143    10.1180    10.3822    88.2243     8.0673     2.4779     0.0396     0.1245
  538.5000   -58.1795    10.0457    10.2840    87.8525     8.0667     2.4812     0.0400     0.1212
  539.0000   -59.0915     9.9224    10.2601    87.4547     8.0661     2.4846     0.0404     0.1198
  539.5000   -59.8837     9.7292    10.2368    87.6861     8.0655     2.4845     0.0409     0.1222
  540.0000   -60.6948     9.5396    10.2135    89.5240     8.0649     2.4828     0.0385     0.1247
  540.5000   -60.9268     9.3540    10.1895    91.4398     8.0643     2.4783     0.0355     0.1271
  541.0000   -60.9444     9.1721     9.9132    92.1809     8.0637     2.4739     0.0324     0.1320
  541.5000   -61.0842     8.9936     9.6350    95.1805     8.0631     2.4671     0.0294     0.1433
  542.0000   -61.4886     8.8187     9.3646   102.3295     8.0625     2.4577     0.0268     0.1545
  542.5000   -61.9250     8.6473     8.7005   106.3739     8.0619     2.4392     0.0294     0.1657
  543.0000   -62.4443     8.4784     7.9430   111.6024     8.0614     2.4199     0.0337     0.1767
  543.5000   -62.9955     8.3117     7.2515   117.1564     8.0608     2.4004     0.0381     0.1809
  544.0000   -63.0019     8.1632     6.6209   117.4162     8.0602     2.3833     0.0426     0.1783
  544.5000   -63.2342     7.5679     6.1285   115.9855     8.0596     2.4067     0.0349     0.1591
  545.0000   -63.8364     7.0503     6.1997   108.4884     8.0590     2.4346     0.0263     0.1330
  545.5000   -64.4385     6.5681     6.3092    99.3087     8.0584     2.4627     0.0209     0.1185
  546.0000   -65.0385     6.3027     6.4209    91.6024     8.0578     2.4890     0.0230     0.1218
  546.5000   -65.5217     6.3556     6.5346    89.1657     8.0572     2.4861     0.0252     0.1259
  547.0000   -65.5053     6.4885     6.6497    89.2459     8.0566     2.4803     0.0273     0.1269
  547.5000   -65.3751     6.7846     7.0229    89.1920     8.0560     2.4786     0.0295     0.1221
  548.0000   -64.6552     7.9570     7.8912    88.1848     8.0555     2.4863     0.0300     0.1189
  548.5000   -63.9422     9.1502     8.8690    88.0693     8.0549     2.4927     0.0273     0.1173
  549.0000   -63.9117     9.3765    10.2926    91.5833     8.0543     2.4927     0.0246     0.1213
  549.5000   -63.9157     9.4793    10.2561    95.7835     8.0537     2.4852     0.0219     0.1252
  550.0000   -63.9176     9.6167    10.1844    98.6773     8.0531     2.4750     0.0192     0.1263
  550.5000   -63.9111     9.7560    10.0995    96.9843     8.0525     2.4729     0.0169     0.1261
  551.0000   -63.7859     9.8974    10.2589    95.9542     8.0519     2.4734     0.0169     0.1258
  551.5000   -63.6091    10.0408    10.4229    96.4722     8.0513     2.4741     0.0169     0.1267
  552.0000   -63.3646    10.1862    10.5858    97.0202     8.0507     2.4745     0.0170     0.1290
  552.5000   -63.1213    10.3338    10.7513    95.8147     8.0501     2.4727     0.0178     0.1313
  553.0000   -62.8786    10.4836    10.9194    95.0066     8.0495     2.4708     0.0196     0.1325
  553.5000   -62.6936    10.6355    11.0901    94.7353     8.0490     2.4689     0.0214     0.1322
  554.0000   -62.6173    10.7895    11.2606    94.2235     8.0483     2.4710     0.0232     0.1299
  554.5000   -62.5388    10.9459    11.4307    92.5519     8.0500     2.4741     0.0250     0.1264
  555.0000   -62.4600    11.1045    11.6035    90.9146     8.0528     2.4775     0.0268     0.1228
  555.5000   -62.3882    11.2654    11.7788    89.8494     8.0556     2.4814     0.0259     0.1203
  556.0000   -62.4826    11.4286    11.9567    92.6565     8.0584     2.4848     0.0248     0.1243
  556.5000   -63.1163    11.5942    12.1374    94.2986     8.0612     2.4797     0.0237     0.1283
  557.0000   -63.3740    11.7257    12.3208    90.7001     8.0640     2.4734     0.0227     0.1323
  557.5000   -63.5605    11.7892    12.4837    89.0961     8.0669     2.4669     0.0292     0.1337
  558.0000   -63.6662    11.8531    12.4631    89.0118     8.0668     2.4698     0.0366     0.1269
  558.5000   -63.7725    11.9172    12.4426    88.5432     8.0658     2.4772     0.0358     0.1223
  559.0000   -63.8779    11.9817    12.4221    86.0661     8.0647     2.4845     0.0343     0.1177
  559.5000   -63.9831    12.0328    12.4016    84.9768     8.0637     2.4901     0.0328     0.1182
  560.0000   -64.0884    12.0097    12.3812    84.1327     8.0626     2.4917     0.0312     0.1201
  560.5000   -64.1940    11.9810    12.3608    84.9629     8.0615     2.4878     0.0309     0.1220
  561.0000   -64.2991    11.9522    12.3405    88.4029     8.0605     2.4841     0.0309     0.1226
  561.5000   -64.3139    11.9236    12.3202    91.3099     8.0594     2.4823     0.0309     0.1228
  562.0000   -64.3133    11.8950    12.2999    91.6990     8.0584     2.4818     0.0299     0.1229
  562.5000   -64.3187    11.8665    12.2797    91.0609     8.0573     2.4813     0.0285     0.1236
  563.0000   -64.4756    11.8381    12.2595    91.4903     8.0562     2.4808     0.0270     0.1242
  563.5000   -64.6388    11.8097    12.2393    92.1161     8.0552     2.4803     0.0255     0.1247
  564.0000   -64.8004    11.7814    12.2192    91.6688     8.0541     2.4797     0.0268     0.1253
  564.5000   -64.9593    11.7532    12.1991    91.8561     8.0531     2.4802     0.0300     0.1237
  565.0000   -65.1341    11.7250    12.1790    93.2249     8.0520     2.4811     0.0355     0.1217
  565.5000   -65.7294    11.6969    12.1590    94.6617     8.0510     2.4832     0.0451     0.1198
  566.0000   -66.3236    11.6688    12.1205    93.2817     8.0499     2.4863     0.0545     0.1181
  566.5000   -66.6236    11.6407    12.0336    91.0865     8.0489     2.4875     0.0574     0.1195
  567.0000   -66.8254    11.6130    11.9472    89.8343     8.0514     2.4876     0.0599     0.1209
  567.5000   -66.8980    11.5467    11.8616    89.0989     8.0586     2.4875     0.0625     0.1209
  568.0000   -66.8984    11.4237    11.7765    88.3701     8.0658     2.4891     0.0645     0.1182
  568.5000   -66.8987    11.3019    11.6760    87.7859     8.0730     2.4914     0.0625     0.1172
  569.0000   -66.8986    11.1815    11.4807    88.7568     8.0802     2.4934     0.0605     0.1179
  569.5000   -66.8986    11.0729    11.2886    89.7648     8.0866     2.4924     0.0585     0.1187
  570.0000   -66.8986    10.8254    11.0997    90.7619     8.0814     2.4913     0.0569     0.1189
  570.5000   -66.8986    10.6030    10.9141    91.8466     8.0760     2.4904     0.0588     0.1186
  571.0000   -66.8986    10.4579    10.7343    95.1249     8.0707     2.4896     0.0606     0.1184
  571.5000   -66.8989    10.3656    10.5705    99.6753     8.0654     2.4910     0.0625     0.1181
  572.0000   -66.9003    10.2743    10.4094    96.4066     8.0602     2.4927     0.0644     0.1148
  572.5000   -66.8901    10.1844    10.2505    92.6967     8.0549     2.4964     0.0663     0.1115
  573.0000   -66.5957    10.0954    10.0939    95.9698     8.0496     2.4995     0.0662     0.1108
  573.5000   -66.2900    10.0072     9.9398    99.8099     8.0443     2.4983     0.0651     0.1113
  574.0000   -65.9881     9.9197     9.7884  -999.2500     8.0390     2.4973     0.0640     0.1134
  574.5000   -65.5143     9.8330     9.6393  -999.2500     8.0337     2.4963     0.0630     0.1160
  575.0000   -64.9853     9.7467     9.5074  -999.2500     8.0285     2.4955     0.0619     0.1199
  575.5000   -64.6219     9.7201     9.4010  -999.2500     8.0232     2.4874     0.0608     0.1251
  576.0000   -64.4338     9.7087     9.2903  -999.2500     8.0179     2.4782     0.0632     0.1280
  576.5000  -999.2500  -999.2500  -999.2500  -999.2500     8.0126     2.4762     0.0658     0.1265
  577.0000  -999.2500  -999.2500  -999.2500  -999.2500     8.0083     2.4787     0.0684     0.1251
  577.5000  -999.2500  -999.2500  -999.2500  -999.2500     8.0018     2.4813     0.0690     0.1239
  578.0000  -999.2500  -999.2500  -999.2500  -999.2500     7.9955     2.4837     0.0694     0.1231
