~VERSION INFORMATION
 VERS.                2.0:   CWLS LOG ASCII STANDARD - VERSION 2.0
 WRAP.                 NO:   ONE LINE PER DEPTH STEP
~WELL INFORMATION
#MNEM.UNIT      DATA TYPE    INFORMATION
#----------   ------------   ------------------------------
 STRT.F           25.0000:   START DEPTH
 STOP.F          681.0000:   STOP DEPTH
 STEP.F            0.5000:   STEP LENGTH
 NULL.          -999.2500:   NO VALUE
 COMP. FENIX & SCISSON INC:   COMPANY
 WELL.    56-SX-34 #56-34:   WELL
 FLD .             TEAPOT:   FIELD
 LOC .      S34 T39N R78W:   LOCATION
 CNTY.            NATRONA:   COUNTY
 STAT.            WYOMING:   STATE
 CTRY. UNITED STATES OF AMERICA:   COUNTRY
 SRVC.            Unknown:   SERVICE COMPANY
 DATE.        28-JAN-1979:   LOGDATE
 API .       490251077200:   API NUMBER
~CURVE INFORMATION
#MNEM.UNIT       API CODE    CURVE DESCRIPTION
#----------   ------------   ------------------------------
 DEPT.F                  :   
 SPR .MV     05 010 01 00:   SPONTANEOUS POTENTIAL FROM RES.
 DRHO.G/C3   45 356 01 00:   DENSITY CORRECTION
 RHOB.G/C3   45 350 01 00:   BULK DENSITY
 DPHI.DEC    45 890 12 00:   DENSITY POROSITY SANDSTONE
 CALD.IN     45 280 60 00:   CALIPER
 GRD .GAPI   45 310 01 00:   GAMMA RAY FROM DENSITY LOG
 SN  .OHMM   05 040 16 00:   SHORT NORMAL 16'
 ILD .OHMM   05 120 46 00:   INDUCTION LOG DEEP RESISTIVITY
~PARAMETER INFORMATION
#MNEM.UNIT          VALUE    DESCRIPTION
#----------   ------------   ------------------------------
 PD  .                 GL:   PERMANENT DATUM
 EPD .F              5088:   ELEVATION PERMANENT DATUM
 LMF .                 KB:   LOG MEASURED FROM
 DAPD.F                 4:   FEET ABOVE PERMANENT DATUM
 DMF .                 KB:   DRILLING MEASURED FROM
 EKB .F              5092:   KELLING BUSHING
 EGL .F              5088:   GROUND LEVEL
 DATE.            1-28-79:   RUN DATE
 RUN .                  1:   RUN NUMBER
 DD  .F               680:   DEPTH DRILLER
 DL  .F               681:   DEPTH LOGGER
 BLI .F               679:   BOTTOM LOG INTERVAL
 TLI .F                40:   TOP LOG INTERVAL
 CS  .IN            8.625:   CASING SIZE
 CBD .F                40:   CASING BOTTOM DRILLER
 CBL .F                40:   CASING BOTTOM LOGGER
 BS  .IN            7.875:   BIT SIZE
 BSD .F               680:   BIT SIZE AT DEPTH
 DFT .                KCL:   DRILLING FLUID TYPE
 DFD .                8.9:   DRILLING FLUID DENSITY
 DFV .                 43:   DRILLING FLUID VISCOSITY
 DFPH.                8.5:   DRILLING FLUID PH
 DFL .                9.8:   DRILLING FLUID LOSS
 MSS .           FLOWLINE:   MUD SAMPLE SOURCE
 RMS .OHMM            1.5:   RESISTIVITY MUD SAMPLE
 MST .F                66:   MUD SAMPLE TEMPERATURE
 RMF .OHMM            1.3:   RESISTIVITY MUD FILTRATE SAMPLE
 MFST.F                76:   MUD FILTRATE SAMPLE TEMPERATURE
 RMC .OHMM            1.3:   RESISTIVITY MUD CAKE
 MCST.F                78:   MUD CAKE SAMPLE TEMPERATURE
 MFSS.           MEASURED:   MUD FILTRATE SAMPLE SOURCE
 MCSS.           MEASURED:   MUD CAKE SAMPLE SOURCE
 RMB .OHMM            1.3:   RESISTIVITY MUD AT BHT
 BHT .F                76:   BOTTOM HOLE TEMPERATURE
 TCS .HRS               3:   TIME CURCULATED STOPPED
 MRT .F                76:   MAXIMUM RECORDED TEMPERATURE
 LUN .               3006:   LOGGING UNIT NUMBER
 LUL .             CASPER:   LOGGING UNIT LOCATION
 ENGI.            ROLLINS:   RECORDING ENGINEER
 WITN.              AMEND:   WITNESSED BY
 CLNT.            A2DTECH:   CLIENT CODE
 ORIG.       2", 5" PRINT:   ORIGIN OF DATA
 UWI .       490251077200:   UNIQUE WELL ID
 DICO. A2D Technologies, Inc.:   DIGITIZING COMPANY
~OTHER INFORMATION
~A   DEPT      SPR       DRHO       RHOB       DPHI       CALD         GRD        SN        ILD   
# ...
  308.5000   -42.9692     0.0413     2.4769     0.1233     8.1137    97.2888     9.1490    10.2798
  309.0000   -42.9717     0.0417     2.4721     0.1241     8.1415    96.9975     9.4128    10.6009
  309.5000   -42.9742     0.0421     2.4723     0.1237     8.1533    96.9132     9.5611    10.9321
  310.0000   -42.9766     0.0425     2.4727     0.1228     8.1534    96.3928     9.7156    11.1507
  310.5000   -42.9791     0.0429     2.4741     0.1219     8.1535    95.8233     9.8726    11.3330
  311.0000   -42.9815     0.0432     2.4763     0.1209     8.1534    95.5434    10.0320    11.5365
  311.5000   -42.9840     0.0436     2.4778     0.1209     8.1536    95.5382    10.1941    11.5661
  312.0000   -42.9865     0.0419     2.4770     0.1219     8.1846    95.8076    10.3588    11.5990
  312.5000   -42.9889     0.0399     2.4763     0.1222     8.2203    98.5446    10.5175    11.6319
  313.0000   -42.9914     0.0380     2.4756     0.1212     8.2259    99.7618    10.6356    11.6775
  313.5000   -42.9939     0.0370     2.4752     0.1203     8.2111    99.5897    10.7768    11.8217
  314.0000   -42.9963     0.0363     2.4821     0.1198     8.1961    99.2022    10.9198    11.9676
  314.5000   -42.9988     0.0357     2.4815     0.1202     8.2029    96.5519    11.0647    12.1154
  315.0000   -43.0013     0.0379     2.4790     0.1205     8.2290    93.9173    11.2115    12.2650
  315.5000   -43.0037     0.0402     2.4789     0.1209     8.2548    91.2448    11.3603    12.4164
  316.0000   -43.0062     0.0426     2.4790     0.1204     8.2726    90.4090    11.4434    12.5697
  316.5000   -43.0087     0.0450     2.4796     0.1198     8.2690    90.3911    11.5477    12.7718
  317.0000   -43.0111     0.0445     2.4822     0.1192     8.2407    90.0185    11.6532    12.7598
  317.5000   -43.0136     0.0424     2.4837     0.1201     8.2120    89.4248    11.7588    12.7357
  318.0000   -43.0160     0.0402     2.4815     0.1230     8.1831    88.8248    11.8589    12.7116
  318.5000   -43.0185     0.0379     2.4755     0.1253     8.1734    89.0178    11.8610    12.6875
  319.0000   -43.0210     0.0386     2.4708     0.1253     8.1733    94.1497    11.7519    12.6576
  319.5000   -43.0234     0.0397     2.4712     0.1253     8.1732   101.1424    11.4311    13.0102
  320.0000   -43.0259     0.0409     2.4714     0.1253     8.1718    98.5311    11.0051    12.9827
  320.5000   -43.0284     0.0416     2.4717     0.1253     8.1693    91.7857    10.4110    12.9362
  321.0000   -43.0308     0.0416     2.4718     0.1260     8.1668    87.1668    10.0379    12.8899
  321.5000   -43.0333     0.0416     2.4663     0.1282     8.1643    87.0577    10.0252    12.8438
  322.0000   -43.0358     0.0416     2.4602     0.1297     8.1618    85.5307    10.0126    12.7978
  322.5000   -43.0382     0.0416     2.4593     0.1301     8.1593    85.6840    10.0000    12.7520
  323.0000   -43.0407     0.0428     2.4587     0.1304     8.1568    85.9902     9.9874    12.7059
  323.5000   -43.0431     0.0452     2.4586     0.1290     8.1542    84.5747     9.9748    12.6547
  324.0000   -43.0456     0.0533     2.4648     0.1230     8.1615    83.1675     9.9628    12.7147
  324.5000   -43.0481     0.0650     2.4818     0.1133     8.1727    83.4663     9.9509    12.7875
  325.0000   -43.0505     0.0712     2.4987     0.1076     8.1653    84.9153     9.8635    12.8607
  325.5000   -43.0530     0.0690     2.5031     0.1064     8.1574    88.0056     9.7569    12.9339
  326.0000   -43.0555     0.0670     2.5066     0.1033     8.1495    90.6702     9.6517    13.0075
  326.5000   -43.0579     0.0627     2.5138     0.1015     8.1416    89.6968     9.5478    13.0815
  327.0000   -43.0604     0.0583     2.5182     0.1025     8.1337    87.0468     9.4766    13.1296
  327.5000   -43.0629     0.0539     2.5159     0.1107     8.1259    85.2164     9.4328    12.8267
  328.0000   -43.0653     0.0550     2.4976     0.1217     8.1181    85.6291     9.3892    12.6005
  328.5000   -43.0678     0.0566     2.4776     0.1231     8.1218    88.6352     9.3458    12.3790
  329.0000   -43.0693     0.0582     2.4758     0.1228     8.1380    92.2554     9.3026    12.1705
  329.5000   -43.0693     0.0597     2.4767     0.1225     8.1533    93.3342     9.2596    11.9675
  330.0000   -43.0693     0.0574     2.4756     0.1256     8.1571    92.8574     9.2168    11.7680
  330.5000   -43.0693     0.0547     2.4726     0.1288     8.1606    94.9788     9.1742    11.5710
  331.0000   -43.0693     0.0520     2.4650     0.1321     8.1640    96.3330     9.1318    11.3772
  331.5000   -43.0693     0.0496     2.4514     0.1314     8.1675    96.1580     9.0896    11.2191
  332.0000   -43.0693     0.0521     2.4549     0.1305     8.1709    94.9258     9.0219    11.2194
  332.5000   -43.0693     0.0566     2.4641     0.1253     8.1717    93.0217     8.9346    11.2207
  333.0000   -43.0693     0.0570     2.4728     0.1256     8.1660    93.7487     8.8481    11.2044
  333.5000   -43.0693     0.0562     2.4729     0.1265     8.1606    93.0662     8.7624    11.0599
  334.0000   -43.0693     0.0560     2.4585     0.1317     8.1552    92.2219     8.6775    10.9173
  334.5000   -43.0693     0.0573     2.4539     0.1317     8.1498    95.8818     8.5934    10.7764
  335.0000   -43.0693     0.0585     2.4595     0.1281     8.1444    96.5100     8.5605    10.6372
  335.5000   -43.0693     0.0597     2.4681     0.1243     8.1390    96.0794     8.5363    10.6148
  336.0000   -43.0693     0.0601     2.4760     0.1241     8.1338    91.8606     8.5121    10.6112
  336.5000   -43.0693     0.0605     2.4725     0.1251     8.1348    87.7722     8.4881    10.6021
  337.0000   -43.0693     0.0609     2.4701     0.1246     8.1360    86.9083     8.4642    10.5929
  337.5000   -43.0693     0.0613     2.4709     0.1237     8.1372    86.0624     8.4406    10.5837
  338.0000   -43.0693     0.0617     2.4716     0.1239     8.1384    85.8108     8.4004    10.5744
  338.5000   -43.0693     0.0620     2.4715     0.1242     8.1396    89.1756     8.3283    10.5652
  339.0000   -43.0693     0.0624     2.4708     0.1245     8.1408    91.6704     8.2568    10.5560
  339.5000   -43.0693     0.0628     2.4701     0.1245     8.1420    92.5885     8.1861    10.5469
  340.0000   -43.0693     0.0632     2.4718     0.1219     8.1432    95.5580     8.1160    10.5381
  340.5000   -43.0693     0.0636     2.4758     0.1201     8.1443    96.6253     8.0466    10.5284
  341.0000   -43.0693     0.0626     2.4797     0.1213     8.1455    97.2969     7.9778    10.5192
  341.5000   -43.0693     0.0610     2.4803     0.1240     8.1467    96.2918     7.9096    10.2993
  342.0000   -43.0693     0.0597     2.4755     0.1268     8.1479    90.8707     7.8008    10.0396
  342.5000   -43.0693     0.0606     2.4701     0.1287     8.1491    85.4441     7.6837     9.7866
  343.0000   -43.0693     0.0617     2.4646     0.1336     8.1503    85.4138     7.5683     9.5396
  343.5000   -43.0693     0.0626     2.4574     0.1398     8.1515    86.6564     7.4545     9.2988
  344.0000   -43.0693     0.0632     2.4401     0.1461     8.1525    87.9533     7.3425     9.0641
  344.5000   -43.0693     0.0804     2.4297     0.1416     8.1536    89.9074     7.2326     8.8907
  345.0000   -43.0693     0.0997     2.4364     0.1333     8.1855    94.0072     7.0668     8.8442
  345.5000   -43.0693     0.0871     2.4536     0.1354     8.2235    96.2809     7.1229     8.7980
  346.0000   -43.0693     0.0624     2.4517     0.1331     8.1703    95.9170     7.2437     8.7520
  346.5000   -43.0693     0.0528     2.4567     0.1299     8.0479    93.4551     7.3666     8.7070
  347.0000   -43.0693     0.0512     2.4595     0.1302     8.0289    91.4976     7.4915     8.6622
  347.5000   -43.0693     0.0496     2.4589     0.1305     8.0103    91.2190     7.6185     8.8962
  348.0000   -43.0693     0.0506     2.4583     0.1309     7.9946    91.2525     7.7515     9.1343
  348.5000   -43.0693     0.0521     2.4580     0.1305     8.0147    89.0732     7.7066     9.2403
