~VERSION INFORMATION
 VERS.                2.0:   CWLS LOG ASCII STANDARD - VERSION 2.0
 WRAP.                 NO:   ONE LINE PER DEPTH STEP
~WELL INFORMATION
#MNEM.UNIT      DATA TYPE    INFORMATION
#----------   ------------   ------------------------------
 STRT.F            7.0000:   START DEPTH
 STOP.F          480.0000:   STOP DEPTH
 STEP.F            0.1000:   STEP LENGTH
 NULL.          -999.2500:   NO VALUE
 COMP.       F D SERV INC:   COMPANY
 WELL.    67-2 SX-3 #67-3:   WELL
 FLD .          N.P.R. #3:   FIELD
 LOC .       S3 T38N R78W:   LOCATION
 CNTY.            NATRONA:   COUNTY
 STAT.            WYOMING:   STATE
 CTRY. UNITED STATES OF AMERICA:   COUNTRY
 SRVC.     Atlas Wireline:   SERVICE COMPANY
 DATE.        12-FEB-1992:   LOGDATE
 API .       490252250400:   API NUMBER
~CURVE INFORMATION
#MNEM.UNIT       API CODE    CURVE DESCRIPTION
#----------   ------------   ------------------------------
 DEPT.F                  :   
 SPR .MV     07 010 01 00:   SPONTANEOUS POTENTIAL
 GRR .GAPI   07 310 01 00:   GAMMA RAY
 RILD.OHMM   07 120 46 00:   INDUCTION LOG DEEP RESISTIVITY
 RILM.OHMM   07 120 44 00:   INDUCTION LOG MEDIUM RESISTIVITY
 RFOC.OHMM   07 220 04 00:   RESISTIVITY FOCUSED LOG
~PARAMETER INFORMATION
#MNEM.UNIT          VALUE    DESCRIPTION
#----------   ------------   ------------------------------
 PD  .                 GL:   PERMANENT DATUM
 EPD .F              5165:   ELEVATION PERMANENT DATUM
 LMF .                 KB:   LOG MEASURED FROM
 DAPD.F                10:   FEET ABOVE PERMANENT DATUM
 DMF .                 KB:   DRILLING MEASURED FROM
 EKB .F              5175:   KELLING BUSHING
 EDF .F              5174:   DRILLING FLOOR
 EGL .F              5165:   GROUND LEVEL
 DATE.        12-FEB-1992:   RUN DATE
 RUN .                  1:   RUN NUMBER
 DD  .F               487:   DEPTH DRILLER
 DL  .F               485:   DEPTH LOGGER
 BLI .F               482:   BOTTOM LOG INTERVAL
 CS  .IN            8.625:   CASING SIZE
 CBD .F               183:   CASING BOTTOM DRILLER
 CBL .F               186:   CASING BOTTOM LOGGER
 BS  .IN            7.875:   BIT SIZE
 BSD .F               487:   BIT SIZE AT DEPTH
 DFT .           CHEM GEL:   DRILLING FLUID TYPE
 DFD .               16.1:   DRILLING FLUID DENSITY
 DFV .                 43:   DRILLING FLUID VISCOSITY
 DFPH.                9.5:   DRILLING FLUID PH
 DFL .               11.8:   DRILLING FLUID LOSS
 MSS .           MUD TANK:   MUD SAMPLE SOURCE
 RMS .OHMM           2.36:   RESISTIVITY MUD SAMPLE
 MST .F                65:   MUD SAMPLE TEMPERATURE
 RMF .OHMM           1.17:   RESISTIVITY MUD FILTRATE SAMPLE
 MFST.F                65:   MUD FILTRATE SAMPLE TEMPERATURE
 RMC .OHMM           5.18:   RESISTIVITY MUD CAKE
 MCST.F                65:   MUD CAKE SAMPLE TEMPERATURE
 MFSS.               MEAS:   MUD FILTRATE SAMPLE SOURCE
 MCSS.               CALC:   MUD CAKE SAMPLE SOURCE
 RMB .OHMM           1.67:   RESISTIVITY MUD AT BHT
 BHT .F                92:   BOTTOM HOLE TEMPERATURE
 TCS .HRS               2:   TIME CURCULATED STOPPED
 MRT .F                92:   MAXIMUM RECORDED TEMPERATURE
 LUN .           HL- 6224:   LOGGING UNIT NUMBER
 LUL .             CASPER:   LOGGING UNIT LOCATION
 ENGI.        VERN RAUTIO:   RECORDING ENGINEER
 WITN.        GARY STRONG:   WITNESSED BY
 CLNT.            A2DTECH:   CLIENT CODE
 ORIG.           5" PRINT:   ORIGIN OF DATA
 UWI .       490252250400:   UNIQUE WELL ID
 DICO. A2D Technologies, Inc.:   DIGITIZING COMPANY
~OTHER INFORMATION
~A    DEPT     SPR        GRR       RILD       RILM       RFOC   
# ...
  202.2000   -31.4919   101.7415     6.1783     5.5078     5.5925
  202.3000   -31.4901   101.8761     6.2491     5.6026     5.6885
  202.4000   -31.4883   102.0498     6.3267     5.7313     5.7778
  202.5000   -31.4865   102.0740     6.3600     5.8614     5.8444
  202.6000   -31.4847   102.3586     6.4219     5.9812     5.9449
  202.7000   -31.4829   102.7812     6.4955     6.0650     6.0198
  202.8000   -31.4811   103.4291     6.5608     6.1487     6.1082
  202.9000   -31.4793   104.2665     6.5991     6.2190     6.2011
  203.0000   -31.4775   105.2054     6.6750     6.2900     6.2718
  203.1000   -31.4754   105.9774     6.7210     6.3688     6.3522
  203.2000   -31.4739   107.1488     6.7595     6.4347     6.4481
  203.3000   -31.4720   108.3764     6.7847     6.5083     6.5346
  203.4000   -31.4702   109.6040     6.7991     6.5659     6.6092
  203.5000   -31.4520   110.6956     6.9285     6.6201     6.6846
  203.6000   -31.3163   111.4339     6.9641     6.7345     6.7635
  203.7000   -31.2043   112.3000     7.0311     6.8111     6.8381
  203.8000   -31.1628   112.7080     7.1118     6.9192     6.8873
  203.9000   -31.1068   113.3487     7.1841     6.9950     6.9265
  204.0000   -30.9830   113.9950     7.2252     7.0474     6.9770
  204.1000   -30.8570   114.4518     7.2666     7.1245     7.0545
  204.2000   -30.7354   114.7194     7.3083     7.1709     7.1018
  204.3000   -30.6115   114.7232     7.3501     7.2059     7.1351
  204.4000   -30.4877   114.7274     7.4060     7.2470     7.1757
  204.5000   -30.3639   114.7316     7.4866     7.2883     7.2165
  204.6000   -30.2401   114.6751     7.5347     7.3299     7.2576
  204.7000   -30.0952   114.4290     7.5726     7.3739     7.3027
  204.8000   -29.9924   113.9438     7.5877     7.4137     7.3404
  204.9000   -29.8686   113.0685     7.6251     7.4560     7.4109
  205.0000   -29.7448   111.9541     7.7035     7.4985     7.4762
  205.1000   -29.6209   110.7349     7.7485     7.5412     7.5187
  205.2000   -29.4857   109.6044     7.7486     7.5842     7.5618
  205.3000   -29.4841   109.0685     7.7822     7.6357     7.6045
  205.4000   -29.4823   108.8532     7.8268     7.6357     7.6478
  205.5000   -29.4805   108.6127     7.8716     7.6610     7.6914
  205.6000   -29.4787   108.3722     7.9167     7.7047     7.7351
  205.7000   -29.4769   108.1317     7.9685     7.7486     7.7827
  205.8000   -29.4751   107.8897     7.9686     7.7972     7.8848
  205.9000   -29.5655   107.6508     7.9687     7.8372     7.9230
  206.0000   -29.6217   107.4103     7.9688     7.8518     7.9681
  206.1000   -29.6199   107.1698     7.9773     7.8518     7.9955
  206.2000   -29.6180   106.9293     8.0248     7.8518     8.0031
  206.3000   -29.6159   106.6889     8.0250     7.8518     8.0515
  206.4000   -29.7161   106.4162     8.0251     7.8518     8.0944
  206.5000   -29.7627   105.9960     8.0251     7.8859     8.1078
  206.6000   -29.8064   105.6676     8.0252     7.9068     8.1078
  206.7000   -29.9267   105.4271     8.0254     7.9068     8.1078
  206.8000   -30.0575   105.1403     8.0255     7.9068     8.1078
  206.9000   -30.1670   104.6376     8.0256     7.9068     8.1078
  207.0000   -30.2873   104.4058     8.0257     7.9068     8.1078
  207.1000   -30.4624   103.9846     8.0258     7.9068     8.1078
  207.2000   -30.7315   103.4995     8.0259     7.9068     8.1078
  207.3000   -31.0997   103.0143     8.0261     7.9068     8.1078
  207.4000   -31.3394   102.5443     8.0262     7.9068     8.1078
  207.5000   -31.5891   102.2646     8.0263     7.9068     8.1078
  207.6000   -31.7093   101.8587     8.0264     7.9068     8.1078
  207.7000   -31.8430   101.5231     8.0265     7.8850     8.1078
  207.8000   -31.9498   101.2826     8.0266     7.8403     8.1078
  207.9000   -32.0700   101.0806     8.0268     7.7972     8.1078
  208.0000   -32.1902   101.0857     7.9897     7.7972     8.0635
  208.1000   -32.3104   100.8610     7.9711     7.7617     8.0179
  208.2000   -32.4348   100.9675     7.9713     7.7177     7.9725
  208.3000   -32.5509   101.0981     7.9649     7.6740     7.9400
  208.4000   -32.5814   101.1654     7.9161     7.6305     7.9376
  208.5000   -32.5796   101.4223     7.9162     7.5826     7.8848
  208.6000   -32.5778   102.0110     7.9163     7.5442     7.8481
  208.7000   -32.5760   102.4094     7.8953     7.5299     7.8036
  208.8000   -32.5738   103.1876     7.8505     7.5112     7.7595
  208.9000   -32.4732   104.1705     7.8060     7.4686     7.7216
  209.0000   -32.4205   105.1535     7.7617     7.4255     7.7216
  209.1000   -32.4186   106.2295     7.7178     7.3841     7.6819
  209.2000   -32.4020   106.8978     7.6741     7.3423     7.6679
  209.3000   -32.2647   107.8023     7.6306     7.3007     7.6483
  209.4000   -32.2631   108.6741     7.5925     7.2717     7.6147
  209.5000   -32.2613   109.3004     7.5927     7.2687     7.6147
  209.6000   -32.2594   109.5484     7.5540     7.2211     7.5718
  209.7000   -32.2576   109.5526     7.5112     7.2211     7.5618
  209.8000   -32.2558   109.5568     7.4497     7.1958     7.5618
  209.9000   -32.2541   109.4259     7.3747     7.1550     7.5618
  210.0000   -32.2523   109.1854     7.3328     7.1211     7.5618
  210.1000   -32.2505   108.9202     7.2913     7.1211     7.5618
  210.2000   -32.2824   108.3747     7.2500     7.0833     7.5618
  210.3000   -32.3971   108.1641     7.1864     7.0716     7.5350
  210.4000   -32.3949   107.9236     7.1182     7.0523     7.5092
  210.5000   -32.3934   107.7871     7.0737     7.0224     7.5092
  210.6000   -32.4631   107.8401     6.9839     7.0213     7.5092
  210.7000   -32.5400   108.0955     6.9491     6.9816     7.5092
  210.8000   -32.5382   108.3378     6.8842     6.9736     7.4790
  210.9000   -32.5361   108.5867     6.8063     6.9510     7.4570
  211.0000   -32.5345   108.9635     6.7370     6.8982     7.4570
  211.1000   -32.5327   109.4571     6.6980     6.8246     7.4570
  211.2000   -32.5309   109.9506     6.6238     6.7816     7.4570
  211.3000   -32.5291   110.5200     6.5489     6.7475     7.4234
  211.4000   -32.5273   111.1448     6.4748     6.7092     7.4052
  211.5000   -32.4069   111.8831     6.4015     6.6712     7.3910
  211.6000   -32.4641   112.5245     6.3289     6.6257     7.3538
  211.7000   -32.5219   113.0181     6.2471     6.5491     7.3538
  211.8000   -32.5201   113.5391     6.1865     6.4409     7.3538
  211.9000   -32.5244   114.0052     6.1166     6.3861     7.3266
  212.0000   -32.6663   114.3228     6.0335     6.3126     7.3027
  212.1000   -32.6648   114.4510     5.9372     6.2057     7.3027
  212.2000   -32.7350   114.4552     5.8673     6.1006     7.3027
  212.3000   -32.8552   114.4490     5.7721     5.9812     7.2627
  212.4000   -32.9600   114.1645     5.6745     5.8684     7.2519
  212.5000   -32.9578   113.7681     5.5784     5.7563     7.2101
  212.6000   -33.0657   113.1383     5.4838     5.6589     7.1515
  212.7000   -33.1859   112.3189     5.3927     5.5631     7.1493
  212.8000   -33.2528   111.3787     5.3217     5.4625     7.1018
  212.9000   -33.2510   110.5869     5.2713     5.4051     7.0357
  213.0000   -33.2492   109.9190     5.2117     5.3440     6.9798
  213.1000   -33.2475   109.1892     5.1527     5.2695     6.9403
  213.2000   -33.2457   108.5729     5.0944     5.1875     6.8955
  213.3000   -33.3066   108.2045     5.0331     5.1288     6.8109
  213.4000   -33.3575   108.2087     4.9797     5.0709     6.7757
  213.5000   -33.2402   108.2129     4.9233     5.0136     6.7374
  213.6000   -33.2381   108.2171     4.8676     4.9569     6.6821
  213.7000   -33.1363   108.2213     4.8197     4.9103     6.6150
  213.8000   -33.0847   108.2255     4.7913     4.8824     6.5775
  213.9000   -33.0387   108.2297     4.7272     4.8515     6.5404
  214.0000   -32.9150   108.2344     4.7272     4.8272     6.4751
  214.1000   -32.7788   108.2381     4.6956     4.8178     6.4021
  214.2000   -32.5574   108.2423     4.6521     4.8178     6.3187
  214.3000   -32.3933   108.1401     4.6258     4.8178     6.2089
