~VERSION INFORMATION
 VERS.                2.0:   CWLS LOG ASCII STANDARD - VERSION 2.0
 WRAP.                 NO:   ONE LINE PER DEPTH STEP
~WELL INFORMATION
#MNEM.UNIT      DATA TYPE    INFORMATION
#----------   ------------   ------------------------------
 STRT.F           40.0000:   START DEPTH
 STOP.F         3444.0000:   STOP DEPTH
 STEP.F            0.5000:   STEP LENGTH
 NULL.          -999.2500:   NO VALUE
 COMP.    FENIX & SCISSON:   COMPANY
 WELL.     13-A-10 #13-10:   WELL
 FLD .            WILDCAT:   FIELD
 LOC .      S10 T38N R78W:   LOCATION
 CNTY.            NATRONA:   COUNTY
 STAT.            WYOMING:   STATE
 CTRY. UNITED STATES OF AMERICA:   COUNTRY
 SRVC.       Schlumberger:   SERVICE COMPANY
 DATE.        08-JUL-1970:   LOGDATE
 API .       490251090300:   API NUMBER
~CURVE INFORMATION
#MNEM.UNIT       API CODE    CURVE DESCRIPTION
#----------   ------------   ------------------------------
 DEPT.F                  :   
 ASN .OHMM   05 041 16 00:   AMPLIFIED SHORT NORMAL 16"
 CILD.MMHO   05 110 46 00:   CONDUCTIVITY INDUCTION LOG DEEP
 ILD .OHMM   05 120 46 00:   INDUCTION LOG DEEP
 SPR .MV     05 010 01 00:   SPONTANEOUS POTENTIAL FROM RES.
 CALD.IN     45 280 60 00:   CALIPER FROM DENSITY
 CORR.G/C3   45 356 01 00:   DENSITY CORRECTION
 DPHI.DEC    45 890 12 00:   DENSITY POROSITY SANDSTONE
 RHOB.G/C3   45 350 01 00:   BULK DENSITY
~PARAMETER INFORMATION
#MNEM.UNIT          VALUE    DESCRIPTION
#----------   ------------   ------------------------------
 PD  .                 GL:   PERMANENT DATUM
 EPD .F              5295:   ELEVATION PERMANENT DATUM
 LMF .                 KB:   LOG MEASURED FROM
 DAPD.F                10:   FEET ABOVE PERMANENT DATUM
 DMF .                 KB:   DRILLING MEASURED FROM
 EKB .F              5305:   KELLING BUSHING
 EGL .F              5295:   GROUND LEVEL
 DATE.        08-JUL-1970:   RUN DATE
 RUN .                  3:   RUN NUMBER
 DD  .F              3450:   DEPTH DRILLER
 DL  .F              3444:   DEPTH LOGGER
 BLI .F              3443:   BOTTOM LOG INTERVAL
 TLI .F              2950:   TOP LOG INTERVAL
 CS  .IN            10.75:   CASING SIZE
 CBD .F               842:   CASING BOTTOM DRILLER
 BS  .IN                9:   BIT SIZE
 BSD .F              3450:   BIT SIZE AT DEPTH
 DFT .      FRESH GEL MUD:   DRILLING FLUID TYPE
 DFD .               10.4:   DRILLING FLUID DENSITY
 DFV .                 43:   DRILLING FLUID VISCOSITY
 DFPH.                7.6:   DRILLING FLUID PH
 DFL .                  8:   DRILLING FLUID LOSS
 MSS .           FLOWLINE:   MUD SAMPLE SOURCE
 RMS .OHMM              2:   RESISTIVITY MUD SAMPLE
 MST .F                85:   MUD SAMPLE TEMPERATURE
 RMF .OHMM            1.6:   RESISTIVITY MUD FILTRATE SAMPLE
 MFST.F                85:   MUD FILTRATE SAMPLE TEMPERATURE
 MFSS.               MEAS:   MUD FILTRATE SAMPLE SOURCE
 RMB .OHMM           1.49:   RESISTIVITY MUD AT BHT
 BHT .F               114:   BOTTOM HOLE TEMPERATURE
 TCS .HRS               3:   TIME CURCULATED STOPPED
 MRT .F               114:   MAXIMUM RECORDED TEMPERATURE
 LUN .               4507:   LOGGING UNIT NUMBER
 LUL .               CSPR:   LOGGING UNIT LOCATION
 ENGI.             TURNER:   RECORDING ENGINEER
 WITN.                MAY:   WITNESSED BY
 CLNT.            A2DTECH:   CLIENT CODE
 ORIG.     2.5", 5" PRINT:   ORIGIN OF DATA
 UWI .       490251090300:   UNIQUE WELL ID
 DICO. A2D Technologies, Inc.:   DIGITIZING COMPANY
~OTHER INFORMATION
~A   DEPT        ASN      CILD         ILD      SPR       CALD       CORR       DPHI       RHOB   
# ...
 1862.5000     8.4421   130.7691     8.3209   -46.6895  -999.2500  -999.2500  -999.2500  -999.2500
 1863.0000     8.4117   135.2554     8.3194   -46.6939  -999.2500  -999.2500  -999.2500  -999.2500
 1863.5000     8.3812   138.2536     8.2878   -46.6983  -999.2500  -999.2500  -999.2500  -999.2500
 1864.0000     8.3207   141.2518     8.1314   -46.7027  -999.2500  -999.2500  -999.2500  -999.2500
 1864.5000     8.2302   142.7618     7.8257   -46.7071  -999.2500  -999.2500  -999.2500  -999.2500
 1865.0000     8.1696   144.2719     7.6691   -46.7115  -999.2500  -999.2500  -999.2500  -999.2500
 1865.5000     8.0491   144.2939     7.5657   -46.7159  -999.2500  -999.2500  -999.2500  -999.2500
 1866.0000     8.0186   142.8278     7.5642   -46.4227  -999.2500  -999.2500  -999.2500  -999.2500
 1866.5000     8.1083   138.3855     7.5627   -46.4271  -999.2500  -999.2500  -999.2500  -999.2500
 1867.0000     8.2291   136.8901     7.7806   -46.4315  -999.2500  -999.2500  -999.2500  -999.2500
 1867.5000     8.3806   135.3794     8.0074   -46.4360  -999.2500  -999.2500  -999.2500  -999.2500
 1868.0000     8.5021   133.8693     8.1552   -46.4405  -999.2500  -999.2500  -999.2500  -999.2500
 1868.5000     8.6203   132.3586     8.3030   -46.4122  -999.2500  -999.2500  -999.2500  -999.2500
 1869.0000     8.6766   130.8485     8.4508   -46.1515  -999.2500  -999.2500  -999.2500  -999.2500
 1869.5000     8.6410   129.3377     8.4490   -46.1563  -999.2500  -999.2500  -999.2500  -999.2500
 1870.0000     8.5735   126.6347     8.4475   -46.1607  -999.2500  -999.2500  -999.2500  -999.2500
 1870.5000     8.4581   128.4897     8.2968   -46.1652  -999.2500  -999.2500  -999.2500  -999.2500
 1871.0000     8.3889   133.0206     8.1461   -46.1697  -999.2500  -999.2500  -999.2500  -999.2500
 1871.5000     8.3139   136.0641     7.9954   -46.1741  -999.2500  -999.2500  -999.2500  -999.2500
 1872.0000     8.3039   138.6309     7.8447   -46.1786  -999.2500  -999.2500  -999.2500  -999.2500
 1872.5000     8.2725   138.6532     7.6940   -46.1831  -999.2500  -999.2500  -999.2500  -999.2500
 1873.0000     8.2111   138.6756     7.5432   -45.8890  -999.2500  -999.2500  -999.2500  -999.2500
 1873.5000     8.1497   138.6979     7.5418   -45.8943  -999.2500  -999.2500  -999.2500  -999.2500
 1874.0000     8.1315   137.2321     7.5403   -45.8988  -999.2500  -999.2500  -999.2500  -999.2500
 1874.5000     8.1752   135.7664     7.6881   -45.7634  -999.2500  -999.2500  -999.2500  -999.2500
 1875.0000     8.2357   135.0446     7.6865   -45.6101  -999.2500  -999.2500  -999.2500  -999.2500
 1875.5000     8.2803   134.3229     7.8344   -45.6146  -999.2500  -999.2500  -999.2500  -999.2500
 1876.0000     8.2799   132.8572     7.8568   -45.6190  -999.2500  -999.2500  -999.2500  -999.2500
 1876.5000     8.2972   132.8795     8.0101   -45.6235  -999.2500  -999.2500  -999.2500  -999.2500
 1877.0000     8.3090   132.9060     8.1285   -45.6288  -999.2500  -999.2500  -999.2500  -999.2500
 1877.5000     8.3386   132.9279     8.2763   -45.6332  -999.2500  -999.2500  -999.2500  -999.2500
 1878.0000     8.3981   132.9499     8.2746   -45.6376  -999.2500  -999.2500  -999.2500  -999.2500
 1878.5000     8.3977   132.9719     8.2732   -45.6420  -999.2500  -999.2500  -999.2500  -999.2500
 1879.0000     8.3372   132.9939     8.4212   -45.6464  -999.2500  -999.2500  -999.2500  -999.2500
 1879.5000     8.2166   133.0159     8.4194   -45.6508  -999.2500  -999.2500  -999.2500  -999.2500
 1880.0000     8.1261   133.0379     8.4179   -45.6552  -999.2500  -999.2500  -999.2500  -999.2500
 1880.5000     8.2157   134.5480     8.4164   -45.6596  -999.2500  -999.2500  -999.2500  -999.2500
 1881.0000     8.5756   134.5700     8.3338   -45.6640  -999.2500  -999.2500  -999.2500  -999.2500
 1881.5000     8.5452   136.0801     8.1773   -45.9660  -999.2500  -999.2500  -999.2500  -999.2500
 1882.0000     8.3345   136.1021     8.1132   -45.9704  -999.2500  -999.2500  -999.2500  -999.2500
 1882.5000     8.2440   136.1241     7.9624   -45.9748  -999.2500  -999.2500  -999.2500  -999.2500
 1883.0000     8.2435   136.1754     8.1104   -45.9792  -999.2500  -999.2500  -999.2500  -999.2500
 1883.5000     8.2734   136.1526     8.1088   -45.6860  -999.2500  -999.2500  -999.2500  -999.2500
 1884.0000     8.3039   134.6426     8.1073   -45.6905  -999.2500  -999.2500  -999.2500  -999.2500
 1884.5000     8.3344   131.7477     8.2552   -45.6950  -999.2500  -999.2500  -999.2500  -999.2500
 1885.0000     8.3949   130.2816     8.4030   -45.6994  -999.2500  -999.2500  -999.2500  -999.2500
 1885.5000     8.4554   128.8155     8.5508   -45.7039  -999.2500  -999.2500  -999.2500  -999.2500
 1886.0000     8.5111   127.3494     8.6985   -45.7084  -999.2500  -999.2500  -999.2500  -999.2500
 1886.5000     8.5407   127.3735     8.6970   -45.7128  -999.2500  -999.2500  -999.2500  -999.2500
 1887.0000     8.5336   127.3958     8.6955   -45.7173  -999.2500  -999.2500  -999.2500  -999.2500
 1887.5000     8.5097   127.4182     8.6878   -46.0937  -999.2500  -999.2500  -999.2500  -999.2500
 1888.0000     8.4792   127.4405     8.5313   -46.3214  -999.2500  -999.2500  -999.2500  -999.2500
 1888.5000     8.4395   128.9509     8.3925   -46.6235  -999.2500  -999.2500  -999.2500  -999.2500
 1889.0000     8.3781   128.9732     8.3911   -46.6279  -999.2500  -999.2500  -999.2500  -999.2500
 1889.5000     8.3167   128.9956     8.3604   -46.6324  -999.2500  -999.2500  -999.2500  -999.2500
 1890.0000     8.2252   130.5060     8.2388   -46.6369  -999.2500  -999.2500  -999.2500  -999.2500
 1890.5000     8.1896   130.5283     8.2373   -46.6413  -999.2500  -999.2500  -999.2500  -999.2500
 1891.0000     8.2063   130.5506     8.2358   -46.6458  -999.2500  -999.2500  -999.2500  -999.2500
 1891.5000     8.2359   131.3022     8.0851   -46.6503  -999.2500  -999.2500  -999.2500  -999.2500
 1892.0000     8.2655   132.0833     8.0836   -46.6547  -999.2500  -999.2500  -999.2500  -999.2500
 1892.5000     8.2650   132.9242     8.0187   -46.6592  -999.2500  -999.2500  -999.2500  -999.2500
 1893.0000     8.2646   133.6161     7.9313   -46.3661  -999.2500  -999.2500  -999.2500  -999.2500
 1893.5000     8.2040   135.1308     7.7806   -46.3714  -999.2500  -999.2500  -999.2500  -999.2500
 1894.0000     8.1134   136.6409     7.6985   -46.3758  -999.2500  -999.2500  -999.2500  -999.2500
 1894.5000     7.9929   136.6629     7.6283   -46.3802  -999.2500  -999.2500  -999.2500  -999.2500
 1895.0000     7.9924   139.6610     7.4773   -46.3846  -999.2500  -999.2500  -999.2500  -999.2500
 1895.5000     7.9319   139.6830     7.4759   -46.3890  -999.2500  -999.2500  -999.2500  -999.2500
 1896.0000     7.9014   141.1931     7.3251   -46.0958  -999.2500  -999.2500  -999.2500  -999.2500
 1896.5000     7.8409   142.7032     7.3237   -46.1002  -999.2500  -999.2500  -999.2500  -999.2500
 1897.0000     7.7804   142.7252     7.1730   -45.8069  -999.2500  -999.2500  -999.2500  -999.2500
 1897.5000     7.7199   142.7472     7.1715   -45.8113  -999.2500  -999.2500  -999.2500  -999.2500
 1898.0000     7.6594   142.7692     7.1700   -45.5181  -999.2500  -999.2500  -999.2500  -999.2500
 1898.5000     7.6290   142.7912     7.0193   -45.5225  -999.2500  -999.2500  -999.2500  -999.2500
 1899.0000     7.5985   142.8132     7.0179   -45.2292  -999.2500  -999.2500  -999.2500  -999.2500
 1899.5000     7.5680   145.8113     6.8671   -45.2337  -999.2500  -999.2500  -999.2500  -999.2500
 1900.0000     7.5595   148.8095     6.8657   -45.2381  -999.2500  -999.2500  -999.2500  -999.2500
 1900.5000     7.4107   151.7560     6.8642   -45.4408  -999.2500  -999.2500  -999.2500  -999.2500
 1901.0000     7.4405   154.7025     6.8627   -45.6435  -999.2500  -999.2500  -999.2500  -999.2500
 1901.5000     7.4270   157.6490     6.8612   -45.8378  -999.2500  -999.2500  -999.2500  -999.2500
 1902.0000     7.3516   160.5955     6.4906   -45.8393  -999.2500  -999.2500  -999.2500  -999.2500
 1902.5000     7.2619   163.5421     6.1854   -45.5430  -999.2500  -999.2500  -999.2500  -999.2500
