~VERSION INFORMATION
 VERS.                2.0:   CWLS LOG ASCII STANDARD - VERSION 2.0
 WRAP.                 NO:   ONE LINE PER DEPTH STEP
~WELL INFORMATION
#MNEM.UNIT      DATA TYPE    INFORMATION
#----------   ------------   ------------------------------
 STRT.F           29.0000:   START DEPTH
 STOP.F          435.0000:   STOP DEPTH
 STEP.F            0.5000:   STEP LENGTH
 NULL.          -999.2500:   NO VALUE
 COMP. FENIX & SCISSON INC:   COMPANY
 WELL.    525 X 10 #52-10:   WELL
 FLD .             TEAPOT:   FIELD
 LOC .      S10 T38N R78W:   LOCATION
 CNTY.            NATRONA:   COUNTY
 STAT.            WYOMING:   STATE
 CTRY. UNITED STATES OF AMERICA:   COUNTRY
 SRVC.       Schlumberger:   SERVICE COMPANY
 DATE.        18-NOV-1978:   LOGDATE
 API .       490251077700:   API NUMBER
~CURVE INFORMATION
#MNEM.UNIT       API CODE    CURVE DESCRIPTION
#----------   ------------   ------------------------------
 DEPT.F                  :   
 NEUT.NAPI   35 330 01 00:   NEUTRON
 SPR .MV     07 010 01 00:   SPONTANEOUS POTENTIAL
 SFL .OHMM   07 220 01 00:   SHALLOW FOCUSED LOG RESISTIVITY
 ILD .OHMM   07 120 46 00:   INDUCTION LOG DEEP RESISTIVITY
 ILM .OHMM   07 120 44 00:   INDUCTION LOG MEDIUM
 CORR.G/C3   45 356 01 00:   DENSITY CORRECTION
 RHOB.G/C3   45 350 01 00:   BULK DENSITY
 DPHI.DEC    45 890 12 00:   DENSITY POROSITY SANDSTONE
 CALD.IN     45 280 60 00:   CALIPER
 GRD .GAPI   45 310 01 00:   GAMMA RAY FROM DENSITY LOG
~PARAMETER INFORMATION
#MNEM.UNIT          VALUE    DESCRIPTION
#----------   ------------   ------------------------------
 PD  .                 GL:   PERMANENT DATUM
 EPD .F              5176:   ELEVATION PERMANENT DATUM
 LMF .                 KB:   LOG MEASURED FROM
 DAPD.F                 4:   FEET ABOVE PERMANENT DATUM
 DMF .                 KB:   DRILLING MEASURED FROM
 EKB .F              5180:   KELLING BUSHING
 EGL .F              5176:   GROUND LEVEL
 DATE.           11-18-78:   RUN DATE
 RUN .                  1:   RUN NUMBER
 DD  .F               433:   DEPTH DRILLER
 DL  .F               435:   DEPTH LOGGER
 BLI .F               429:   BOTTOM LOG INTERVAL
 TLI .F                48:   TOP LOG INTERVAL
 CS  .IN            8.625:   CASING SIZE
 CBD .F                40:   CASING BOTTOM DRILLER
 CBL .F                48:   CASING BOTTOM LOGGER
 BS  .IN            7.875:   BIT SIZE
 BSD .F               433:   BIT SIZE AT DEPTH
 DFT .            KCL MUD:   DRILLING FLUID TYPE
 DFD .                8.5:   DRILLING FLUID DENSITY
 DFV .                 30:   DRILLING FLUID VISCOSITY
 DFPH.                9.6:   DRILLING FLUID PH
 DFL .                 16:   DRILLING FLUID LOSS
 MSS .             MUDPIT:   MUD SAMPLE SOURCE
 RMS .OHMM            .45:   RESISTIVITY MUD SAMPLE
 MST .F                50:   MUD SAMPLE TEMPERATURE
 RMF .OHMM            .37:   RESISTIVITY MUD FILTRATE SAMPLE
 MFST.F                50:   MUD FILTRATE SAMPLE TEMPERATURE
 RMC .OHMM            .43:   RESISTIVITY MUD CAKE
 MCST.F                50:   MUD CAKE SAMPLE TEMPERATURE
 MFSS.                  M:   MUD FILTRATE SAMPLE SOURCE
 MCSS.                  C:   MUD CAKE SAMPLE SOURCE
 RMB .OHMM            .42:   RESISTIVITY MUD AT BHT
 BHT .F                63:   BOTTOM HOLE TEMPERATURE
 TCS .HRS            2400:   TIME CURCULATED STOPPED
 TLAB.HRS            1300:   TIME LOGGER AT BOTTOM
 MRT .F                63:   MAXIMUM RECORDED TEMPERATURE
 LUN .               7663:   LOGGING UNIT NUMBER
 LUL .                GLT:   LOGGING UNIT LOCATION
 ENGI.        SATTERFIELD:   RECORDING ENGINEER
 WITN.              AMEND:   WITNESSED BY
 CLNT.            A2DTECH:   CLIENT CODE
 ORIG.     1", 2.5" PRINT:   ORIGIN OF DATA
 UWI .       490251077700:   UNIQUE WELL ID
 DICO. A2D Technologies, Inc.:   DIGITIZING COMPANY
~OTHER INFORMATION
~A   DEPT     NEUT        SPR        SFL        ILD        ILM       CORR       RHOB       DPHI       CALD         GRD  
# ...
  397.5000   281.0709   -26.5085  -999.2500  -999.2500  -999.2500     0.0155     2.4762     0.1213     8.2155    99.1162
  398.0000   281.2837   -26.5388  -999.2500  -999.2500  -999.2500     0.0032     2.4722     0.1274     8.2155   102.2253
  398.5000   281.5158   -26.5651  -999.2500  -999.2500  -999.2500     0.0007     2.4761     0.1254     8.2155   103.5174
  399.0000   284.0431   -26.5825  -999.2500  -999.2500  -999.2500     0.0066     2.4817     0.1214     8.2155   104.8446
  399.5000   286.5987   -26.6049  -999.2500  -999.2500  -999.2500     0.0124     2.4871     0.1182     8.2154   106.0702
  400.0000   289.1227   -26.6259  -999.2500  -999.2500  -999.2500     0.0147     2.4929     0.1132     8.2155   107.4620
  400.5000   293.1344   -26.6466  -999.2500  -999.2500  -999.2500     0.0120     2.4967     0.1101     8.2155   108.2952
  401.0000   298.3938   -26.6679  -999.2500  -999.2500  -999.2500     0.0086     2.4893     0.1139     8.2154   108.3738
  401.5000   297.1447   -26.6889  -999.2500  -999.2500  -999.2500     0.0052     2.4766     0.1231     8.2162   108.5620
  402.0000   287.7818   -26.7100  -999.2500  -999.2500  -999.2500     0.0030     2.4818     0.1211     8.2184   108.7567
  402.5000   281.1775   -26.7311  -999.2500  -999.2500  -999.2500     0.0072     2.4871     0.1178     8.2205   108.8434
  403.0000   332.1958   -26.7522  -999.2500  -999.2500  -999.2500     0.0082     2.4849     0.1150     8.2226   109.6396
  403.5000   350.8529   -26.7734  -999.2500  -999.2500  -999.2500     0.0025     2.4741     0.1250     8.2248   112.1824
  404.0000   311.5601   -26.7944  -999.2500  -999.2500  -999.2500     0.0006     2.4644     0.1287     8.2269   116.7739
  404.5000  -999.2500   -26.8158  -999.2500  -999.2500  -999.2500     0.0071     2.4629     0.1287     8.2291   121.3849
  405.0000  -999.2500   -26.8369  -999.2500  -999.2500  -999.2500     0.0162     2.4653     0.1287     8.2312   126.0890
  405.5000  -999.2500   -26.8574  -999.2500  -999.2500  -999.2500     0.0208     2.4498     0.1366     8.2333   129.4926
  406.0000  -999.2500   -26.8804  -999.2500  -999.2500  -999.2500     0.0226     2.4309     0.1471     8.2355   127.9996
  406.5000  -999.2500   -26.8987  -999.2500  -999.2500  -999.2500     0.0166     2.4122     0.1577     8.2376   122.8954
  407.0000  -999.2500   -26.9177  -999.2500  -999.2500  -999.2500     0.0117     2.4188     0.1628     8.2397   113.5076
  407.5000  -999.2500   -26.8229  -999.2500  -999.2500  -999.2500     0.0046     2.4460     0.1410     8.2419   106.0261
  408.0000  -999.2500   -26.7140  -999.2500  -999.2500  -999.2500     0.0020     2.4910     0.1185     8.2440   103.3683
  408.5000  -999.2500   -26.6024  -999.2500  -999.2500  -999.2500     0.0003     2.5082     0.1020     8.2462   102.7597
  409.0000  -999.2500   -26.4926  -999.2500  -999.2500  -999.2500     0.0008     2.5099     0.1016     8.2483   104.0643
  409.5000  -999.2500   -26.3824  -999.2500  -999.2500  -999.2500     0.0030     2.5072     0.1027     8.2505   105.3533
  410.0000  -999.2500   -26.2734  -999.2500  -999.2500  -999.2500     0.0052     2.5011     0.1093     8.2524   104.5284
  410.5000  -999.2500   -26.1588  -999.2500  -999.2500  -999.2500     0.0077     2.5039     0.1045     8.2549   102.8296
  411.0000  -999.2500   -26.1093  -999.2500  -999.2500  -999.2500     0.0096     2.5109     0.0980     8.2568   103.2104
  411.5000  -999.2500   -26.1141  -999.2500  -999.2500  -999.2500     0.0122     2.5175     0.1001     8.2666   104.1912
  412.0000  -999.2500   -26.1133  -999.2500  -999.2500  -999.2500     0.0107     2.5116     0.1022     8.2776   106.4355
  412.5000  -999.2500   -26.1129  -999.2500  -999.2500  -999.2500     0.0087     2.5063     0.1038     8.2900   106.4568
  413.0000  -999.2500   -26.1135  -999.2500  -999.2500  -999.2500     0.0066     2.5092     0.1053     8.2964   106.9281
  413.5000  -999.2500   -26.1132  -999.2500  -999.2500  -999.2500     0.0067     2.5129     0.0988     8.2923   108.0201
  414.0000  -999.2500   -26.1133  -999.2500  -999.2500  -999.2500     0.0070     2.5156     0.0967     8.2893   109.2473
  414.5000  -999.2500   -26.1134  -999.2500  -999.2500  -999.2500     0.0165     2.5219     0.0931     8.2861   109.8939
  415.0000  -999.2500   -26.1134  -999.2500  -999.2500  -999.2500     0.0191     2.5319     0.0922     8.2828   109.1847
  415.5000  -999.2500   -26.1134  -999.2500  -999.2500  -999.2500     0.0133     2.5269     0.0921     8.2796   108.2643
  416.0000  -999.2500   -26.1134  -999.2500  -999.2500  -999.2500     0.0086     2.5175     0.0985     8.2763   105.3868
  416.5000  -999.2500   -26.1134  -999.2500  -999.2500  -999.2500     0.0033     2.5068     0.1061     8.2731    97.8233
  417.0000  -999.2500   -26.1134  -999.2500  -999.2500  -999.2500     0.0064     2.5065     0.1044     8.2698    88.8537
  417.5000  -999.2500   -26.1134  -999.2500  -999.2500  -999.2500     0.0098     2.5027     0.1036     8.2666    71.4296
  418.0000  -999.2500   -26.1136  -999.2500  -999.2500  -999.2500     0.0009     2.4959     0.1134     8.2634    53.8028
  418.5000  -999.2500   -26.1131  -999.2500  -999.2500  -999.2500     0.0039     2.4998     0.1040     8.2601  -999.2500
  419.0000  -999.2500   -26.1141  -999.2500  -999.2500  -999.2500     0.0065     2.5073     0.1020     8.2569  -999.2500
  419.5000  -999.2500   -26.1141  -999.2500  -999.2500  -999.2500     0.0100     2.5097     0.1020     8.2519  -999.2500
  420.0000  -999.2500   -26.1109  -999.2500  -999.2500  -999.2500     0.0106     2.5001     0.1087     8.2463  -999.2500
  420.5000  -999.2500   -26.1217  -999.2500  -999.2500  -999.2500     0.0106     2.4926     0.1150     8.2407  -999.2500
  421.0000  -999.2500   -26.0440  -999.2500  -999.2500  -999.2500     0.0087     2.4841     0.1183     8.2351  -999.2500
  421.5000  -999.2500   -25.8888  -999.2500  -999.2500  -999.2500     0.0062     2.4863     0.1198     8.2294  -999.2500
  422.0000  -999.2500   -25.7739  -999.2500  -999.2500  -999.2500     0.0027     2.4913     0.1134     8.2243  -999.2500
  422.5000  -999.2500   -25.4900  -999.2500  -999.2500  -999.2500     0.0033     2.4867     0.1162     8.2179  -999.2500
  423.0000  -999.2500   -25.1096  -999.2500  -999.2500  -999.2500     0.0038     2.4838     0.1182     8.2136  -999.2500
  423.5000  -999.2500   -24.7570  -999.2500  -999.2500  -999.2500     0.0041     2.4885     0.1182     8.1902  -999.2500
  424.0000  -999.2500   -24.4013  -999.2500  -999.2500  -999.2500    -0.0012     2.4935     0.1117     8.1679  -999.2500
  424.5000  -999.2500   -24.0600  -999.2500  -999.2500  -999.2500    -0.0008     2.4930     0.1123     8.1434  -999.2500
  425.0000  -999.2500   -23.6805  -999.2500  -999.2500  -999.2500     0.0077     2.4922     0.1117     8.1219  -999.2500
  425.5000  -999.2500   -23.9543  -999.2500  -999.2500  -999.2500     0.0146     2.5055     0.1069     8.0954  -999.2500
  426.0000  -999.2500   -24.5056  -999.2500  -999.2500  -999.2500     0.0200     2.5120     0.1040     8.0927  -999.2500
  426.5000  -999.2500   -25.0409  -999.2500  -999.2500  -999.2500     0.0172     2.5126     0.1004     8.0754  -999.2500
  427.0000  -999.2500   -25.5598  -999.2500  -999.2500  -999.2500     0.0155     2.5292     0.0970     8.0589  -999.2500
  427.5000  -999.2500   -26.0888  -999.2500  -999.2500  -999.2500     0.0133     2.5232     0.0988     8.0408  -999.2500
  428.0000  -999.2500   -26.6503  -999.2500  -999.2500  -999.2500     0.0275     2.5143     0.1010     8.0237  -999.2500
  428.5000  -999.2500   -26.9490  -999.2500  -999.2500  -999.2500     0.0224     2.5213     0.0957     8.0058  -999.2500
  429.0000  -999.2500   -26.9168  -999.2500  -999.2500  -999.2500     0.0169     2.5132     0.0979     7.9889  -999.2500
  429.5000  -999.2500  -999.2500  -999.2500  -999.2500  -999.2500     0.0138     2.4966     0.1076     7.9713  -999.2500
  430.0000  -999.2500  -999.2500  -999.2500  -999.2500  -999.2500     0.0329     2.4861     0.1187     7.9523  -999.2500
  430.5000  -999.2500  -999.2500  -999.2500  -999.2500  -999.2500     0.0571     2.4909     0.1195     7.9414  -999.2500
