~VERSION INFORMATION
 VERS.                2.0:   CWLS LOG ASCII STANDARD - VERSION 2.0
 WRAP.                 NO:   ONE LINE PER DEPTH STEP
~WELL INFORMATION
#MNEM.UNIT      DATA TYPE    INFORMATION
#----------   ------------   ------------------------------
 STRT.F            0.0000:   START DEPTH
 STOP.F         2182.0000:   STOP DEPTH
 STEP.F            0.1000:   STEP LENGTH
 NULL.          -999.2500:   NO VALUE
 COMP.       FLUOR DANIEL:   COMPANY
 WELL.   75-1 X 29 #75-29:   WELL
 FLD .             TEAPOT:   FIELD
 LOC .      S29 T39N R78W:   LOCATION
 CNTY.            NATRONA:   COUNTY
 STAT.            WYOMING:   STATE
 CTRY. UNITED STATES OF AMERICA:   COUNTRY
 SRVC.      Western Atlas:   SERVICE COMPANY
 DATE.        10-MAY-1996:   LOGDATE
 API .       490252279100:   API NUMBER
~CURVE INFORMATION
#MNEM.UNIT       API CODE    CURVE DESCRIPTION
#----------   ------------   ------------------------------
 DEPT.F                  :   
 GRR .GAPI   07 310 01 00:   GAMMA RAY
 RFOC.OHMM   07 220 04 00:   RESISTIVITY FOCUSED LOG
 RILD.OHMM   07 120 46 00:   INDUCTION LOG DEEP RESISTIVITY
 RILM.OHMM   07 120 44 00:   INDUCTION LOG MEDIUM RESISTIVITY
~PARAMETER INFORMATION
#MNEM.UNIT          VALUE    DESCRIPTION
#----------   ------------   ------------------------------
 PD  .                 GL:   PERMANENT DATUM
 EPD .F              5031:   ELEVATION PERMANENT DATUM
 LMF .                 KB:   LOG MEASURED FROM
 DAPD.F                10:   FEET ABOVE PERMANENT DATUM
 DMF .                 KB:   DRILLING MEASURED FROM
 EKB .F              5041:   KELLING BUSHING
 EDF .F              5040:   DRILLING FLOOR
 EGL .F              5031:   GROUND LEVEL
 DATE.        10-MAY-1996:   RUN DATE
 RUN .                  1:   RUN NUMBER
 DD  .F              2188:   DEPTH DRILLER
 DL  .F              2184:   DEPTH LOGGER
 BLI .F              2182:   BOTTOM LOG INTERVAL
 TLI .F               400:   TOP LOG INTERVAL
 CS  .IN                7:   CASING SIZE
 CBD .F               400:   CASING BOTTOM DRILLER
 CBL .F               400:   CASING BOTTOM LOGGER
 BS  .IN             6.25:   BIT SIZE
 BSD .F              2188:   BIT SIZE AT DEPTH
 DFT .                AIR:   DRILLING FLUID TYPE
 MRT .F                97:   MAXIMUM RECORDED TEMPERATURE
 LUN .            HL-6530:   LOGGING UNIT NUMBER
 LUL .             CASPER:   LOGGING UNIT LOCATION
 ENGI.           BROWNLOW:   RECORDING ENGINEER
 WITN.             LEBEAU:   WITNESSED BY
 CLNT.            A2DTECH:   CLIENT CODE
 ORIG.           5" PRINT:   ORIGIN OF DATA
 UWI .       490252279100:   UNIQUE WELL ID
 DICO. A2D Technologies, Inc.:   DIGITIZING COMPANY
~OTHER INFORMATION
~A    DEPT      GRR      RFOC       RILD       RILM   
# ...
 1211.8000   128.8446  -999.2500     6.9210     7.3740
 1211.9000   129.2813  -999.2500     6.9209     7.3738
 1212.0000   129.9477  -999.2500     6.9208     7.3736
 1212.1000   130.2030  -999.2500     6.9208     7.3734
 1212.2000   130.6962  -999.2500     6.9098     7.3733
 1212.3000   131.0003  -999.2500     6.8728     7.3439
 1212.4000   131.4001  -999.2500     6.8727     7.3219
 1212.5000   131.9026  -999.2500     6.8726     7.3217
 1212.6000   132.3539  -999.2500     6.8725     7.3215
 1212.7000   132.6041  -999.2500     6.8724     7.3213
 1212.8000   132.9009  -999.2500     6.8723     7.3211
 1212.9000   133.3107  -999.2500     6.8722     7.3209
 1213.0000   133.6566  -999.2500     6.8721     7.2981
 1213.1000   133.6919  -999.2500     6.8720     7.2699
 1213.2000   133.4964  -999.2500     6.8719     7.2634
 1213.3000   133.4653  -999.2500     6.8719     7.2193
 1213.4000   132.5889  -999.2500     6.8568     7.2191
 1213.5000   132.3745  -999.2500     6.8242     7.2189
 1213.6000   131.7926  -999.2500     6.8241     7.1946
 1213.7000   131.2640  -999.2500     6.8240     7.1686
 1213.8000   130.9444  -999.2500     6.7919     7.1685
 1213.9000   130.4548  -999.2500     6.7767     7.1683
 1214.0000   130.1685  -999.2500     6.7767     7.1185
 1214.1000   130.1669  -999.2500     6.7766     7.1184
 1214.2000   130.3361  -999.2500     6.7746     7.1181
 1214.3000   130.7085  -999.2500     6.7296     7.1004
 1214.4000   131.1381  -999.2500     6.7295     7.0686
 1214.5000   131.4373  -999.2500     6.7294     7.0666
 1214.6000   132.2661  -999.2500     6.7294     7.0194
 1214.7000   132.4918  -999.2500     6.7293     7.0192
 1214.8000   132.9205  -999.2500     6.7291     7.0190
 1214.9000   133.2937  -999.2500     6.7290     7.0188
 1215.0000   133.4638  -999.2500     6.7289     7.0073
 1215.1000   133.4621  -999.2500     6.7288     6.9700
 1215.2000   133.4601  -999.2500     6.7288     6.9697
 1215.3000   132.9893  -999.2500     6.7287     6.9695
 1215.4000   132.6687  -999.2500     6.7286     6.9694
 1215.5000   132.4148  -999.2500     6.7285     6.9692
 1215.6000   131.9856  -999.2500     6.7284     6.9690
 1215.7000   131.3041  -999.2500     6.7283     6.9688
 1215.8000   131.0397  -999.2500     6.7282     6.9686
 1215.9000   130.7962  -999.2500     6.7281     6.9684
 1216.0000   130.7350  -999.2500     6.7280     6.9986
 1216.1000   130.8770  -999.2500     6.7279     7.0165
 1216.2000   131.3172  -999.2500     6.7278     7.0163
 1216.3000   132.0259  -999.2500     6.7277     7.0161
 1216.4000   132.5349  -999.2500     6.7527     7.0159
 1216.5000   133.0310  -999.2500     6.7743     7.0157
 1216.6000   133.5336  -999.2500     6.7742     7.0479
 1216.7000   133.8852  -999.2500     6.7741     7.0641
 1216.8000   134.1357  -999.2500     6.7740     7.0807
 1216.9000   134.3863  -999.2500     6.8088     7.1218
 1217.0000   134.6326  -999.2500     6.8209     7.1621
 1217.1000   134.6304  -999.2500     6.8208     7.1619
 1217.2000   134.6290  -999.2500     6.8207     7.1965
 1217.3000   134.4688  -999.2500     6.8206     7.2382
 1217.4000   134.1056  -999.2500     6.8205     7.2612
 1217.5000   133.6596  -999.2500     6.8204     7.2720
 1217.6000   133.3834  -999.2500     6.8499     7.3114
 1217.7000   132.5112  -999.2500     6.8677     7.3111
 1217.8000   132.2953  -999.2500     6.8676     7.3483
 1217.9000   132.2066  -999.2500     6.8675     7.3616
 1218.0000   132.0884  -999.2500     6.8674     7.3614
 1218.1000   131.8343  -999.2500     6.8672     7.3741
 1218.2000   131.5802  -999.2500     6.8671     7.4122
 1218.3000   131.2956  -999.2500     6.8913     7.4119
 1218.4000   131.0722  -999.2500     6.9147     7.4117
 1218.5000   130.9910  -999.2500     6.9146     7.4116
 1218.6000   130.8655  -999.2500     6.9145     7.4114
 1218.7000   130.6862  -999.2500     6.9144     7.4111
 1218.8000   130.6586  -999.2500     6.9143     7.4110
 1218.9000   130.3811  -999.2500     6.9142     7.4107
 1219.0000   130.1507  -999.2500     6.9141     7.4105
 1219.1000   130.0765  -999.2500     6.9252     7.4103
 1219.2000   130.0747  -999.2500     6.9620     7.4101
 1219.3000   129.9908  -999.2500     6.9619     7.4099
 1219.4000   129.7699  -999.2500     6.9618     7.4013
 1219.5000   129.7680  -999.2500     6.9330     7.3583
 1219.6000   129.7663  -999.2500     6.9136     7.3581
 1219.7000   129.7644  -999.2500     6.9135     7.3579
 1219.8000   129.7626  -999.2500     6.9134     7.3577
 1219.9000   129.7608  -999.2500     6.9133     7.3392
 1220.0000   129.7190  -999.2500     6.9131     7.3065
 1220.1000   129.4560  -999.2500     6.9130     7.3063
 1220.2000   129.2110  -999.2500     6.9130     7.3061
 1220.3000   128.9570  -999.2500     6.8975     7.3059
 1220.4000   128.8482  -999.2500     6.8651     7.3057
 1220.5000   128.7498  -999.2500     6.8650     7.2855
 1220.6000   128.5434  -999.2500     6.8649     7.2548
 1220.7000   128.5416  -999.2500     6.8648     7.2546
 1220.8000   128.5398  -999.2500     6.8646     7.2544
 1220.9000   128.3363  -999.2500     6.8473     7.2542
 1221.0000   128.2349  -999.2500     6.8172     7.2243
 1221.1000   128.1296  -999.2500     6.8170     7.2037
 1221.2000   127.9301  -999.2500     6.8169     7.2035
 1221.3000   127.9337  -999.2500     6.7826     7.1977
 1221.4000   128.2274  -999.2500     6.7697     7.1534
 1221.5000   128.2259  -999.2500     6.7696     7.1532
 1221.6000   128.3840  -999.2500     6.7695     7.1530
 1221.7000   128.5235  -999.2500     6.7651     7.1528
 1221.8000   128.5837  -999.2500     6.7226     7.1374
 1221.9000   128.8468  -999.2500     6.7225     7.1030
 1222.0000   129.4214  -999.2500     6.7224     7.1028
 1222.1000   129.6359  -999.2500     6.7013     7.0621
 1222.2000   129.8863  -999.2500     6.6759     7.0534
 1222.3000   130.3727  -999.2500     6.6758     7.0286
 1222.4000   131.0583  -999.2500     6.6757     7.0042
 1222.5000   131.5611  -999.2500     6.6756     6.9952
 1222.6000   132.1215  -999.2500     6.6755     6.9555
 1222.7000   132.7894  -999.2500     6.6524     6.9553
 1222.8000   133.3704  -999.2500     6.6293     6.9551
 1222.9000   133.9987  -999.2500     6.6292     6.9290
 1223.0000   134.6004  -999.2500     6.6290     6.9067
 1223.1000   134.9058  -999.2500     6.6289     6.9065
 1223.2000   135.7251  -999.2500     6.5968     6.9063
 1223.3000   135.9540  -999.2500     6.5830     6.9061
 1223.4000   136.5672  -999.2500     6.5656     6.9060
 1223.5000   137.0571  -999.2500     6.5273     6.8782
 1223.6000   137.3911  -999.2500     6.4922     6.8578
 1223.7000   137.8592  -999.2500     6.4921     6.8576
 1223.8000   138.1240  -999.2500     6.4920     6.8575
 1223.9000   138.1223  -999.2500     6.4657     6.8573
 1224.0000   138.1205  -999.2500     6.4471     6.8571
 1224.1000   137.9788  -999.2500     6.4470     6.8569
 1224.2000   137.8156  -999.2500     6.4469     6.8567
 1224.3000   137.7720  -999.2500     6.4468     6.8565
 1224.4000   137.5108  -999.2500     6.4467     6.8563
 1224.5000   137.2641  -999.2500     6.4466     6.8561
 1224.6000   137.2060  -999.2500     6.4466     6.8559
 1224.7000   137.0572  -999.2500     6.4326     6.8558
 1224.8000   136.9012  -999.2500     6.4019     6.8556
 1224.9000   136.8994  -999.2500     6.4018     6.8398
 1225.0000   136.8976  -999.2500     6.4017     6.8078
 1225.1000   136.5942  -999.2500     6.4016     6.8076
 1225.2000   136.1862  -999.2500     6.4014     6.8074
 1225.3000   135.9886  -999.2500     6.4014     6.8073
 1225.4000   135.8815  -999.2500     6.4013     6.8071
 1225.5000   135.6274  -999.2500     6.4012     6.8069
 1225.6000   135.3736  -999.2500     6.4011     6.8067
 1225.7000   135.0774  -999.2500     6.4010     6.8065
 1225.8000   134.8653  -999.2500     6.4009     6.8063
 1225.9000   134.6114  -999.2500     6.3832     6.8062
 1226.0000   134.3575  -999.2500     6.3566     6.8059
 1226.1000   134.0400  -999.2500     6.3565     6.8057
 1226.2000   133.5484  -999.2500     6.3564     6.8056
 1226.3000   133.2594  -999.2500     6.3230     6.8054
