~VERSION INFORMATION
 VERS.                2.0:   CWLS LOG ASCII STANDARD - VERSION 2.0
 WRAP.                 NO:   ONE LINE PER DEPTH STEP
~WELL INFORMATION
#MNEM.UNIT      DATA TYPE    INFORMATION
#----------   ------------   ------------------------------
 STRT.F            0.0000:   START DEPTH
 STOP.F          546.0000:   STOP DEPTH
 STEP.F            0.5000:   STEP LENGTH
 NULL.          -999.2500:   NO VALUE
 COMP. LAWRENCE/ALLISON INC:   COMPANY
 WELL.   NPR 3 #76-21SX10:   WELL
 FLD .             TEAPOT:   FIELD
 LOC .      S10 T38N R78W:   LOCATION
 CNTY.            NATRONA:   COUNTY
 STAT.            WYOMING:   STATE
 CTRY. UNITED STATES OF AMERICA:   COUNTRY
 SRVC.      Dresser Atlas:   SERVICE COMPANY
 DATE.        22-JUL-1984:   LOGDATE
 API .       490251097000:   API NUMBER
~CURVE INFORMATION
#MNEM.UNIT       API CODE    CURVE DESCRIPTION
#----------   ------------   ------------------------------
 DEPT.F                  :   
 CALD.IN     45 280 60 00:   CALIPER FROM DENSITY LOG
 DEN .G/C3   45 350 01 00:   COMPENSATED BULK DENSTIY
 CORR.G/C3   45 356 01 00:   DENSITY CORRECTION
 DPHI.DEC    45 890 12 00:   POROSITY DENSITY SANDSTONE
 CNC .DEC    42 890 03 00:   NEUTRON POROSITY SANDSTONE
 GRR .GAPI   07 310 01 00:   GAMMA RAY
 SPR .MV     07 010 01 00:   SPONTANEOUS POTENTIAL
 RILD.OHMM   07 120 46 00:   INDUCTION LOG DEEP RESISTIVITY
 RILM.OHMM   07 120 44 00:   INDUCTION LOG MEDIUM RESISTIVITY
 RFOC.OHMM   07 220 04 00:   RESISTIVITY FOCUSED LOG
 AC  .US/F   60 520 00 00:   ACCOUSTIC
~PARAMETER INFORMATION
#MNEM.UNIT          VALUE    DESCRIPTION
#----------   ------------   ------------------------------
 PD  .                 GL:   PERMANENT DATUM
 EPD .F              5167:   ELEVATION PERMANENT DATUM
 LMF .                 GL:   LOG MEASURED FROM
 DMF .                 GL:   DRILLING MEASURED FROM
 EGL .F              5167:   GROUND LEVEL
 DATE.        22-JUL-1984:   RUN DATE
 RUN .                  1:   RUN NUMBER
 DD  .F               551:   DEPTH DRILLER
 DL  .F               547:   DEPTH LOGGER
 BLI .F               544:   BOTTOM LOG INTERVAL
 CS  .IN            9.625:   CASING SIZE
 CBD .F                40:   CASING BOTTOM DRILLER
 CBL .F                42:   CASING BOTTOM LOGGER
 BS  .IN            7.875:   BIT SIZE
 BSD .F               551:   BIT SIZE AT DEPTH
 DFT .        KCL POLYMER:   DRILLING FLUID TYPE
 MSS .           FLOWLINE:   MUD SAMPLE SOURCE
 RMS .OHMM           .193:   RESISTIVITY MUD SAMPLE
 MST .F                75:   MUD SAMPLE TEMPERATURE
 RMF .OHMM           .144:   RESISTIVITY MUD FILTRATE SAMPLE
 MFST.F                75:   MUD FILTRATE SAMPLE TEMPERATURE
 RMC .OHMM            .24:   RESISTIVITY MUD CAKE
 MCST.F                74:   MUD CAKE SAMPLE TEMPERATURE
 MFSS.               CALC:   MUD FILTRATE SAMPLE SOURCE
 MCSS.               CALC:   MUD CAKE SAMPLE SOURCE
 TCS .HRS               5:   TIME CURCULATED STOPPED
 MRT .F                90:   MAXIMUM RECORDED TEMPERATURE
 LUN .               6274:   LOGGING UNIT NUMBER
 LUL .               GLTE:   LOGGING UNIT LOCATION
 ENGI.             RAUTIO:   RECORDING ENGINEER
 WITN.              FIVAS:   WITNESSED BY
 CLNT.            A2DTECH:   CLIENT CODE
 ORIG.       2", 5" PRINT:   ORIGIN OF DATA
 UWI .       490251097000:   UNIQUE WELL ID
 DICO. A2D Technologies, Inc.:   DIGITIZING COMPANY
~OTHER INFORMATION
~A    DEPT    CALD        DEN       CORR       DPHI        CNC         GRR       SPR       RILD       RILM       RFOC         AC   
# ...
  305.0000     8.2080     2.5050     0.0240     0.0830     0.1970    72.6630     6.1110    21.7640    15.6890    28.1950    76.9650
  305.5000     8.2080     2.5210     0.0310     0.0790     0.2050    73.9340     5.6580    20.8000    15.0540    26.2170    77.6840
  306.0000     8.2080     2.5140     0.0530     0.0820     0.2150    77.0180     5.1340    19.4150    14.5860    22.7380    80.4400
  306.5000     8.2080     2.4880     0.0780     0.0990     0.2260    79.4830     4.6030    18.4240    14.1280    19.5230    85.1240
  307.0000     8.2080     2.4620     0.0690     0.1110     0.2370    80.2910     4.0120    17.7890    13.6700    17.8840    87.0790
  307.5000     8.2080     2.4420     0.0550     0.1260     0.2480    81.0350     3.1710    17.1530    13.2630    16.8040    89.9210
  308.0000     8.2080     2.4260     0.0420     0.1340     0.2540    83.2120     2.3500    16.5180    13.0850    16.9940    92.5100
  308.5000     8.2080     2.4150     0.0400     0.1400     0.2550    83.3390     1.5290    16.1990    13.0180    17.2720    93.4360
  309.0000     8.2080     2.4090     0.0470     0.1450     0.2490    82.8220     0.6970    16.1990    13.0010    17.2950    93.9620
  309.5000     8.2080     2.4090     0.0540     0.1460     0.2370    82.9470     0.3190    16.1990    13.0010    17.3190    94.3430
  310.0000     8.2080     2.4100     0.0530     0.1440     0.2260    83.7840     0.0610    16.1990    13.0010    17.3430    94.7240
  310.5000     8.2080     2.4030     0.0370     0.1470     0.2310    85.1880    -0.2650    16.1990    13.0010    17.3670    94.9990
  311.0000     8.2080     2.3930     0.0220     0.1520     0.2380    85.8530    -0.8340    16.1420    13.0010    17.3910    95.0750
  311.5000     8.2080     2.3850     0.0130     0.1590     0.2440    83.7220    -1.0810    15.9770    12.9030    17.4150    94.8940
  312.0000     8.2080     2.3840     0.0140     0.1610     0.2470    80.4750    -1.0770    15.8120    12.7990    17.4310    94.7020
  312.5000     8.2080     2.3900     0.0220     0.1580     0.2450    79.0740    -0.9670    15.6470    12.6950    16.9920    94.3080
  313.0000     8.2080     2.3930     0.0310     0.1560     0.2380    81.2490    -0.5720    15.4730    12.5700    16.6510    93.5380
  313.5000     8.2080     2.3970     0.0280     0.1550     0.2310    83.5970    -0.1840    15.3090    12.4270    16.2810    92.8470
  314.0000     8.2080     2.4020     0.0240     0.1520     0.2280    84.5390  -999.2500    15.1360    12.2840    15.8920    92.5980
  314.5000     8.2080     2.4090     0.0200     0.1480     0.2350    84.5120  -999.2500    14.9630    12.1930    15.3320    92.6540
  315.0000     8.2080     2.4080     0.0160     0.1450     0.2410    85.7750  -999.2500    14.7900    12.1930    15.5100    92.9530
  315.5000     8.2080     2.4000     0.0130     0.1490     0.2430    87.3740  -999.2500    14.6340    12.1180    15.8290    93.2520
  316.0000     8.2370     2.3930     0.0130     0.1540     0.2400    87.7050  -999.2500    14.5600    11.9110    16.1990    93.3060
  316.5000     8.2970     2.3940     0.0120     0.1570     0.2430    87.7110     0.4590    14.4860    11.8010    16.0860    92.8340
  317.0000     8.3230     2.4060     0.0120     0.1480     0.2440    87.5870     0.1650    14.4120    11.7200    15.7960    92.3610
  317.5000     8.3150     2.4260     0.0220     0.1370     0.2440    86.5830    -0.2250    14.3140    11.6390    15.4630    91.8890
  318.0000     8.3070     2.4370     0.0330     0.1270     0.2370    84.6410    -0.9040    14.1990    11.5400    15.1300    91.5300
  318.5000     8.3090     2.4430     0.0390     0.1250     0.2420    83.0160    -1.5930    14.0840    11.7210    15.0540    91.6950
  319.0000     8.3110     2.4450     0.0380     0.1230     0.2470    83.5990    -2.2810    13.9900    11.9540    15.0540    91.9580
  319.5000     8.3120     2.4510     0.0410     0.1200     0.2470    84.9570    -2.9690    13.9900    12.1930    15.0540    92.2200
  320.0000     8.3140     2.4510     0.0450     0.1190     0.2370    86.6280    -3.6570    13.9900    12.4020    15.2660    92.4880
  320.5000     8.3160     2.4470     0.0490     0.1210     0.2380    92.8190    -4.3500    14.2040    12.3080    15.4820    92.8130
  321.0000     8.3180     2.4430     0.0550     0.1250     0.2390    92.8150    -4.6310    14.4230    12.0180    15.7160    93.1460
  321.5000     8.3200     2.4410     0.0620     0.1260     0.2320    90.5620    -4.6320    14.6460    11.7280    15.9780    93.4780
  322.0000     8.3220     2.4400     0.0630     0.1270     0.2210    86.5590    -4.6310    14.7010    11.4350    16.3480    93.6820
  322.5000     8.3240     2.4400     0.0580     0.1270     0.2230    84.1820    -4.5740    14.7800    11.3840    16.2550    93.5400
  323.0000     8.3260     2.4470     0.0540     0.1240     0.2270    83.0820    -4.2450    14.6110    11.3310    16.0960    93.2990
  323.5000     8.3270     2.4530     0.0610     0.1200     0.2320    81.5060    -3.9280    14.3100    11.0790    15.9050    93.0590
  324.0000     8.3290     2.4550     0.0680     0.1170     0.2320    80.0930    -3.2830    13.9520    10.8230    15.9480    92.8180
  324.5000     8.3310     2.4510     0.0700     0.1180     0.2310    79.8540    -2.4740    13.7360    10.7740    16.0510    92.5770
  325.0000     8.3330     2.4470     0.0710     0.1210     0.2350    82.0390    -1.4800    13.8970    10.7250    15.8130    92.3370
  325.5000     8.3350     2.4470     0.0670     0.1230     0.2400    85.3010    -0.4840    14.1650    11.1300    15.4150    92.1750
  326.0000     8.3370     2.4470     0.0490     0.1220     0.2440    87.9510  -999.2500    14.3800    11.8990    15.0170    92.0320
  326.5000     8.3390     2.4510     0.0320     0.1210     0.2440    84.6710  -999.2500    14.2920    12.7650    14.6600    91.8910
  327.0000     8.3410     2.4540     0.0310     0.1190     0.2430    79.9030  -999.2500    14.0710    12.5330    14.3640    91.9600
  327.5000     8.3420     2.4580     0.0350     0.1160     0.2430    79.9430  -999.2500    13.6370    11.0240    14.2200    92.0290
  328.0000     8.3440     2.4620     0.0360     0.1140     0.2450    81.7150  -999.2500    13.1200     9.5200    14.1740    92.0990
  328.5000     8.3470     2.4630     0.0320     0.1130     0.2480    84.9950     0.6760    13.2440     8.4510    14.1180    92.1680
  329.0000     8.3200     2.4640     0.0380     0.1120     0.2580    86.7120     0.4920    13.4310     8.7950    14.1480    92.2370
  329.5000     8.2900     2.4660     0.0460     0.1110     0.2640    88.2250     0.1820    13.7450    10.0320    14.1840    92.3060
  330.0000     8.2650     2.4630     0.0510     0.1110     0.2660    88.4800    -0.0290    14.0720    11.2680    14.2200    92.3760
  330.5000     8.2570     2.4540     0.0340     0.1170     0.2550    87.9050    -0.1160    14.4460    12.5050    14.3410    92.7970
  331.0000     8.2490     2.4440     0.0180     0.1240     0.2500    87.3360     0.2410    15.5690    13.7410    14.7590    93.5060
  331.5000     8.2410     2.4300     0.0140     0.1310     0.2540    87.0090     0.4330    16.9590    14.9780    15.9820    94.8760
  332.0000     8.2330     2.3990     0.0120     0.1470     0.2570    84.6370     1.1860    18.6080    16.8040    18.9850    97.2620
  332.5000     8.2250     2.3670     0.0370     0.1660     0.2570    81.8570     1.9410    20.9200    18.2250    23.9050    99.5390
  333.0000     8.2170     2.3360     0.0560     0.1850     0.2610    78.8890     2.3900    23.1590    18.9430    28.1260   101.8050
  333.5000     8.2080     2.3110     0.0490     0.2030     0.2700    73.7970     2.8550    26.3290    19.6370    32.7440   103.6320
  334.0000     8.2130     2.2970     0.0330     0.2130     0.2830    68.7670     3.7020    30.6490    19.6370    33.7210   104.0000
  334.5000     8.2180     2.2910     0.0180     0.2170     0.2800    65.8910     5.2450    33.0780    21.5140    33.8360   103.9930
  335.0000     8.2220     2.2910     0.0280     0.2170     0.2740    67.6710     6.0130    34.8560    23.5780    34.3210   103.7630
