~VERSION INFORMATION
 VERS.                2.0:   CWLS LOG ASCII STANDARD - VERSION 2.0
 WRAP.                 NO:   ONE LINE PER DEPTH STEP
~WELL INFORMATION
#MNEM.UNIT      DATA TYPE    INFORMATION
#----------   ------------   ------------------------------
 STRT.F           29.0000:   START DEPTH
 STOP.F          503.0000:   STOP DEPTH
 STEP.F            0.5000:   STEP LENGTH
 NULL.          -999.2500:   NO VALUE
 COMP. FENIX & SCISSON INC:   COMPANY
 WELL.      78 SX 3 #78-3:   WELL
 FLD .             TEAPOT:   FIELD
 LOC .       S3 T38N R78W:   LOCATION
 CNTY.            NATRONA:   COUNTY
 STAT.            WYOMING:   STATE
 CTRY. UNITED STATES OF AMERICA:   COUNTRY
 SRVC.            Unknown:   SERVICE COMPANY
 DATE.        17-OCT-1978:   LOGDATE
 API .       490251072400:   API NUMBER
~CURVE INFORMATION
#MNEM.UNIT       API CODE    CURVE DESCRIPTION
#----------   ------------   ------------------------------
 DEPT.F                  :   
 CALD.IN     45 280 60 00:   CALIPER
 GRD .GAPI   45 310 01 00:   GAMMA RAY FROM DENSITY LOG
 CORR.G/C3   45 356 01 00:   DENSITY CORRECTION
 RHOB.G/C3   45 350 01 00:   BULK DENSITY
 DPHI.DEC    45 890 12 00:   DENSITY POROSITY SANDSTONE
 SPR .MV     05 010 01 00:   SPONTANEOUS POTENTIAL FROM RES.
 IL  .OHMM   05 120 00 00:   INDUCTION LOG
 SN  .OHMM   05 040 16 00:   SHORT NORMAL 16"
~PARAMETER INFORMATION
#MNEM.UNIT          VALUE    DESCRIPTION
#----------   ------------   ------------------------------
 PD  .                 GL:   PERMANENT DATUM
 EPD .F              5154:   ELEVATION PERMANENT DATUM
 LMF .                 KB:   LOG MEASURED FROM
 DAPD.F                 4:   FEET ABOVE PERMANENT DATUM
 DMF .                 KB:   DRILLING MEASURED FROM
 EKB .F              5158:   KELLING BUSHING
 EGL .F              5154:   GROUND LEVEL
 DATE.           10-17-78:   RUN DATE
 RUN .                  1:   RUN NUMBER
 DD  .F               498:   DEPTH DRILLER
 DL  .F               503:   DEPTH LOGGER
 BLI .F               497:   BOTTOM LOG INTERVAL
 TLI .F                46:   TOP LOG INTERVAL
 CS  .IN            8.625:   CASING SIZE
 CBD .F                40:   CASING BOTTOM DRILLER
 BS  .IN            7.875:   BIT SIZE
 BSD .F               498:   BIT SIZE AT DEPTH
 DFT .                KCL:   DRILLING FLUID TYPE
 DFD .                8.7:   DRILLING FLUID DENSITY
 DFV .                 38:   DRILLING FLUID VISCOSITY
 DFPH.                  9:   DRILLING FLUID PH
 DFL .                9.6:   DRILLING FLUID LOSS
 MSS .          FLOW LINE:   MUD SAMPLE SOURCE
 RMS .OHMM             .2:   RESISTIVITY MUD SAMPLE
 MST .F                52:   MUD SAMPLE TEMPERATURE
 RMF .OHMM            .18:   RESISTIVITY MUD FILTRATE SAMPLE
 MFST.F                58:   MUD FILTRATE SAMPLE TEMPERATURE
 RMC .OHMM            .16:   RESISTIVITY MUD CAKE
 MCST.F                64:   MUD CAKE SAMPLE TEMPERATURE
 MFSS.               MEAS:   MUD FILTRATE SAMPLE SOURCE
 MCSS.               MEAS:   MUD CAKE SAMPLE SOURCE
 TCS .HRS               1:   TIME CURCULATED STOPPED
 MRT .F                72:   MAXIMUM RECORDED TEMPERATURE
 LUN .               2958:   LOGGING UNIT NUMBER
 LUL .               CASP:   LOGGING UNIT LOCATION
 ENGI.             MILLER:   RECORDING ENGINEER
 WITN.           DINSMORE:   WITNESSED BY
 CLNT.            A2DTECH:   CLIENT CODE
 ORIG.           5" PRINT:   ORIGIN OF DATA
 UWI .       490251072400:   UNIQUE WELL ID
 DICO. A2D Technologies, Inc.:   DIGITIZING COMPANY
~OTHER INFORMATION
~A   DEPT     CALD         GRD      CORR       RHOB       DPHI        SPR         IL         SN   
# ...
  393.5000     7.9703    85.6379     0.0296     2.4536     0.1260    -5.5513    14.9340    10.2025
  394.0000     7.9706    86.3154     0.0321     2.4634     0.1201    -5.9283    14.7588    10.3919
  394.5000     7.9710    85.0815     0.0322     2.4731     0.1142    -7.2240    14.5857    10.3406
  395.0000     7.9713    79.3796     0.0318     2.4803     0.1097    -7.6338    14.4146    10.2982
  395.5000     7.9716    76.0568     0.0314     2.4851     0.1066    -7.6405    14.2455    10.2557
  396.0000     7.9720    77.5414     0.0310     2.4898     0.1052    -7.6396    14.0784    10.2135
  396.5000     7.9723    79.1970     0.0306     2.4946     0.1046    -7.6389    13.9132    10.1715
  397.0000     7.9727    79.4179     0.0298     2.4970     0.1040    -7.6389    13.7495    10.1297
  397.5000     7.9730    77.9416     0.0271     2.4979     0.1040    -7.6389    13.6333    10.0881
  398.0000     7.9734    77.4336     0.0245     2.4952     0.1053    -7.6390    13.5406    10.0466
  398.5000     7.9737    77.3202     0.0219     2.4885     0.1099    -7.6378    13.4487     9.9532
  399.0000     7.9740    77.2158     0.0193     2.4772     0.1127    -7.6435    13.3574     9.7252
  399.5000     7.9747    77.1131     0.0167     2.4743     0.1140    -7.4082    13.2667     9.5023
  400.0000     7.9803    77.0205     0.0166     2.4786     0.1132    -7.4038    13.1766     9.3920
  400.5000     7.9858    76.9337     0.0167     2.4828     0.1107    -7.6533    13.0786     9.3920
  401.0000     7.9913    77.1712     0.0168     2.4872     0.1082    -7.6773    13.1191     9.3920
  401.5000     7.9968    79.5940     0.0170     2.4919     0.1057    -7.7087    13.1641     9.3920
  402.0000     8.0022    82.0094     0.0171     2.4971     0.1041    -7.7388    13.2092     9.3920
  402.5000     8.0077    83.7198     0.0172     2.4965     0.1045    -7.7690    13.2547     9.3920
  403.0000     8.0132    83.6517     0.0173     2.4948     0.1048    -7.7989    13.3212     9.3920
  403.5000     8.0187    83.6234     0.0175     2.4931     0.1052    -7.8260    13.3008     9.3920
  404.0000     8.0241    83.5886     0.0176     2.4915     0.1050    -8.0400    13.2604     9.3920
  404.5000     8.0296    83.5540     0.0177     2.4898     0.1048    -8.3105    13.2205     9.3920
  405.0000     8.0351    83.5223     0.0179     2.4890     0.1045    -8.5842    13.1807     9.3920
  405.5000     8.0405    83.6925     0.0180     2.4915     0.1040    -8.8719    13.1411     9.3920
  406.0000     8.0460    84.8750     0.0181     2.4961     0.1029    -9.5596    13.1016     9.3920
  406.5000     8.0515    85.9921     0.0183     2.5001     0.1022    -9.7157    13.0622     9.3920
  407.0000     8.0569    86.8082     0.0184     2.5000     0.1034    -9.7920    13.0230     9.3920
  407.5000     8.0624    87.5901     0.0184     2.5000     0.1046    -9.8755    12.9838     9.3920
  408.0000     8.0679    88.0527     0.0184     2.5000     0.1054    -9.9604    12.9047     9.3920
  408.5000     8.0735    88.5268     0.0184     2.5018     0.1043   -10.0453    12.7566     9.3920
  409.0000     8.0733    88.9986     0.0184     2.5037     0.1032   -10.1303    12.6103     9.3920
  409.5000     8.0716    89.3446     0.0184     2.5035     0.1020   -10.2153    12.4653     9.3920
  410.0000     8.0699    89.5964     0.0184     2.4995     0.1037   -10.3001    12.3225     9.3919
  410.5000     8.0682    89.8585     0.0184     2.4955     0.1055   -10.3858    12.1508     9.3842
  411.0000     8.0665    89.8528     0.0184     2.4915     0.1072   -10.4162    12.2985     9.3635
  411.5000     8.0648    88.7815     0.0184     2.4888     0.1086   -10.4168    12.4892     9.3431
  412.0000     8.0631    86.8761     0.0184     2.4882     0.1098   -10.4167    12.6062     9.3224
  412.5000     8.0615    84.9996     0.0184     2.4877     0.1110   -10.4167    12.4416     9.2880
  413.0000     8.0598    83.5099     0.0184     2.4869     0.1123   -10.4162    12.1978     9.1981
  413.5000     8.0581    83.9650     0.0185     2.4806     0.1135   -10.4165    11.9587     9.1091
  414.0000     8.0564    84.6353     0.0220     2.4771     0.1083   -10.4220    11.7236     9.0206
  414.5000     8.0547    85.7864     0.0307     2.4815     0.0989   -10.6975    11.4973     8.9693
  415.0000     8.0530    87.2179     0.0393     2.4996     0.0919   -11.2986    11.5346     8.9698
  415.5000     8.0513    88.6685     0.0424     2.5081     0.0935   -11.6077    11.5791     8.9698
  416.0000     8.0496    88.9016     0.0377     2.5034     0.0950   -11.6069    11.6046     8.8924
  416.5000     8.0479    88.9033     0.0330     2.4987     0.0965   -11.6058    11.1815     8.7701
  417.0000     8.0462    88.9004     0.0280     2.4997     0.0980   -11.6052    10.8927     8.6495
  417.5000     8.0445    88.9000     0.0266     2.5017     0.0994   -11.7072    10.6119     8.5305
  418.0000     8.0428    88.9000     0.0267     2.5017     0.1004   -12.5541    10.3386     8.4131
  418.5000     8.0411    88.8996     0.0268     2.5015     0.1014   -12.6051    10.2676     8.2974
  419.0000     8.0394    88.8974     0.0270     2.5011     0.1023   -12.5996    10.2226     8.1833
  419.5000     8.0377    88.9013     0.0271     2.4994     0.1033   -12.5978    10.1777     8.0708
  420.0000     8.0360    89.1063     0.0273     2.4958     0.1043   -12.6675    10.1331     7.9601
  420.5000     8.0344    90.0538     0.0274     2.4922     0.1047   -13.1891    10.0955     7.8490
  421.0000     8.0326    90.9351     0.0276     2.4921     0.1051   -14.0105    10.0438     7.6712
  421.5000     8.0310    92.7325     0.0277     2.4937     0.1068   -13.9907     9.6495     7.4615
  422.0000     8.0293    94.6137     0.0279     2.4945     0.1093   -13.9882     8.9128     7.2577
  422.5000     8.0276    96.4998     0.0280     2.4840     0.1161   -13.9881     8.2323     7.0594
  423.0000     8.0259    98.3808     0.0282     2.4737     0.1235   -13.9881     7.6030     6.8815
  423.5000     8.0242   100.2638     0.0284     2.4640     0.1326   -13.9881     7.0203     6.6472
  424.0000     8.0225   102.1892     0.0337     2.4343     0.1464   -13.9881     6.6828     6.4210
  424.5000     8.0208   104.6848     0.0444     2.4063     0.1531   -13.9881     6.7222     6.2661
  425.0000     8.0191   109.4181     0.0557     2.4058     0.1408   -13.9881     6.7667     6.2661
  425.5000     8.0174   114.6380     0.0543     2.4764     0.1212   -13.9881     6.8322     6.3243
  426.0000     8.0157   120.0510     0.0488     2.4978     0.1021   -13.9881     7.0820     6.5287
  426.5000     8.0140   119.5187     0.0432     2.5172     0.0848   -13.9881     7.4548     7.0293
  427.0000     8.0123   112.0533     0.0376     2.5237     0.0868   -13.9881     8.1196     7.5683
  427.5000     8.0106   103.9481     0.0318     2.5201     0.0884   -13.9879     8.8437     8.0532
  428.0000     8.0089    98.1665     0.0297     2.5175     0.0886   -13.9880     9.6323     8.3345
  428.5000     8.0072    98.1605     0.0286     2.5159     0.0888   -13.9899    10.2078     8.5785
  429.0000     8.0056    98.0274     0.0276     2.5160     0.0880   -14.0856    10.2488     8.7388
  429.5000     8.0038    97.9137     0.0266     2.5199     0.0820   -14.3139    10.2900     8.8703
  430.0000     8.0022    97.7980     0.0256     2.5258     0.0760   -14.2314    10.3315     9.0025
  430.5000     8.0005    97.7420     0.0246     2.5331     0.0751   -14.0041    10.3728     9.1367
  431.0000     7.9988    98.3613     0.0235     2.5380     0.0760   -13.7809    10.5067     9.2731
  431.5000     7.9971    99.1963     0.0225     2.5359     0.0798   -12.5648    10.7213     9.4114
  432.0000     7.9954    99.6237     0.0215     2.5290     0.0838   -11.4219    10.9404     9.5518
  432.5000     7.9937    97.6068     0.0205     2.5215     0.0872   -10.6216    11.1386     9.6944
  433.0000     7.9920    96.2989     0.0200     2.5195     0.0869   -10.1819    11.2952     9.8390
  433.5000     7.9903    96.3679     0.0195     2.5183     0.0886   -10.1113    11.4541     9.9858
