~VERSION INFORMATION
 VERS.                2.0:   CWLS LOG ASCII STANDARD - VERSION 2.0
 WRAP.                 NO:   ONE LINE PER DEPTH STEP
~WELL INFORMATION
#MNEM.UNIT      DATA TYPE    INFORMATION
#----------   ------------   ------------------------------
 STRT.F           20.0000:   START DEPTH
 STOP.F          930.0000:   STOP DEPTH
 STEP.F            0.5000:   STEP LENGTH
 NULL.          -999.2500:   NO VALUE
 COMP. FENIX & SCISSON INC:   COMPANY
 WELL.     NPR 3 #45-S-14:   WELL
 FLD .        TEAPOT DOME:   FIELD
 LOC .      S14 T38N R78W:   LOCATION
 CNTY.            NATRONA:   COUNTY
 STAT.            WYOMING:   STATE
 CTRY. UNITED STATES OF AMERICA:   COUNTRY
 SRVC.           BIRDWELL:   SERVICE COMPANY
 DATE.        02-JAN-1979:   LOGDATE
 API .       490251076200:   API NUMBER
~CURVE INFORMATION
#MNEM.UNIT       API CODE    CURVE DESCRIPTION
#----------   ------------   ------------------------------
 DEPT.F                  :   
 GRD .GAPI   45 310 01 00:   GAMMA RAY FROM DENSITY LOG
 CALD.IN     45 280 60 00:   CALIPER
 RHOB.G/C3   45 350 01 00:   BULK DENSITY
 DPHI.DEC    45 890 12 00:   DENSITY POROSITY SANDSTONE
 CORR.G/C3   45 356 01 00:   DENSITY CORRECTION
~PARAMETER INFORMATION
#MNEM.UNIT          VALUE    DESCRIPTION
#----------   ------------   ------------------------------
 PD  .                 GL:   PERMANENT DATUM
 EPD .F              5261:   ELEVATION PERMANENT DATUM
 LMF .                 KB:   LOG MEASURED FROM
 DAPD.F                 4:   FEET ABOVE PERMANENT DATUM
 DMF .                 KB:   DRILLING MEASURED FROM
 EKB .F              5265:   KELLING BUSHING
 EGL .F              5261:   GROUND LEVEL
 DATE.             1-7-79:   RUN DATE
 RUN .                  1:   RUN NUMBER
 DD  .F               969:   DEPTH DRILLER
 DL  .F               928:   DEPTH LOGGER
 BLI .F               928:   BOTTOM LOG INTERVAL
 TLI .F                20:   TOP LOG INTERVAL
 CS  .IN            8.625:   CASING SIZE
 CBD .F                40:   CASING BOTTOM DRILLER
 CBL .F                46:   CASING BOTTOM LOGGER
 BS  .IN            7.875:   BIT SIZE
 BSD .F               969:   BIT SIZE AT DEPTH
 DFT .                KCL:   DRILLING FLUID TYPE
 DFD .                8.8:   DRILLING FLUID DENSITY
 DFV .                 42:   DRILLING FLUID VISCOSITY
 DFPH.                9.2:   DRILLING FLUID PH
 DFL .                 10:   DRILLING FLUID LOSS
 MSS .           FLOWLINE:   MUD SAMPLE SOURCE
 RMS .OHMM            .95:   RESISTIVITY MUD SAMPLE
 MST .F                60:   MUD SAMPLE TEMPERATURE
 RMF .OHMM            1.7:   RESISTIVITY MUD FILTRATE SAMPLE
 MFST.F                60:   MUD FILTRATE SAMPLE TEMPERATURE
 RMC .OHMM            1.6:   RESISTIVITY MUD CAKE
 MCST.F                60:   MUD CAKE SAMPLE TEMPERATURE
 MFSS.           MEASURED:   MUD FILTRATE SAMPLE SOURCE
 MCSS.           MEASURED:   MUD CAKE SAMPLE SOURCE
 RMB .OHMM            .98:   RESISTIVITY MUD AT BHT
 BHT .F                58:   BOTTOM HOLE TEMPERATURE
 TCS .HRS               4:   TIME CURCULATED STOPPED
 MRT .F                58:   MAXIMUM RECORDED TEMPERATURE
 LUN .               3006:   LOGGING UNIT NUMBER
 LUL .             CASPER:   LOGGING UNIT LOCATION
 ENGI.            ROLLINS:   RECORDING ENGINEER
 WITN.           DINSMORE:   WITNESSED BY
 CLNT.            A2DTECH:   CLIENT CODE
 ORIG.           5" PRINT:   ORIGIN OF DATA
 UWI .       490251076200:   UNIQUE WELL ID
 DICO. A2D Technologies, Inc.:   DIGITIZING COMPANY
~OTHER INFORMATION
~A   DEPT      GRD         CALD     RHOB       DPHI       CORR   
# ...
  325.0000   101.3050     7.8500     2.2900     0.2620     0.0430
  325.5000   108.1620     7.7930     2.2490     0.2880     0.0450
  326.0000   115.6380     7.7320     2.2080     0.3130     0.0470
  326.5000   122.7590     7.7490     2.1650     0.3390     0.0570
  327.0000   125.6830     7.7680     2.1210     0.3430     0.0680
  327.5000   125.3550     7.7880     2.1150     0.3270     0.0780
  328.0000   121.5870     7.8070     2.1320     0.3060     0.0830
  328.5000   115.6410     7.8280     2.2030     0.2600     0.0730
  329.0000   107.0040     7.7930     2.2770     0.2100     0.0530
  329.5000    98.4360     7.7470     2.3520     0.1770     0.0370
  330.0000    90.9520     7.7000     2.3820     0.1740     0.0270
  330.5000    90.1510     7.7120     2.4100     0.1800     0.0250
  331.0000    90.7770     7.7710     2.3730     0.1840     0.0240
  331.5000    79.0130     7.8360     2.3680     0.1870     0.0240
  332.0000    74.2820     7.8500     2.3640     0.1890     0.0230
  332.5000    72.1040     7.8650     2.3640     0.1890     0.0270
  333.0000    70.9860     7.8740     2.3640     0.1880     0.0330
  333.5000    70.3760     7.8790     2.3640     0.1880     0.0360
  334.0000    73.6790     7.8850     2.3640     0.1870     0.0390
  334.5000    78.8050     7.8900     2.3640     0.1870     0.0350
  335.0000    83.5860     7.8570     2.3640     0.1950     0.0300
  335.5000    91.0760     7.8530     2.3610     0.2170     0.0250
  336.0000    99.2340     7.8550     2.3260     0.2400     0.0280
  336.5000   112.0680     7.8570     2.2900     0.2630     0.0370
  337.0000   109.5340     7.8600     2.2490     0.2490     0.0420
  337.5000   102.1520     7.8620     2.2660     0.2170     0.0430
  338.0000    94.7160     7.8650     2.3190     0.1840     0.0360
  338.5000    87.3030     7.8670     2.3660     0.1790     0.0280
  339.0000    80.2020     7.8690     2.3700     0.1850     0.0240
  339.5000    78.5740     7.8700     2.3680     0.1910     0.0210
  340.0000    80.6630     7.8710     2.3580     0.1970     0.0200
  340.5000    83.1770     7.8120     2.3510     0.2010     0.0220
  341.0000    82.1030     7.8330     2.3480     0.2020     0.0290
  341.5000    80.1310     7.8560     2.3480     0.2010     0.0330
  342.0000    86.0100     7.8590     2.3480     0.2010     0.0350
  342.5000    88.5550     7.8260     2.3510     0.1970     0.0360
  343.0000    83.8810     7.7940     2.3560     0.1890     0.0370
  343.5000    77.2560     7.8360     2.3650     0.1800     0.0390
  344.0000    75.8810     7.8700     2.3740     0.1920     0.0430
  344.5000    78.7730     7.8680     2.3580     0.2020     0.0680
  345.0000    81.9050     7.8670     2.3520     0.1870     0.0810
  345.5000    82.4840     7.8660     2.3580     0.1910     0.0760
  346.0000    82.5390     7.8640     2.3650     0.1920     0.0750
  346.5000    85.2400     7.8630     2.3650     0.1870     0.0740
  347.0000    86.5660     7.8610     2.3750     0.1770     0.0740
  347.5000    90.5680     7.8600     2.3880     0.1660     0.0740
  348.0000    95.1460     7.8580     2.3950     0.1650     0.0730
  348.5000    95.8040     7.8570     2.3990     0.1760     0.0730
  349.0000    93.2930     7.8550     2.3850     0.1850     0.0740
  349.5000    90.0190     7.8540     2.3680     0.1950     0.0820
  350.0000    87.8820     7.8520     2.3550     0.2000     0.0910
  350.5000    86.4590     7.8510     2.3540     0.1960     0.0990
  351.0000    86.6900     7.8290     2.3570     0.1920     0.1050
  351.5000    83.5630     7.7910     2.3640     0.1850     0.1040
  352.0000    83.2170     7.7520     2.3770     0.1790     0.1030
  352.5000    86.1480     7.7140     2.3860     0.1790     0.1020
  353.0000    86.2840     7.7160     2.3860     0.1770     0.1020
  353.5000    86.3690     7.7220     2.3860     0.1590     0.1000
  354.0000    85.3210     7.7280     2.4070     0.1480     0.0880
  354.5000    81.9150     7.7610     2.4280     0.1530     0.0580
  355.0000    78.3630     7.8000     2.4250     0.1670     0.0420
  355.5000    80.5290     7.8380     2.4030     0.1870     0.0420
  356.0000    81.8540     7.8700     2.3660     0.2070     0.0510
  356.5000    82.2980     7.8560     2.3320     0.2150     0.0720
  357.0000    82.6640     7.8030     2.3280     0.2060     0.1030
  357.5000    83.0300     7.7280     2.3430     0.1870     0.1360
  358.0000    83.3430     7.6100     2.3670     0.1690     0.1570
  358.5000    83.2120     7.8570     2.3920     0.1530     0.1670
  359.0000    81.8900     7.8700     2.4110     0.1610     0.1500
  359.5000    79.8860     7.8630     2.4110     0.1750     0.1180
  360.0000    79.4260     7.8600     2.3890     0.1890     0.1070
  360.5000    82.6620     7.8560     2.3610     0.1990     0.1070
  361.0000    85.5590     7.8530     2.3490     0.2050     0.1070
  361.5000    87.3840     7.8370     2.3470     0.2030     0.1070
  362.0000    88.1340     7.7990     2.3500     0.1880     0.1060
  362.5000    91.4120     7.7770     2.3580     0.1870     0.0980
  363.0000    90.4910     7.8130     2.3590     0.1920     0.0910
  363.5000    88.8590     7.8220     2.3540     0.2010     0.0830
  364.0000    89.7140     7.8060     2.3440     0.2080     0.0860
  364.5000    86.0400     7.7910     2.3350     0.2100     0.0840
  365.0000    84.7360     7.7750     2.3330     0.2090     0.0770
  365.5000    85.1350     7.7590     2.3330     0.2090     0.0670
  366.0000    85.9530     7.7430     2.3330     0.2100     0.0570
  366.5000    87.4550     7.7270     2.3360     0.2050     0.0540
  367.0000    88.0430     7.7110     2.3430     0.2000     0.0530
  367.5000    88.5950     7.6950     2.3510     0.1940     0.0480
  368.0000    91.2230     7.7000     2.3600     0.1910     0.0410
  368.5000    91.3370     7.7150     2.3630     0.1910     0.0340
  369.0000    87.4290     7.7310     2.3670     0.1830     0.0300
  369.5000    84.4420     7.7470     2.3740     0.1760     0.0290
  370.0000    86.7580     7.7430     2.3860     0.1690     0.0270
  370.5000    97.2400     7.7340     2.4010     0.1670     0.0280
  371.0000   103.6710     7.7260     2.4070     0.1640     0.0290
  371.5000   108.8960     7.7170     2.4120     0.1590     0.0300
  372.0000   108.8400     7.7120     2.4160     0.1570     0.0310
  372.5000   101.5810     7.7250     2.4160     0.1550     0.0280
  373.0000   100.7100     7.7780     2.4160     0.1550     0.0250
  373.5000   101.8680     7.6900     2.4160     0.1550     0.0230
  374.0000   104.6650     7.8700     2.4160     0.1560     0.0230
  374.5000   107.8290     7.8660     2.4170     0.1580     0.0240
  375.0000   109.0690     7.8700     2.4170     0.1610     0.0240
  375.5000   110.2920     7.8710     2.4170     0.1610     0.0240
  376.0000   111.5690     7.8700     2.4170     0.1600     0.0250
  376.5000   111.8540     7.8700     2.4170     0.1590     0.0250
  377.0000   107.7690     7.8700     2.4200     0.1560     0.0260
  377.5000   109.0120     7.8700     2.4250     0.1530     0.0290
  378.0000   112.0270     7.8700     2.4300     0.1500     0.0320
  378.5000   113.6120     7.8700     2.4330     0.1470     0.0360
  379.0000   113.1320     7.8660     2.4350     0.1460     0.0390
  379.5000   108.5900     7.8610     2.4350     0.1460     0.0380
  380.0000   106.1650     7.8570     2.4350     0.1460     0.0380
  380.5000   105.7000     7.8520     2.4350     0.1440     0.0370
  381.0000   105.6930     7.8470     2.4350     0.1450     0.0320
  381.5000   105.6960     7.8420     2.4330     0.1550     0.0240
  382.0000   105.6020     7.8370     2.4230     0.1660     0.0150
  382.5000   105.4120     7.8320     2.4100     0.1590     0.0180
  383.0000   104.9360     7.8100     2.4120     0.1520     0.0210
  383.5000   104.5220     7.7750     2.4210     0.1510     0.0200
  384.0000   105.2010     7.7390     2.4230     0.1540     0.0180
  384.5000   105.6500     7.7420     2.4230     0.1540     0.0170
  385.0000   105.4480     7.7600     2.4220     0.1530     0.0150
  385.5000   105.3380     7.7900     2.4220     0.1520     0.0140
