~VERSION INFORMATION
 VERS.                2.0:   CWLS LOG ASCII STANDARD - VERSION 2.0
 WRAP.                 NO:   ONE LINE PER DEPTH STEP
~WELL INFORMATION
#MNEM.UNIT      DATA TYPE    INFORMATION
#----------   ------------   ------------------------------
 STRT.F           27.0000:   START DEPTH
 STOP.F          713.0000:   STOP DEPTH
 STEP.F            0.5000:   STEP LENGTH
 NULL.          -999.2500:   NO VALUE
 COMP. FENIX & SCISSON INC:   COMPANY
 WELL.       NPR 3 #44-34:   WELL
 FLD .        TEAPOT DOME:   FIELD
 LOC .      S34 T39N R78W:   LOCATION
 CNTY.            NATRONA:   COUNTY
 STAT.            WYOMING:   STATE
 CTRY. UNITED STATES OF AMERICA:   COUNTRY
 SRVC.           BIRDWELL:   SERVICE COMPANY
 DATE.        24-AUG-1978:   LOGDATE
 API .       490251070000:   API NUMBER
~CURVE INFORMATION
#MNEM.UNIT       API CODE    CURVE DESCRIPTION
#----------   ------------   ------------------------------
 DEPT.F                  :   
 SPR .MV     05 010 01 00:   SPONTANEOUS POTENTIAL FROM RES.
 ILD .OHMM   05 120 46 00:   INDUCTION LOG DEEP
 SN  .OHMM   05 040 16 00:   SHORT NORMAL 16"
 CALD.IN     45 280 60 00:   CALIPER
 GRD .GAPI   45 310 01 00:   GAMMA RAY FROM DENSITY LOG
 DEN .G/C3   45 350 01 00:   COMPENSATED BULK DENSTIY
 DPHI.DEC    45 890 12 00:   DENSITY POROSITY SANDSTONE
 CORR.G/C3   45 356 01 00:   DENSITY CORRECTION
~PARAMETER INFORMATION
#MNEM.UNIT          VALUE    DESCRIPTION
#----------   ------------   ------------------------------
 PD  .                 GL:   PERMANENT DATUM
 EPD .F              5124:   ELEVATION PERMANENT DATUM
 LMF .                 KB:   LOG MEASURED FROM
 DAPD.F                 4:   FEET ABOVE PERMANENT DATUM
 DMF .                 KB:   DRILLING MEASURED FROM
 EKB .F              5128:   KELLING BUSHING
 EGL .F              5124:   GROUND LEVEL
 DATE.            8-24-78:   RUN DATE
 RUN .                  1:   RUN NUMBER
 DD  .F               716:   DEPTH DRILLER
 DL  .F               713:   DEPTH LOGGER
 BLI .F               707:   BOTTOM LOG INTERVAL
 TLI .F                50:   TOP LOG INTERVAL
 CS  .IN            8.625:   CASING SIZE
 CBD .F                40:   CASING BOTTOM DRILLER
 BS  .IN            7.875:   BIT SIZE
 BSD .F               716:   BIT SIZE AT DEPTH
 DFT .            MUD KCL:   DRILLING FLUID TYPE
 DFD .                8.6:   DRILLING FLUID DENSITY
 DFV .                 34:   DRILLING FLUID VISCOSITY
 DFL .                7.4:   DRILLING FLUID LOSS
 MSS .          FLOW LINE:   MUD SAMPLE SOURCE
 RMS .OHMM            .18:   RESISTIVITY MUD SAMPLE
 MST .F                76:   MUD SAMPLE TEMPERATURE
 RMF .OHMM            .16:   RESISTIVITY MUD FILTRATE SAMPLE
 MFST.F                92:   MUD FILTRATE SAMPLE TEMPERATURE
 RMC .OHMM             .3:   RESISTIVITY MUD CAKE
 MCST.F                86:   MUD CAKE SAMPLE TEMPERATURE
 MFSS.               MEAS:   MUD FILTRATE SAMPLE SOURCE
 TCS .HRS               3:   TIME CURCULATED STOPPED
 MRT .F                72:   MAXIMUM RECORDED TEMPERATURE
 LUN .               2958:   LOGGING UNIT NUMBER
 LUL .               CASP:   LOGGING UNIT LOCATION
 ENGI.           REYNOLDS:   RECORDING ENGINEER
 WITN.              AMEND:   WITNESSED BY
 CLNT.            A2DTECH:   CLIENT CODE
 ORIG.           5" PRINT:   ORIGIN OF DATA
 UWI .       490251070000:   UNIQUE WELL ID
 DICO. A2D Technologies, Inc.:   DIGITIZING COMPANY
~OTHER INFORMATION
~A   DEPT      SPR        ILD         SN       CALD         GRD       DEN       DPHI       CORR   
# ...
  675.0000   -63.2167     9.9205     9.9780     8.8244    84.5052     2.4787     0.1392     0.0277
  675.5000   -63.3518     9.7838     9.9304     8.8589    83.7050     2.4720     0.1384     0.0282
  676.0000   -63.4865     9.6490     9.8830     8.8800    82.9607     2.4722     0.1354     0.0286
  676.5000   -63.6160     9.5472     9.8359     8.8847    83.7553     2.4762     0.1323     0.0290
  677.0000   -63.9305     9.4904     9.7890     8.8895    86.5836     2.4803     0.1312     0.0297
  677.5000   -64.2786     9.4338     9.7424     8.8942    87.7449     2.4804     0.1335     0.0386
  678.0000   -64.6265     9.3777     9.6959     8.8909    87.1271     2.4797     0.1340     0.0482
  678.5000   -64.5931     9.3218     9.6447     8.8537    84.8891     2.4791     0.1340     0.0488
  679.0000   -64.5360     9.2659     9.5741     8.8175    83.8325     2.4803     0.1282     0.0481
  679.5000   -64.4811     9.2047     9.5040     8.7813    88.6969     2.4849     0.1219     0.0475
  680.0000   -64.4308     9.1241     9.4343     8.7443    89.4728     2.4959     0.1155     0.0479
  680.5000   -64.3866     9.0455     9.3652     8.7374    90.4849     2.5048     0.1144     0.0483
  681.0000   -64.3434     8.9678     9.2760     8.7374    92.1809     2.5069     0.1146     0.0487
  681.5000   -64.3004     8.8943     9.1149     8.7376    92.5495     2.5056     0.1149     0.0491
  682.0000   -64.2561     8.7456     8.9565     8.7373    84.1550     2.5042     0.1150     0.0493
  682.5000   -64.2785     8.5688     8.8009     8.7380    80.1093     2.5053     0.1141     0.0485
  683.0000   -64.3295     8.3412     8.6481     8.6452    80.3118     2.5069     0.1137     0.0478
  683.5000   -64.3814     7.9694     8.4978     8.5315    81.8998     2.5059     0.1144     0.0470
  684.0000   -64.4333     7.0671     8.2649     8.5171    86.6167     2.4986     0.1220     0.0462
  684.5000   -64.4851     6.2857     7.9528     8.5169    89.8738     2.4941     0.1240     0.0456
  685.0000   -64.5370     6.0694     7.6496     8.5170    91.4861     2.4945     0.1208     0.0505
  685.5000   -64.5897     5.9992     7.3453     8.5170    93.1898     2.4949     0.1351     0.0500
  686.0000   -64.6371     5.9996     7.0360     8.5170    94.8946     2.4795     0.1521     0.0432
  686.5000   -64.5264     6.0259     6.7398     8.5170    96.5339     2.4485     0.1679     0.0435
  687.0000   -64.4071     6.0649     6.4561     8.5148    99.0911     2.4172     0.1739     0.0435
  687.5000   -64.2886     6.1037     6.2813     8.6176   101.7052     2.4132     0.1595     0.0435
  688.0000   -64.1701     6.2303     6.4186     8.6959   104.3170     2.4463     0.1422     0.0435
  688.5000   -64.0515     6.5554     6.6475     8.7319   105.8535     2.4740     0.1257     0.0435
  689.0000   -63.9334     7.4034     6.8846     8.7666   103.4947     2.5045     0.1088     0.0443
  689.5000  -999.2500     8.3021     7.3270     8.7938    97.3676     2.5189     0.1057     0.0458
  690.0000  -999.2500     8.9904     7.8715     8.8177    95.6375     2.5272     0.1028     0.0472
  690.5000  -999.2500     9.4836     8.4195     8.8483    92.2791     2.5278     0.1052     0.0487
  691.0000  -999.2500     9.4270     8.6796     8.9129    88.3865     2.5225     0.1094     0.0502
  691.5000  -999.2500     9.3972     8.9104     8.9793    86.7970     2.5163     0.1112     0.0515
  692.0000  -999.2500     9.5222     9.0175     8.9801    88.0250     2.5176     0.1030     0.0514
  692.5000  -999.2500     9.6327     9.1259     8.6712    89.0633     2.5262     0.1005     0.0514
  693.0000  -999.2500     9.7444     9.2356     8.6745    89.4257     2.5288     0.1123     0.0514
  693.5000  -999.2500     9.8573     9.3466     8.6732    92.5587     2.5108     0.1112     0.0514
  694.0000  -999.2500     9.9720     9.4589     8.6713    95.0673     2.5152     0.1083     0.0514
  694.5000  -999.2500    10.1546     9.6291     8.6694    96.8169     2.5197     0.0968     0.0514
  695.0000  -999.2500    10.3900     9.8184     8.6675    98.1613     2.5268     0.1001     0.0514
  695.5000  -999.2500    10.6302    10.0114     8.6656    94.9695     2.5337     0.1053     0.0514
  696.0000  -999.2500    10.8760    10.2083     8.6636    86.1460     2.5238     0.1080     0.0514
  696.5000  -999.2500    11.1075    10.4090     8.6617    83.6602     2.5185     0.1054     0.0515
  697.0000  -999.2500    11.2469    10.5584     8.6598    83.2592     2.5260     0.1043     0.0514
  697.5000  -999.2500    11.3898    10.6743     8.6576    86.7599     2.5298     0.1038     0.0498
  698.0000  -999.2500    11.5335    10.7915     8.6635    87.8106     2.5256     0.1036     0.0428
  698.5000  -999.2500    11.5998    10.9099     8.6721    89.0538     2.5244     0.0981     0.0361
  699.0000  -999.2500    11.5998    11.0297     8.6807    93.3182     2.5397     0.0864     0.0296
  699.5000  -999.2500    11.5998    11.1507     8.6893    95.7614     2.5524     0.0924     0.0294
  700.0000  -999.2500    11.5998    11.2838     8.6979    94.4648     2.5454     0.0997     0.0295
  700.5000  -999.2500    11.5998    11.2703     8.7065    97.7301     2.5326     0.1064     0.0304
  701.0000  -999.2500    11.5998    11.2533     8.7155    99.8976     2.5180     0.1168     0.0345
  701.5000  -999.2500    11.5998    11.2364     8.7111    93.3814     2.5031     0.1227     0.0385
  702.0000  -999.2500    11.5998    11.2195     8.7023    92.6742     2.4893     0.1255     0.0424
  702.5000  -999.2500    11.5998    11.2027     8.6936    90.5904     2.4899     0.1264     0.0463
  703.0000  -999.2500    11.5996    11.1841     8.6848    90.4113     2.4950     0.1220     0.0494
  703.5000  -999.2500    11.5983    11.2203     8.6648  -999.2500     2.4990     0.1202     0.0488
  704.0000  -999.2500    11.5953    11.2666     8.5861  -999.2500     2.5015     0.1184     0.0483
  704.5000  -999.2500    11.8354    11.4828     8.5367  -999.2500     2.5063     0.1091     0.0476
  705.0000  -999.2500    12.1458    11.9263     8.5390  -999.2500     2.5159     0.1087     0.0499
  705.5000  -999.2500    12.1426    12.0298     8.4640  -999.2500     2.5174     0.1107     0.0539
  706.0000  -999.2500    12.1454    11.7254     8.3717  -999.2500     2.5155     0.1116     0.0617
  706.5000  -999.2500    11.9330    11.4625     8.3373  -999.2500     2.5150     0.1112     0.0650
  707.0000  -999.2500    11.4927    11.1826     8.2807  -999.2500     2.5161     0.1094     0.0637
  707.5000  -999.2500  -999.2500  -999.2500     8.2151  -999.2500     2.5176     0.1062     0.0591
  708.0000  -999.2500  -999.2500  -999.2500     8.2164  -999.2500     2.5227     0.1029     0.0501
  708.5000  -999.2500  -999.2500  -999.2500     8.2164  -999.2500     2.5281     0.1007     0.0416
  709.0000  -999.2500  -999.2500  -999.2500     8.2161  -999.2500     2.5290     0.0995     0.0418
  709.5000  -999.2500  -999.2500  -999.2500     8.2023  -999.2500     2.5290     0.0992     0.0424
  710.0000  -999.2500  -999.2500  -999.2500  -999.2500  -999.2500     2.5290     0.1024     0.0431
  710.5000  -999.2500  -999.2500  -999.2500  -999.2500  -999.2500     2.5270     0.1028     0.0487
  711.0000  -999.2500  -999.2500  -999.2500  -999.2500  -999.2500     2.5260     0.1034     0.0628
  711.5000  -999.2500  -999.2500  -999.2500  -999.2500  -999.2500     2.5259     0.1073     0.0767
  712.0000  -999.2500  -999.2500  -999.2500  -999.2500  -999.2500     2.5215     0.1144     0.0907
  712.5000  -999.2500  -999.2500  -999.2500  -999.2500  -999.2500     2.5085     0.1133     0.0973
  713.0000  -999.2500  -999.2500  -999.2500  -999.2500  -999.2500     2.5168     0.1007     0.0974
