~VERSION INFORMATION
 VERS.                2.0:   CWLS LOG ASCII STANDARD - VERSION 2.0
 WRAP.                 NO:   ONE LINE PER DEPTH STEP
~WELL INFORMATION
#MNEM.UNIT      DATA TYPE    INFORMATION
#----------   ------------   ------------------------------
 STRT.F            4.0000:   START DEPTH
 STOP.F          614.0000:   STOP DEPTH
 STEP.F            0.1000:   STEP LENGTH
 NULL.          -999.2500:   NO VALUE
 COMP.   FLUOR DANIEL INC:   COMPANY
 WELL.     63-4 X 3 #63-3:   WELL
 FLD .          N.P.R. #3:   FIELD
 LOC .       S3 T38N R78W:   LOCATION
 CNTY.            NATRONA:   COUNTY
 STAT.            WYOMING:   STATE
 CTRY. UNITED STATES OF AMERICA:   COUNTRY
 SRVC.      Western Atlas:   SERVICE COMPANY
 DATE.        01-JUN-1995:   LOGDATE
 API .       490252271300:   API NUMBER
~CURVE INFORMATION
#MNEM.UNIT       API CODE    CURVE DESCRIPTION
#----------   ------------   ------------------------------
 DEPT.F                  :   
 GRR .GAPI   07 310 01 00:   GAMMA RAY
 RILD.OHMM   07 120 46 00:   INDUCTION LOG DEEP RESISTIVITY
 RILM.OHMM   07 120 44 00:   INDUCTION LOG MEDIUM RESISTIVITY
~PARAMETER INFORMATION
#MNEM.UNIT          VALUE    DESCRIPTION
#----------   ------------   ------------------------------
 PD  .                 GL:   PERMANENT DATUM
 EPD .F              5173:   ELEVATION PERMANENT DATUM
 LMF .                 KB:   LOG MEASURED FROM
 DAPD.F                10:   FEET ABOVE PERMANENT DATUM
 DMF .                 KB:   DRILLING MEASURED FROM
 EKB .F              5183:   KELLING BUSHING
 EDF .F              5182:   DRILLING FLOOR
 EGL .F              5173:   GROUND LEVEL
 DATE.        01-JUN-1995:   RUN DATE
 RUN .                  1:   RUN NUMBER
 DD  .F               626:   DEPTH DRILLER
 DL  .F               622:   DEPTH LOGGER
 BLI .F               614:   BOTTOM LOG INTERVAL
 TLI .F                95:   TOP LOG INTERVAL
 CS  .IN            9.625:   CASING SIZE
 CBD .F                95:   CASING BOTTOM DRILLER
 CBL .F                95:   CASING BOTTOM LOGGER
 BS  .IN             8.75:   BIT SIZE
 BSD .F               626:   BIT SIZE AT DEPTH
 DFT .                AIR:   DRILLING FLUID TYPE
 MRT .F               147:   MAXIMUM RECORDED TEMPERATURE
 LUN .            HL 6530:   LOGGING UNIT NUMBER
 LUL .             CASPER:   LOGGING UNIT LOCATION
 ENGI.        VERN RAUTIO:   RECORDING ENGINEER
 WITN.        STEVE HARDY:   WITNESSED BY
 CLNT.            A2DTECH:   CLIENT CODE
 ORIG.           5" PRINT:   ORIGIN OF DATA
 UWI .       490252271300:   UNIQUE WELL ID
 DICO. A2D Technologies, Inc.:   DIGITIZING COMPANY
~OTHER INFORMATION
~A    DEPT       GRR     RILD       RILM   
# ...
  477.2000    66.2740    15.9302    15.2928
  477.3000    66.6980    15.9313    15.2940
  477.4000    67.0455    15.9324    15.2949
  477.5000    66.2691    15.9059    15.3579
  477.6000    66.8712    15.8242    15.4032
  477.7000    66.8695    15.8255    15.4043
  477.8000    67.2741    15.7173    15.4054
  477.9000    67.3091    15.7182    15.4132
  478.0000    66.8096    15.7193    15.5146
  478.1000    66.0280    15.7718    15.6021
  478.2000    65.2809    15.8685    15.6244
  478.3000    64.7438    15.9423    15.6844
  478.4000    64.1374    15.9523    15.7350
  478.5000    63.5061    16.0557    15.7671
  478.6000    63.2278    16.1484    15.8465
  478.7000    63.2260    16.1697    15.8501
  478.8000    63.2242    16.2339    15.9589
  478.9000    63.2224    16.3333    15.9598
  479.0000    63.2205    16.3991    16.0311
  479.1000    63.2184    16.4003    16.1291
  479.2000    63.2169    16.4060    16.1856
  479.3000    63.2151    16.5169    16.2141
  479.4000    63.2133    16.5179    16.3003
  479.5000    63.2115    16.5191    16.3014
  479.6000    63.2097    16.5800    16.3027
  479.7000    63.2079    16.6364    16.3855
  479.8000    63.2058    16.6376    16.4856
  479.9000    63.2042    16.6387    16.5331
  480.0000    63.2024    16.6399    16.5726
  480.1000    63.0615    16.6412    16.6269
  480.2000    62.8967    16.6422    16.5365
  480.3000    62.7855    16.6434    16.5378
  480.4000    62.2764    16.7002    16.4461
  480.5000    61.9847    16.7616    16.3485
  480.6000    61.9831    16.7628    16.3138
  480.7000    61.7932    16.7639    16.3149
  480.8000    61.6773    16.7652    16.2831
  480.9000    61.6755    16.7665    16.1864
  481.0000    61.6737    16.7674    16.0867
  481.1000    61.6911    16.7025    15.8741
  481.2000    61.9720    16.6538    15.8750
  481.3000    62.4443    16.6192    15.8057
  481.4000    62.7676    16.5203    15.6565
  481.5000    63.0257    16.4219    15.5110
  481.6000    63.3942    16.3152    15.4189
  481.7000    63.9122    16.3162    15.3274
  481.8000    64.3784    16.1689    15.2357
  481.9000    64.3763    16.0346    15.1319
  482.0000    64.6184    15.9391    15.0562
  482.1000    64.6749    15.8443    14.9669
  482.2000    64.6731    15.7348    14.8781
  482.3000    64.6713    15.5479    14.7550
  482.4000    64.6695    15.4426    14.6222
  482.5000    64.6677    15.2839    14.6148
  482.6000    64.6658    15.1664    14.5234
  482.7000    64.3616    15.0761    14.4419
  482.8000    64.3601    14.9864    14.3562
  482.9000    64.3583    14.8736    14.3267
  483.0000    64.3565    14.7161    14.3277
  483.1000    64.3547    14.7173    14.2987
  483.2000    64.3529    14.6167    14.2307
  483.3000    64.3510    14.4744    14.2319
  483.4000    64.3489    14.3592    14.2329
  483.5000    64.5625    14.3183    14.2338
  483.6000    64.9934    14.2876    14.2348
  483.7000    65.5114    14.2025    14.2358
  483.8000    66.1177    14.1180    14.2368
  483.9000    66.8033    14.0272    14.2378
  484.0000    67.0653    13.9505    14.2257
  484.1000    67.6596    13.9320    14.1415
  484.2000    67.6580    13.9330    14.1427
  484.3000    67.8357    13.9340    14.1435
  484.4000    67.9565    13.9349    14.1445
  484.5000    67.8595    13.9359    14.1454
  484.6000    67.6508    13.9369    14.1464
  484.7000    67.6382    13.9379    14.1474
  484.8000    67.3448    13.9388    14.1484
  484.9000    67.3432    13.9398    14.1494
  485.0000    67.3414    13.9407    14.1505
  485.1000    67.1955    13.9417    14.1513
  485.2000    67.0357    13.9427    14.1523
  485.3000    66.9742    13.9436    14.1533
  485.4000    66.7299    13.9446    14.1543
  485.5000    66.7279    13.9457    14.1552
  485.6000    66.7263    13.9465    14.1562
  485.7000    66.9175    13.9475    14.1573
  485.8000    67.1756    13.9485    14.0807
  485.9000    67.4338    13.9494    14.0615
  486.0000    67.6254    13.9504    14.0625
  486.1000    67.6478    13.9514    14.0635
  486.2000    67.9237    13.9524    14.0644
  486.3000    67.9221    13.9533    14.0654
  486.4000    67.9202    13.9543    14.0664
  486.5000    67.9184    13.9552    14.0675
  486.6000    67.9166    13.9562    14.0683
  486.7000    67.8416    13.9572    14.0693
  486.8000    67.5799    13.9582    14.0703
  486.9000    67.3069    13.9591    14.0713
  487.0000    66.8077    13.9602    14.0722
  487.1000    66.2860    13.9611    14.0732
  487.2000    65.7643    13.9620    14.0742
  487.3000    65.3648    14.0126    14.0753
  487.4000    65.1031    14.0612    14.1458
  487.5000    64.8414    14.0622    14.1748
  487.6000    64.5752    14.0632    14.1758
  487.7000    64.2710    14.0642    14.1768
  487.8000    64.2695    14.1633    14.1778
  487.9000    64.0966    14.1641    14.1788
  488.0000    63.9637    14.1651    14.1798
  488.1000    63.8753    14.2124    14.1807
  488.2000    63.6580    14.2657    14.1817
  488.3000    63.6562    14.2667    14.1827
  488.4000    63.6541    14.2756    14.2244
  488.5000    63.6526    14.3681    14.2832
  488.6000    63.8286    14.3690    14.2841
  488.7000    63.9511    14.3700    14.2851
  488.8000    63.9492    14.3710    14.2862
  488.9000    63.9987    14.3720    14.2871
  489.0000    64.2478    14.4031    14.3509
  489.1000    64.2457    14.4913    14.4386
  489.2000    64.4709    14.5800    14.5268
  489.3000    65.0982    14.6786    14.5908
  489.4000    65.5913    14.7593    14.6033
  489.5000    66.0498    14.9171    14.6942
  489.6000    66.7697    15.0448    14.6954
  489.7000    67.2879    15.1369    14.8444
  489.8000    67.8584    15.2574    14.9635
  489.9000    68.7909    15.4297    15.0549
  490.0000    69.4462    15.5241    15.1468
  490.1000    69.9642    15.6335    15.2609
  490.2000    70.4822    15.7150    15.4388
  490.3000    71.0002    15.8113    15.5393
  490.4000    71.4957    15.9082    15.6280
  490.5000    71.7733    16.0056    15.7983
  490.6000    72.2522    16.0790    15.9908
  490.7000    72.3740    16.0902    16.1856
  490.8000    72.3722    16.1933    16.3493
  490.9000    72.2567    16.3074    16.4868
  491.0000    71.9235    16.3083    16.7802
  491.1000    71.4312    16.3742    16.8941
  491.2000    71.1564    16.4242    16.9859
  491.3000    70.6606    16.4608    17.0136
  491.4000    70.1390    16.5409    17.0148
  491.5000    69.4547    16.5420    16.9710
  491.6000    68.7935    16.5433    16.8998
  491.7000    68.1154    16.5443    16.9010
  491.8000    67.0018    16.6215    16.9022
  491.9000    65.4036    16.6619    16.9035
  492.0000    62.6824    16.6630    16.7341
  492.1000    61.2002    16.6642    16.5350
  492.2000    59.7176    16.6653    16.2853
  492.3000    58.1617    16.6665    15.9948
  492.4000    56.5105    16.5525    15.7323
  492.5000    55.2947    16.5535    15.5451
  492.6000    54.5136    16.5546    15.3614
  492.7000    53.9085    16.5558    15.1776
  492.8000    53.4703    16.5569    15.0688
  492.9000    53.6532    16.5581    14.9213
  493.0000    54.1712    16.5592    14.7878
  493.1000    54.6892    16.5604    14.7308
  493.2000    55.2073    16.5618    14.7319
  493.3000    55.7328    16.5627    14.7329
  493.4000    56.6149    16.5638    14.7340
  493.5000    57.2884    16.5134    14.6553
  493.6000    58.4321    16.4516    14.6343
  493.7000    59.7300    16.4311    14.6353
  493.8000    60.9292    16.3400    14.6363
  493.9000    62.0796    16.3413    14.6108
  494.0000    63.6376    16.2519    14.5373
  494.1000    65.3636    16.1552    14.5384
  494.2000    66.9846    16.1193    14.4393
  494.3000    68.4232    16.1204    14.4402
  494.4000    69.8685    16.0903    14.3801
  494.5000    71.0051    15.9945    14.3426
  494.6000    71.3339    15.8993    14.3086
  494.7000    71.0722    15.7927    14.2237
  494.8000    70.7890    15.7106    14.1393
  494.9000    70.5488    15.5493    14.0518
  495.0000    70.2870    15.3637    13.9560
  495.1000    69.8711    15.2191    13.8891
  495.2000    69.4614    15.0787    13.8067
  495.3000    69.1997    14.8311    13.7248
