~VERSION INFORMATION
 VERS.                2.0:   CWLS LOG ASCII STANDARD - VERSION 2.0
 WRAP.                 NO:   ONE LINE PER DEPTH STEP
~WELL INFORMATION
#MNEM.UNIT      DATA TYPE    INFORMATION
#----------   ------------   ------------------------------
 STRT.F            0.0000:   START DEPTH
 STOP.F         2182.0000:   STOP DEPTH
 STEP.F            0.1000:   STEP LENGTH
 NULL.          -999.2500:   NO VALUE
 COMP.       FLUOR DANIEL:   COMPANY
 WELL.   75-1 X 29 #75-29:   WELL
 FLD .             TEAPOT:   FIELD
 LOC .      S29 T39N R78W:   LOCATION
 CNTY.            NATRONA:   COUNTY
 STAT.            WYOMING:   STATE
 CTRY. UNITED STATES OF AMERICA:   COUNTRY
 SRVC.      Western Atlas:   SERVICE COMPANY
 DATE.        10-MAY-1996:   LOGDATE
 API .       490252279100:   API NUMBER
~CURVE INFORMATION
#MNEM.UNIT       API CODE    CURVE DESCRIPTION
#----------   ------------   ------------------------------
 DEPT.F                  :   
 GRR .GAPI   07 310 01 00:   GAMMA RAY
 RFOC.OHMM   07 220 04 00:   RESISTIVITY FOCUSED LOG
 RILD.OHMM   07 120 46 00:   INDUCTION LOG DEEP RESISTIVITY
 RILM.OHMM   07 120 44 00:   INDUCTION LOG MEDIUM RESISTIVITY
~PARAMETER INFORMATION
#MNEM.UNIT          VALUE    DESCRIPTION
#----------   ------------   ------------------------------
 PD  .                 GL:   PERMANENT DATUM
 EPD .F              5031:   ELEVATION PERMANENT DATUM
 LMF .                 KB:   LOG MEASURED FROM
 DAPD.F                10:   FEET ABOVE PERMANENT DATUM
 DMF .                 KB:   DRILLING MEASURED FROM
 EKB .F              5041:   KELLING BUSHING
 EDF .F              5040:   DRILLING FLOOR
 EGL .F              5031:   GROUND LEVEL
 DATE.        10-MAY-1996:   RUN DATE
 RUN .                  1:   RUN NUMBER
 DD  .F              2188:   DEPTH DRILLER
 DL  .F              2184:   DEPTH LOGGER
 BLI .F              2182:   BOTTOM LOG INTERVAL
 TLI .F               400:   TOP LOG INTERVAL
 CS  .IN                7:   CASING SIZE
 CBD .F               400:   CASING BOTTOM DRILLER
 CBL .F               400:   CASING BOTTOM LOGGER
 BS  .IN             6.25:   BIT SIZE
 BSD .F              2188:   BIT SIZE AT DEPTH
 DFT .                AIR:   DRILLING FLUID TYPE
 MRT .F                97:   MAXIMUM RECORDED TEMPERATURE
 LUN .            HL-6530:   LOGGING UNIT NUMBER
 LUL .             CASPER:   LOGGING UNIT LOCATION
 ENGI.           BROWNLOW:   RECORDING ENGINEER
 WITN.             LEBEAU:   WITNESSED BY
 CLNT.            A2DTECH:   CLIENT CODE
 ORIG.           5" PRINT:   ORIGIN OF DATA
 UWI .       490252279100:   UNIQUE WELL ID
 DICO. A2D Technologies, Inc.:   DIGITIZING COMPANY
~OTHER INFORMATION
~A    DEPT      GRR      RFOC       RILD       RILM   
# ...
  861.4000   125.2236  -999.2500     9.1017     9.8666
  861.5000   125.4854  -999.2500     9.1014     9.8662
  861.6000   126.0649  -999.2500     9.1009     9.8660
  861.7000   126.2785  -999.2500     9.1005     9.8657
  861.8000   126.6956  -999.2500     9.1002     9.8655
  861.9000   127.0822  -999.2500     9.0998     9.8652
  862.0000   127.3335  -999.2500     9.0994     9.8649
  862.1000   127.6040  -999.2500     9.0991     9.8646
  862.2000   128.1661  -999.2500     9.0987     9.8644
  862.3000   128.3881  -999.2500     9.0983     9.8641
  862.4000   128.8135  -999.2500     9.0979     9.8638
  862.5000   129.3172  -999.2500     9.0976     9.8635
  862.6000   129.8976  -999.2500     9.0972     9.8632
  862.7000   130.5976  -999.2500     9.0968     9.8624
  862.8000   130.8698  -999.2500     9.0964     9.7945
  862.9000   131.3317  -999.2500     9.0960     9.7943
  863.0000   131.8355  -999.2500     9.0957     9.7940
  863.1000   132.4730  -999.2500     9.0952     9.7938
  863.2000   133.2287  -999.2500     9.0949     9.7804
  863.3000   134.0577  -999.2500     9.0945     9.7256
  863.4000   135.3807  -999.2500     9.0942     9.7253
  863.5000   136.3399  -999.2500     9.0938     9.6776
  863.6000   136.7743  -999.2500     9.0934     9.6576
  863.7000   137.0255  -999.2500     9.0930     9.6574
  863.8000   137.1831  -999.2500     9.0926     9.6571
  863.9000   136.9140  -999.2500     9.0923     9.6568
  864.0000   135.3735  -999.2500     9.0919     9.6565
  864.1000   133.3849  -999.2500     9.0915     9.6563
  864.2000   132.3628  -999.2500     9.0912     9.6560
  864.3000   131.7552  -999.2500     9.0907     9.6558
  864.4000   131.2491  -999.2500     9.0454     9.6555
  864.5000   130.7429  -999.2500     9.0273     9.6552
  864.6000   130.2458  -999.2500     9.0269     9.6549
  864.7000   130.2444  -999.2500     9.0265     9.6547
  864.8000   130.4514  -999.2500     9.0262     9.6544
  864.9000   131.1806  -999.2500     9.0257     9.6542
  865.0000   131.9680  -999.2500     9.0254     9.6539
  865.1000   132.4713  -999.2500     9.0250     9.6536
  865.2000   132.9622  -999.2500     9.0246     9.6533
  865.3000   133.2492  -999.2500     9.0243     9.6531
  865.4000   133.4648  -999.2500     9.0239     9.6528
  865.5000   133.5482  -999.2500     9.0235     9.6526
  865.6000   133.5470  -999.2500     9.0231     9.6523
  865.7000   133.5458  -999.2500     9.0228     9.6520
  865.8000   133.4388  -999.2500     9.0224     9.6517
  865.9000   132.0372  -999.2500     9.0220     9.6515
  866.0000   131.8112  -999.2500     9.0217     9.6512
  866.1000   131.7337  -999.2500     9.0212     9.6510
  866.2000   131.7325  -999.2500     9.0209     9.6507
  866.3000   131.7313  -999.2500     9.0205     9.6606
  866.4000   131.7301  -999.2500     9.0201     9.7172
  866.5000   131.7288  -999.2500     9.0198     9.7170
  866.6000   131.7277  -999.2500     9.0194     9.7167
  866.7000   131.7265  -999.2500     9.0190     9.7164
  866.8000   131.5894  -999.2500     9.0186     9.7162
  866.9000   131.4229  -999.2500     9.0569     9.7159
  867.0000   131.3456  -999.2500     9.0806     9.7156
  867.1000   130.8180  -999.2500     9.0984     9.7153
  867.2000   130.0917  -999.2500     9.1430     9.7151
  867.3000   128.9464  -999.2500     9.1425     9.7148
  867.4000   128.1162  -999.2500     9.1422     9.7391
  867.5000   127.5150  -999.2500     9.1820     9.7818
  867.6000   126.8030  -999.2500     9.2049     9.7816
  867.7000   126.2928  -999.2500     9.2045     9.7813
  867.8000   125.7911  -999.2500     9.2041     9.7810
  867.9000   125.4865  -999.2500     9.2038     9.7807
  868.0000   125.3855  -999.2500     9.2034     9.7805
  868.1000   125.3843  -999.2500     9.2445     9.7802
  868.2000   125.3831  -999.2500     9.2666     9.7800
  868.3000   125.3820  -999.2500     9.2662     9.7796
  868.4000   125.3805  -999.2500     9.2658     9.7794
  868.5000   125.3795  -999.2500     9.2654     9.7791
  868.6000   125.5394  -999.2500     9.2650     9.7789
  868.7000   126.0150  -999.2500     9.2646     9.7786
  868.8000   126.6441  -999.2500     9.2642     9.7783
  868.9000   126.9245  -999.2500     9.2639     9.7780
  869.0000   127.7830  -999.2500     9.2635     9.7778
  869.1000   128.0002  -999.2500     9.2631     9.7775
  869.2000   128.0819  -999.2500     9.2626     9.7772
  869.3000   128.0807  -999.2500     9.2623     9.7769
  869.4000   128.0795  -999.2500     9.2289     9.7767
  869.5000   128.0783  -999.2500     9.1976     9.7764
  869.6000   128.0770  -999.2500     9.1972     9.7762
  869.7000   128.0759  -999.2500     9.1969     9.7759
  869.8000   128.0747  -999.2500     9.1964     9.7756
  869.9000   128.0735  -999.2500     9.1961     9.7753
  870.0000   128.0723  -999.2500     9.1957     9.7751
  870.1000   128.0710  -999.2500     9.1954     9.7748
  870.2000   128.0698  -999.2500     9.1950     9.7746
  870.3000   128.0687  -999.2500     9.1946     9.7742
  870.4000   128.0675  -999.2500     9.1941     9.7740
  870.5000   128.0663  -999.2500     9.1938     9.7737
  870.6000   127.9763  -999.2500     9.1934     9.7735
  870.7000   127.6829  -999.2500     9.1930     9.7732
  870.8000   127.1590  -999.2500     9.1927     9.7729
  870.9000   126.6710  -999.2500     9.1923     9.7274
  871.0000   126.1648  -999.2500     9.1919     9.7048
  871.1000   125.5127  -999.2500     9.1915     9.7046
  871.2000   124.9486  -999.2500     9.1912     9.7043
  871.3000   124.6949  -999.2500     9.1654     9.7041
  871.4000   124.4410  -999.2500     9.1270     9.7037
  871.5000   124.1383  -999.2500     9.1266     9.7035
  871.6000   123.7308  -999.2500     9.1262     9.7032
  871.7000   123.5337  -999.2500     9.1258     9.7030
  871.8000   123.7436  -999.2500     9.1255     9.7027
  871.9000   124.3609  -999.2500     9.1251     9.6996
  872.0000   125.3614  -999.2500     9.1087     9.6351
  872.1000   126.2396  -999.2500     9.0614     9.6349
  872.2000   126.8737  -999.2500     9.0609     9.5977
  872.3000   127.6296  -999.2500     9.0606     9.5678
  872.4000   128.3857  -999.2500     9.0602     9.5675
  872.5000   129.0111  -999.2500     9.0328     9.5673
  872.6000   129.2458  -999.2500     8.9970     9.5670
  872.7000   129.2444  -999.2500     8.9966     9.5178
  872.8000   129.4633  -999.2500     8.9962     9.5004
  872.9000   129.5434  -999.2500     8.9958     9.5002
  873.0000   129.5422  -999.2500     8.9955     9.4999
  873.1000   129.5410  -999.2500     8.9951     9.4937
  873.2000   129.4899  -999.2500     8.9947     9.4337
  873.3000   128.9360  -999.2500     8.9868     9.4335
  873.4000   128.2491  -999.2500     8.9319     9.3940
  873.5000   127.8503  -999.2500     8.9315     9.3679
  873.6000   127.7277  -999.2500     8.9311     9.3497
  873.7000   127.8907  -999.2500     8.9308     9.3027
  873.8000   128.3610  -999.2500     8.9304     9.3024
  873.9000   128.6276  -999.2500     8.9216     9.3021
  874.0000   128.8633  -999.2500     8.8680     9.3018
  874.1000   128.9265  -999.2500     8.8677     9.3016
  874.2000   129.0647  -999.2500     8.8673     9.3013
  874.3000   129.2253  -999.2500     8.8375     9.3011
  874.4000   129.2241  -999.2500     8.8054     9.3008
  874.5000   129.2229  -999.2500     8.8050     9.3006
  874.6000   129.2217  -999.2500     8.8046     9.3003
  874.7000   129.4170  -999.2500     8.8043     9.3001
  874.8000   129.5205  -999.2500     8.8039     9.2998
  874.9000   129.7170  -999.2500     8.8036     9.2996
  875.0000   130.1704  -999.2500     8.7829     9.2993
  875.1000   130.4219  -999.2500     8.7420     9.2990
  875.2000   130.7203  -999.2500     8.7417     9.2988
  875.3000   131.1294  -999.2500     8.7413     9.2985
  875.4000   131.4768  -999.2500     8.7410     9.2983
  875.5000   131.9429  -999.2500     8.7406     9.2979
  875.6000   132.6987  -999.2500     8.7192     9.2977
  875.7000   133.4450  -999.2500     8.6795     9.2974
  875.8000   134.0263  -999.2500     8.6792     9.2972
  875.9000   134.4520  -999.2500     8.6788     9.2969
