~VERSION INFORMATION
 VERS.                2.0:   CWLS LOG ASCII STANDARD - VERSION 2.0
 WRAP.                 NO:   ONE LINE PER DEPTH STEP
~WELL INFORMATION
#MNEM.UNIT      DATA TYPE    INFORMATION
#----------   ------------   ------------------------------
 STRT.F           34.0000:   START DEPTH
 STOP.F          582.0000:   STOP DEPTH
 STEP.F            0.5000:   STEP LENGTH
 NULL.          -999.2500:   NO VALUE
 COMP. FENIX & SCISSON INC:   COMPANY
 WELL. NPR 3 SX-33 #88-33:   WELL
 FLD .             TEAPOT:   FIELD
 LOC .      S33 T39N R78W:   LOCATION
 CNTY.            NATRONA:   COUNTY
 STAT.            WYOMING:   STATE
 CTRY. UNITED STATES OF AMERICA:   COUNTRY
 SRVC.           BIRDWELL:   SERVICE COMPANY
 DATE.        04-AUG-1978:   LOGDATE
 API .       490251068000:   API NUMBER
~CURVE INFORMATION
#MNEM.UNIT       API CODE    CURVE DESCRIPTION
#----------   ------------   ------------------------------
 DEPT.F                  :   
 SPR .MV     05 010 01 00:   SPONTANEOUS POTENTIAL FROM RES.
 ILD .OHMM   05 120 46 00:   INDUCTION LOG DEEP
 SN  .OHMM   05 040 16 00:   SHORT NORMAL 16"
 CALD.IN     45 280 60 00:   CALIPER
 GRD .GAPI   45 310 01 00:   GAMMA RAY FROM DENSITY LOG
 DEN .G/C3   45 350 01 00:   COMPENSATED BULK DENSTIY
 CORR.G/C3   45 356 01 00:   DENSITY CORRECTION
 DPHI.DEC    45 890 12 00:   DENSITY POROSITY SANDSTONE
~PARAMETER INFORMATION
#MNEM.UNIT          VALUE    DESCRIPTION
#----------   ------------   ------------------------------
 PD  .                 GL:   PERMANENT DATUM
 EPD .F              5146:   ELEVATION PERMANENT DATUM
 LMF .                 KB:   LOG MEASURED FROM
 DAPD.F                 4:   FEET ABOVE PERMANENT DATUM
 DMF .                 KB:   DRILLING MEASURED FROM
 EKB .F              5150:   KELLING BUSHING
 EGL .F              5146:   GROUND LEVEL
 DATE.             8-4-78:   RUN DATE
 RUN .                  1:   RUN NUMBER
 DD  .F               570:   DEPTH DRILLER
 DL  .F               588:   DEPTH LOGGER
 BLI .F               582:   BOTTOM LOG INTERVAL
 TLI .F                50:   TOP LOG INTERVAL
 CS  .IN            8.625:   CASING SIZE
 CBD .F                40:   CASING BOTTOM DRILLER
 BS  .IN            7.875:   BIT SIZE
 BSD .F               570:   BIT SIZE AT DEPTH
 DFT .                KCL:   DRILLING FLUID TYPE
 DFD .                8.7:   DRILLING FLUID DENSITY
 DFV .                 34:   DRILLING FLUID VISCOSITY
 DFPH.                  9:   DRILLING FLUID PH
 DFL .                9.6:   DRILLING FLUID LOSS
 MSS .          FLOW LINE:   MUD SAMPLE SOURCE
 RMS .OHMM            .24:   RESISTIVITY MUD SAMPLE
 MST .F                70:   MUD SAMPLE TEMPERATURE
 RMF .OHMM            .24:   RESISTIVITY MUD FILTRATE SAMPLE
 MFST.F                80:   MUD FILTRATE SAMPLE TEMPERATURE
 RMC .OHMM             .3:   RESISTIVITY MUD CAKE
 MCST.F                75:   MUD CAKE SAMPLE TEMPERATURE
 MFSS.               MEAS:   MUD FILTRATE SAMPLE SOURCE
 TCS .HRS               2:   TIME CURCULATED STOPPED
 LUN .               3006:   LOGGING UNIT NUMBER
 LUL .               CASP:   LOGGING UNIT LOCATION
 ENGI.             MILLER:   RECORDING ENGINEER
 WITN.           MCGINLEY:   WITNESSED BY
 CLNT.            A2DTECH:   CLIENT CODE
 ORIG.        2" 5" PRINT:   ORIGIN OF DATA
 UWI .       490251068000:   UNIQUE WELL ID
 DICO. A2D Technologies, Inc.:   DIGITIZING COMPANY
~OTHER INFORMATION
~A   DEPT      SPR        ILD         SN       CALD         GRD       DEN       CORR       DPHI   
# ...
  155.5000   -26.1840     9.1798     8.6720     7.3134   100.4945     2.5103     0.0648     0.1020
  156.0000   -26.1896     9.1413     8.6720     7.2949    99.6258     2.5243     0.0898     0.0966
  156.5000   -26.1223     9.1030     8.6720     7.2752    98.7639     2.5257     0.1141     0.0916
  157.0000   -25.9061     9.0458     8.6720     7.2583    97.5621     2.5265     0.1226     0.0863
  157.5000   -25.6910     8.9583     8.6687     7.0293    95.8922     2.5362     0.1285     0.0756
  158.0000   -25.5573     8.8716     8.6494     6.9901    94.2257     2.5464     0.1491     0.0730
  158.5000   -25.4819     8.7520     8.6304     6.9826    93.4088     2.5543     0.1613     0.1086
  159.0000   -25.4077     8.7639     8.6114     6.9759    96.4679     2.5085     0.1430     0.1294
  159.5000   -25.3335     8.7837     8.5922     6.9725    99.5114     2.4660     0.1022     0.1483
  160.0000   -25.2596     8.8035     8.5933     7.0374   101.8844     2.4336     0.0619     0.1521
  160.5000   -25.2012     8.8233     8.5366     7.1042   103.3312     2.4344     0.0374     0.1297
  161.0000   -25.2241     8.8433     8.4973     7.1721   102.2088     2.4643     0.0464     0.1217
  161.5000   -25.2456     8.8632     8.4581     7.2974   101.4865     2.4761     0.0541     0.1183
  162.0000   -25.2669     8.8832     8.4363     7.5027   103.6415     2.4831     0.0507     0.1173
  162.5000   -25.2882     8.9032     8.5670     7.5308   105.2842     2.4902     0.0470     0.1121
  163.0000   -25.3095     9.0130     8.6588     7.5368   103.5171     2.4947     0.0432     0.1108
  163.5000   -25.3308     9.2348     8.7516     7.5448   107.2932     2.4994     0.0395     0.1100
  164.0000   -25.3520     9.4620     8.8453     7.5828   108.1071     2.5001     0.0361     0.1074
  164.5000   -25.3733     9.6949     8.9186     7.6952   107.5609     2.5007     0.0332     0.0998
  165.0000   -25.3946     9.7849     8.9348     7.8087   106.1048     2.5051     0.0319     0.0966
  165.5000   -25.4159     9.8033     8.9510     7.8060   104.6658     2.5086     0.0306     0.1017
  166.0000   -25.4371     9.8221     8.9672     7.7655   103.1905     2.5089     0.0293     0.1058
  166.5000   -25.4584     9.8409     8.9835     7.7246   102.9772     2.5094     0.0281     0.1022
  167.0000   -25.4797     9.8599     8.9998     7.6882   103.1235     2.5109     0.0312     0.1030
  167.5000   -25.5010     9.8789     9.0161     7.6425   100.6899     2.5143     0.0473     0.0901
  168.0000   -25.5222     9.8979     9.0324     7.5393    97.6381     2.5220     0.0625     0.0627
  168.5000   -25.5436     9.9174     9.0489     7.4117    98.4786     2.5656     0.0996     0.0351
  169.0000   -25.5648     9.9471     9.0652     7.2839    99.3344     2.6189     0.1406     0.0527
  169.5000   -25.5856     9.9571     9.0786     7.1545    99.6871     2.5912     0.1591     0.0698
  170.0000   -25.5749     9.6136     9.0333     7.0679    98.9634     2.5594     0.1387     0.0866
  170.5000   -25.5246     9.2862     8.9929     7.0150    94.1818     2.5322     0.0975     0.0874
  171.0000   -25.4747     8.9700     8.9526     6.9883    94.6269     2.5296     0.0786     0.0891
  171.5000   -25.4246     8.6646     8.9125     6.9895    97.9005     2.5281     0.0796     0.1054
  172.0000   -25.3887     8.5784     8.8725     6.9900   100.3211     2.5151     0.0711     0.1054
  172.5000   -25.3683     8.5595     8.8328     6.9900   101.1382     2.5018     0.0670     0.1085
  173.0000   -25.3479     8.5407     8.7932     6.9900    98.2228     2.4973     0.0698     0.1136
  173.5000   -25.3275     8.5220     8.7538     6.9900    98.1620     2.4892     0.0684     0.1258
  174.0000   -25.3071     8.5032     8.7146     6.9898   102.7985     2.4846     0.0649     0.1397
  174.5000   -25.2867     8.4846     8.6755     6.9903    98.1756     2.4526     0.0478     0.1401
  175.0000   -25.2663     8.4659     8.6367     7.0319    97.6896     2.4456     0.0381     0.1419
  175.5000   -25.2459     8.4473     8.5980     7.0779    99.3876     2.4455     0.0426     0.1375
  176.0000   -25.2255     8.4288     8.5595     7.1207   101.9788     2.4467     0.0472     0.1313
  176.5000   -25.2051     8.4102     8.5142     7.2695   100.5481     2.4626     0.0517     0.1224
  177.0000   -25.1847     8.3918     8.5435     7.4259   100.1199     2.4804     0.0511     0.1145
  177.5000   -25.1642     8.3733     8.5795     7.5672   100.5777     2.4914     0.0489     0.1083
  178.0000   -25.1438     8.3592     8.6156     7.5901   101.5847     2.4983     0.0468     0.1070
  178.5000   -25.1234     8.7038     8.6518     7.5899   102.0961     2.5004     0.0430     0.1114
  179.0000   -25.1030     8.9933     8.6882     7.5906   100.4403     2.4994     0.0380     0.1074
  179.5000   -25.0826     9.2924     8.7248     7.6004    98.8612     2.4983     0.0338     0.1110
  180.0000   -25.0622     9.6014     8.7633     7.7100    97.5992     2.4994     0.0343     0.1022
  180.5000   -25.0417     9.7746     8.8072     7.7684   100.5630     2.5036     0.0426     0.1026
  181.0000   -25.0210     9.7862     8.8512     7.7076   103.6573     2.5018     0.0502     0.1082
  181.5000   -25.0017     9.7978     8.8956     7.6986   102.9265     2.4997     0.0533     0.1090
  182.0000   -25.0472     9.8094     8.9401     7.6918   101.9832     2.4976     0.0568     0.1118
  182.5000   -25.0975     9.8210     8.9848     7.6584   101.0643     2.5007     0.0603     0.1070
  183.0000   -25.1476     9.8325     9.0301     7.4736   100.2796     2.5143     0.0704     0.0973
  183.5000   -25.1976     9.8438     9.0790     7.2708   100.1909     2.5279     0.0935     0.0797
  184.0000   -25.2476     9.8617     9.1050     7.2152   100.1198     2.5416     0.1193     0.0742
  184.5000   -25.2980     9.6925     9.1329     7.2101    98.1610     2.5501     0.1445     0.1002
  185.0000   -25.3495     9.3697     9.1630     7.2070    97.9299     2.5360     0.1472     0.0999
  185.5000   -25.3900     9.0576     9.1757     7.1086    98.2444     2.5172     0.1248     0.0938
  186.0000   -25.1412     8.9142     9.1890     7.0085    95.3687     2.5156     0.1211     0.1074
  186.5000   -24.8759     8.9456     9.2025     6.9684    95.3152     2.4981     0.1286     0.1157
  187.0000   -24.6131     8.9692     9.2160     6.9685    97.8555     2.4848     0.0983     0.1261
  187.5000   -24.4076     8.9929     9.2296     7.0271    97.5506     2.4799     0.0912     0.1375
  188.0000   -24.4723     9.0167     9.2431     7.0980    96.2248     2.4551     0.0735     0.1441
  188.5000   -24.5321     9.0405     9.2566     7.1705    99.9137     2.4362     0.0515     0.1449
  189.0000   -24.5895     9.0644     9.2702     7.2687    98.7913     2.4396     0.0501     0.1396
  189.5000   -24.4710     9.1155     9.2838     7.3684    97.9309     2.4489     0.0476     0.1329
  190.0000   -24.1487     9.2132     9.2974     7.4678    98.4598     2.4590     0.0444     0.1258
  190.5000   -23.8290     9.3119     9.3110     7.5690   101.6933     2.4689     0.0398     0.1208
  191.0000   -23.5088     9.5844     9.3242     7.6121    99.5737     2.4789     0.0358     0.1154
  191.5000   -23.1901     9.9134     9.3807     7.6205    97.9088     2.4880     0.0378     0.1098
  192.0000   -23.0073    10.2537     9.5014     7.6272    96.4622     2.4966     0.0438     0.1090
  192.5000   -23.0316    10.6057     9.6244     7.6844    96.4938     2.5007     0.0480     0.1082
  193.0000   -23.0541    10.9698     9.7483     7.7560    96.4979     2.5012     0.0471     0.1048
  193.5000   -23.0770    11.2281     9.8864     7.8285    96.2688     2.5016     0.0463     0.1037
  194.0000   -23.0997    11.4183    10.0287     7.7683    95.5065     2.5020     0.0460     0.1034
  194.5000   -23.1224    11.6117    10.1731     7.6438    94.6774     2.5024     0.0515     0.1067
  195.0000   -23.1452    11.8083    10.3196     7.4834    94.8880     2.5014     0.0576     0.1080
  195.5000   -23.1679    11.9760    10.4682     7.3708    93.6720     2.5006     0.0650     0.1037
