~VERSION INFORMATION
 VERS.                2.0:   CWLS LOG ASCII STANDARD - VERSION 2.0
 WRAP.                 NO:   ONE LINE PER DEPTH STEP
~WELL INFORMATION
#MNEM.UNIT      DATA TYPE    INFORMATION
#----------   ------------   ------------------------------
 STRT.F           27.0000:   START DEPTH
 STOP.F          538.0000:   STOP DEPTH
 STEP.F            0.5000:   STEP LENGTH
 NULL.          -999.2500:   NO VALUE
 COMP. FENIX & SCISSON INC:   COMPANY
 WELL.        NPR 3 #24-3:   WELL
 FLD .             TEAPOT:   FIELD
 LOC .       S3 T38N R78W:   LOCATION
 CNTY.            NATRONA:   COUNTY
 STAT.            WYOMING:   STATE
 CTRY. UNITED STATES OF AMERICA:   COUNTRY
 SRVC.            Unknown:   SERVICE COMPANY
 DATE.        26-SEP-1978:   LOGDATE
 API .       490251068800:   API NUMBER
~CURVE INFORMATION
#MNEM.UNIT       API CODE    CURVE DESCRIPTION
#----------   ------------   ------------------------------
 DEPT.F                  :   
 SPR .MV     05 010 01 00:   SPONTANEOUS POTENTIAL FROM RES.
 ILD .OHMM   05 120 46 00:   INDUCTION LOG DEEP
 SN  .OHMM   05 040 16 00:   SHORT NORMAL 16"
 CALD.IN     45 280 60 00:   CALIPER
 GRD .GAPI   45 310 01 00:   GAMMA RAY FROM DENSITY LOG
 DEN .G/C3   45 350 01 00:   COMPENSATED BULK DENSTIY
 DPHI.DEC    45 890 12 00:   DENSITY POROSITY SANDSTONE
 CORR.G/C3   45 356 01 00:   DENSITY CORRECTION
~PARAMETER INFORMATION
#MNEM.UNIT          VALUE    DESCRIPTION
#----------   ------------   ------------------------------
 PD  .                 GL:   PERMANENT DATUM
 EPD .F              5200:   ELEVATION PERMANENT DATUM
 LMF .                 KB:   LOG MEASURED FROM
 DAPD.F                 4:   FEET ABOVE PERMANENT DATUM
 DMF .                 KB:   DRILLING MEASURED FROM
 EKB .F              5204:   KELLING BUSHING
 EGL .F              5200:   GROUND LEVEL
 DATE.            9-26-78:   RUN DATE
 RUN .                  1:   RUN NUMBER
 DD  .F               537:   DEPTH DRILLER
 DL  .F               538:   DEPTH LOGGER
 BLI .F               532:   BOTTOM LOG INTERVAL
 TLI .F                40:   TOP LOG INTERVAL
 CS  .IN            8.625:   CASING SIZE
 CBD .F                40:   CASING BOTTOM DRILLER
 CBL .F                46:   CASING BOTTOM LOGGER
 BS  .IN            7.875:   BIT SIZE
 BSD .F               537:   BIT SIZE AT DEPTH
 DFT .                KCL:   DRILLING FLUID TYPE
 DFD .                8.7:   DRILLING FLUID DENSITY
 DFV .                 37:   DRILLING FLUID VISCOSITY
 DFPH.                  9:   DRILLING FLUID PH
 DFL .                 10:   DRILLING FLUID LOSS
 MSS .          FLOW LINE:   MUD SAMPLE SOURCE
 RMS .OHMM            .18:   RESISTIVITY MUD SAMPLE
 MST .F                72:   MUD SAMPLE TEMPERATURE
 RMF .OHMM            .16:   RESISTIVITY MUD FILTRATE SAMPLE
 MFST.F                76:   MUD FILTRATE SAMPLE TEMPERATURE
 RMC .OHMM            .26:   RESISTIVITY MUD CAKE
 MCST.F                76:   MUD CAKE SAMPLE TEMPERATURE
 MFSS.               MEAS:   MUD FILTRATE SAMPLE SOURCE
 RMB .OHMM            .18:   RESISTIVITY MUD AT BHT
 BHT .F                71:   BOTTOM HOLE TEMPERATURE
 TCS .HRS               3:   TIME CURCULATED STOPPED
 MRT .F                71:   MAXIMUM RECORDED TEMPERATURE
 LUN .               2958:   LOGGING UNIT NUMBER
 LUL .               CASP:   LOGGING UNIT LOCATION
 ENGI.           REYNOLDS:   RECORDING ENGINEER
 WITN.              AMEND:   WITNESSED BY
 CLNT.            A2DTECH:   CLIENT CODE
 ORIG.           5" PRINT:   ORIGIN OF DATA
 UWI .       490251068800:   UNIQUE WELL ID
 DICO. A2D Technologies, Inc.:   DIGITIZING COMPANY
~OTHER INFORMATION
~A   DEPT      SPR        ILD         SN       CALD         GRD       DEN       DPHI       CORR   
# ...
  391.5000   -55.1352    13.1957    10.1045     8.4945    98.2473     2.4461     0.1402     0.0256
  392.0000   -55.3799    13.0985    10.0672     8.5084    96.5677     2.4406     0.1422     0.0258
  392.5000   -55.9713    13.0018    10.0300     8.4725    94.6244     2.4409     0.1375     0.0260
  393.0000   -56.5451    12.9059     9.9929     8.4345    94.3304     2.4468     0.1329     0.0261
  393.5000   -56.5643    12.8367     9.9559     8.3967    95.2442     2.4527     0.1282     0.0263
  394.0000   -56.5614    12.8367     9.9192     8.3589    96.1951     2.4587     0.1248     0.0265
  394.5000   -56.5603    12.8367     9.8825     8.3212    97.0733     2.4646     0.1259     0.0267
  395.0000   -56.5616    12.8369     9.8460     8.2832    97.2261     2.4640     0.1270     0.0269
  395.5000   -56.5539    12.8238     9.8096     8.2632    97.6095     2.4622     0.1280     0.0270
  396.0000   -57.0207    12.8055     9.7733     8.2523    99.0996     2.4605     0.1277     0.0270
  396.5000   -57.7211    12.7870     9.7372     8.2416   100.5528     2.4616     0.1257     0.0270
  397.0000   -57.9489    12.7685     9.7012     8.2308   101.8783     2.4713     0.1192     0.0270
  397.5000   -57.9533    12.7501     9.6654     8.2200   101.8544     2.4807     0.1119     0.0270
  398.0000   -57.9527    12.7316     9.6400     8.2093   101.7992     2.4877     0.1120     0.0270
  398.5000   -57.9524    12.7178     9.7437     8.1985   101.7533     2.4876     0.1140     0.0274
  399.0000   -57.9523    12.7591     9.8247     8.1878   101.6523     2.4871     0.1173     0.0279
  399.5000   -57.9509    12.7959     9.9065     8.1770   100.6836     2.4780     0.1220     0.0283
  400.0000   -57.8757    12.8330     9.9886     8.1662    99.7350     2.4691     0.1268     0.0288
  400.5000   -57.7200    12.9300    10.0953     8.1555    98.7649     2.4602     0.1315     0.0302
  401.0000   -57.5622    13.0344    10.0648     8.1534    98.2022     2.4515     0.1362     0.0327
  401.5000   -57.5317    13.1397    10.0216     8.1605    98.0974     2.4471     0.1386     0.0353
  402.0000   -57.5087    13.2458     9.9785     8.1674    98.4641     2.4444     0.1386     0.0378
  402.5000   -57.4851    13.3528     9.9356     8.1744    99.2452     2.4445     0.1386     0.0411
  403.0000   -57.4612    13.4518     9.8929     8.1814    99.9933     2.4445     0.1386     0.0406
  403.5000   -57.4374    13.5042     9.8504     8.1884    99.3289     2.4453     0.1386     0.0416
  404.0000   -57.4134    13.5683     9.8081     8.1954    95.7766     2.4469     0.1378     0.0529
  404.5000   -57.3898    13.4303     9.7660     8.2024    92.4789     2.4490     0.1367     0.0638
  405.0000   -57.3648    13.2561     9.7240     8.2094    90.5797     2.4589     0.1299     0.0647
  405.5000   -57.4402    13.0841     9.6822     8.2164    90.0591     2.4687     0.1223     0.0575
  406.0000   -57.5824    12.9142     9.6406     8.2234    90.3779     2.4784     0.1146     0.0509
  406.5000   -57.7255    12.7466     9.5992     8.2304    92.6045     2.4849     0.1070     0.0468
  407.0000   -57.8690    12.5812     9.5514     8.2375    97.2221     2.4899     0.1030     0.0427
  407.5000   -58.0130    12.4179     9.5856     8.2444   101.7657     2.4948     0.1056     0.0344
  408.0000   -58.1481    12.2568     9.6263     8.2465   104.9804     2.4987     0.1082     0.0262
  408.5000   -58.1502    12.0977     9.6672     8.2261   106.0918     2.4930     0.1118     0.0181
  409.0000   -58.0158    11.9222     9.7083     8.2062   106.4811     2.4850     0.1161     0.0170
  409.5000   -57.4756    11.9836     9.7828     8.1862   106.7802     2.4769     0.1204     0.0170
  410.0000   -56.9130    12.0537     9.8936     8.1664   106.8626     2.4711     0.1229     0.0177
  410.5000   -56.3434    12.1235    10.0056     8.1495   106.7625     2.4681     0.1246     0.0184
  411.0000   -56.1043    12.1944    10.1189     8.1503   106.3638     2.4650     0.1262     0.0190
  411.5000   -56.0135    12.3358    10.2333     8.1672   104.1995     2.4620     0.1312     0.0190
  412.0000   -55.7091    12.9819    10.3494     8.1851   101.1325     2.4593     0.1369     0.0196
  412.5000   -54.4976    13.6942    10.5053     8.2029    94.9402     2.4449     0.1530     0.0213
  413.0000   -53.2797    14.7906    10.6772     8.2208    88.7219     2.4287     0.1707     0.0297
  413.5000   -52.3854    16.0389    10.8518     8.2386    82.4772     2.4076     0.1856     0.0380
  414.0000   -51.0811    17.3926    11.0294     8.2565    76.2072     2.3663     0.2048     0.0463
  414.5000   -49.9708    18.7938    11.1987     8.2744    75.4928     2.3256     0.2209     0.0488
  415.0000   -49.3560    20.0000    11.3224     8.2905    76.9038     2.3046     0.2254     0.0440
  415.5000   -49.1186    20.7529    11.4474     8.2897    81.3151     2.3009     0.2242     0.0399
  416.0000   -48.5430    20.6556    11.5960     8.2883    81.3238     2.3130     0.2106     0.0358
  416.5000   -47.7096    20.5755    11.5646     8.2920    81.2935     2.3250     0.2014     0.0318
  417.0000   -46.9762    20.2271    11.5261     8.8124    81.2456     2.3372     0.1997     0.0276
  417.5000   -46.8414    19.7096    11.4878     8.6381    83.2828     2.3429     0.1982     0.0279
  418.0000   -46.9497    18.5316    11.4495     8.3731    85.2663     2.3456     0.1970     0.0292
  418.5000   -47.1169    17.3158    11.4115     8.2914    84.7722     2.3453     0.1977     0.0306
  419.0000   -47.2836    16.8396    11.3840     8.2898    82.5535     2.3442     0.1985     0.0320
  419.5000   -47.3719    16.6949    11.3961     8.2888    79.2927     2.3438     0.1994     0.0334
  420.0000   -47.1130    16.6260    11.4053     8.2648    76.7004     2.3435     0.2002     0.0348
  420.5000   -46.8609    16.8197    11.4146     8.2407    76.6368     2.3434     0.1960     0.0341
  421.0000   -46.6235    16.9517    11.4240     8.2168    79.7014     2.3486     0.1869     0.0330
  421.5000   -46.5698    17.0933    11.4333     8.1928    83.8647     2.3568     0.1844     0.0319
  422.0000   -46.5229    17.2519    11.4427     8.1708    86.6297     2.3651     0.1861     0.0313
  422.5000   -46.4760    16.7223    11.4520     8.1893    83.9183     2.3655     0.1877     0.0332
  423.0000   -46.4329    16.1716    11.4614     8.2347    81.8420     2.3630     0.1887     0.0350
  423.5000   -46.2372    16.2372    11.4708     8.2710    82.7885     2.3625     0.1874     0.0368
  424.0000   -46.0248    16.3542    11.4803     8.2552    83.2453     2.3654     0.1848     0.0386
  424.5000   -45.8117    16.4719    11.4894     8.2315    81.8928     2.3700     0.1802     0.0405
  425.0000   -45.5989    16.5907    11.4897     8.2076    82.2539     2.3747     0.1795     0.0423
  425.5000   -45.3859    16.7108    11.4897     8.1838    80.5255     2.3775     0.1789     0.0426
  426.0000   -45.1771    16.7804    11.4897     8.1597    91.1147     2.3775     0.1782     0.0419
  426.5000   -45.0892    16.7804    11.4897     8.1503    82.4286     2.3778     0.1756     0.0412
  427.0000   -45.2951    16.7804    11.4897     8.1622    81.2919     2.3811     0.1724     0.0386
  427.5000   -45.4950    17.3960    11.4890     8.1957    81.2808     2.3881     0.1690     0.0355
  428.0000   -45.6924    18.3976    11.5185     8.2289    81.2957     2.3949     0.1645     0.0324
  428.5000   -45.8266    19.4569    11.5637     8.2620    81.4826     2.4017     0.1599     0.0293
  429.0000   -45.9097    20.5795    11.6088     8.2908    82.7180     2.4083     0.1548     0.0264
  429.5000   -46.4665    20.9489    11.6540     8.2901    83.9489     2.4147     0.1475     0.0243
  430.0000   -46.8304    20.8810    11.7039     8.2901    85.2396     2.4295     0.1411     0.0408
  430.5000   -46.8440    20.7828    10.9312     8.2968    85.6087     2.4498     0.1361     0.0606
  431.0000   -46.8635    20.1235    10.3115     8.3180    86.6425     2.4674     0.1326     0.0738
  431.5000   -46.8817    19.2661    10.0999     8.3388    87.6517     2.4673     0.1596     0.0824
