~VERSION INFORMATION
 VERS.                2.0:   CWLS LOG ASCII STANDARD - VERSION 2.0
 WRAP.                 NO:   ONE LINE PER DEPTH STEP
~WELL INFORMATION
#MNEM.UNIT      DATA TYPE    INFORMATION
#----------   ------------   ------------------------------
 STRT.F           29.0000:   START DEPTH
 STOP.F          539.0000:   STOP DEPTH
 STEP.F            0.1000:   STEP LENGTH
 NULL.          -999.2500:   NO VALUE
 COMP. LAWRENCE/ALLISON INC:   COMPANY
 WELL. NPR 3 81-11 STX #10-10:   WELL
 FLD .             TEAPOT:   FIELD
 LOC .      S10 T38N R78W:   LOCATION
 CNTY.            NATRONA:   COUNTY
 STAT.            WYOMING:   STATE
 CTRY. UNITED STATES OF AMERICA:   COUNTRY
 SRVC.           Gearhart:   SERVICE COMPANY
 DATE.        01-JUN-1987:   LOGDATE
 API .       490251113000:   API NUMBER
~CURVE INFORMATION
#MNEM.UNIT       API CODE    CURVE DESCRIPTION
#----------   ------------   ------------------------------
 DEPT.F                  :   
 GRR .GAPI   07 310 01 00:   GAMMA RAY FROM RES. LOG.
 ILD .OHMM   07 120 46 00:   INDUCTION LOG DEEP RESISTIVITY
 RILM.OHMM   07 120 44 00:   INDUCTION LOG MEDIUM RESISTIVITY
~PARAMETER INFORMATION
#MNEM.UNIT          VALUE    DESCRIPTION
#----------   ------------   ------------------------------
 PD  .                 GL:   PERMANENT DATUM
 EPD .F              5156:   ELEVATION PERMANENT DATUM
 LMF .                 KB:   LOG MEASURED FROM
 DAPD.F                 8:   FEET ABOVE PERMANENT DATUM
 DMF .                 KB:   DRILLING MEASURED FROM
 EKB .F              5164:   KELLING BUSHING
 EDF .F              5162:   DRILLING FLOOR
 EGL .F              5156:   GROUND LEVEL
 DATE.             6-1-87:   RUN DATE
 RUN .                  1:   RUN NUMBER
 DD  .F               550:   DEPTH DRILLER
 DL  .F               546:   DEPTH LOGGER
 BLI .F               540:   BOTTOM LOG INTERVAL
 TLI .F                30:   TOP LOG INTERVAL
 CS  .IN            8.625:   CASING SIZE
 CBD .F                50:   CASING BOTTOM DRILLER
 CBL .F                49:   CASING BOTTOM LOGGER
 BS  .IN            7.875:   BIT SIZE
 BSD .F               550:   BIT SIZE AT DEPTH
 DFT .                AIR:   DRILLING FLUID TYPE
 TLAB.HRS            0634:   TIME LOGGER AT BOTTOM
 MRT .F                80:   MAXIMUM RECORDED TEMPERATURE
 LUN .               7597:   LOGGING UNIT NUMBER
 LUL .           GILLETTE:   LOGGING UNIT LOCATION
 ENGI. WEATHERMON/JOHNSTON:   RECORDING ENGINEER
 WITN.             STRONG:   WITNESSED BY
 CLNT.            A2DTECH:   CLIENT CODE
 ORIG.       2", 5" PRINT:   ORIGIN OF DATA
 UWI .       490251113000:   UNIQUE WELL ID
 DICO. A2D Technologies, Inc.:   DIGITIZING COMPANY
~OTHER INFORMATION
~A   DEPT       GRR       ILD       RILM   
# ...
  174.6000   118.3940     9.2038     8.9895
  174.7000   118.4227     9.2202     9.0057
  174.8000   118.4513     9.2366     9.0220
  174.9000   118.4799     9.2530     9.0382
  175.0000   118.5085     9.2694     9.0544
  175.1000   117.6233     9.2859     9.0708
  175.2000   116.7381     9.3025     9.0871
  175.3000   115.8528     9.3191     9.1035
  175.4000   114.9676     9.3357     9.1198
  175.5000   114.0824     9.3523     9.1362
  175.6000   113.2431     9.3692     9.1527
  175.7000   112.4038     9.3861     9.1692
  175.8000   111.5645     9.4031     9.1857
  175.9000   110.7252     9.4200     9.2022
  176.0000   109.8859     9.4370     9.2187
  176.1000   109.3647     9.4430     9.2354
  176.2000   108.8434     9.4490     9.2520
  176.3000   108.3221     9.4551     9.2687
  176.4000   107.8008     9.4611     9.2853
  176.5000   107.2796     9.4671     9.3020
  176.6000   107.7440     9.4733     9.3114
  176.7000   108.2085     9.4795     9.3207
  176.8000   108.6730     9.4857     9.3301
  176.9000   109.1375     9.4918     9.3394
  177.0000   109.6020     9.4980     9.3488
  177.1000   110.3022     9.5036     9.3391
  177.2000   111.0024     9.5092     9.3293
  177.3000   111.7026     9.5148     9.3196
  177.4000   112.4027     9.5204     9.3099
  177.5000   113.1029     9.5260     9.3001
  177.6000   113.8102     9.5179     9.2934
  177.7000   114.5175     9.5098     9.2867
  177.8000   115.2248     9.5018     9.2800
  177.9000   115.9321     9.4937     9.2733
  178.0000   116.6394     9.4856     9.2666
  178.1000   117.2412     9.4782     9.2599
  178.2000   117.8430     9.4707     9.2532
  178.3000   118.4449     9.4633     9.2465
  178.4000   119.0467     9.4558     9.2398
  178.5000   119.6485     9.4483     9.2331
  178.6000   119.2965     9.4410     9.2265
  178.7000   118.9445     9.4336     9.2198
  178.8000   118.5925     9.4262     9.2131
  178.9000   118.2405     9.4188     9.2065
  179.0000   117.8885     9.4115     9.1998
  179.1000   117.3357     9.4041     9.1940
  179.2000   116.7829     9.3968     9.1883
  179.3000   116.2301     9.3895     9.1825
  179.4000   115.6773     9.3821     9.1768
  179.5000   115.1245     9.3748     9.1710
  179.6000   114.6276     9.3687     9.1679
  179.7000   114.1308     9.3626     9.1648
  179.8000   113.6339     9.3565     9.1618
  179.9000   113.1371     9.3504     9.1587
  180.0000   112.6402     9.3442     9.1556
  180.1000   112.6351     9.3411     9.1525
  180.2000   112.6300     9.3380     9.1494
  180.3000   112.6248     9.3348     9.1463
  180.4000   112.6197     9.3317     9.1433
  180.5000   112.6146     9.3285     9.1402
  180.6000   112.6172     9.3254     9.1371
  180.7000   112.6199     9.3222     9.1340
  180.8000   112.6226     9.3191     9.1310
  180.9000   112.6252     9.3160     9.1279
  181.0000   112.6279     9.3128     9.1248
  181.1000   112.6615     9.3097     9.1217
  181.2000   112.6951     9.3066     9.1186
  181.3000   112.7287     9.3035     9.1156
  181.4000   112.7623     9.3003     9.1125
  181.5000   112.7960     9.2972     9.1094
  181.6000   112.8811     9.2941     9.1054
  181.7000   112.9663     9.2909     9.1014
  181.8000   113.0515     9.2878     9.0973
  181.9000   113.1367     9.2847     9.0933
  182.0000   113.2219     9.2815     9.0893
  182.1000   113.3065     9.2776     9.0935
  182.2000   113.3911     9.2737     9.0976
  182.3000   113.4757     9.2699     9.1018
  182.4000   113.5603     9.2660     9.1060
  182.5000   113.6449     9.2621     9.1102
  182.6000   113.7293     9.2669     9.1166
  182.7000   113.8137     9.2717     9.1230
  182.8000   113.8981     9.2765     9.1294
  182.9000   113.9825     9.2813     9.1359
  183.0000   114.0669     9.2862     9.1423
  183.1000   114.2173     9.2932     9.1487
  183.2000   114.3678     9.3002     9.1551
  183.3000   114.5183     9.3072     9.1615
  183.4000   114.6688     9.3142     9.1679
  183.5000   114.8192     9.3212     9.1743
  183.6000   115.0207     9.3282     9.1807
  183.7000   115.2222     9.3352     9.1871
  183.8000   115.4237     9.3422     9.1935
  183.9000   115.6252     9.3492     9.2000
  184.0000   115.8267     9.3562     9.2064
  184.1000   116.0281     9.3633     9.2128
  184.2000   116.2295     9.3703     9.2192
  184.3000   116.4309     9.3773     9.2256
  184.4000   116.6323     9.3844     9.2320
  184.5000   116.8337     9.3914     9.2384
  184.6000   117.0355     9.4005     9.2429
  184.7000   117.2372     9.4095     9.2475
  184.8000   117.4390     9.4186     9.2521
  184.9000   117.6408     9.4277     9.2566
  185.0000   117.8426     9.4368     9.2612
  185.1000   118.1275     9.4309     9.2501
  185.2000   118.4124     9.4250     9.2389
  185.3000   118.6973     9.4190     9.2278
  185.4000   118.9822     9.4131     9.2166
  185.5000   119.2671     9.4072     9.2055
  185.6000   119.6337     9.3989     9.1969
  185.7000   120.0004     9.3905     9.1883
  185.8000   120.3671     9.3822     9.1797
  185.9000   120.7338     9.3739     9.1711
  186.0000   121.1005     9.3656     9.1625
  186.1000   121.4668     9.3585     9.1539
  186.2000   121.8330     9.3514     9.1453
  186.3000   122.1993     9.3444     9.1367
  186.4000   122.5656     9.3373     9.1281
  186.5000   122.9319     9.3302     9.1195
  186.6000   122.8779     9.3240     9.1110
  186.7000   122.8240     9.3178     9.1025
  186.8000   122.7701     9.3116     9.0939
  186.9000   122.7161     9.3054     9.0854
  187.0000   122.6622     9.2992     9.0768
  187.1000   122.1320     9.2930     9.0683
  187.2000   121.6019     9.2869     9.0598
  187.3000   121.0718     9.2807     9.0513
  187.4000   120.5416     9.2745     9.0428
  187.5000   120.0115     9.2683     9.0343
  187.6000   119.4939     9.2622     9.0259
  187.7000   118.9763     9.2560     9.0174
  187.8000   118.4587     9.2498     9.0089
  187.9000   117.9411     9.2437     9.0005
  188.0000   117.4234     9.2375     8.9920
  188.1000   117.1984     9.2314     8.9836
  188.2000   116.9734     9.2253     8.9752
  188.3000   116.7483     9.2191     8.9667
  188.4000   116.5233     9.2130     8.9583
  188.5000   116.2983     9.2068     8.9499
  188.6000   116.4017     9.2007     8.9415
  188.7000   116.5052     9.1946     8.9331
  188.8000   116.6087     9.1885     8.9247
  188.9000   116.7121     9.1824     8.9164
  189.0000   116.8156     9.1762     8.9080
  189.1000   116.9508     9.1701     8.8996
  189.2000   117.0860     9.1640     8.8913
  189.3000   117.2212     9.1579     8.8829
  189.4000   117.3565     9.1518     8.8746
  189.5000   117.4917     9.1457     8.8663
  189.6000   117.6270     9.1397     8.8546
  189.7000   117.7623     9.1336     8.8430
  189.8000   117.8977     9.1275     8.8313
  189.9000   118.0330     9.1214     8.8197
  190.0000   118.1683     9.1153     8.8080
  190.1000   118.2344     9.1052     8.7883
  190.2000   118.3004     9.0951     8.7686
  190.3000   118.3664     9.0850     8.7488
  190.4000   118.4325     9.0749     8.7291
  190.5000   118.4985     9.0647     8.7093
  190.6000   118.1009     9.0289     8.6898
  190.7000   117.7033     8.9930     8.6703
  190.8000   117.3057     8.9572     8.6508
  190.9000   116.9081     8.9213     8.6313
  191.0000   116.5104     8.8855     8.6118
  191.1000   116.1173     8.8503     8.5670
  191.2000   115.7241     8.8152     8.5222
  191.3000   115.3309     8.7801     8.4775
  191.4000   114.9377     8.7449     8.4327
  191.5000   114.5445     8.7098     8.3879
  191.6000   114.3245     8.6753     8.3377
  191.7000   114.1044     8.6409     8.2876
  191.8000   113.8843     8.6064     8.2374
  191.9000   113.6642     8.5720     8.1872
  192.0000   113.4441     8.5375     8.1370
  192.1000   113.5456     8.5006     8.0883
  192.2000   113.6471     8.4636     8.0396
  192.3000   113.7485     8.4266     7.9909
  192.4000   113.8500     8.3896     7.9422
  192.5000   113.9514     8.3527     7.8935
  192.6000   114.1632     8.3042     7.8463
  192.7000   114.3750     8.2558     7.7990
