~VERSION INFORMATION
 VERS.                2.0:   CWLS LOG ASCII STANDARD - VERSION 2.0
 WRAP.                 NO:   ONE LINE PER DEPTH STEP
~WELL INFORMATION
#MNEM.UNIT      DATA TYPE    INFORMATION
#----------   ------------   ------------------------------
 STRT.F           29.0000:   START DEPTH
 STOP.F          507.0000:   STOP DEPTH
 STEP.F            0.5000:   STEP LENGTH
 NULL.          -999.2500:   NO VALUE
 COMP.    FENIX & SCISSON:   COMPANY
 WELL.       NPR #64-SX-3:   WELL
 FLD .            WILDCAT:   FIELD
 LOC .       S3 T38N R78W:   LOCATION
 CNTY.            NATRONA:   COUNTY
 STAT.            WYOMING:   STATE
 CTRY. UNITED STATES OF AMERICA:   COUNTRY
 SRVC.           BIRDWELL:   SERVICE COMPANY
 DATE.        28-MAR-1977:   LOGDATE
 API .       490251032200:   API NUMBER
~CURVE INFORMATION
#MNEM.UNIT       API CODE    CURVE DESCRIPTION
#----------   ------------   ------------------------------
 DEPT.F                  :   
 SPR .MV     05 010 01 00:   SPONTANEOUS POTENTIAL FROM RES.
 ILD .OHMM   05 120 46 00:   INDUCTION LOG DEEP
 SN  .OHMM   05 040 16 00:   SHORT NORMAL 16"
 GRD .GAPI   45 310 01 00:   GAMMA RAY FROM DENSITY LOG
 CALD.IN     45 280 60 00:   CALIPER FROM DENSITY LOG
 CORR.G/C3   45 356 01 00:   DENSITY CORRECTION
 RHOB.G/C3   45 350 01 00:   BULK DENSITY
 DPHI.DEC    45 890 12 00:   DENSITY POROSITY SANDSTONE
~PARAMETER INFORMATION
#MNEM.UNIT          VALUE    DESCRIPTION
#----------   ------------   ------------------------------
 PD  .                 GL:   PERMANENT DATUM
 EPD .F              5145:   ELEVATION PERMANENT DATUM
 LMF .                 GL:   LOG MEASURED FROM
 DMF .                 GL:   DRILLING MEASURED FROM
 EKB .F              5150:   KELLING BUSHING
 EDF .F              5149:   DRILLING FLOOR
 EGL .F              5145:   GROUND LEVEL
 DATE.        28-MAR-1977:   RUN DATE
 RUN .                  1:   RUN NUMBER
 DD  .F               507:   DEPTH DRILLER
 DL  .F               507:   DEPTH LOGGER
 BLI .F               501:   BOTTOM LOG INTERVAL
 TLI .F                40:   TOP LOG INTERVAL
 CS  .IN            8.625:   CASING SIZE
 CBD .F                40:   CASING BOTTOM DRILLER
 CBL .F                43:   CASING BOTTOM LOGGER
 BS  .IN            7.875:   BIT SIZE
 BSD .F               507:   BIT SIZE AT DEPTH
 DFT .                KCL:   DRILLING FLUID TYPE
 DFD .                8.5:   DRILLING FLUID DENSITY
 DFV .                 31:   DRILLING FLUID VISCOSITY
 DFPH.                 10:   DRILLING FLUID PH
 DFL .                 78:   DRILLING FLUID LOSS
 MSS .                PIT:   MUD SAMPLE SOURCE
 RMS .OHMM            .54:   RESISTIVITY MUD SAMPLE
 MST .F                60:   MUD SAMPLE TEMPERATURE
 RMF .OHMM            .46:   RESISTIVITY MUD FILTRATE SAMPLE
 MFST.F                64:   MUD FILTRATE SAMPLE TEMPERATURE
 RMC .OHMM            .52:   RESISTIVITY MUD CAKE
 MCST.F                64:   MUD CAKE SAMPLE TEMPERATURE
 MFSS.               MEAS:   MUD FILTRATE SAMPLE SOURCE
 MCSS.               MEAS:   MUD CAKE SAMPLE SOURCE
 RMB .OHMM            .51:   RESISTIVITY MUD AT BHT
 BHT .F                63:   BOTTOM HOLE TEMPERATURE
 TCS .HRS            0300:   TIME CURCULATED STOPPED
 MRT .F                63:   MAXIMUM RECORDED TEMPERATURE
 LUN .               3026:   LOGGING UNIT NUMBER
 LUL .             CASPER:   LOGGING UNIT LOCATION
 ENGI.             RAWSON:   RECORDING ENGINEER
 WITN.         STUERINCER:   WITNESSED BY
 CLNT.            A2DTECH:   CLIENT CODE
 ORIG.           5" PRINT:   ORIGIN OF DATA
 UWI .       490251032200:   UNIQUE WELL ID
 DICO. A2D Technologies, Inc.:   DIGITIZING COMPANY
~OTHER INFORMATION
~A   DEPT      SPR        ILD         SN        GRD       CALD       CORR       RHOB       DPHI   
# ...
  150.5000   -34.6431     8.2469     9.7510    66.3989     7.4241    -0.0017     2.4073     0.1437
  151.0000   -34.6484     8.2867     9.8189    66.7051     7.4111     0.0011     2.4082     0.1455
  151.5000   -34.6528     8.4013     9.8873    66.5621     7.3980    -0.0022     2.4075     0.1481
  152.0000   -34.3560     8.4583     9.8189    66.1936     7.4000    -0.0069     2.4061     0.1478
  152.5000   -34.0592     8.4572     9.8873    66.0516     7.4019    -0.0068     2.4047     0.1444
  153.0000   -33.9119     8.5152     9.8189    66.4386     7.3889    -0.0025     2.4078     0.1398
  153.5000   -33.7657     8.5733     9.8189    67.3375     7.3909     0.0016     2.4140     0.1380
  154.0000   -33.7712     8.5718     9.8873    66.2904     7.3928     0.0014     2.4117     0.1398
  154.5000   -33.9262     8.6306     9.8873    65.9288     7.3948    -0.0018     2.4111     0.1410
  155.0000   -34.0813     8.6292     9.8873    66.3124     7.3817    -0.0035     2.4142     0.1403
  155.5000   -34.2373     8.6280     9.9561    66.3914     7.3671    -0.0052     2.4166     0.1385
  156.0000   -34.3923     8.7473     9.9685    65.4251     7.3072     0.0006     2.4183     0.1378
  156.5000   -34.5473     8.8070     9.9907    65.5100     7.1929     0.0080     2.4205     0.1394
  157.0000   -34.7023     8.8668    10.0129    66.0444     7.1479     0.0017     2.4182     0.1402
  157.5000   -34.8573     8.9273    10.0255    66.8002     7.1070    -0.0090     2.4169     0.1386
  158.0000   -34.7100     8.9885    10.0953    67.4062     7.3234    -0.0167     2.4178     0.1373
  158.5000   -34.5649     9.0498    10.0953    67.9331     7.3804    -0.0214     2.4178     0.1370
  159.0000   -34.4187     9.0483    10.0953    67.9355     7.3523    -0.0322     2.4179     0.1408
  159.5000   -34.1084     9.0471    10.0953    67.5680     7.3216    -0.0384     2.4172     0.1418
  160.0000   -33.6745     8.9833    10.1704    68.1786     7.2669    -0.0536     2.4211     0.1357
  160.5000   -33.3788     8.9821    10.2004    68.3301     7.2239    -0.0855     2.4235     0.1284
  161.0000   -33.2315     8.8572    10.2310    68.4920     7.2258    -0.0977     2.4349     0.1199
  161.5000   -33.2370     8.7947    10.2284    69.0921     7.2278    -0.1160     2.4433     0.1196
  162.0000   -33.3920     8.7327    10.2258    68.0822     7.2297    -0.1357     2.4464     0.1238
  162.5000   -33.5470     8.6710    10.1519    67.1151     7.2317    -0.1420     2.4472     0.1397
  163.0000   -33.8526     8.6698    10.1494    67.0733     7.2336    -0.1497     2.4428     0.1379
  163.5000   -34.0076     8.6686    10.0766    67.2320     7.2355    -0.1634     2.4218     0.1342
  164.0000   -34.1627     8.6674    10.0044    66.5569     7.2375    -0.1727     2.4188     0.1318
  164.5000   -34.3187     8.6663    10.0018    65.9789     7.2394    -0.1789     2.4235     0.1314
  165.0000   -34.3231     8.6651     9.9993    66.5852     7.2713    -0.1805     2.4273     0.1365
  165.5000   -34.3275     8.7245     9.9276    66.0702     7.3032    -0.1130     2.4259     0.1486
  166.0000   -34.3319     8.7230     9.9251    65.2114     7.3500    -0.0891     2.4019     0.1609
  166.5000   -34.1856     8.7218     9.8534    64.8164     7.3669    -0.0923     2.3823     0.1774
  167.0000   -34.0383     8.7206     9.7827    65.8755     7.2192    -0.0985     2.3704     0.1889
  167.5000   -33.7425     8.5993     9.7126    66.3306     6.8918    -0.1198     2.3516     0.1840
  168.0000   -33.8976     8.5385     9.7102    65.7429     6.8633    -0.2209     2.3358     0.1662
  168.5000   -34.5151     8.4783     9.7077    65.3776     6.8657    -0.2422     2.3774     0.1471
  169.0000   -34.9617     8.4186     9.7053    66.2099     6.8976    -0.3087     2.3873     0.1024
  169.5000   -35.1167     8.3593     9.7028    66.5175     7.0043    -0.3495     2.4228     0.0997
  170.0000   -35.1211     8.3581     9.7003    65.7802     7.1709    -0.2307     2.4825     0.1229
  170.5000   -35.1255     8.3570     9.6978    65.2652     7.3525    -0.0592     2.4683     0.1313
  171.0000   -34.9782     8.3558     9.6948    65.0474     7.3994    -0.0263     2.4367     0.1273
  171.5000   -35.1343     8.3547     9.6253    65.8790     7.3859    -0.0129     2.4368     0.1264
  172.0000   -35.1387     8.3536     9.4246    65.2913     7.3883    -0.0056     2.4369     0.1299
  172.5000   -35.1431     8.2374     9.1642    64.9987     7.3902    -0.0090     2.4317     0.1326
  173.0000   -34.3855     8.1228     9.2263    64.4110     7.3922    -0.0182     2.4302     0.1284
  173.5000   -33.9217     7.7904     9.2234    64.7942     7.3941    -0.0213     2.4341     0.1262
  174.0000   -33.8009     7.4719     9.2211    65.7763     7.3961    -0.0214     2.4395     0.1301
  174.5000   -33.9570     7.2665     9.2155    66.4574     7.3825    -0.0266     2.4328     0.1319
  175.0000   -33.9614     7.0667     9.0788    65.3458     7.3850    -0.0309     2.4291     0.1309
  175.5000   -33.6635     7.0169     8.8377    64.6811     7.3570    -0.0278     2.4277     0.1357
  176.0000   -33.3667     6.9193     8.4751    66.0374     7.3140    -0.0208     2.4180     0.1420
  176.5000   -33.0710     6.9183     8.1273    65.7141     7.2855    -0.0179     2.4068     0.1477
  177.0000   -33.0754     6.9174     7.9028    67.1024     7.3029    -0.0196     2.4031     0.1528
  177.5000   -33.3886     7.0131     7.8461    67.9347     7.3498    -0.0319     2.4024     0.1488
  178.0000   -34.1627     7.1615     8.0092    66.8209     7.4116    -0.0246     2.4048     0.1446
  178.5000   -34.8969     7.3157     8.2326    64.6592     7.4584    -0.0052     2.4147     0.1391
  179.0000   -35.0519     7.5134     8.6523    64.4414     7.4604    -0.0023     2.4155     0.1357
  179.5000   -35.2069     7.7237     9.0048    64.3006     7.4623    -0.0086     2.4141     0.1360
  180.0000   -35.2113     7.7767     9.0658    64.6861     7.4488     0.0048     2.4187     0.1411
  180.5000   -35.3663     7.7754     9.0630    65.5932     7.4358     0.0197     2.4189     0.1504
  181.0000   -35.3707     7.7743     9.0607    66.2758     7.4382     0.0149     2.4061     0.1534
  181.5000   -35.2244     7.7195     8.9957    66.9584     7.4401    -0.0048     2.3979     0.1491
  182.0000   -35.0735     7.7185     8.9934    68.0909     7.4421    -0.0306     2.4040     0.1412
  182.5000   -34.5828     7.7174     8.9912    67.5759     7.4291    -0.0384     2.4139     0.1391
  183.0000   -34.0328     7.7164     8.9889    66.9860     7.4310    -0.0566     2.4185     0.1357
  183.5000   -33.7360     7.7153     8.9865    66.9179     7.4175    -0.0884     2.4208     0.1312
  184.0000   -33.5898     7.6610     8.9216    66.8520     7.4199    -0.1067     2.4285     0.1293
  184.5000   -33.4436     7.6067     8.9194    67.8363     7.4368    -0.1039     2.4338     0.1293
  185.0000   -33.4491     7.4491     8.8555    68.8916     7.4837    -0.1071     2.4362     0.1304
  185.5000   -33.6041     7.2947     8.8532    68.0046     7.5006    -0.1058     2.4363     0.1328
  186.0000   -33.6085     7.1435     8.7898    69.1820     7.4876    -0.0894     2.4371     0.1376
  186.5000   -33.6130     6.9955     8.5469    68.9192     7.4895    -0.0655     2.4327     0.1418
  187.0000   -33.7681     6.8032     8.1962    67.2815     7.4914    -0.0597     2.4230     0.1414
  187.5000   -33.7734     6.6161     8.1941    66.8413     7.4934    -0.0554     2.4193     0.1378
  188.0000   -33.9284     6.4790     8.1349    67.0040     7.4953    -0.0360     2.4269     0.1338
  188.5000   -34.0834     6.3889     8.0207    68.8046     7.4823    -0.0241     2.4285     0.1335
  189.0000   -34.3890     6.3880     7.9082    67.7679     7.4688    -0.0243     2.4248     0.1316
  189.5000   -34.6946     6.4316     7.6897    67.6249     7.4558    -0.0290     2.4242     0.1298
  190.0000   -34.8496     6.4755     7.4772    67.4115     7.4432    -0.0307     2.4304     0.1294
  190.5000   -34.4022     6.5648     7.4753    68.3187     7.4452    -0.0294     2.4327     0.1309
