~VERSION INFORMATION
 VERS.                2.0:   CWLS LOG ASCII STANDARD - VERSION 2.0
 WRAP.                 NO:   ONE LINE PER DEPTH STEP
~WELL INFORMATION
#MNEM.UNIT      DATA TYPE    INFORMATION
#----------   ------------   ------------------------------
 STRT.F          248.0000:   START DEPTH
 STOP.F         2495.0000:   STOP DEPTH
 STEP.F            0.5000:   STEP LENGTH
 NULL.          -999.2500:   NO VALUE
 COMP. FENIX & SCISSON INC:   COMPANY
 WELL.      85 SHX #28-28:   WELL
 FLD .             TEAPOT:   FIELD
 LOC .      S28 T39N R78W:   LOCATION
 CNTY.            NATRONA:   COUNTY
 STAT.            WYOMING:   STATE
 CTRY. UNITED STATES OF AMERICA:   COUNTRY
 SRVC.           BIRDWELL:   SERVICE COMPANY
 DATE.        18-AUG-1979:   LOGDATE
 API .       490251079700:   API NUMBER
~CURVE INFORMATION
#MNEM.UNIT       API CODE    CURVE DESCRIPTION
#----------   ------------   ------------------------------
 DEPT.F                  :   
 CALD.IN     45 280 60 00:   CALIPER
 CORR.G/C3   45 356 01 00:   DENSITY CORRECTION
 RHOB.G/C3   45 350 01 00:   BULK DENSITY
 DPHI.DEC    45 890 12 00:   DENSITY POROSITY SANDSTONE
 GRD .GAPI   45 310 01 00:   GAMMA RAY FROM DENSITY LOG
~PARAMETER INFORMATION
#MNEM.UNIT          VALUE    DESCRIPTION
#----------   ------------   ------------------------------
 PD  .                 GL:   PERMANENT DATUM
 EPD .F              5044:   ELEVATION PERMANENT DATUM
 LMF .                 DF:   LOG MEASURED FROM
 DMF .                 KB:   DRILLING MEASURED FROM
 EKB .F              5054:   KELLING BUSHING
 EDF .F              5052:   DRILLING FLOOR
 EGL .F              5044:   GROUND LEVEL
 DATE.            8-18-79:   RUN DATE
 RUN .                  1:   RUN NUMBER
 DD  .F              2500:   DEPTH DRILLER
 DL  .F              2495:   DEPTH LOGGER
 BLI .F              2495:   BOTTOM LOG INTERVAL
 CS  .IN            9.625:   CASING SIZE
 CBD .F               520:   CASING BOTTOM DRILLER
 CBL .F               505:   CASING BOTTOM LOGGER
 BS  .IN             8.75:   BIT SIZE
 BSD .F              2500:   BIT SIZE AT DEPTH
 DFT .                AIR:   DRILLING FLUID TYPE
 TCS .HRS               2:   TIME CURCULATED STOPPED
 ENGI.          B. MILLER:   RECORDING ENGINEER
 WITN.           DINSMORE:   WITNESSED BY
 CLNT.            A2DTECH:   CLIENT CODE
 ORIG.           5" PRINT:   ORIGIN OF DATA
 UWI .       490251079700:   UNIQUE WELL ID
 DICO. A2D Technologies, Inc.:   DIGITIZING COMPANY
~OTHER INFORMATION
~A   DEPT     CALD       CORR       RHOB       DPHI         GRD  
# ...
 1041.0000    10.0200     0.2293     2.4570     0.0531   156.7467
 1041.5000    10.0087     0.2352     2.4734     0.0405   161.3181
 1042.0000     9.9975     0.2413     2.4916     0.0308   159.4339
 1042.5000     9.9899     0.2338     2.4865     0.0335   157.4139
 1043.0000     9.9898     0.2349     2.4912     0.0365   162.5727
 1043.5000     9.9880     0.2423     2.4851     0.0398   165.8634
 1044.0000     9.9862     0.2434     2.4750     0.0452   165.9138
 1044.5000     9.9845     0.2590     2.4649     0.0490   164.7780
 1045.0000     9.9827     0.2609     2.4591     0.0523   157.4968
 1045.5000     9.9810     0.2630     2.4803     0.0386   157.0845
 1046.0000     9.9792     0.2679     2.5039     0.0219   162.4159
 1046.5000     9.9775     0.2266     2.5112     0.0251   167.7781
 1047.0000     9.9757     0.1654     2.4899     0.0378   164.5492
 1047.5000     9.9740     0.1071     2.4689     0.0457   159.4852
 1048.0000     9.9722     0.1081     2.4735     0.0417   154.3507
 1048.5000     9.9702     0.1189     2.4750     0.0429   150.0948
 1049.0000     9.9787     0.1298     2.4634     0.0527   150.1339
 1049.5000     9.9894     0.1407     2.4541     0.0549   154.6250
 1050.0000    10.0002     0.1519     2.4476     0.0569   163.1470
 1050.5000    10.0109     0.1606     2.4411     0.0620   160.7361
 1051.0000    10.0216     0.1726     2.4594     0.0483   157.0853
 1051.5000    10.0324     0.1752     2.4635     0.0483   153.1573
 1052.0000    10.0431     0.1870     2.4746     0.0415   158.2476
 1052.5000    10.0538     0.2069     2.4994     0.0330   165.9659
 1053.0000    10.0646     0.2209     2.4810     0.0383   167.5442
 1053.5000    10.0678     0.2129     2.4589     0.0531   162.4370
 1054.0000    10.0643     0.2169     2.4487     0.0564   155.4450
 1054.5000    10.0608     0.2145     2.4694     0.0408   155.0974
 1055.0000    10.0572     0.1908     2.4811     0.0379   156.8556
 1055.5000    10.0537     0.1648     2.4756     0.0431   158.9465
 1056.0000    10.0501     0.1376     2.4636     0.0481   159.4137
 1056.5000    10.0466     0.1224     2.4606     0.0493   158.8267
 1057.0000    10.0430     0.1103     2.4632     0.0499   160.0049
 1057.5000    10.0395     0.0987     2.4589     0.0509   162.7156
 1058.0000    10.0359     0.1145     2.4649     0.0494   169.2236
 1058.5000    10.0324     0.1380     2.4655     0.0476   175.7275
 1059.0000    10.0288     0.1617     2.4664     0.0456   172.3418
 1059.5000    10.0253     0.1798     2.4774     0.0402   170.1142
 1060.0000    10.0217     0.1769     2.4785     0.0393   177.0778
 1060.5000    10.0182     0.1430     2.4747     0.0416   182.2613
 1061.0000    10.0146     0.1084     2.4678     0.0447   179.2196
 1061.5000    10.0110     0.0757     2.4630     0.0479   175.3483
 1062.0000    10.0100     0.0507     2.4611     0.0510   171.4908
 1062.5000    10.0175     0.0299     2.4502     0.0568   167.6267
 1063.0000    10.0258     0.0166     2.4303     0.0676   166.1713
 1063.5000    10.0339     0.0069     2.4102     0.0785   171.5319
 1064.0000    10.0419     0.0141     2.3920     0.0895   169.3076
 1064.5000    10.0540     0.0490     2.3768     0.0996   167.0190
 1065.0000    10.1024     0.0938     2.3669     0.1035   167.3472
 1065.5000    10.1492     0.1440     2.3638     0.1045   172.1334
 1066.0000    10.1960     0.1938     2.3830     0.0988   167.7377
 1066.5000    10.2426     0.2705     2.4126     0.0740   163.8813
 1067.0000    10.2689     0.3534     2.4470     0.0529   160.8281
 1067.5000    10.2750     0.4362     2.4813     0.0344   161.0374
 1068.0000    10.2822     0.5002     2.5129     0.0183   167.4797
 1068.5000    10.2893     0.4990     2.5371     0.0048   173.7520
 1069.0000    10.2965     0.4990     2.5436     0.0004   178.7323
 1069.5000    10.3035     0.4990     2.5617    -0.0117   173.0432
 1070.0000    10.2977     0.4991     2.5763    -0.0181   167.2083
 1070.5000    10.2444     0.4988     2.5472     0.0026   162.0145
 1071.0000    10.1919     0.4623     2.5090     0.0224   165.3996
 1071.5000    10.1313     0.4347     2.4725     0.0470   172.1260
 1072.0000    10.1370     0.4575     2.4098     0.0716   177.8259
 1072.5000    10.4383     0.4982     2.3260     0.1264   177.9508
 1073.0000    10.5068     0.5010     2.3660     0.1124   167.9285
 1073.5000    10.3888     0.5000     2.4472     0.0504   160.7205
 1074.0000    10.2455     0.4999     2.5285    -0.0121   155.8226
 1074.5000    10.1396     0.4326     2.5686     0.0007   156.0410
 1075.0000    10.0834     0.3231     2.4824     0.0430   158.9283
 1075.5000    10.0472     0.2484     2.4306     0.0688   156.7717
 1076.0000    10.1365     0.2264     2.4200     0.0717   152.4914
 1076.5000    10.2283     0.2121     2.4171     0.0744   152.7331
 1077.0000    10.2164     0.1997     2.4183     0.0741   155.8506
 1077.5000    10.1741     0.1905     2.4293     0.0682   155.5195
 1078.0000    10.1253     0.1862     2.4401     0.0596   156.2749
 1078.5000    10.2348     0.1831     2.4423     0.0662   157.4695
 1079.0000    10.2403     0.1836     2.4032     0.0804   153.9466
 1079.5000    10.0879     0.1894     2.3668     0.1069   154.0588
 1080.0000     9.9372     0.2861     2.3166     0.1332   156.3408
 1080.5000     9.9612     0.4186     2.3330     0.1270   158.2271
 1081.0000     9.9968     0.4998     2.3647     0.0972   158.3610
 1081.5000    10.0316     0.4990     2.4680     0.0368   157.0904
 1082.0000    10.0653     0.4997     2.6099    -0.0787   155.8367
 1082.5000    10.0605     0.4982     2.7092    -0.0926   154.5874
 1083.0000     9.9526     0.3736     2.5512    -0.0103   152.7930
 1083.5000     9.9368     0.2361     2.4944     0.0449   150.4895
 1084.0000     9.9548     0.2252     2.4571     0.0505   148.1833
 1084.5000     9.9733     0.2329     2.4536     0.0516   146.0566
 1085.0000     9.9900     0.2433     2.4569     0.0512   145.7838
 1085.5000     9.9900     0.2445     2.4583     0.0488   146.4854
 1086.0000     9.9749     0.2533     2.4775     0.0353   147.8469
 1086.5000     9.9582     0.2632     2.5030     0.0216   149.2097
 1087.0000     9.9416     0.2548     2.5289     0.0083   150.5728
 1087.5000     9.9250     0.2338     2.5345     0.0092   151.9487
 1088.0000     9.9082     0.2067     2.5268     0.0164   152.3461
 1088.5000     9.8911     0.1569     2.4903     0.0371   152.1580
 1089.0000     9.8954     0.1071     2.4551     0.0588   151.9927
 1089.5000     9.9025     0.1056     2.4395     0.0608   152.0002
 1090.0000     9.9095     0.1149     2.4618     0.0465   152.2133
 1090.5000     9.9165     0.1033     2.4544     0.0540   151.0619
 1091.0000     9.9235     0.0895     2.4429     0.0589   149.2821
 1091.5000     9.9304     0.0683     2.4317     0.0656   147.4682
 1092.0000     9.9374     0.0706     2.4337     0.0649   148.3304
 1092.5000     9.9444     0.0727     2.4321     0.0641   154.8850
 1093.0000     9.9514     0.0658     2.4307     0.0630   159.6708
 1093.5000     9.9584     0.0573     2.4390     0.0616   158.2740
 1094.0000     9.9653     0.0546     2.4489     0.0559   157.2474
 1094.5000     9.9702     0.0591     2.4588     0.0506   162.5028
 1095.0000     9.9697     0.0679     2.4656     0.0468   163.6121
 1095.5000     9.9859     0.0765     2.4564     0.0501   156.7951
 1096.0000    10.0065     0.0913     2.4476     0.0545   150.6748
 1096.5000    10.0272     0.1231     2.4392     0.0607   144.5905
 1097.0000    10.0477     0.1550     2.4387     0.0640   143.7515
 1097.5000    10.0499     0.1873     2.4506     0.0571   145.8410
 1098.0000    10.0498     0.2117     2.4619     0.0470   148.7179
 1098.5000    10.0498     0.2015     2.4708     0.0430   150.1568
 1099.0000    10.0498     0.1772     2.4754     0.0400   151.3961
 1099.5000    10.0498     0.1506     2.4778     0.0392   158.7572
 1100.0000    10.0498     0.1265     2.4731     0.0436   167.1655
 1100.5000    10.0498     0.1215     2.4680     0.0459   170.9915
 1101.0000    10.0498     0.1141     2.4531     0.0544   162.3333
 1101.5000    10.0498     0.1013     2.4472     0.0571   152.8958
