~VERSION INFORMATION
 VERS.                2.0:   CWLS LOG ASCII STANDARD - VERSION 2.0
 WRAP.                 NO:   ONE LINE PER DEPTH STEP
~WELL INFORMATION
#MNEM.UNIT      DATA TYPE    INFORMATION
#----------   ------------   ------------------------------
 STRT.F            0.0000:   START DEPTH
 STOP.F         2258.0000:   STOP DEPTH
 STEP.F            0.5000:   STEP LENGTH
 NULL.          -999.2500:   NO VALUE
 COMP. BROWN JOHN E&C INC:   COMPANY
 WELL. NPR-3-STX-6-SX-10 #73-10:   WELL
 FLD .             TEAPOT:   FIELD
 LOC .      S10 T38N R78W:   LOCATION
 CNTY.            NATRONA:   COUNTY
 STAT.            WYOMING:   STATE
 CTRY. UNITED STATES OF AMERICA:   COUNTRY
 SRVC.            Unknown:   SERVICE COMPANY
 DATE.        09-APR-1993:   LOGDATE
 API .       490251091200:   API NUMBER
~CURVE INFORMATION
#MNEM.UNIT       API CODE    CURVE DESCRIPTION
#----------   ------------   ------------------------------
 DEPT.F                  :   
 GR  .GAPI   81 310 01 00:   GAMMA RAY
 DT  .US/F   81 520 00 00:   DELTA SONIC
 ROP .MIN/FT 91 810 01 00:   RATE OF DRILLING PENETRATION
 TGAS.UNITS  91 830 01 00:   TOTAL GAS FROM HOTWIRE
~PARAMETER INFORMATION
#MNEM.UNIT          VALUE    DESCRIPTION
#----------   ------------   ------------------------------
 PD  .                 GL:   PERMANENT DATUM
 LMF .                 GL:   LOG MEASURED FROM
 DMF .                 GL:   DRILLING MEASURED FROM
 DATE.             4-9-93:   RUN DATE
 RUN .                  1:   RUN NUMBER
 DD  .F               442:   DEPTH DRILLER
 TCS .HRS            1000:   TIME CURCULATED STOPPED
 TLAB.HRS            1100:   TIME LOGGER AT BOTTOM
 LUN .                509:   LOGGING UNIT NUMBER
 LUL .           GILLETTE:   LOGGING UNIT LOCATION
 ENGI.            METCALF:   RECORDING ENGINEER
 WITN.              SYLAR:   WITNESSED BY
 CLNT.            A2DTECH:   CLIENT CODE
 ORIG.           5" PRINT:   ORIGIN OF DATA
 UWI .       490251091200:   UNIQUE WELL ID
 DICO. A2D Technologies, Inc.:   DIGITIZING COMPANY
~OTHER INFORMATION
~A    DEPT       GR        DT        ROP       TGAS   
# ...
 1679.0000  -999.2500  -999.2500     0.4585  1164.2242
 1679.5000  -999.2500  -999.2500     0.4585  1161.5427
 1680.0000  -999.2500  -999.2500     0.4585  1158.8573
 1680.5000  -999.2500  -999.2500     0.4584  1156.1495
 1681.0000  -999.2500  -999.2500     0.4580  1153.3903
 1681.5000  -999.2500  -999.2500     0.4576  1153.2581
 1682.0000  -999.2500  -999.2500     0.4572  1153.2769
 1682.5000  -999.2500  -999.2500     0.4568  1153.2828
 1683.0000  -999.2500  -999.2500     0.4564  1153.2909
 1683.5000  -999.2500  -999.2500     0.4560  1153.3286
 1684.0000  -999.2500  -999.2500     0.4556  1153.1261
 1684.5000  -999.2500  -999.2500     0.4552  1146.2533
 1685.0000  -999.2500  -999.2500     0.4548  1139.0070
 1685.5000  -999.2500  -999.2500     0.4544  1131.7900
 1686.0000  -999.2500  -999.2500     0.4540  1124.5090
 1686.5000  -999.2500  -999.2500     0.4536  1121.8881
 1687.0000  -999.2500  -999.2500     0.4532  1121.8416
 1687.5000  -999.2500  -999.2500     0.4527  1121.4744
 1688.0000  -999.2500  -999.2500     0.4523  1121.1125
 1688.5000  -999.2500  -999.2500     0.4519  1120.7487
 1689.0000  -999.2500  -999.2500     0.4515  1120.3838
 1689.5000  -999.2500  -999.2500     0.4511  1120.0190
 1690.0000  -999.2500  -999.2500     0.4507  1119.6542
 1690.5000  -999.2500  -999.2500     0.4503  1119.2894
 1691.0000  -999.2500  -999.2500     0.4499  1118.9246
 1691.5000  -999.2500  -999.2500     0.4495  1118.5598
 1692.0000  -999.2500  -999.2500     0.4491  1118.1949
 1692.5000  -999.2500  -999.2500     0.4487  1117.8302
 1693.0000  -999.2500  -999.2500     0.4483  1117.4653
 1693.5000  -999.2500  -999.2500     0.4479  1117.1005
 1694.0000  -999.2500  -999.2500     0.4475  1116.7369
 1694.5000  -999.2500  -999.2500     0.4470  1116.3763
 1695.0000  -999.2500  -999.2500     0.4465  1116.0044
 1695.5000  -999.2500  -999.2500     0.4465  1115.6160
 1696.0000  -999.2500  -999.2500     0.4590  1113.3031
 1696.5000  -999.2500  -999.2500     0.5091  1107.7502
 1697.0000  -999.2500  -999.2500     0.5577  1102.2384
 1697.5000  -999.2500  -999.2500     0.6067  1096.7009
 1698.0000  -999.2500  -999.2500     0.6573  1091.1936
 1698.5000  -999.2500  -999.2500     0.6554  1090.4268
 1699.0000  -999.2500  -999.2500     0.6498  1090.4091
 1699.5000  -999.2500  -999.2500     0.6580  1090.5507
 1700.0000  -999.2500  -999.2500     0.6797  1090.7852
 1700.5000  -999.2500  -999.2500     0.7014  1087.8019
 1701.0000  -999.2500  -999.2500     0.7233  1073.6255
 1701.5000  -999.2500  -999.2500     0.7445  1058.6034
 1702.0000  -999.2500  -999.2500     0.7463  1041.3118
 1702.5000  -999.2500  -999.2500     0.6920  1023.8439
 1703.0000  -999.2500  -999.2500     0.6395  1006.2833
 1703.5000  -999.2500  -999.2500     0.5874   988.7253
 1704.0000  -999.2500  -999.2500     0.5352   971.1422
 1704.5000  -999.2500  -999.2500     0.5100   953.7571
 1705.0000  -999.2500  -999.2500     0.5119   938.9875
 1705.5000  -999.2500  -999.2500     0.5138   934.4932
 1706.0000  -999.2500  -999.2500     0.5159   929.3777
 1706.5000  -999.2500  -999.2500     0.5179   924.2310
 1707.0000  -999.2500  -999.2500     0.5199   919.1159
 1707.5000  -999.2500  -999.2500     0.5220   913.9753
 1708.0000  -999.2500  -999.2500     0.5240   908.8743
 1708.5000  -999.2500  -999.2500     0.5260   909.7706
 1709.0000  -999.2500  -999.2500     0.5280   911.6303
 1709.5000  -999.2500  -999.2500     0.5302   913.5086
 1710.0000  -999.2500  -999.2500     0.5325   915.3796
 1710.5000  -999.2500  -999.2500     0.5319   917.2465
 1711.0000  -999.2500  -999.2500     0.4857   919.1135
 1711.5000  -999.2500  -999.2500     0.4409   920.9812
 1712.0000  -999.2500  -999.2500     0.3950   922.8474
 1712.5000  -999.2500  -999.2500     0.3861   924.7166
 1713.0000  -999.2500  -999.2500     0.3894   926.6157
 1713.5000  -999.2500  -999.2500     0.3933   926.8099
 1714.0000  -999.2500  -999.2500     0.3971   926.2269
 1714.5000  -999.2500  -999.2500     0.4009   925.6362
 1715.0000  -999.2500  -999.2500     0.4047   925.0468
 1715.5000  -999.2500  -999.2500     0.4084   924.4588
 1716.0000  -999.2500  -999.2500     0.4122   923.8710
 1716.5000  -999.2500  -999.2500     0.4160   923.2833
 1717.0000  -999.2500  -999.2500     0.4197   922.6976
 1717.5000  -999.2500  -999.2500     0.4282   922.1082
 1718.0000  -999.2500  -999.2500     0.4387   921.5200
 1718.5000  -999.2500  -999.2500     0.4491   921.0079
 1719.0000  -999.2500  -999.2500     0.4585   916.0096
 1719.5000  -999.2500  -999.2500     0.4561   909.0390
 1720.0000  -999.2500  -999.2500     0.4526   902.0331
 1720.5000  -999.2500  -999.2500     0.4489   895.6830
 1721.0000  -999.2500  -999.2500     0.4473   895.2680
 1721.5000  -999.2500  -999.2500     0.4810   894.8555
 1722.0000  -999.2500  -999.2500     0.5145   894.4158
 1722.5000  -999.2500  -999.2500     0.5458   893.9725
 1723.0000  -999.2500  -999.2500     0.5467   893.5284
 1723.5000  -999.2500  -999.2500     0.5464   893.0843
 1724.0000  -999.2500  -999.2500     0.5465   892.6403
 1724.5000  -999.2500  -999.2500     0.5547   892.1962
 1725.0000  -999.2500  -999.2500     0.6054   891.7522
 1725.5000  -999.2500  -999.2500     0.6562   891.3082
 1726.0000  -999.2500  -999.2500     0.7068   890.8640
 1726.5000  -999.2500  -999.2500     0.7575   890.4196
 1727.0000  -999.2500  -999.2500     0.8080   889.9766
 1727.5000  -999.2500  -999.2500     0.8586   889.5322
 1728.0000  -999.2500  -999.2500     0.8865   889.3189
 1728.5000  -999.2500  -999.2500     0.8580   889.5361
 1729.0000  -999.2500  -999.2500     0.7908   889.7808
 1729.5000  -999.2500  -999.2500     0.7249   890.0270
 1730.0000  -999.2500  -999.2500     0.6699   890.2729
 1730.5000  -999.2500  -999.2500     0.6693   890.5185
 1731.0000  -999.2500  -999.2500     0.6671   890.7641
 1731.5000  -999.2500  -999.2500     0.6647   891.0097
 1732.0000  -999.2500  -999.2500     0.6625   891.2553
 1732.5000  -999.2500  -999.2500     0.6607   891.5009
 1733.0000  -999.2500  -999.2500     0.6384   891.7465
 1733.5000  -999.2500  -999.2500     0.6094   891.9922
 1734.0000  -999.2500  -999.2500     0.5805   892.2378
 1734.5000  -999.2500  -999.2500     0.5597   892.4834
 1735.0000  -999.2500  -999.2500     0.5652   892.7290
 1735.5000  -999.2500  -999.2500     0.5701   892.9746
 1736.0000  -999.2500  -999.2500     0.5750   893.2202
 1736.5000  -999.2500  -999.2500     0.5799   893.4658
 1737.0000  -999.2500  -999.2500     0.5848   893.7114
 1737.5000  -999.2500  -999.2500     0.5896   893.9570
 1738.0000  -999.2500  -999.2500     0.5944   894.2026
 1738.5000  -999.2500  -999.2500     0.5761   894.4482
 1739.0000  -999.2500  -999.2500     0.5397   894.6939
 1739.5000  -999.2500  -999.2500     0.5031   894.9490
 1740.0000  -999.2500  -999.2500     0.4663   895.2258
 1740.5000  -999.2500  -999.2500     0.4337   895.4769
 1741.0000  -999.2500  -999.2500     0.4354   893.3237
 1741.5000  -999.2500  -999.2500     0.4375   873.5165
 1742.0000  -999.2500  -999.2500     0.4395   853.4642
 1742.5000  -999.2500  -999.2500     0.4415   833.4767
 1743.0000  -999.2500  -999.2500     0.4434   813.4926
 1743.5000  -999.2500  -999.2500     0.4456   793.5124
 1744.0000  -999.2500  -999.2500     0.4406   773.5317
 1744.5000  -999.2500  -999.2500     0.4331   753.5497
 1745.0000  -999.2500  -999.2500     0.4254   733.5697
 1745.5000  -999.2500  -999.2500     0.4178   713.5994
 1746.0000  -999.2500  -999.2500     0.4102   694.3513
 1746.5000  -999.2500  -999.2500     0.4026   676.5224
 1747.0000  -999.2500  -999.2500     0.3957   658.6700
 1747.5000  -999.2500  -999.2500     0.3935   640.8062
 1748.0000  -999.2500  -999.2500     0.3915   622.9507
 1748.5000  -999.2500  -999.2500     0.3896   610.8448
 1749.0000  -999.2500  -999.2500     0.3875   600.3018
 1749.5000  -999.2500  -999.2500     0.3856   589.7667
 1750.0000  -999.2500  -999.2500     0.3836   579.1889
 1750.5000  -999.2500  -999.2500     0.3816   569.0563
 1751.0000  -999.2500  -999.2500     0.3796   568.2941
 1751.5000  -999.2500  -999.2500     0.3776   567.8379
