~VERSION INFORMATION
 VERS.                2.0:   CWLS LOG ASCII STANDARD - VERSION 2.0
 WRAP.                 NO:   ONE LINE PER DEPTH STEP
~WELL INFORMATION
#MNEM.UNIT      DATA TYPE    INFORMATION
#----------   ------------   ------------------------------
 STRT.F          974.5000:   START DEPTH
 STOP.F         2805.0000:   STOP DEPTH
 STEP.F            0.5000:   STEP LENGTH
 NULL.          -999.2500:   NO VALUE
 COMP.   FLUOR DANIEL INC:   COMPANY
 WELL. NAVAL PETROLEUM RESERVE 3 SHX- #38-14:   WELL
 FLD .             TEAPOT:   FIELD
 LOC .      S14 T38N R78W:   LOCATION
 CNTY.            NATRONA:   COUNTY
 STAT.            WYOMING:   STATE
 CTRY. UNITED STATES OF AMERICA:   COUNTRY
 SRVC.            Unknown:   SERVICE COMPANY
 DATE.        20-AUG-1995:   LOGDATE
 API .       490252273400:   API NUMBER
~CURVE INFORMATION
#MNEM.UNIT       API CODE    CURVE DESCRIPTION
#----------   ------------   ------------------------------
 DEPT.F                  :   
 ROP .MIN/FT 91 810 01 00:   RAT OF DRILLING PENETRATION
 TGAS.UNITS  91 830 01 00:   TOTAL GAS FROM HOTWIRE
~PARAMETER INFORMATION
#MNEM.UNIT          VALUE    DESCRIPTION
#----------   ------------   ------------------------------
 EKB .F              5264:   KELLING BUSHING
 EGL .F              5254:   GROUND LEVEL
 DATE.            8-20-95:   RUN DATE
 DD  .F              2805:   DEPTH DRILLER
 CBD .F               980:   CASING BOTTOM DRILLER
 ENGI.              TOWER:   RECORDING ENGINEER
 WITN.               HUSK:   WITNESSED BY
 CLNT.            A2DTECH:   CLIENT CODE
 ORIG.           5" PRINT:   ORIGIN OF DATA
 UWI .       490252273400:   UNIQUE WELL ID
 DICO. A2D Technologies, Inc.:   DIGITIZING COMPANY
~OTHER INFORMATION
~A   DEPT      ROP         TGAS 
# ...
 1825.0000     0.3410    10.7298
 1825.5000     0.3409    10.7420
 1826.0000     0.3407    10.7542
 1826.5000     0.3406    10.7663
 1827.0000     0.3296    10.7785
 1827.5000     0.3295    10.7907
 1828.0000     0.3837    10.8029
 1828.5000     0.3835    10.8150
 1829.0000     0.3834    10.8272
 1829.5000     0.3833    10.8394
 1830.0000     0.3831    10.8531
 1830.5000     0.3830    10.8493
 1831.0000     0.3829    10.8450
 1831.5000     0.3827    10.8406
 1832.0000     0.3826    10.8362
 1832.5000     0.3825    10.8319
 1833.0000     0.3823    10.8275
 1833.5000     0.3822    10.8231
 1834.0000     0.3821    10.8187
 1834.5000     0.3819    10.8144
 1835.0000     0.3818    10.8100
 1835.5000     0.3817    10.8056
 1836.0000     0.3924    10.8013
 1836.5000     0.4031    10.7969
 1837.0000     0.4139    10.7925
 1837.5000     0.4137    10.7881
 1838.0000     0.4245    10.7838
 1838.5000     0.4243    10.7794
 1839.0000     0.4242    10.7750
 1839.5000     0.4240    10.7707
 1840.0000     0.4239    10.7663
 1840.5000     0.3477    10.7619
 1841.0000     0.3475    10.7575
 1841.5000     0.3474    10.7532
 1842.0000     0.3473    10.7488
 1842.5000     0.3471    10.7444
 1843.0000     0.3293    10.7401
 1843.5000     0.3299    10.7357
 1844.0000     0.3304    10.7313
 1844.5000     0.3420    10.7269
 1845.0000     0.3425    10.7226
 1845.5000     0.3430    10.7182
 1846.0000     0.3435    10.7138
 1846.5000     0.3441    10.7095
 1847.0000     0.3446    10.7051
 1847.5000     0.3451    10.7007
 1848.0000     0.3457    10.6963
 1848.5000     0.3462    10.6920
 1849.0000     0.3467    10.6876
 1849.5000     0.3473    10.6832
 1850.0000     0.3479    10.6785
 1850.5000     0.4137    10.6969
 1851.0000     0.4142    10.7169
 1851.5000     0.4256    10.7369
 1852.0000     0.4261    10.7570
 1852.5000     0.4267    10.7770
 1853.0000     0.4272    10.7970
 1853.5000     0.4277    10.8170
 1854.0000     0.3304    10.8371
 1854.5000     0.3322    10.8571
 1855.0000     0.3425    10.8771
 1855.5000     0.3539    10.8971
 1856.0000     0.3544    10.9171
 1856.5000     0.3550    10.9372
 1857.0000     0.3555    10.9575
 1857.5000     0.3450    10.0894
 1858.0000     0.3457    10.0944
 1858.5000     0.3353    10.0987
 1859.0000     0.3359    10.1030
 1859.5000     0.3364    10.1072
 1860.0000     0.3370    10.1122
 1860.5000     0.3267    10.1165
 1861.0000     0.3163    10.1208
 1861.5000     0.3059    10.1251
 1862.0000     0.3066    10.1293
 1862.5000     0.2961    10.1336
 1863.0000     0.2968    10.1379
 1863.5000     0.2973    10.1422
 1864.0000     0.2978    10.1464
 1864.5000     0.2875    10.1514
 1865.0000     0.2989    10.1557
 1865.5000     0.2886    10.1600
 1866.0000     0.2782    10.1643
 1866.5000     0.2680    10.1685
 1867.0000     0.2685     9.9542
 1867.5000     0.2581     9.9592
 1868.0000     0.2587     9.9635
 1868.5000     0.2701     9.9677
 1869.0000     0.2815    10.1906
 1869.5000     0.2821    10.1949
 1870.0000     0.2935    10.1992
 1870.5000     0.2940    10.2035
 1871.0000     0.3055    10.2077
 1871.5000     0.3061    10.2120
 1872.0000     0.3066    10.2163
 1872.5000     0.3071    10.2206
 1873.0000     0.3077    10.2256
 1873.5000     0.3082    10.0112
 1874.0000     0.3196    10.2341
 1874.5000     0.3201    10.2384
 1875.0000     0.3207    10.2427
 1875.5000     0.3212    10.0283
 1876.0000     0.3218    10.0333
 1876.5000     0.3224    10.0376
 1877.0000     0.3229    10.0419
 1877.5000     0.3234    10.0468
 1878.0000     0.3240    10.2683
 1878.5000     0.3354     9.8368
 1879.0000     0.3359     9.8418
 1879.5000     0.3473     9.6274
 1880.0000     0.3587     9.4138
 1880.5000     0.4020     9.4187
 1881.0000     0.3910     9.4230
 1881.5000     0.3909     9.4273
 1882.0000     0.3907     9.4323
 1882.5000     0.3797     9.4366
 1883.0000     0.3796     9.4408
 1883.5000     0.3795     9.4451
 1884.0000     0.3793     9.4494
 1884.5000     0.3792     9.4537
 1885.0000     0.3791     9.4579
 1885.5000     0.3789     9.4622
 1886.0000     0.3788     9.4672
 1886.5000     0.3786     9.6894
 1887.0000     0.3785     9.6937
 1887.5000     0.3784     9.6980
 1888.0000     0.3782     9.7022
 1888.5000     0.3672     9.7065
 1889.0000     0.3671     9.4922
 1889.5000     0.3670     9.4971
 1890.0000     0.3668     9.7193
 1890.5000     0.3667     9.7243
 1891.0000     0.3665     9.7286
 1891.5000     0.3664     9.7329
 1892.0000     0.3663     9.7372
 1892.5000     0.3662     9.7414
 1893.0000     0.3660     9.7457
 1893.5000     0.3659     9.7500
 1894.0000     0.3658     9.7543
 1894.5000     0.3656     9.5399
 1895.0000     0.3764     9.5456
 1895.5000     0.3762     9.5499
 1896.0000     0.3761     9.5542
 1896.5000     0.3868     9.5584
 1897.0000     0.3976     9.5627
 1897.5000     0.3974     9.5670
 1898.0000     0.4082     9.5713
 1898.5000     0.4189     9.5755
 1899.0000     0.4296     9.7977
 1899.5000     0.4295     9.8027
 1900.0000     0.4185    10.0242
 1900.5000     0.3412    10.0385
 1901.0000     0.3095    10.0529
 1901.5000     0.3094    10.0672
 1902.0000     0.3201    10.0815
 1902.5000     0.4395    10.0958
 1903.0000     0.4394    10.1102
 1903.5000     0.4393    10.1245
 1904.0000     0.4391    10.1388
 1904.5000     0.4390    10.1531
 1905.0000     0.4389    10.1675
 1905.5000     0.4387    10.1818
 1906.0000     0.4495    10.1961
 1906.5000     0.4493    10.2104
 1907.0000     0.4492    10.2248
 1907.5000     0.4490    10.2391
 1908.0000     0.4489    10.2534
 1908.5000     0.4488    10.2678
 1909.0000     0.4486    10.2821
 1909.5000     0.4485    10.2964
 1910.0000     0.4484    10.3107
 1910.5000     0.4591    10.3251
 1911.0000     0.4589    10.3394
 1911.5000     0.4588    10.3537
 1912.0000     0.4587    10.3680
 1912.5000     0.4585    10.3824
 1913.0000     0.4584    10.3967
 1913.5000     0.4583    10.4110
 1914.0000     0.4581    10.2082
 1914.5000     0.4471    10.2138
 1915.0000     0.4470    10.2203
 1915.5000     0.4469    10.2269
 1916.0000     0.4467    10.2334
 1916.5000     0.4357    10.2400
 1917.0000     0.4356    10.2465
 1917.5000     0.4246    10.2530
 1918.0000     0.4244    10.2596
 1918.5000     0.4243    10.2661
 1919.0000     0.4351    10.2726
 1919.5000     0.4458    10.2792
 1920.0000     0.4457    10.2857
 1920.5000     0.4353    10.2923
 1921.0000     0.4250    10.2988
 1921.5000     0.4256    10.3053
 1922.0000     0.4262    10.3119
 1922.5000     0.4375    10.3184
 1923.0000     0.4381    10.3249
 1923.5000     0.4386    10.3315
 1924.0000     0.4391    10.3380
 1924.5000     0.4397    10.3446
 1925.0000     0.4512    10.3511
 1925.5000     0.4517    10.3576
 1926.0000     0.4522    10.3595
 1926.5000     0.4636    10.3480
 1927.0000     0.4642    10.3364
 1927.5000     0.4647    10.3249
 1928.0000     0.4543    10.3133
 1928.5000     0.4549    10.3017
 1929.0000     0.4555    10.2902
 1929.5000     0.4561    10.2786
 1930.0000     0.4566    10.2671
 1930.5000     0.4571    10.2555
 1931.0000     0.4576    10.2440
 1931.5000     0.4690    10.2324
 1932.0000     0.4043    10.2209
 1932.5000     0.3709    10.2093
 1933.0000     0.3619    10.1977
 1933.5000     0.3626    10.1862
 1934.0000     0.3740    10.1746
 1934.5000     0.3745    10.1631
 1935.0000     0.3750    10.1515
 1935.5000     0.3756    10.1400
 1936.0000     0.3870    10.1284
 1936.5000     0.3984    10.1168
 1937.0000     0.4099    10.1053
 1937.5000     0.4104    10.0937
 1938.0000     0.4109    10.0822
 1938.5000     0.4005    10.0706
 1939.0000     0.3794    10.0591
 1939.5000     0.3799    10.0475
 1940.0000     0.3804    10.0360
 1940.5000     0.3701    10.0244
 1941.0000     0.3708    10.0128
 1941.5000     0.3713    10.0013
 1942.0000     0.3718     9.9897
 1942.5000     0.3723     9.9782
 1943.0000     0.3729     9.9666
 1943.5000     0.3734     9.9551
 1944.0000     0.3739     9.9435
 1944.5000     0.3745     9.9319
 1945.0000     0.3641     9.9204
 1945.5000     0.3648     9.9088
 1946.0000     0.3544     9.8973
