~VERSION INFORMATION
 VERS.                2.0:   CWLS LOG ASCII STANDARD - VERSION 2.0
 WRAP.                 NO:   ONE LINE PER DEPTH STEP
~WELL INFORMATION
#MNEM.UNIT      DATA TYPE    INFORMATION
#----------   ------------   ------------------------------
 STRT.F          371.0000:   START DEPTH
 STOP.F         1998.0000:   STOP DEPTH
 STEP.F            0.5000:   STEP LENGTH
 NULL.          -999.2500:   NO VALUE
 COMP.       ANADARKO PET:   COMPANY
 WELL. StX-21 NPR #3 #17-21:   WELL
 FLD .             TEAPOT:   FIELD
 LOC .      S21 T39N R78W:   LOCATION
 CNTY.            NATRONA:   COUNTY
 STAT.            WYOMING:   STATE
 CTRY. UNITED STATES OF AMERICA:   COUNTRY
 SRVC.            Unknown:   SERVICE COMPANY
 DATE.        11-OCT-1994:   LOGDATE
 API .       490252266400:   API NUMBER
~CURVE INFORMATION
#MNEM.UNIT       API CODE    CURVE DESCRIPTION
#----------   ------------   ------------------------------
 DEPT.F                  :   
 ROP .MIN/FT 91 810 01 00:   RATE OF DRILLING PENETRATION
 TGAS.UNITS  91 830 01 00:   TOTAL GAS FROM HOTWIRE
~PARAMETER INFORMATION
#MNEM.UNIT          VALUE    DESCRIPTION
#----------   ------------   ------------------------------
 DATE.         10-11-1994:   RUN DATE
 RUN .                  1:   RUN NUMBER
 DD  .F              1997:   DEPTH DRILLER
 BLI .F              2000:   BOTTOM LOG INTERVAL
 TLI .F               360:   TOP LOG INTERVAL
 CS  .IN                7:   CASING SIZE
 CBD .F               344:   CASING BOTTOM DRILLER
 ENGI.   C. TOWER R. HUSK:   RECORDING ENGINEER
 CLNT.            A2DTECH:   CLIENT CODE
 ORIG.         2.5" PRINT:   ORIGIN OF DATA
 UWI .       490252266400:   UNIQUE WELL ID
 DICO. A2D Technologies, Inc.:   DIGITIZING COMPANY
~OTHER INFORMATION
~A   DEPT        ROP       TGAS 
# ...
 1586.0000     0.5515    15.6198
 1586.5000     0.5515    15.6198
 1587.0000     0.5515    15.6198
 1587.5000     0.5515    15.9917
 1588.0000     0.5331    15.9917
 1588.5000     0.5331    15.9917
 1589.0000     0.5331    16.3636
 1589.5000     0.5331    16.3636
 1590.0000     0.5331    16.7355
 1590.5000     0.5331    16.7355
 1591.0000     0.5331    16.7355
 1591.5000     0.5331    16.7355
 1592.0000     0.5331    16.7355
 1592.5000     0.5147    16.7355
 1593.0000     0.5147    16.3636
 1593.5000     0.5147    16.3636
 1594.0000     0.5147    15.9917
 1594.5000     0.5147    15.9904
 1595.0000     0.5147    15.6075
 1595.5000     0.5147    15.2243
 1596.0000     0.5147    14.8760
 1596.5000     0.5147    14.8760
 1597.0000     0.5147    14.8760
 1597.5000     0.5147    14.8078
 1598.0000     0.5186    14.4247
 1598.5000     0.5331    13.3884
 1599.0000     0.5331    13.0165
 1599.5000     0.5331    13.0165
 1600.0000     0.5331    12.2698
 1600.5000     0.5207    10.7851
 1601.0000     0.5210    10.7851
 1601.5000     0.5213    10.7851
 1602.0000     0.5216    10.7851
 1602.5000     0.5219    10.7851
 1603.0000     0.5221    10.7851
 1603.5000     0.5224    10.7851
 1604.0000     0.5227    10.7851
 1604.5000     0.5230    10.7851
 1605.0000     0.5232    10.7851
 1605.5000     0.5235    10.7851
 1606.0000     0.5238    10.7851
 1606.5000     0.5241    10.7851
 1607.0000     0.5243    10.7851
 1607.5000     0.5246    10.7851
 1608.0000     0.5249    10.7851
 1608.5000     0.5252    10.7851
 1609.0000     0.5255    10.7851
 1609.5000     0.5258    10.7851
 1610.0000     0.5260    10.7851
 1610.5000     0.5264    10.7851
 1611.0000     0.5266    10.7851
 1611.5000     0.5269    10.7851
 1612.0000     0.5271    10.7851
 1612.5000     0.5274    10.7851
 1613.0000     0.5277    10.7851
 1613.5000     0.5280    10.7851
 1614.0000     0.5283    10.7851
 1614.5000     0.5285    10.7851
 1615.0000     0.5288    10.7851
 1615.5000     0.5291    10.7851
 1616.0000     0.5294    10.7851
 1616.5000     0.5296    10.7851
 1617.0000     0.5299    10.7851
 1617.5000     0.5302    10.7851
 1618.0000     0.5305    10.7851
 1618.5000     0.5308    10.7851
 1619.0000     0.5310    10.7851
 1619.5000     0.5313    10.7851
 1620.0000     0.5316    10.7851
 1620.5000     0.5319    10.7851
 1621.0000     0.5322    10.7851
 1621.5000     0.5324    10.7851
 1622.0000     0.5327    10.7851
 1622.5000     0.5330    10.7851
 1623.0000     0.5333    10.7851
 1623.5000     0.5336    10.7851
 1624.0000     0.5339    10.7851
 1624.5000     0.5341    10.7851
 1625.0000     0.5344    10.7851
 1625.5000     0.5347    10.7851
 1626.0000     0.5349    10.7851
 1626.5000     0.5353    10.7851
 1627.0000     0.5355    10.7851
 1627.5000     0.5358    10.7851
 1628.0000     0.5361    10.7851
 1628.5000     0.5363    10.7851
 1629.0000     0.5367    10.7851
 1629.5000     0.5369    10.7851
 1630.0000     0.5372    10.7851
 1630.5000     0.5375    10.7851
 1631.0000     0.5377    10.7851
 1631.5000     0.5380    10.7851
 1632.0000     0.5383    10.7851
 1632.5000     0.5386    10.7851
 1633.0000     0.5389    10.7851
 1633.5000     0.5392    10.7851
 1634.0000     0.5394    10.7851
 1634.5000     0.5397    10.7851
 1635.0000     0.5400    10.7851
 1635.5000     0.5403    10.7851
 1636.0000     0.5405    10.7851
 1636.5000     0.5408    10.7851
 1637.0000     0.5411    10.7851
 1637.5000     0.5414    10.7851
 1638.0000     0.5416    10.7851
 1638.5000     0.5419    10.7851
 1639.0000     0.5422    10.7851
 1639.5000     0.5425    10.7851
 1640.0000     0.5428    10.7851
 1640.5000     0.5430    10.7851
 1641.0000     0.5433    10.7851
 1641.5000     0.5436    10.7851
 1642.0000     0.5439    10.7851
 1642.5000     0.5441    10.7851
 1643.0000     0.5444    10.7851
 1643.5000     0.5447    10.7851
 1644.0000     0.5450    10.7851
 1644.5000     0.5453    10.7851
 1645.0000     0.5456    10.7851
 1645.5000     0.5459    10.7851
 1646.0000     0.5461    10.7851
 1646.5000     0.5464    10.7851
 1647.0000     0.5467    10.7851
 1647.5000     0.5469    10.7851
 1648.0000     0.5472    10.7851
 1648.5000     0.5475    10.7851
 1649.0000     0.5478    10.7851
 1649.5000     0.5751    10.7851
 1650.0000     0.7714    10.7851
 1650.5000     0.7717    10.7851
 1651.0000     0.7719    10.7851
 1651.5000     0.7722    10.7851
 1652.0000     0.7789    10.7851
 1652.5000     0.9578    10.7851
 1653.0000     1.0147    10.7851
 1653.5000     1.0239    10.7851
 1654.0000     0.8175    10.7851
 1654.5000     0.5694    10.7851
 1655.0000     0.5698    10.7851
 1655.5000     0.5700    10.7851
 1656.0000     0.5703    10.7851
 1656.5000     0.5706    10.7851
 1657.0000     0.4221    10.7851
 1657.5000     0.4224    10.7851
 1658.0000     0.4413    10.7851
 1658.5000     0.4416    10.7851
 1659.0000     0.4418    10.7851
 1659.5000     0.4421    10.7851
 1660.0000     0.4424    10.7851
 1660.5000     0.4427    10.4132
 1661.0000     0.4429     9.8863
 1661.5000     0.4432     9.2975
 1662.0000     0.4435     9.2975
 1662.5000     0.4438     9.2975
 1663.0000     0.4503     8.9256
 1663.5000     0.4629     8.9256
 1664.0000     0.4632     8.9256
 1664.5000     0.4635     8.9256
 1665.0000     0.4734     8.9256
 1665.5000     0.4826     8.9256
 1666.0000     0.4830     9.2975
 1666.5000     0.4832     9.2975
 1667.0000     0.4835     9.2975
 1667.5000     0.5024     8.9256
 1668.0000     0.5026     8.9256
 1668.5000     0.5029     8.9256
 1669.0000     0.5032     8.9256
 1669.5000     0.5034     8.9256
 1670.0000     0.5037     8.9256
 1670.5000     0.5040     8.9256
 1671.0000     0.5043     8.9256
 1671.5000     0.5046     8.9256
 1672.0000     0.5234     8.9256
 1672.5000     0.5237     8.9256
 1673.0000     0.5284     8.9256
 1673.5000     0.5428     8.5537
 1674.0000     0.5617     8.3679
 1674.5000     0.5620     8.1818
 1675.0000     0.5623     7.8099
 1675.5000     0.5625     7.8099
 1676.0000     0.5628     7.8099
 1676.5000     0.5631     7.8099
 1677.0000     0.5448     8.1818
 1677.5000     0.5451     8.1818
 1678.0000     0.5268     8.1818
 1678.5000     0.5271     8.1818
 1679.0000     0.5274     8.1818
 1679.5000     0.5090     8.1818
 1680.0000     0.5093     8.5537
 1680.5000     0.5096     8.1818
 1681.0000     0.4913     8.1818
 1681.5000     0.4915     8.1818
 1682.0000     0.4909     8.1818
 1682.5000     0.4718     8.1818
 1683.0000     0.4552     8.2747
 1683.5000     0.4555     8.5537
 1684.0000     0.4371     8.5537
 1684.5000     0.4375     8.4141
 1685.0000     0.4377     8.1818
 1685.5000     0.4380     8.3524
 1686.0000     0.4383     8.5537
 1686.5000     0.4386     8.5537
 1687.0000     0.4850     8.5537
 1687.5000     0.6064     8.5537
 1688.0000     0.6067     8.5537
 1688.5000     0.6070     8.9256
 1689.0000     0.6073     8.5537
 1689.5000     0.6076     8.5537
 1690.0000     0.6078     8.5537
 1690.5000     0.6081     8.5537
 1691.0000     0.6270     8.5537
 1691.5000     0.6086     8.5537
 1692.0000     0.6089     8.5537
 1692.5000     0.6092     8.5537
 1693.0000     0.6095     8.5537
 1693.5000     0.6098     8.5537
 1694.0000     0.6124     8.5537
 1694.5000     0.6289     8.5537
 1695.0000     0.6292     8.5537
 1695.5000     0.6295     8.5537
 1696.0000     0.6297     8.5537
 1696.5000     0.6300     8.5537
 1697.0000     0.6303     8.9256
 1697.5000     0.6306     8.9256
 1698.0000     0.6218     9.1116
 1698.5000     0.6125     9.4989
 1699.0000     0.6128    10.0413
 1699.5000     0.6132    10.0413
 1700.0000     0.6134    10.4132
 1700.5000     0.8792    11.1570
 1701.0000     0.8370    10.7999
 1701.5000     0.8187    10.4076
 1702.0000     0.8190    10.3463
 1702.5000     0.8378    10.0320
 1703.0000     1.1913    10.4020
 1703.5000     1.1730    10.0283
 1704.0000     1.0838    10.0264
 1704.5000     0.4214    10.0246
 1705.0000     0.3903    10.0227
 1705.5000     0.3903    10.0209
 1706.0000     0.3903    10.0190
 1706.5000     0.3903    10.0171
 1707.0000     0.3717    10.0153
