~VERSION INFORMATION
 VERS.                2.0:   CWLS LOG ASCII STANDARD - VERSION 2.0
 WRAP.                 NO:   ONE LINE PER DEPTH STEP
~WELL INFORMATION
#MNEM.UNIT      DATA TYPE    INFORMATION
#----------   ------------   ------------------------------
 STRT.F           10.0000:   START DEPTH
 STOP.F          580.0000:   STOP DEPTH
 STEP.F            0.5000:   STEP LENGTH
 NULL.          -999.2500:   NO VALUE
 COMP. FENIX & SCISSON INC:   COMPANY
 WELL.     NPR 3 #28-S-34:   WELL
 FLD .        TEAPOT DOME:   FIELD
 LOC .      S34 T39N R78W:   LOCATION
 CNTY.            NATRONA:   COUNTY
 STAT.            WYOMING:   STATE
 CTRY. UNITED STATES OF AMERICA:   COUNTRY
 SRVC.           BIRDWELL:   SERVICE COMPANY
 DATE.        05-AUG-1978:   LOGDATE
 API .       490251068200:   API NUMBER
~CURVE INFORMATION
#MNEM.UNIT       API CODE    CURVE DESCRIPTION
#----------   ------------   ------------------------------
 DEPT.F                  :   
 SPR .MV     05 010 01 00:   SPONTANEOUS POTENTIAL FROM RES.
 IL  .OHMM   05 120 00 00:   INDUCTION LOG
 SN  .OHMM   05 040 16 00:   SHORT NORMAL 16"
 GRD .GAPI   45 310 01 00:   GAMMA RAY FROM DENSITY LOG
 CALD.IN     45 280 60 00:   CALIPER
 RHOB.G/C3   45 350 01 00:   BULK DENSITY
 DPHI.DEC    45 890 12 00:   DENSITY POROSITY SANDSTONE
 CORR.G/C3   45 356 01 00:   DENSITY CORRECTION
~PARAMETER INFORMATION
#MNEM.UNIT          VALUE    DESCRIPTION
#----------   ------------   ------------------------------
 PD  .                 GL:   PERMANENT DATUM
 EPD .F              5191:   ELEVATION PERMANENT DATUM
 LMF .                 KB:   LOG MEASURED FROM
 DAPD.F                 4:   FEET ABOVE PERMANENT DATUM
 DMF .                 KB:   DRILLING MEASURED FROM
 EKB .F              5195:   KELLING BUSHING
 EGL .F              5191:   GROUND LEVEL
 DATE.             8-5-78:   RUN DATE
 RUN .                  1:   RUN NUMBER
 DD  .F               570:   DEPTH DRILLER
 DL  .F               586:   DEPTH LOGGER
 BLI .F               580:   BOTTOM LOG INTERVAL
 TLI .F                30:   TOP LOG INTERVAL
 CS  .IN            8.625:   CASING SIZE
 BS  .IN            7.875:   BIT SIZE
 BSD .F               570:   BIT SIZE AT DEPTH
 DFT .                KCL:   DRILLING FLUID TYPE
 DFD .                8.6:   DRILLING FLUID DENSITY
 DFV .                 32:   DRILLING FLUID VISCOSITY
 DFPH.                9.5:   DRILLING FLUID PH
 MSS .          FLOW LINE:   MUD SAMPLE SOURCE
 RMS .OHMM             .9:   RESISTIVITY MUD SAMPLE
 MST .F                74:   MUD SAMPLE TEMPERATURE
 RMF .OHMM            .17:   RESISTIVITY MUD FILTRATE SAMPLE
 MFST.F                79:   MUD FILTRATE SAMPLE TEMPERATURE
 RMC .OHMM            .42:   RESISTIVITY MUD CAKE
 MCST.F                80:   MUD CAKE SAMPLE TEMPERATURE
 MFSS.               MEAS:   MUD FILTRATE SAMPLE SOURCE
 TCS .HRS               3:   TIME CURCULATED STOPPED
 LUN .               3006:   LOGGING UNIT NUMBER
 LUL .               CASP:   LOGGING UNIT LOCATION
 ENGI.             MILLER:   RECORDING ENGINEER
 WITN.           MCGINLEY:   WITNESSED BY
 CLNT.            A2DTECH:   CLIENT CODE
 ORIG.           5" PRINT:   ORIGIN OF DATA
 UWI .       490251068200:   UNIQUE WELL ID
 DICO. A2D Technologies, Inc.:   DIGITIZING COMPANY
~OTHER INFORMATION
~A   DEPT      SPR         IL         SN         GRD      CALD       RHOB       DPHI       CORR   
# ...
  131.5000   -14.4460     6.7040     5.9070    86.8720     7.6250     2.4790     0.1200     0.0080
  132.0000   -14.4370     6.6900     5.9320    86.5220     7.6270     2.4830     0.1180     0.0090
  132.5000   -14.4270     6.6750     5.9570    87.9600     7.6290     2.4860     0.1170     0.0080
  133.0000   -14.4180     6.6680     5.9820    91.4650     7.6310     2.4870     0.1190     0.0050
  133.5000   -14.4080     6.7600     6.0070    91.9260     7.6320     2.4830     0.1210     0.0010
  134.0000   -14.3990     6.8630     6.0310    92.1720     7.6340     2.4810     0.1170    -0.0020
  134.5000   -14.3900     6.9660     6.0560    92.0510     7.6360     2.4890     0.1190    -0.0060
  135.0000   -14.3800     7.0680     6.0810    91.9320     7.6380     2.4900     0.1240    -0.0090
  135.5000   -14.3710     7.1710     6.1060    91.7920     7.6400     2.4770     0.1280    -0.0120
  136.0000   -14.3610     7.2430     6.1310    91.8100     7.6420     2.4650     0.1310    -0.0150
  136.5000   -14.3520     7.2230     6.1430    94.9960     7.6450     2.4610     0.1300    -0.0140
  137.0000   -14.3420     7.1940     6.1500    98.6260     7.6540     2.4600     0.1290    -0.0100
  137.5000   -14.3330     7.1650     6.1570    99.7030     7.6950     2.4650     0.1280    -0.0070
  138.0000   -14.3240     7.1360     6.1640    98.8120     7.7340     2.4700     0.1260    -0.0050
  138.5000   -14.3140     7.1070     6.1710   100.3430     7.7700     2.4720     0.1250    -0.0030
  139.0000   -14.3050     7.0780     6.1770   104.0830     7.7880     2.4710     0.1240     0.0000
  139.5000   -14.2890     7.0460     6.1850   104.3410     7.8070     2.4710     0.1220     0.0020
  140.0000   -14.2670     7.0460     6.1920    99.5040     7.8240     2.4860     0.1190     0.0050
  140.5000   -14.2460     7.2460     6.2810    94.3070     7.8350     2.4880     0.1170     0.0070
  141.0000   -14.2240     7.4290     6.3860    92.4280     7.8460     2.4880     0.1170     0.0070
  141.5000   -14.2020     7.6110     6.4940    93.1430     7.8580     2.4860     0.1170     0.0050
  142.0000   -14.1800     7.7930     6.6030    94.0010     7.8700     2.4840     0.1160     0.0040
  142.5000   -14.1590     7.9760     6.7110    94.8850     7.8820     2.4870     0.1140     0.0030
  143.0000   -14.1380     8.1580     6.8200    95.5290     7.8930     2.4920     0.1150     0.0010
  143.5000   -14.1190     8.3400     6.9180    94.0190     7.9040     2.4910     0.1190     0.0000
  144.0000   -14.1700     8.4680     6.9180    91.6850     7.8980     2.4810     0.1230    -0.0010
  144.5000   -14.4370     8.3560     6.9100    89.9170     7.8890     2.4730     0.1230    -0.0030
  145.0000   -14.6970     8.2540     6.9040    89.8460     7.8810     2.4790     0.1180    -0.0030
  145.5000   -14.9560     8.1620     6.8980    89.6860     7.8720     2.4870     0.1170    -0.0010
  146.0000   -15.2160     8.2770     6.8920    88.1900     7.8630     2.4830     0.1190     0.0010
  146.5000   -15.4850     8.4410     6.8860    87.7230     7.8540     2.4780     0.1200     0.0020
  147.0000   -15.4750     8.6050     6.8810    88.3320     7.8450     2.4800     0.1210     0.0040
  147.5000   -15.4260     8.7850     6.8750    88.7530     7.8430     2.4840     0.1210     0.0060
  148.0000   -15.3770     8.6330     6.8690    88.3280     7.8410     2.4830     0.1210     0.0080
  148.5000   -15.3270     8.4640     6.8630    88.0020     7.8390     2.4820     0.1200     0.0090
  149.0000   -15.2780     8.2950     6.8570    90.3590     7.8370     2.4850     0.1170     0.0110
  149.5000   -15.2290     8.1260     6.8470    93.0370     7.8350     2.4920     0.1130     0.0130
  150.0000   -15.1790     7.9400     6.8220    95.8430     7.8340     2.4990     0.1110     0.0130
  150.5000   -15.1300     7.9530     6.7980    95.8050     7.8320     2.4990     0.1110     0.0100
  151.0000   -15.0810     7.9780     6.7730    92.3340     7.8300     2.4920     0.1160     0.0070
  151.5000   -15.0310     8.0040     6.7490    90.7560     7.8280     2.4850     0.1210     0.0040
  152.0000   -14.9820     8.0290     6.7240    94.0100     7.8260     2.4780     0.1250     0.0010
  152.5000   -14.9330     8.0550     6.6990    94.1560     7.8250     2.4720     0.1250    -0.0010
  153.0000   -14.8830     8.0800     6.6750    93.3480     7.8240     2.4720     0.1220     0.0000
  153.5000   -14.8340     8.0880     6.6660    92.6810     7.8240     2.4780     0.1190     0.0030
  154.0000   -14.7850     8.0510     6.6610    99.2410     7.8240     2.4860     0.1160     0.0050
  154.5000   -14.7360     7.9810     6.6570   100.3750     7.8240     2.4930     0.1130     0.0020
  155.0000   -14.7060     7.9110     6.6520    96.3010     7.8240     2.4890     0.1160     0.0000
  155.5000   -14.7320     7.8410     6.6480    94.5500     7.8240     2.4840     0.1190    -0.0020
  156.0000   -14.7580     7.7710     6.6430    94.6490     7.8240     2.4790     0.1220    -0.0030
  156.5000   -14.7830     7.7010     6.6390    96.3700     7.8240     2.4780     0.1240    -0.0040
  157.0000   -14.8090     7.6540     6.6340    97.9630     7.8180     2.4760     0.1220    -0.0040
  157.5000   -14.8340     7.6720     6.6300    97.9890     7.8040     2.4760     0.1210    -0.0050
  158.0000   -14.8590     7.6920     6.6250    93.1030     7.7900     2.4770     0.1220    -0.0050
  158.5000   -14.8850     7.7110     6.6210    91.2100     7.7760     2.4750     0.1240    -0.0060
  159.0000   -14.9100     7.7310     6.6160    93.5090     7.7620     2.4720     0.1240    -0.0060
  159.5000   -14.9350     7.7510     6.6120    93.1400     7.7490     2.4740     0.1230    -0.0060
  160.0000   -14.9610     7.7710     6.6070    92.3720     7.7350     2.4770     0.1220    -0.0070
  160.5000   -14.9860     7.7960     6.6360    95.7450     7.7220     2.4790     0.1220    -0.0060
  161.0000   -15.0120     7.7590     6.6660    98.7730     7.7110     2.4780     0.1230    -0.0040
  161.5000   -15.0370     7.6910     6.6970    98.1850     7.7000     2.4740     0.1250    -0.0020
  162.0000   -15.0620     7.6240     6.7290    97.3850     7.6900     2.4710     0.1260     0.0000
  162.5000   -15.0880     7.5560     6.6550    96.8570     7.6790     2.4710     0.1250     0.0020
  163.0000   -15.1130     7.4880     6.5760    99.8800     7.6680     2.4710     0.1240     0.0030
  163.5000   -15.1380     7.4210     6.4980   103.0110     7.6650     2.4720     0.1240     0.0010
  164.0000   -15.1640     7.3530     6.4190   103.7430     7.6640     2.4720     0.1230     0.0000
  164.5000   -15.1890     7.2880     6.3680   100.2490     7.6560     2.4710     0.1240    -0.0010
  165.0000   -15.2140     7.2260     6.4550    99.2780     7.6190     2.4690     0.1250    -0.0030
  165.5000   -15.2400     7.1640     6.5460   101.8100     7.5810     2.4680     0.1260    -0.0040
  166.0000   -15.2700     7.1020     6.5030   102.7740     7.5440     2.4670     0.1270    -0.0050
  166.5000   -15.3090     7.0400     6.3820   101.5760     7.5070     2.4660     0.1280    -0.0070
  167.0000   -15.0860     6.9780     6.2620   100.9250     7.4700     2.4660     0.1290    -0.0070
  167.5000   -15.0730     6.9170     6.1380   101.1110     7.4330     2.4660     0.1280    -0.0080
  168.0000   -15.0530     6.8550     6.1520    99.6920     7.3960     2.4670     0.1270    -0.0080
  168.5000   -15.0320     6.7930     6.1950    97.7090     7.3590     2.4680     0.1260    -0.0090
  169.0000   -15.0120     6.7310     6.1790    95.6900     7.3220     2.4680     0.1260    -0.0100
  169.5000   -14.9920     6.6680     6.1510    94.3680     7.2860     2.4700     0.1260    -0.0100
  170.0000   -14.9720     6.7400     6.1220    99.2590     7.3050     2.4690     0.1280    -0.0110
  170.5000   -14.9520     6.8320     6.0940   102.5700     7.3370     2.4640     0.1310    -0.0130
  171.0000   -14.9320     6.9250     6.0820    98.1730     7.3690     2.4590     0.1290    -0.0080
  171.5000   -14.9120     7.0170     6.1320    93.5660     7.4010     2.4660     0.1240    -0.0020
