~VERSION INFORMATION
 VERS.                2.0:   CWLS LOG ASCII STANDARD - VERSION 2.0
 WRAP.                 NO:   ONE LINE PER DEPTH STEP
~WELL INFORMATION
#MNEM.UNIT      DATA TYPE    INFORMATION
#----------   ------------   ------------------------------
 STRT.F            0.0000:   START DEPTH
 STOP.F          666.0000:   STOP DEPTH
 STEP.F            0.1000:   STEP LENGTH
 NULL.          -999.2500:   NO VALUE
 COMP.   FLUOR DANIEL INC:   COMPANY
 WELL.   77-2 X 34 #77-34:   WELL
 FLD .             TEAPOT:   FIELD
 LOC .      S34 T39N R78W:   LOCATION
 CNTY.            NATRONA:   COUNTY
 STAT.            WYOMING:   STATE
 CTRY. UNITED STATES OF AMERICA:   COUNTRY
 SRVC.      Western Atlas:   SERVICE COMPANY
 DATE.        01-APR-1995:   LOGDATE
 API .       490252270000:   API NUMBER
~CURVE INFORMATION
#MNEM.UNIT       API CODE    CURVE DESCRIPTION
#----------   ------------   ------------------------------
 DEPT.F                  :   
 GRR .GAPI   07 310 01 00:   GAMMA RAY
 RILD.OHMM   07 120 46 00:   INDUCTION LOG DEEP RESISTIVITY
 RILM.OHMM   07 120 44 00:   INDUCTION LOG MEDIUM RESISTIVITY
~PARAMETER INFORMATION
#MNEM.UNIT          VALUE    DESCRIPTION
#----------   ------------   ------------------------------
 PD  .                 GL:   PERMANENT DATUM
 EPD .F              5106:   ELEVATION PERMANENT DATUM
 LMF .                 KB:   LOG MEASURED FROM
 DAPD.F                10:   FEET ABOVE PERMANENT DATUM
 DMF .                 KB:   DRILLING MEASURED FROM
 EKB .F              5116:   KELLING BUSHING
 EDF .F              5115:   DRILLING FLOOR
 EGL .F              5106:   GROUND LEVEL
 DATE.        01-APR-1995:   RUN DATE
 RUN .                  1:   RUN NUMBER
 DD  .F               674:   DEPTH DRILLER
 DL  .F               674:   DEPTH LOGGER
 BLI .F               666:   BOTTOM LOG INTERVAL
 TLI .F                52:   TOP LOG INTERVAL
 CS  .IN            9.625:   CASING SIZE
 CBD .F                52:   CASING BOTTOM DRILLER
 CBL .F                52:   CASING BOTTOM LOGGER
 BS  .IN             8.75:   BIT SIZE
 BSD .F               674:   BIT SIZE AT DEPTH
 DFT .                AIR:   DRILLING FLUID TYPE
 MRT .F                89:   MAXIMUM RECORDED TEMPERATURE
 LUN .            HL 6530:   LOGGING UNIT NUMBER
 LUL .             CASPER:   LOGGING UNIT LOCATION
 ENGI.      PAT RASMUSSEN:   RECORDING ENGINEER
 WITN.        GARY STRONG:   WITNESSED BY
 CLNT.            A2DTECH:   CLIENT CODE
 ORIG.           5" PRINT:   ORIGIN OF DATA
 UWI .       490252270000:   UNIQUE WELL ID
 DICO. A2D Technologies, Inc.:   DIGITIZING COMPANY
~OTHER INFORMATION
~A    DEPT      GRR      RILD       RILM   
# ...
  491.4000   133.4890    10.0424     9.8978
  491.5000   133.4872    10.1105     9.9508
  491.6000   133.5175    10.1107    10.0087
  491.7000   133.7851    10.1902    10.0670
  491.8000   133.5461    10.2819    10.1257
  491.9000   133.4799    10.3426    10.1846
  492.0000   133.4781    10.4095    10.2467
  492.1000   133.4763    10.5441    10.3036
  492.2000   133.4745    10.6572    10.4096
  492.3000   133.4727    10.7378    10.4965
  492.4000   133.2215    10.8348    10.5576
  492.5000   132.9663    10.9628    10.6302
  492.6000   132.7112    11.1021    10.7561
  492.7000   132.4560    11.3074    10.8801
  492.8000   132.2007    11.4356    11.0584
  492.9000   131.9455    11.5708    11.2134
  493.0000   131.6498    11.7478    11.3443
  493.1000   131.4351    11.9289    11.4768
  493.2000   131.0150    12.0698    11.6120
  493.3000   130.5064    12.2123    11.8520
  493.4000   129.8610    12.3827    11.9665
  493.5000   128.8256    12.5029    12.1512
  493.6000   127.4158    12.6507    12.3329
  493.7000   124.0349    12.8002    12.4950
  493.8000   120.0556    12.9322    12.7103
  493.9000   116.5148    13.0182    12.8798
  494.0000   113.5528    13.2790    13.0746
  494.1000   110.7315    13.3476    13.3045
  494.2000   107.4955    13.5351    13.5383
  494.3000   103.4601    13.7353    13.7535
  494.4000    99.5287    13.9227    13.9211
  494.5000    97.1332    14.1698    14.1921
  494.6000    95.9568    14.4402    14.4905
  494.7000    94.6758    14.6781    14.7706
  494.8000    92.1001    14.9391    15.0302
  494.9000    89.8537    15.2540    15.3226
  495.0000    88.1748    15.6160    15.6820
  495.1000    86.6529    15.9704    16.0776
  495.2000    85.2355    16.2601    16.4283
  495.3000    83.7979    16.6386    16.8149
  495.4000    81.8007    16.9551    17.2101
  495.5000    80.6242    17.1954    17.5783
  495.6000    79.9831    17.4409    17.8868
  495.7000    79.5509    17.7505    18.1635
  495.8000    79.2957    18.0654    18.3755
  495.9000    79.1089    18.4380    18.5963
  496.0000    79.0870    18.7139    18.9141
  496.1000    78.8034    19.0465    19.2468
  496.2000    78.8018    19.4381    19.5852
  496.3000    78.8000    19.8671    19.8836
  496.4000    78.9269    20.1998    20.1157
  496.5000    79.1785    20.3319    20.3505
  496.6000    79.4300    20.5467    20.6336
  496.7000    79.6976    20.7897    20.9280
  496.8000    80.4078    20.9718    21.2191
  496.9000    81.1661    21.0956    21.4138
  497.0000    81.7837    21.2202    21.5677
  497.1000    82.2888    21.3523    21.8194
  497.2000    82.7496    21.4716    22.1142
  497.3000    83.0051    21.5029    22.3325
  497.4000    83.2527    21.5751    22.5935
  497.5000    83.5043    21.7025    22.7965
  497.6000    83.6030    21.8307    22.9292
  497.7000    83.6012    21.9599    23.0627
  497.8000    83.5432    22.1142    23.2135
  497.9000    83.2800    22.1147    23.3322
  498.0000    82.6905    22.1154    23.4681
  498.1000    81.8363    22.1160    23.6048
  498.2000    80.9858    22.1477    23.7422
  498.3000    80.2238    22.2719    23.8805
  498.4000    79.5302    22.2727    24.0320
  498.5000    79.0015    22.2732    24.0320
  498.6000    78.1549    22.3617    24.1325
  498.7000    77.2523    22.4938    24.2730
  498.8000    76.0598    22.5878    24.3674
  498.9000    75.1772    22.6021    24.3869
  499.0000    74.5881    22.7472    24.5368
  499.1000    73.8906    22.9929    24.6719
  499.2000    73.6192    23.1660    24.8156
  499.3000    73.3802    23.3028    24.9602
  499.4000    73.3140    23.4881    25.2130
  499.5000    73.3122    23.7438    25.6556
  499.6000    73.3104    23.8889    26.1160
  499.7000    73.2694    24.0252    26.4147
  499.8000    73.2492    25.4445    26.8462
  499.9000    73.4446    25.6176    27.3182
  500.0000    73.4446    25.8565    27.7169
  500.1000    73.6941    26.0644    27.9989
  500.2000    73.5527    26.2711    28.2808
  500.3000    73.3032    26.5732    28.5628
  500.4000    73.1411    26.8935    28.8447
  500.5000    73.0743    27.0398    29.1267
  500.6000    72.5341    27.3101    29.4086
  500.7000    72.0765    27.5411    29.6906
  500.8000    71.0533    27.6985    29.9725
  500.9000    69.9266    27.8419    30.2545
  501.0000    68.8620    26.6684    30.5364
  501.1000    67.6275    26.8029    30.8184
  501.2000    66.4643    26.8546    31.1003
  501.3000    65.6316    26.9240    31.3823
  501.4000    64.6336    27.0421    31.7088
  501.5000    63.6357    27.0424    31.7088
  501.6000    62.7302    27.0429    31.7088
  501.7000    62.2155    27.1679    31.7841
  501.8000    61.2490    27.3238    31.9294
  501.9000    60.4388    27.4214    31.9294
  502.0000    59.2900    27.4218    31.9294
  502.1000    57.8727    27.4222    31.9294
  502.2000    56.6762    27.5713    31.8276
  502.3000    55.8422    27.6136    31.7088
  502.4000    55.1794    27.6140    31.6849
  502.5000    54.9317    27.6624    31.4899
  502.6000    54.9317    27.8068    31.3252
  502.7000    54.9906    27.8072    31.1468
  502.8000    55.2400    27.9468    30.9695
  502.9000    55.5387    28.0014    30.7931
  503.0000    55.9393    28.0732    30.6176
  503.1000    56.4383    28.1969    30.4174
  503.2000    56.9373    28.1973    30.2700
  503.3000    57.5508    28.1977    30.0977
  503.4000    58.8771    28.1980    29.9987
  503.5000    60.5128    28.1984    29.9627
  503.6000    61.8997    28.1988    29.7915
  503.7000    63.2726    28.1992    29.6225
  503.8000    64.6263    28.1996    29.4539
  503.9000    65.6947    28.2000    29.2862
  504.0000    67.9818    28.0835    29.1194
  504.1000    69.8992    27.9241    28.9302
  504.2000    71.3493    27.7656    28.5781
  504.3000    72.1372    27.6212    28.4271
  504.4000    72.5341    27.6217    28.2653
  504.5000    72.5341    27.4853    28.1043
  504.6000    72.5341    27.3293    27.9442
  504.7000    72.5341    27.1742    27.7850
  504.8000    72.3958    27.0199    27.6048
  504.9000    72.1463    26.8665    27.4696
  505.0000    71.8969    26.7141    27.3132
  505.1000    71.6237    26.6835    27.2248
  505.2000    71.1721    26.5954    27.1907
  505.3000    70.6731    26.4444    27.0368
  505.4000    70.2919    26.2943    27.0368
  505.5000    69.9788    26.1359    27.0368
  505.6000    69.4992    26.1363    27.0368
  505.7000    69.4992    26.0289    27.0368
  505.8000    69.9096    25.8812    27.0251
  505.9000    70.4085    25.7343    26.9482
  506.0000    70.7132    25.5999    26.8713
  506.1000    70.7994    25.6003    26.8501
  506.2000    71.3202    25.4745    26.8501
  506.3000    71.3202    25.4242    26.8959
  506.4000    71.5047    25.3613    27.0368
  506.5000    71.6237    25.2493    27.0368
  506.6000    71.6237    25.2496    27.0368
  506.7000    71.6237    25.2500    27.0368
  506.8000    71.6237    25.2503    27.0368
  506.9000    71.4057    25.2507    27.0368
  507.0000    71.1563    25.1987    27.0368
  507.1000    70.9068    25.0769    27.0368
  507.2000    70.7132    25.0774    27.0368
  507.3000    70.7113    24.9443    27.0368
  507.4000    70.4619    24.9048    26.9791
  507.5000    70.4097    24.9052    26.8501
  507.6000    70.2665    24.9055    26.8501
  507.7000    70.1954    24.9059    26.8501
  507.8000    70.4449    24.9063    26.8501
  507.9000    70.7132    24.7844    26.7705
  508.0000    71.6358    24.7349    26.6180
  508.1000    72.8103    24.7352    26.4805
  508.2000    74.0578    24.7048    26.4805
  508.3000    75.3051    24.5651    26.3478
  508.4000    76.5523    24.5654    26.1978
  508.5000    77.9970    24.5658    26.1160
  508.6000    79.2573    24.5661    26.0804
  508.7000    80.5980    24.5664    25.9318
  508.8000    81.9471    24.5668    25.7565
  508.9000    83.3000    24.5671    25.6374
  509.0000    84.0668    24.4374    25.5786
  509.1000    84.5536    24.3981    25.5226
  509.2000    84.8631    24.3985    25.3772
  509.3000    84.9772    24.3589    25.2265
  509.4000    84.9772    24.2306    25.1578
  509.5000    84.9772    24.2310    25.0860
