~VERSION INFORMATION
 VERS.                2.0:   CWLS LOG ASCII STANDARD - VERSION 2.0
 WRAP.                 NO:   ONE LINE PER DEPTH STEP
~WELL INFORMATION
#MNEM.UNIT      DATA TYPE    INFORMATION
#----------   ------------   ------------------------------
 STRT.F            0.0000:   START DEPTH
 STOP.F          625.0000:   STOP DEPTH
 STEP.F            0.5000:   STEP LENGTH
 NULL.          -999.2500:   NO VALUE
 COMP.       F D SERV INC:   COMPANY
 WELL.    75-3 SX-3 #72-3:   WELL
 FLD .             TEAPOT:   FIELD
 LOC .       S3 T38N R78W:   LOCATION
 CNTY.            NATRONA:   COUNTY
 STAT.            WYOMING:   STATE
 CTRY. UNITED STATES OF AMERICA:   COUNTRY
 SRVC.     Atlas Wireline:   SERVICE COMPANY
 DATE.        05-MAY-1992:   LOGDATE
 API .       490252251800:   API NUMBER
~CURVE INFORMATION
#MNEM.UNIT       API CODE    CURVE DESCRIPTION
#----------   ------------   ------------------------------
 DEPT.F                  :   
 CALD.IN     45 280 60 00:   CALIPER FROM DENSITY
 CORR.G/C3   45 356 01 00:   DENSITY CORRECTION
 DEN .G/C3   45 350 01 00:   COMPENSATED BULK DENSTIY
 GRD .GAPI   45 310 01 00:   GAMMA RAY FROM DENSITY LOG
 RILD.OHMM   07 120 46 00:   INDUCTION LOG DEEP RESISTIVITY
 RILM.OHMM   07 120 44 00:   INDUCTION LOG MEDIUM RESISTIVITY
 PORD.DEC    45 890 12 00:   POROSITY DENSITY SANDSTONE
~PARAMETER INFORMATION
#MNEM.UNIT          VALUE    DESCRIPTION
#----------   ------------   ------------------------------
 PD  .                 GL:   PERMANENT DATUM
 EPD .F              5148:   ELEVATION PERMANENT DATUM
 LMF .                 KB:   LOG MEASURED FROM
 DAPD.F                 5:   FEET ABOVE PERMANENT DATUM
 DMF .                 KB:   DRILLING MEASURED FROM
 EKB .F              5153:   KELLING BUSHING
 EDF .F              5152:   DRILLING FLOOR
 EGL .F              5148:   GROUND LEVEL
 DATE.        05-MAY-1992:   RUN DATE
 RUN .                  1:   RUN NUMBER
 DD  .F               630:   DEPTH DRILLER
 DL  .F               633:   DEPTH LOGGER
 BLI .F               625:   BOTTOM LOG INTERVAL
 CS  .IN            8.625:   CASING SIZE
 CBD .F                44:   CASING BOTTOM DRILLER
 CBL .F                49:   CASING BOTTOM LOGGER
 BS  .IN            7.875:   BIT SIZE
 BSD .F               630:   BIT SIZE AT DEPTH
 DFT .        AIR DRILLED:   DRILLING FLUID TYPE
 MRT .F                88:   MAXIMUM RECORDED TEMPERATURE
 LUN .           HL- 6274:   LOGGING UNIT NUMBER
 LUL .             CASPER:   LOGGING UNIT LOCATION
 ENGI.       P. RASHUSSEN:   RECORDING ENGINEER
 WITN.          G. STRONG:   WITNESSED BY
 CLNT.            A2DTECH:   CLIENT CODE
 ORIG.           5" PRINT:   ORIGIN OF DATA
 UWI .       490252251800:   UNIQUE WELL ID
 DICO. A2D Technologies, Inc.:   DIGITIZING COMPANY
~OTHER INFORMATION
~A    DEPT    CALD       CORR        DEN         GRD      RILD       RILM       PORD   
# ...
  273.0000     8.1820    -0.0065     2.4970   163.2582     8.8777     8.9233     0.0936
  273.5000     8.1969     0.0024     2.4948   162.6716     9.0003     9.0354     0.0951
  274.0000     8.1967     0.0054     2.4940   163.2850     9.0611     9.2233     0.0960
  274.5000     8.1965     0.0053     2.4940   165.7029     9.0586     9.2208     0.0939
  275.0000     8.1964    -0.0038     2.4970   173.8351     9.0558     9.1541     0.0903
  275.5000     8.1962    -0.0069     2.5090   178.6590     8.9904     9.0879     0.0850
  276.0000     8.1961    -0.0099     2.5180   184.0845     8.8016     8.9595     0.0753
  276.5000     8.2110    -0.0100     2.5211   187.4046     8.6772     8.8948     0.0772
  277.0000     8.2108    -0.0100     2.5180   190.7267     8.7976     8.7691     0.0806
  277.5000     8.2106    -0.0101     2.5088   195.9250     8.8570     8.5851     0.0868
  278.0000     8.2105    -0.0071     2.4930   200.0719     8.8541     8.4637     0.0952
  278.5000     8.2103    -0.0042     2.4749   196.8712     8.9145     8.5212     0.1037
  279.0000     8.2102     0.0048     2.4630   192.0608     8.8495     8.6386     0.1131
  279.5000     8.2100     0.0047     2.4554   184.4715     8.8472     8.6967     0.1231
  280.0000     8.2099     0.0017     2.4504   179.3706     8.8449     8.6937     0.1225
  280.5000     8.2097    -0.0014     2.4537   174.2697     8.8426     8.6913     0.1174
  281.0000     8.1946     0.0015     2.4627   175.7854     8.8403     8.6889     0.1110
  281.5000     8.1795     0.0015     2.4728   179.1056     8.8380     8.6261     0.1074
  282.0000     8.1793     0.0044     2.4733   183.3280     8.8357     8.5042     0.1071
  282.5000     8.1787     0.0104     2.4638   181.2346     8.8334     8.5018     0.1156
  283.0000     8.1640     0.0134     2.4494   177.3338     8.7696     8.4404     0.1256
  283.5000     8.1639     0.0073     2.4378   177.6494     8.7674     8.4381     0.1319
  284.0000     8.1611     0.0042     2.4398   176.7590     8.7651     8.4357     0.1271
  284.5000     8.1485     0.0011     2.4483   171.6582     8.7018     8.3747     0.1217
  285.0000     8.1484     0.0041     2.4578   167.7603     8.5788     8.3646     0.1175
  285.5000     8.1333     0.0040     2.4669   164.4639     8.4575     8.2440     0.1129
  286.0000     8.1331    -0.0021     2.4738   161.4683     8.1005     8.1939     0.1086
  286.5000     8.1480    -0.0082     2.4790   159.0742     8.1141     8.2496     0.1021
  287.0000     8.1628    -0.0082     2.4815   155.1763     8.2756     8.4212     0.1024
  287.5000     8.1627    -0.0083     2.4820   152.1807     8.0935     8.3022     0.1003
  288.0000     8.1625    -0.0084     2.4820   153.0948     7.8764     8.1279     0.1009
  288.5000     8.1624    -0.0035     2.4805   154.3098     7.6569     7.9020     0.1015
  289.0000     8.1622     0.0010     2.4789   154.3359     7.5486     7.4190     0.1031
  289.5000     8.1621     0.0035     2.4759   155.5639     7.3386     7.0634     0.1040
  290.0000     8.1619     0.0095     2.4729   156.8724     7.0354     6.8671     0.1058
  290.5000     8.1618     0.0064     2.4684   159.8780     6.7914     6.7230     0.1088
  291.0000     8.1616     0.0033     2.4624   163.6956     6.6019     6.5361     0.1134
  291.5000     8.1615     0.0033     2.4548   164.9105     6.5536     6.3990     0.1209
  292.0000     8.1613     0.0032     2.4534   164.0201     6.5514     6.2211     0.1234
  292.5000     8.1612     0.0001     2.4576   161.3252     6.5956     6.3514     0.1164
  293.0000     8.1610    -0.0090     2.4690   158.3296     6.7324     6.5289     0.1062
  293.5000     8.1759    -0.0151     2.4836   159.2438     6.8253     6.7119     0.0989
  294.0000     8.1757    -0.0121     2.4980   162.2632     7.0157     6.8999     0.0956
  294.5000     8.1906    -0.0091     2.5019   161.3699     7.1625     7.0932     0.0935
  295.0000     8.2054    -0.0002     2.5030   158.9787     7.3623     7.2413     0.0926
  295.5000     8.2052     0.0028     2.5030   157.7847     7.5690     7.3924     0.0920
  296.0000     8.2051    -0.0003     2.5030   160.8071     7.7260     7.5467     0.0908
  296.5000     8.2049    -0.0094     2.5030   161.4205     7.7781     7.6506     0.0896
  297.0000     8.2048    -0.0094     2.5023   162.6354     7.7747     7.6485     0.0903
  297.5000     8.2046    -0.0095     2.5001   165.6548     7.7720     7.6463     0.0927
  298.0000     8.2045    -0.0065     2.4962   168.3734     7.7152     7.6442     0.0969
  298.5000     8.2043    -0.0066     2.4915   170.7914     7.6055     7.5885     0.1012
  299.0000     8.2042    -0.0067     2.4877   171.7313     7.5499     7.5337     0.1003
  299.5000     8.2040    -0.0067     2.4846   169.6122     7.4947     7.4792     0.0982
  300.0000     8.2051    -0.0038     2.4810   165.7143     7.3887     7.3712     0.0997
  300.5000     8.2121     0.0005     2.4770   163.0164     7.4348     7.3363     0.1054
  301.0000     8.2183     0.0053     2.4721   164.2285     7.4774     7.2676     0.1076
  301.5000     8.2180     0.0023     2.4736   164.5896     7.3720     7.1062     0.1088
  302.0000     8.2177    -0.0008     2.4751   167.5566     7.1743     6.9654     0.1097
  302.5000     8.2174    -0.0008     2.4781   169.9715     7.0723     6.7247     0.1103
  303.0000     8.2171    -0.0038     2.4826   173.5894     6.9232     6.5379     0.1091
  303.5000     8.2168    -0.0008     2.4871   175.4028     6.6366     6.2681     0.1070
  304.0000     8.2165    -0.0008     2.4705   179.3215     6.3176     5.9676     0.1064
  304.5000     8.2162    -0.0008     2.4433   177.5259     5.9305     5.6421     0.1082
  305.0000     8.2159     0.0023     2.4373   172.7228     5.5283     5.3717     0.1264
  305.5000     8.2156     0.0054     2.4448   168.2182     5.2259     5.4460     0.1300
  306.0000     8.2152     0.0143     2.4583   173.9436     5.3727     5.5982     0.1209
  306.5000     8.2149     0.0143     2.4644   184.7795     5.4846     5.7551     0.1140
  307.0000     8.2146     0.0113     2.4734   182.9839     5.6772     5.9578     0.1104
  307.5000     8.2144     0.0083     2.4809   178.7823     5.9182     6.2108     0.1055
  308.0000     8.1841     0.0053     2.4917   179.6934     6.1695     6.4746     0.1010
  308.5000     8.1688    -0.0008     2.4992   185.7174     6.4766     6.7026     0.0959
  309.0000     8.1685    -0.0008     2.4960   189.6537     6.7046     6.8463     0.0971
  309.5000     8.1682    -0.0038     2.4884   190.8480     6.8959     7.0480     0.1007
  310.0000     8.1529    -0.0038     2.4748   187.4289     7.0917     7.3838     0.1034
  310.5000     8.1526    -0.0008     2.4537   179.7401     7.3340     7.5907     0.1056
  311.0000     8.1373     0.0023     2.4687   179.4461     7.4874     7.6952     0.1047
  311.5000     8.1370     0.0023     2.4883   182.1640     7.6970     7.9109     0.1004
  312.0000     8.1367     0.0023     2.4974   181.8721     7.9118     8.0760     0.0959
  312.5000     8.1364     0.0023     2.5004   178.8735     8.0204     8.1308     0.0941
  313.0000     8.1361    -0.0008     2.4913   171.3636     8.1312     8.2428     0.0959
  313.5000     8.1508    -0.0008     2.4943   165.0567     8.1854     8.2983     0.0984
  314.0000     8.1505    -0.0008     2.4958   162.6573     8.2977     8.2954     0.0975
  314.5000     8.1502    -0.0008     2.5018   160.5632     8.3530     8.4686     0.0947
  315.0000     8.1499     0.0023     2.5094   155.7601     8.4087     8.5261     0.0911
  315.5000     8.1496     0.0023     2.5125   156.9720     8.4640     8.7035     0.0887
  316.0000     8.1493     0.0023     2.5123   162.0936     8.5205     8.7620     0.0847
  316.5000     8.1490     0.0053     2.5123   164.6254     8.5773     8.7596     0.0845
  317.0000     8.1637     0.0023     2.5093   158.8032     8.5743     8.7572     0.0875
  317.5000     8.1634    -0.0068     2.5078   154.0000     8.5713     8.7547     0.0875
  318.0000     8.1631    -0.0098     2.5062   153.4074     8.5684     8.7621     0.0875
