~VERSION INFORMATION
 VERS.                2.0:   CWLS LOG ASCII STANDARD - VERSION 2.0
 WRAP.                 NO:   ONE LINE PER DEPTH STEP
~WELL INFORMATION
#MNEM.UNIT      DATA TYPE    INFORMATION
#----------   ------------   ------------------------------
 STRT.F           25.0000:   START DEPTH
 STOP.F          681.0000:   STOP DEPTH
 STEP.F            0.5000:   STEP LENGTH
 NULL.          -999.2500:   NO VALUE
 COMP. FENIX & SCISSON INC:   COMPANY
 WELL.    56-SX-34 #56-34:   WELL
 FLD .             TEAPOT:   FIELD
 LOC .      S34 T39N R78W:   LOCATION
 CNTY.            NATRONA:   COUNTY
 STAT.            WYOMING:   STATE
 CTRY. UNITED STATES OF AMERICA:   COUNTRY
 SRVC.            Unknown:   SERVICE COMPANY
 DATE.        28-JAN-1979:   LOGDATE
 API .       490251077200:   API NUMBER
~CURVE INFORMATION
#MNEM.UNIT       API CODE    CURVE DESCRIPTION
#----------   ------------   ------------------------------
 DEPT.F                  :   
 SPR .MV     05 010 01 00:   SPONTANEOUS POTENTIAL FROM RES.
 DRHO.G/C3   45 356 01 00:   DENSITY CORRECTION
 RHOB.G/C3   45 350 01 00:   BULK DENSITY
 DPHI.DEC    45 890 12 00:   DENSITY POROSITY SANDSTONE
 CALD.IN     45 280 60 00:   CALIPER
 GRD .GAPI   45 310 01 00:   GAMMA RAY FROM DENSITY LOG
 SN  .OHMM   05 040 16 00:   SHORT NORMAL 16'
 ILD .OHMM   05 120 46 00:   INDUCTION LOG DEEP RESISTIVITY
~PARAMETER INFORMATION
#MNEM.UNIT          VALUE    DESCRIPTION
#----------   ------------   ------------------------------
 PD  .                 GL:   PERMANENT DATUM
 EPD .F              5088:   ELEVATION PERMANENT DATUM
 LMF .                 KB:   LOG MEASURED FROM
 DAPD.F                 4:   FEET ABOVE PERMANENT DATUM
 DMF .                 KB:   DRILLING MEASURED FROM
 EKB .F              5092:   KELLING BUSHING
 EGL .F              5088:   GROUND LEVEL
 DATE.            1-28-79:   RUN DATE
 RUN .                  1:   RUN NUMBER
 DD  .F               680:   DEPTH DRILLER
 DL  .F               681:   DEPTH LOGGER
 BLI .F               679:   BOTTOM LOG INTERVAL
 TLI .F                40:   TOP LOG INTERVAL
 CS  .IN            8.625:   CASING SIZE
 CBD .F                40:   CASING BOTTOM DRILLER
 CBL .F                40:   CASING BOTTOM LOGGER
 BS  .IN            7.875:   BIT SIZE
 BSD .F               680:   BIT SIZE AT DEPTH
 DFT .                KCL:   DRILLING FLUID TYPE
 DFD .                8.9:   DRILLING FLUID DENSITY
 DFV .                 43:   DRILLING FLUID VISCOSITY
 DFPH.                8.5:   DRILLING FLUID PH
 DFL .                9.8:   DRILLING FLUID LOSS
 MSS .           FLOWLINE:   MUD SAMPLE SOURCE
 RMS .OHMM            1.5:   RESISTIVITY MUD SAMPLE
 MST .F                66:   MUD SAMPLE TEMPERATURE
 RMF .OHMM            1.3:   RESISTIVITY MUD FILTRATE SAMPLE
 MFST.F                76:   MUD FILTRATE SAMPLE TEMPERATURE
 RMC .OHMM            1.3:   RESISTIVITY MUD CAKE
 MCST.F                78:   MUD CAKE SAMPLE TEMPERATURE
 MFSS.           MEASURED:   MUD FILTRATE SAMPLE SOURCE
 MCSS.           MEASURED:   MUD CAKE SAMPLE SOURCE
 RMB .OHMM            1.3:   RESISTIVITY MUD AT BHT
 BHT .F                76:   BOTTOM HOLE TEMPERATURE
 TCS .HRS               3:   TIME CURCULATED STOPPED
 MRT .F                76:   MAXIMUM RECORDED TEMPERATURE
 LUN .               3006:   LOGGING UNIT NUMBER
 LUL .             CASPER:   LOGGING UNIT LOCATION
 ENGI.            ROLLINS:   RECORDING ENGINEER
 WITN.              AMEND:   WITNESSED BY
 CLNT.            A2DTECH:   CLIENT CODE
 ORIG.       2", 5" PRINT:   ORIGIN OF DATA
 UWI .       490251077200:   UNIQUE WELL ID
 DICO. A2D Technologies, Inc.:   DIGITIZING COMPANY
~OTHER INFORMATION
~A   DEPT      SPR       DRHO       RHOB       DPHI       CALD         GRD        SN        ILD   
# ...
   65.5000   -48.6529     0.0544     2.0805     0.2666     8.0643    99.9905     0.5069     2.4938
   66.0000   -48.8323     0.0691     2.0514     0.2781     7.8851   106.3519     0.4817     2.1042
   66.5000   -49.0280     0.0869     2.0554     0.2785     7.6368   108.9734     0.4748     1.9545
   67.0000   -49.6155     0.0985     2.0979     0.2725     7.3876   107.9272     0.4927     1.8833
   67.5000   -50.1942     0.0925     2.1685     0.2590     7.1383   104.9112     0.7311     1.9504
   68.0000   -50.5917     0.1042     2.2390     0.2327     6.9411   103.8185     1.2481     2.2310
   68.5000   -49.3186     0.1186     2.3094     0.1916     6.9473    98.1934     1.9152     2.7445
   69.0000   -48.0680     0.0874     2.3783     0.1656     7.1770    91.1884     2.6704     3.3770
   69.5000   -47.0569     0.0713     2.4006     0.1558     7.6709    87.6080     3.2623     4.1548
   70.0000   -46.5250     0.0698     2.4139     0.1584     7.5238    87.3616     3.9853     5.1118
   70.5000   -46.0447     0.0713     2.4078     0.1653     7.3835    78.3275     4.8686     6.1258
   71.0000   -46.0060     0.0730     2.3898     0.1690     7.2452    76.1860     5.9477     7.2854
   71.5000   -45.9783     0.0809     2.3897     0.1693     7.1067    74.3048     6.7015     8.3081
   72.0000   -45.9491     0.0939     2.3894     0.1696     7.1019    72.9903     7.1850     9.1355
   72.5000   -45.9196     0.1070     2.3877     0.1710     7.1398    71.8116     7.5530     9.7675
   73.0000   -45.8901     0.1200     2.3877     0.1710     7.3850    68.6213     7.9398    10.1356
   73.5000   -45.8611     0.1160     2.3877     0.1717     7.6528    64.0939     8.3464    10.1356
   74.0000   -45.8476     0.1036     2.3852     0.1725     7.8102    59.5617     8.7416     9.7200
   74.5000   -45.8695     0.0935     2.3818     0.1726     7.9582    55.5765     8.4535     9.1654
   75.0000   -45.8901     0.0941     2.3829     0.1709     7.9748    55.9371     7.5782     8.6454
   75.5000   -45.9107     0.0820     2.3832     0.1820     7.9753    63.4104     6.7935     8.1540
   76.0000   -45.9313     0.0694     2.3567     0.2063     7.9753    72.4503     6.0901     7.3840
   76.5000   -45.9520     0.0751     2.2981     0.2319     7.9752    81.9236     5.4595     6.5675
   77.0000   -45.9726     0.0910     2.2684     0.2329     7.9751    92.0912     4.8942     6.4369
   77.5000   -45.9932     0.0987     2.2791     0.2189     7.9688   100.4370     4.5698     6.5451
   78.0000   -46.0139     0.0703     2.3101     0.2026     7.9552   100.6717     4.4473     6.7450
   78.5000   -46.0354     0.0475     2.3403     0.1846     7.9715    91.8792     4.5332     6.9516
   79.0000   -46.0234     0.0476     2.3684     0.1749     8.0168    83.0750     5.5390     7.2152
   79.5000   -46.0027     0.0477     2.3753     0.1742     8.0615    77.0604     7.1956     8.2496
   80.0000   -45.9815     0.0492     2.3771     0.1735     8.1063    77.2176     8.0995     9.5771
   80.5000   -45.9604     0.0528     2.3791     0.1729     8.1512    77.2545     8.9337    11.1142
   81.0000   -45.9393     0.0563     2.3811     0.1726     8.1924    77.2936     9.5713    12.0116
   81.5000   -45.9182     0.0600     2.3832     0.1725     8.1863    78.7735     9.9592    13.0102
   82.0000   -45.8971     0.0636     2.3822     0.1723     8.1781    80.8463    10.3625    12.7592
   82.5000   -45.8761     0.0642     2.3807     0.1722     8.1700    80.5844    10.8123    12.5675
   83.0000   -45.8554     0.0647     2.3844     0.1706     8.1621    80.8949    11.4990    12.8763
   83.5000   -45.8654     0.0653     2.3886     0.1686     8.1528    83.1279    12.2874    13.1829
   84.0000   -45.9332     0.0655     2.3896     0.1686     8.1028    85.0477    12.7573    13.4973
   84.5000   -46.0001     0.0604     2.3884     0.1716     8.0483    84.6301    13.0832    13.8188
   85.0000   -46.0669     0.0557     2.3833     0.1781     8.0231    83.8176    13.4174    14.1480
   85.5000   -46.1335     0.0542     2.3639     0.1835     7.9996    82.6761    13.7524    14.3534
   86.0000   -46.2002     0.0528     2.3598     0.1838     7.9767    80.3888    13.7861    14.5478
   86.5000   -46.2435     0.0516     2.3597     0.1836     7.9534    79.3819    13.8190    14.7449
   87.0000   -46.2719     0.0516     2.3601     0.1835     7.9204    80.2803    13.8521    14.9443
   87.5000   -46.2999     0.0517     2.3605     0.1838     7.8493    78.9277    13.8853    15.1461
   88.0000   -46.3276     0.0518     2.3585     0.1851     7.7787    79.6851    13.9184    15.3653
   88.5000   -46.3553     0.0532     2.3548     0.1881     7.7081    78.4258    13.9515    15.4940
   89.0000   -46.3830     0.0547     2.3511     0.1911     7.6364    78.3523    13.9846    15.6322
   89.5000   -46.4108     0.0561     2.3473     0.1924     7.5991    81.1143    14.0413    15.7717
   90.0000   -46.4385     0.0575     2.3436     0.1933     7.5716    84.0783    14.1556    15.9124
   90.5000   -46.4662     0.0572     2.3415     0.1943     7.5445    85.5324    14.2709    16.0544
   91.0000   -46.4939     0.0565     2.3416     0.1954     7.5174    82.4796    14.3871    16.1977
   91.5000   -46.5216     0.0558     2.3394     0.1970     7.4899    76.2368    14.5062    16.3423
   92.0000   -46.5494     0.0569     2.3359     0.1983     7.4764    72.2061    14.6268    16.4882
   92.5000   -46.5771     0.0584     2.3346     0.1965     7.4670    73.2786    14.8358    16.6355
   93.0000   -46.6049     0.0596     2.3377     0.1947     7.4576    78.1116    14.8931    16.7452
   93.5000   -46.6333     0.0590     2.3468     0.1855     7.4486    77.3946    14.9501    16.8253
   94.0000   -46.6628     0.0584     2.3564     0.1854     7.4567    75.4384    15.0101    16.9058
   94.5000   -46.6931     0.0578     2.3575     0.1853     7.5696    73.4698    15.0703    16.9868
   95.0000   -46.7234     0.0582     2.3572     0.1852     7.6855    72.7589    15.1308    17.0681
   95.5000   -46.7537     0.0589     2.3570     0.1851     7.7745    72.3766    15.1916    17.1499
   96.0000   -46.7839     0.0596     2.3567     0.1851     7.8573    72.6274    15.2935    17.2321
   96.5000   -46.8140     0.0604     2.3563     0.1829     7.9323    74.7885    15.4461    17.3146
   97.0000   -46.8315     0.0611     2.3633     0.1796     7.9860    77.8356    15.6003    17.6231
   97.5000   -46.8316     0.0615     2.3713     0.1762     8.0447    79.6757    15.7561    17.9869
   98.0000   -46.8317     0.0607     2.3795     0.1716     8.1034    79.1745    15.9133    18.3630
   98.5000   -46.8317     0.0595     2.3919     0.1611     8.1504    78.6347    16.0719    18.7476
   99.0000   -46.8317     0.0469     2.4127     0.1538     8.1183    77.3456    16.2440    18.9980
   99.5000   -46.8317     0.0375     2.4171     0.1569     8.0872    73.9790    16.1603    18.4840
  100.0000   -46.8317     0.0420     2.4004     0.1653     8.0564    73.0521    16.0478    18.6442
  100.5000   -46.8317     0.0504     2.3873     0.1738     8.1122    77.4696    15.9454    18.9546
  101.0000   -46.8315     0.0591     2.3774     0.1715     8.1767    80.2751    16.2431    19.1848
  101.5000   -46.8318     0.0596     2.3798     0.1666     8.2122    77.5460    16.0173    19.1235
  102.0000   -46.8353     0.0554     2.3891     0.1616     8.2218    71.9541    15.8081    19.0307
  102.5000   -46.7240     0.0511     2.3981     0.1598     8.2327    69.0367    15.6017    18.9384
  103.0000   -46.5955     0.0475     2.4036     0.1626     8.2436    70.1266    15.3980    18.8465
  103.5000   -46.4656     0.0476     2.3957     0.1688     8.2544    73.7561    15.1969    18.7550
  104.0000   -46.3357     0.0476     2.3742     0.1800     8.2652    77.4810    14.9985    18.6599
  104.5000   -46.2062     0.0476     2.3597     0.1883     8.2759    77.9402    14.8027    18.4034
  105.0000   -46.0781     0.0476     2.3535     0.1881     8.2867    75.4364    14.6338    18.1387
  105.5000   -45.8247     0.0476     2.3541     0.1880     8.2853    75.2260    14.3245    17.8777
