~VERSION INFORMATION
 VERS.                2.0:   CWLS LOG ASCII STANDARD - VERSION 2.0
 WRAP.                 NO:   ONE LINE PER DEPTH STEP
~WELL INFORMATION
#MNEM.UNIT      DATA TYPE    INFORMATION
#----------   ------------   ------------------------------
 STRT.F           21.0000:   START DEPTH
 STOP.F          484.0000:   STOP DEPTH
 STEP.F            0.5000:   STEP LENGTH
 NULL.          -999.2500:   NO VALUE
 COMP.       F D SERV INC:   COMPANY
 WELL. N P R 3 SX-3 #78-3:   WELL
 FLD .             TEAPOT:   FIELD
 LOC .       S3 T38N R78W:   LOCATION
 CNTY.            NATRONA:   COUNTY
 STAT.            WYOMING:   STATE
 CTRY. UNITED STATES OF AMERICA:   COUNTRY
 SRVC.     Atlas Wireline:   SERVICE COMPANY
 DATE.        04-DEC-1992:   LOGDATE
 API .       490252254500:   API NUMBER
~CURVE INFORMATION
#MNEM.UNIT       API CODE    CURVE DESCRIPTION
#----------   ------------   ------------------------------
 DEPT.F                  :   
 DPHI.DEC    45 890 12 00:   DENSITY POROSITY SANDSTONE
 NPHI.DEC    42 890 03 00:   NEUTRON POROSITY SANDSTONE
 C13 .IN     45 280 13 00:   CALIPER 1 - 3
 GRD .GAPI   45 310 01 00:   GAMMA RAY FROM DENSITY LOG
 ZCOR.G/C3   45 356 01 00:   DENSITY CORRECTION
 ZDEN.G/C3   45 350 01 00:   BULK DENSITY
 RILD.OHMM   07 120 46 00:   INDUCTION LOG DEEP RESISTIVITY
 RILM.OHMM   07 120 44 00:   INDUCTION LOG MEDIUM RESISTIVITY
~PARAMETER INFORMATION
#MNEM.UNIT          VALUE    DESCRIPTION
#----------   ------------   ------------------------------
 PD  .                 GL:   PERMANENT DATUM
 EPD .F              5120:   ELEVATION PERMANENT DATUM
 LMF .                 KB:   LOG MEASURED FROM
 DAPD.F                10:   FEET ABOVE PERMANENT DATUM
 DMF .                 KB:   DRILLING MEASURED FROM
 EKB .F              5130:   KELLING BUSHING
 EDF .F              5129:   DRILLING FLOOR
 EGL .F              5120:   GROUND LEVEL
 DATE.        04-DEC-1992:   RUN DATE
 RUN .                  1:   RUN NUMBER
 DD  .F               488:   DEPTH DRILLER
 DL  .F               488:   DEPTH LOGGER
 BLI .F               479:   BOTTOM LOG INTERVAL
 CS  .IN            8.625:   CASING SIZE
 CBD .F                50:   CASING BOTTOM DRILLER
 CBL .F                54:   CASING BOTTOM LOGGER
 BS  .IN            7.875:   BIT SIZE
 BSD .F               488:   BIT SIZE AT DEPTH
 DFT .           AIR FOAM:   DRILLING FLUID TYPE
 MRT .F                66:   MAXIMUM RECORDED TEMPERATURE
 LUN .           HL- 6274:   LOGGING UNIT NUMBER
 LUL .             CASPER:   LOGGING UNIT LOCATION
 ENGI.             RAUTIO:   RECORDING ENGINEER
 WITN.        GARY STRONG:   WITNESSED BY
 CLNT.            A2DTECH:   CLIENT CODE
 ORIG.           5" PRINT:   ORIGIN OF DATA
 UWI .       490252254500:   UNIQUE WELL ID
 DICO. A2D Technologies, Inc.:   DIGITIZING COMPANY
~OTHER INFORMATION
~A   DEPT     DPHI       NPHI        C13        GRD       ZCOR       ZDEN       RILD       RILM   
# ...
  385.5000     0.1784     0.2595     8.1336   130.6539     0.0237     2.3564    18.2937    16.6618
  386.0000     0.1751     0.2666     8.1323   130.0360     0.0251     2.3632    17.9130    16.3128
  386.5000     0.1709     0.2717     8.1310   130.3272     0.0281     2.3700    17.4159    15.9710
  387.0000     0.1691     0.2737     8.1448   133.1031     0.0261     2.3737    17.0510    15.7461
  387.5000     0.1685     0.2728     8.1432   136.4646     0.0144     2.3759    16.5970    15.6332
  388.0000     0.1667     0.2722     8.1418   140.2887     0.0158     2.3790    16.4828    15.6300
  388.5000     0.1631     0.2726     8.1405   141.7950     0.0097     2.3834    16.4842    15.6267
  389.0000     0.1594     0.2729     8.1392   139.6590    -0.0009     2.3895    16.4854    15.7381
  389.5000     0.1594     0.2720     8.1379   138.1320     0.0020     2.3849    16.6019    15.8500
  390.0000     0.1640     0.2696     8.1365   137.2111     0.0156     2.3765    16.6030    15.8367
  390.5000     0.1649     0.2666     8.1352   136.8992     0.0125     2.3810    16.4885    15.7231
  391.0000     0.1613     0.2669     8.1338   138.7026     0.0109     2.3901    16.4899    15.8302
  391.5000     0.1568     0.2694     8.1322   140.8120     0.0156     2.3931    16.3762    15.8261
  392.0000     0.1556     0.2700     8.1309   142.9615     0.0244     2.3794    16.2638    15.7127
  392.5000     0.1655     0.2685     8.1296   143.8187     0.0228     2.3671    16.1516    15.7094
  393.0000     0.1730     0.2664     8.1282   143.8039     0.0137     2.3634    16.1530    15.5968
  393.5000     0.1732     0.2652     8.1269   144.0951     0.0076     2.3717    16.0419    15.3771
  394.0000     0.1629     0.2667     8.1408   144.3893     0.0060     2.3815    16.0430    15.2669
  394.5000     0.1596     0.2689     8.1394   142.5563     0.0044     2.3890    15.9326    15.1574
  395.0000     0.1596     0.2704     8.1381   138.6051     0.0014     2.3867    15.7131    14.9439
  395.5000     0.1608     0.2708     8.1365   135.5630     0.0013     2.3837    15.7142    14.9408
  396.0000     0.1599     0.2686     8.1351   133.1269     0.0045     2.3859    15.4976    14.8337
  396.5000     0.1560     0.2665     8.1338   130.3878     0.0118     2.3965    15.2841    14.7274
  397.0000     0.1457     0.2657     8.1325   130.0729     0.0253     2.4117    15.1789    14.7243
  397.5000     0.1357     0.2664     8.1312   133.9495     0.0328     2.4247    14.9698    14.6187
  398.0000     0.1330     0.2679     8.1298   138.8342     0.0312     2.4320    14.8668    14.5139
  398.5000     0.1345     0.2681     8.1285   139.1284     0.0221     2.4266    14.7645    14.5109
  399.0000     0.1391     0.2651     8.1272   137.5984     0.0115     2.4228    14.9574    14.3065
  399.5000     0.1394     0.2645     8.1255   137.2836     0.0082     2.4228    14.8517    14.1051
  400.0000     0.1350     0.2658     8.1245   136.9697     0.0219     2.4273    14.7471    14.0039
  400.5000     0.1321     0.2634     8.1237   136.6384     0.0173     2.4333    14.6431    13.9385
  401.0000     0.1348     0.2601     8.1230   135.7455     0.0051     2.4280    14.5399    13.8036
  401.5000     0.1394     0.2586     8.1222   135.7382    -0.0011     2.4203    14.4374    13.7047
  402.0000     0.1407     0.2574     8.1214   135.4292     0.0003     2.4173    14.2356    13.6064
  402.5000     0.1358     0.2568     8.1207   134.8172     0.0108     2.4263    13.9387    13.5089
  403.0000     0.1268     0.2565     8.1199   134.8113     0.0153     2.4380    13.7438    13.3143
  403.5000     0.1225     0.2559     8.1191   135.4129     0.0027     2.4460    13.5517    13.1310
  404.0000     0.1207     0.2556     8.1184   137.8297    -0.0064     2.4497    13.4562    13.1283
  404.5000     0.1180     0.2556     8.1176   143.2783    -0.0078     2.4557    13.3613    13.0336
  405.0000     0.1117     0.2562     8.1168   146.3041     0.0042     2.4693    13.3604    12.9402
  405.5000     0.1096     0.2577     8.1161   144.4785     0.0117     2.4670    13.2662    12.9375
  406.0000     0.1150     0.2581     8.1152   139.3210     0.0085     2.4586    13.1727    12.9348
  406.5000     0.1199     0.2559     8.1145   138.4060     0.0039     2.4487    13.1718    12.9322
  407.0000     0.1190     0.2551     8.1138   140.5535     0.0023     2.4533    13.1709    12.9295
  407.5000     0.1154     0.2551     8.1130   143.2727     0.0113     2.4608    13.1700    12.9268
  408.0000     0.1118     0.2545     8.1274   143.5397     0.0217     2.4638    13.1691    12.9242
  408.5000     0.1124     0.2523     8.1267   141.4110     0.0262     2.4630    13.2607    13.0128
  409.0000     0.1121     0.2518     8.1259   141.1020     0.0215     2.4660    13.1671    13.0094
  409.5000     0.1094     0.2551     8.1252   142.6112     0.0108     2.4705    13.1661    13.0067
  410.0000     0.1067     0.2579     8.0939   141.9992     0.0106     2.4758    13.1652    13.0040
  410.5000     0.1070     0.2606     8.0477   140.4781     0.0197     2.4733    13.1643    12.9108
  411.0000     0.1088     0.2618     8.0166   142.5934     0.0272     2.4696    13.1634    12.9987
  411.5000     0.1107     0.2600     8.0158   145.9207     0.0161     2.4688    13.0706    12.9054
  412.0000     0.1082     0.2588     7.9999   147.4314     0.0055     2.4748    12.9785    12.8129
  412.5000     0.1058     0.2606     8.0145   144.9998     0.0026     2.4869    12.9776    12.6319
  413.0000     0.0946     0.2625     7.9984   144.6908     0.0025     2.4983    12.8861    12.5413
  413.5000     0.0913     0.2640     7.9977   144.6848     0.0024     2.5005    12.7953    12.3647
  414.0000     0.0907     0.2646     7.9969   143.7373     0.0023     2.4898    12.7051    12.3622
  414.5000     0.0968     0.2643     8.0114   141.6424     0.0022     2.4868    12.6156    12.2736
  415.0000     0.1005     0.2634     8.0106   146.1806     0.0036     2.4837    12.5267    12.2710
  415.5000     0.1002     0.2640     8.0099   149.8110     0.0065     2.4867    12.4384    12.2685
  416.0000     0.0968     0.2662     8.0091   153.7445     0.0110     2.4920    12.4340    12.1805
  416.5000     0.0947     0.2665     8.0082   152.2234     0.0199     2.4942    12.2636    12.1780
  417.0000     0.0954     0.2653     8.0075   147.0659     0.0153     2.4934    12.2502    12.0907
  417.5000     0.0966     0.2632     8.0067   144.0297     0.0061     2.4911    12.1762    12.0041
  418.0000     0.0975     0.2623     8.0060   144.9328     0.0059     2.4895    12.0903    12.0016
  418.5000     0.0963     0.2626     8.0052   144.9268     0.0135     2.4903    12.0895    11.9991
  419.0000     0.0927     0.2633     8.0045   144.9209     0.0195     2.4963    12.0887    11.9966
  419.5000     0.0915     0.2641     8.0037   145.2182     0.0208     2.5000    12.0878    11.9941
  420.0000     0.0958     0.2645     8.0030   145.5150     0.0071     2.4939    12.0870    11.9075
  420.5000     0.0988     0.2648     8.0022   146.1171     0.0009     2.4886    12.0862    11.9051
  421.0000     0.0976     0.2651     8.0015   147.0424     0.0008     2.4886    12.0853    11.8197
  421.5000     0.0943     0.2642     8.0008   148.5737     0.0098     2.4931    12.0845    11.8173
  422.0000     0.0910     0.2630     8.0000   149.7337     0.0173     2.4991    12.0837    11.8149
  422.5000     0.0892     0.2630     7.9992   149.4232     0.0232     2.5044    11.9985    11.8124
  423.0000     0.0904     0.2642     7.9983   148.2051     0.0201     2.4998    11.9977    11.8100
  423.5000     0.0941     0.2645     7.9976   145.4719     0.0109     2.4929    11.9131    11.7253
  424.0000     0.0959     0.2645     7.9968   142.4357     0.0017     2.4906    11.9123    11.6413
  424.5000     0.0962     0.2637     7.9809   142.1282     0.0001     2.4929    11.8283    11.4773
  425.0000     0.0938     0.2628     7.9802   143.3328     0.0106     2.4976    11.8275    11.3951
  425.5000     0.0911     0.2631     7.9794   142.7208     0.0211     2.5018    11.7441    11.3134
