~VERSION INFORMATION
 VERS.                2.0:   CWLS LOG ASCII STANDARD - VERSION 2.0
 WRAP.                 NO:   ONE LINE PER DEPTH STEP
~WELL INFORMATION
#MNEM.UNIT      DATA TYPE    INFORMATION
#----------   ------------   ------------------------------
 STRT.F            5.0000:   START DEPTH
 STOP.F          610.0000:   STOP DEPTH
 STEP.F            0.5000:   STEP LENGTH
 NULL.          -999.2500:   NO VALUE
 COMP. FENIX & SCISSON INC:   COMPANY
 WELL.        NPR 3 #25-3:   WELL
 FLD .        TEAPOT DOME:   FIELD
 LOC .       S3 T38N R78W:   LOCATION
 CNTY.            NATRONA:   COUNTY
 STAT.            WYOMING:   STATE
 CTRY. UNITED STATES OF AMERICA:   COUNTRY
 SRVC.           BIRDWELL:   SERVICE COMPANY
 DATE.        28-SEP-1978:   LOGDATE
 API .       490251068900:   API NUMBER
~CURVE INFORMATION
#MNEM.UNIT       API CODE    CURVE DESCRIPTION
#----------   ------------   ------------------------------
 DEPT.F                  :   
 SPR .MV     05 010 01 00:   SPONTANEOUS POTENTIAL FROM RES.
 IL  .OHMM   05 120 00 00:   INDUCTION LOG
 SN  .OHMM   05 040 16 00:   SHORT NORMAL 16"
 CALD.IN     45 280 60 00:   CALIPER
 GRD .GAPI   45 310 01 00:   GAMMA RAY FROM DENSITY LOG
 CORR.G/C3   45 356 01 00:   DENSITY CORRECTION
 DEN .G/C3   45 350 01 00:   COMPENSATED BULK DENSTIY
 DPHI.DEC    45 890 12 00:   DENSITY POROSITY SANDSTONE
~PARAMETER INFORMATION
#MNEM.UNIT          VALUE    DESCRIPTION
#----------   ------------   ------------------------------
 PD  .                 GL:   PERMANENT DATUM
 EPD .F              5249:   ELEVATION PERMANENT DATUM
 LMF .                 KB:   LOG MEASURED FROM
 DAPD.F                 4:   FEET ABOVE PERMANENT DATUM
 DMF .                 KB:   DRILLING MEASURED FROM
 EKB .F              5253:   KELLING BUSHING
 EGL .F              5249:   GROUND LEVEL
 DATE.            9-28-78:   RUN DATE
 RUN .                  1:   RUN NUMBER
 DD  .F               616:   DEPTH DRILLER
 DL  .F               613:   DEPTH LOGGER
 BLI .F               607:   BOTTOM LOG INTERVAL
 TLI .F                40:   TOP LOG INTERVAL
 BS  .IN            7.875:   BIT SIZE
 BSD .F               616:   BIT SIZE AT DEPTH
 DFT .                KCL:   DRILLING FLUID TYPE
 DFD .                8.7:   DRILLING FLUID DENSITY
 DFV .                 33:   DRILLING FLUID VISCOSITY
 DFPH.                  9:   DRILLING FLUID PH
 DFL .                  5:   DRILLING FLUID LOSS
 MSS .            MUD PIT:   MUD SAMPLE SOURCE
 RMS .OHMM            .14:   RESISTIVITY MUD SAMPLE
 MST .F                65:   MUD SAMPLE TEMPERATURE
 RMF .OHMM            2.1:   RESISTIVITY MUD FILTRATE SAMPLE
 MFST.F                65:   MUD FILTRATE SAMPLE TEMPERATURE
 RMC .OHMM            .32:   RESISTIVITY MUD CAKE
 MCST.F                65:   MUD CAKE SAMPLE TEMPERATURE
 MFSS.               MEAS:   MUD FILTRATE SAMPLE SOURCE
 TCS .HRS               2:   TIME CURCULATED STOPPED
 LUN .               2958:   LOGGING UNIT NUMBER
 LUL .               CASP:   LOGGING UNIT LOCATION
 ENGI.            ROLLINS:   RECORDING ENGINEER
 WITN.              AMEND:   WITNESSED BY
 CLNT.            A2DTECH:   CLIENT CODE
 ORIG.           5" PRINT:   ORIGIN OF DATA
 UWI .       490251068900:   UNIQUE WELL ID
 DICO. A2D Technologies, Inc.:   DIGITIZING COMPANY
~OTHER INFORMATION
~A    DEPT     SPR         IL         SN         CALD       GRD      CORR        DEN       DPHI   
# ...
  572.0000   -12.2200     9.5816     9.4616     8.0337   104.9986     0.0067     2.5197     0.0993
  572.5000   -12.3309     9.4977     9.4238     8.0395   105.0697     0.0082     2.5169     0.0996
  573.0000   -12.4418     9.4145     9.4050     8.0453   109.6557     0.0112     2.5139     0.0998
  573.5000   -12.5527     9.3321     9.4050     8.0511   111.4764     0.0159     2.5147     0.0985
  574.0000   -12.6636     9.2504     9.4049     8.0567   112.7899     0.0206     2.5187     0.0958
  574.5000   -12.7745     9.1694     9.4050     8.0623   114.1102     0.0224     2.5243     0.0931
  575.0000   -12.8853     9.0644     9.4050     8.0734   116.2612     0.0200     2.5296     0.0902
  575.5000   -12.9962     9.0885     9.4050     8.0826   121.2391     0.0176     2.5351     0.0886
  576.0000   -13.1071     9.1219     9.4050     8.0767   121.5486     0.0153     2.5376     0.0862
  576.5000   -13.2180     9.1557     9.4050     8.0699   119.5656     0.0129     2.5371     0.0863
  577.0000   -13.3289     9.1894     9.4048     8.0632   117.3821     0.0106     2.5343     0.0906
  577.5000   -13.4398     9.2335     9.4040     8.0566   115.6528     0.0103     2.5314     0.0930
  578.0000   -13.5507     9.0910     9.4081     8.0499   115.7920     0.0144     2.5294     0.0908
  578.5000   -13.6616     8.8914     9.2761     8.0433   115.9449     0.0184     2.5330     0.0886
  579.0000   -13.7725     8.6961     9.1349     8.0366   116.1184     0.0210     2.5375     0.0870
  579.5000   -13.8830     8.5051     8.9959     8.0299   116.3659     0.0210     2.5398     0.0858
  580.0000   -13.9934     8.3182     8.8590     8.0233   122.1444     0.0206     2.5351     0.0892
  580.5000   -14.1218     8.1175     8.8183     8.0166   126.7799     0.0202     2.5307     0.0934
  581.0000   -14.3187     8.0816     8.8494     8.0099   125.2548     0.0198     2.5316     0.0904
  581.5000   -14.5097     8.0418     8.8734     8.0033   122.8757     0.0193     2.5343     0.0882
  582.0000   -14.6994     8.0023     8.9010     7.9966   121.6566     0.0174     2.5370     0.0885
  582.5000   -14.8782     7.9632     8.8726     7.9898   121.3795     0.0090     2.5362     0.0940
  583.0000   -14.9284     7.9227     8.8328     7.9915   121.3696     0.0012     2.5271     0.1023
  583.5000   -14.9805     7.8516     8.7935     7.9965   121.5677     0.0017     2.5140     0.1026
  584.0000   -15.0331     7.6945     8.7544     8.0015   121.7326     0.0026     2.5096     0.1014
  584.5000   -15.0856     7.5426     8.7155     8.0068   121.3160     0.0033     2.5121     0.0985
  585.0000   -15.1381     7.3937     8.6768     8.0109   118.7344     0.0041     2.5181     0.0960
  585.5000   -15.1907     7.2478     8.6575     8.0150   116.9626     0.0049     2.5240     0.0935
  586.0000   -15.2432     7.1047     8.7095     8.0190   117.6981     0.0057     2.5294     0.0909
  586.5000   -15.2957     7.0009     8.7495     8.0231   118.9108     0.0065     2.5303     0.0901
  587.0000   -15.3483     6.9830     8.7897     8.0274   120.1650     0.0092     2.5312     0.0895
  587.5000   -15.4008     6.9650     8.8187     8.0379   120.9452     0.0187     2.5359     0.0890
  588.0000   -15.4533     6.9413     8.9409     8.0672   120.5565     0.0245     2.5420     0.0844
  588.5000   -15.5058     6.9677     9.0538     8.0962   116.7924     0.0296     2.5483     0.0803
  589.0000   -15.5584     7.0062     9.1681     8.1007   111.5685     0.0346     2.5535     0.0762
  589.5000   -15.6113     7.3301     9.2838     8.0494   106.8766     0.0391     2.5590     0.0733
  590.0000   -15.6652     7.6374     9.4010     8.0242   105.3921     0.0342     2.5615     0.0683
  590.5000   -15.6881     7.9580     9.5197     8.0117   104.3704     0.0253     2.5615     0.0670
  591.0000   -15.7090     8.2926     9.5796     7.9997   106.3588     0.0164     2.5615     0.0731
  591.5000   -15.7302     8.6356     9.5796     7.9883   108.9455     0.0088     2.5585     0.0786
  592.0000   -15.7515     8.8695     9.5796     7.9896   111.5386     0.0082     2.5527     0.0811
  592.5000   -15.7727     8.9603     9.5791     7.9915   113.7041     0.0069     2.5468     0.0838
  593.0000   -15.7939     9.0667     9.5783     7.9934   114.6092     0.0056     2.5449     0.0842
  593.5000   -15.8152     9.0640     9.6704     7.9952   119.0080     0.0043     2.5509     0.0826
  594.0000   -15.8364     9.1196     9.7410     7.9970   121.7852     0.0029     2.5638     0.0794
  594.5000   -15.8576     9.1563     9.8121     7.9988   119.4043     0.0016     2.5516     0.0843
  595.0000   -15.8789     9.1929     9.8478     8.0006   116.3806     0.0003     2.5352     0.0924
  595.5000   -15.9001     9.2335     9.7913     8.0024   115.2588    -0.0008     2.5220     0.0977
  596.0000   -15.9213     9.1911     9.7539     8.0042   114.9604     0.0036     2.5227     0.0994
  596.5000   -15.9426     9.1309     9.7165     8.0060   114.6608     0.0062     2.5256     0.0952
  597.0000   -15.9638     9.0711     9.6794     8.0079   114.6364     0.0020     2.5284     0.0912
  597.5000   -15.9851     9.0117     9.6425     8.0047   114.6962    -0.0010     2.5304     0.0906
  598.0000   -16.0063     8.9526     9.6046     7.9999   114.7809     0.0004     2.5258     0.0930
  598.5000   -16.0271     8.8940     9.5478     7.9949   114.8397     0.0036     2.5224     0.0946
  599.0000   -16.0467     8.8357     9.4357     7.9900   116.2779     0.0066     2.5240     0.0927
  599.5000   -16.0828     8.7873     9.3264     7.9851   117.7405     0.0070     2.5260     0.0904
  600.0000   -16.3547     8.7432     9.2184     7.9802   117.7937     0.0070     2.5275     0.0904
  600.5000   -16.6198     8.6993     9.1116     7.9752   117.3247     0.0070     2.5246     0.0979
  601.0000   -16.8785     8.6575     9.0062     7.9703   116.8518     0.0076     2.5143     0.1051
  601.5000   -17.0553     8.4382     8.9028  -999.2500   115.8075     0.0126     2.5096     0.1050
  602.0000   -16.9928     8.2333     8.8183  -999.2500   115.3092     0.0175     2.5126     0.1007
  602.5000   -16.9385     8.0334     8.6263  -999.2500   115.0425     0.0194     2.5194     0.0960
  603.0000   -16.8867     7.8242     8.3837  -999.2500   114.8270     0.0140     2.5262     0.0942
  603.5000   -17.2121     7.6111     8.1313  -999.2500   113.5029     0.0087     2.5257     0.0969
  604.0000   -17.9086     7.3877     7.8864  -999.2500   112.1867     0.0034     2.5189     0.1018
  604.5000   -18.6097     7.1708     7.6489  -999.2500   110.8782    -0.0026     2.5103     0.1060
  605.0000   -19.1476     6.9604     7.2017  -999.2500   109.5724    -0.0031     2.5038     0.1089
  605.5000   -19.6833     6.6507     6.7419  -999.2500  -999.2500    -0.0030     2.5023     0.1181
  606.0000   -20.4500     5.7045     6.3115  -999.2500  -999.2500    -0.0030     2.4882     0.1322
  606.5000   -21.6946     4.3420     5.9099  -999.2500  -999.2500    -0.0030     2.4651     0.1462
  607.0000   -21.8478     4.2238     5.5298  -999.2500  -999.2500    -0.0030     2.4483     0.1652
  607.5000  -999.2500  -999.2500  -999.2500  -999.2500  -999.2500    -0.0029     2.4147     0.1920
  608.0000  -999.2500  -999.2500  -999.2500  -999.2500  -999.2500    -0.0010     2.3627     0.2212
  608.5000  -999.2500  -999.2500  -999.2500  -999.2500  -999.2500     0.0118     2.3086     0.2510
  609.0000  -999.2500  -999.2500  -999.2500  -999.2500  -999.2500     0.0352     2.2622     0.2541
  609.5000  -999.2500  -999.2500  -999.2500  -999.2500  -999.2500     0.0588     2.2640     0.2333
  610.0000  -999.2500  -999.2500  -999.2500  -999.2500  -999.2500     0.0672     2.3076     0.2009
