~VERSION INFORMATION
 VERS.                2.0:   CWLS LOG ASCII STANDARD - VERSION 2.0
 WRAP.                 NO:   ONE LINE PER DEPTH STEP
~WELL INFORMATION
#MNEM.UNIT      DATA TYPE    INFORMATION
#----------   ------------   ------------------------------
 STRT.F           23.0000:   START DEPTH
 STOP.F         2536.0000:   STOP DEPTH
 STEP.F            0.5000:   STEP LENGTH
 NULL.          -999.2500:   NO VALUE
 COMP. FENIX & SCISSON INC:   COMPANY
 WELL.     14 SHX 3 #14-3:   WELL
 FLD .             TEAPOT:   FIELD
 LOC .       S3 T38N R78W:   LOCATION
 CNTY.            NATRONA:   COUNTY
 STAT.            WYOMING:   STATE
 CTRY. UNITED STATES OF AMERICA:   COUNTRY
 SRVC.           BIRDWELL:   SERVICE COMPANY
 DATE.        20-MAR-1979:   LOGDATE
 API .       490251073900:   API NUMBER
~CURVE INFORMATION
#MNEM.UNIT       API CODE    CURVE DESCRIPTION
#----------   ------------   ------------------------------
 DEPT.F                  :   
 SPR .MV     07 010 01 00:   SPONTANEOUS POTENTIAL
 SN  .OHMM   07 040 16 00:   SHORT NORMAL 16'
 IL  .OHMM   07 120 00 00:   INDUCTION LOG
 GRD .GAPI   45 310 01 00:   GAMMA RAY FROM DENSITY LOG
 CALD.IN     45 280 60 00:   CALIPER
 CORR.G/C3   45 356 01 00:   DENSITY CORRECTION
 DEN .G/C3   45 350 01 00:   
 DPHI.DEC    45 890 12 00:   DENSITY POROSITY SANDSTONE
~PARAMETER INFORMATION
#MNEM.UNIT          VALUE    DESCRIPTION
#----------   ------------   ------------------------------
 PD  .                 GL:   PERMANENT DATUM
 EPD .F              5208:   ELEVATION PERMANENT DATUM
 LMF .                 KB:   LOG MEASURED FROM
 DAPD.F                10:   FEET ABOVE PERMANENT DATUM
 DMF .                 KB:   DRILLING MEASURED FROM
 EKB .F              5218:   KELLING BUSHING
 EGL .F              5208:   GROUND LEVEL
 DATE.            3-20-79:   RUN DATE
 RUN .                  1:   RUN NUMBER
 DD  .F              2580:   DEPTH DRILLER
 DL  .F              2536:   DEPTH LOGGER
 BLI .F              2536:   BOTTOM LOG INTERVAL
 TLI .F               400:   TOP LOG INTERVAL
 CS  .IN            9.625:   CASING SIZE
 CBL .F               680:   CASING BOTTOM LOGGER
 BS  .IN             8.75:   BIT SIZE
 BSD .F              2580:   BIT SIZE AT DEPTH
 DFT .                AIR:   DRILLING FLUID TYPE
 TCS .HRS               6:   TIME CURCULATED STOPPED
 LUN .               2959:   LOGGING UNIT NUMBER
 LUL .             CASPER:   LOGGING UNIT LOCATION
 ENGI.            ROLLINS:   RECORDING ENGINEER
 WITN.           DINSMORE:   WITNESSED BY
 CLNT.            A2DTECH:   CLIENT CODE
 ORIG. 1", 2", 2.5", 5" PRINT:   ORIGIN OF DATA
 UWI .       490251073900:   UNIQUE WELL ID
 DICO. A2D Technologies, Inc.:   DIGITIZING COMPANY
~OTHER INFORMATION
~A   DEPT      SPR         SN         IL        GRD       CALD       CORR        DEN       DPHI   
# ...
 1845.5000  -999.2500  -999.2500  -999.2500   159.1482     9.6383    -0.0060     2.4017     0.0382
 1846.0000  -999.2500  -999.2500  -999.2500   163.9311     9.6401    -0.0377     2.2032     0.1270
 1846.5000  -999.2500  -999.2500  -999.2500   168.7141     9.6419    -0.0529     1.9993     0.2191
 1847.0000  -999.2500  -999.2500  -999.2500   174.0991     9.6436    -0.0347     1.8608     0.2956
 1847.5000  -999.2500  -999.2500  -999.2500   176.9716     9.6454     0.0792     1.7990     0.2923
 1848.0000  -999.2500  -999.2500  -999.2500   175.9292     9.6471     0.1882     1.9792     0.1972
 1848.5000  -999.2500  -999.2500  -999.2500   171.2231     9.6489     0.1623     2.2370     0.1001
 1849.0000  -999.2500  -999.2500  -999.2500   167.0427     9.6506     0.1050     2.5061     0.0216
 1849.5000  -999.2500  -999.2500  -999.2500   162.4876     9.6524     0.0480     2.5009     0.0234
 1850.0000  -999.2500  -999.2500  -999.2500   158.3005     9.6541     0.0036     2.4877     0.0289
 1850.5000  -999.2500  -999.2500  -999.2500   153.5968     9.6559    -0.0119     2.4758     0.0312
 1851.0000  -999.2500  -999.2500  -999.2500   155.5960     9.6572    -0.0012     2.4938     0.0237
 1851.5000  -999.2500  -999.2500  -999.2500   159.8537     9.6561     0.0184     2.5118     0.0162
 1852.0000  -999.2500  -999.2500  -999.2500   163.9548     9.6553     0.0245     2.5283     0.0113
 1852.5000  -999.2500  -999.2500  -999.2500   167.9282     9.6544     0.0109     2.5263     0.0130
 1853.0000  -999.2500  -999.2500  -999.2500   170.6300     9.6535    -0.0017     2.5136     0.0165
 1853.5000  -999.2500  -999.2500  -999.2500   169.8541     9.6526    -0.0006     2.5050     0.0200
 1854.0000  -999.2500  -999.2500  -999.2500   171.1669     9.6517     0.0023     2.5063     0.0179
 1854.5000  -999.2500  -999.2500  -999.2500   174.5760     9.6508     0.0055     2.5101     0.0160
 1855.0000  -999.2500  -999.2500  -999.2500   174.8237     9.6499     0.0087     2.5143     0.0143
 1855.5000  -999.2500  -999.2500  -999.2500   173.0641     9.6490     0.0065     2.5134     0.0160
 1856.0000  -999.2500  -999.2500  -999.2500   171.0514     9.6482     0.0029     2.5057     0.0200
 1856.5000  -999.2500  -999.2500  -999.2500   168.4458     9.6473    -0.0002     2.4978     0.0224
 1857.0000  -999.2500  -999.2500  -999.2500   167.4222     9.6464    -0.0022     2.5047     0.0189
 1857.5000  -999.2500  -999.2500  -999.2500   168.0352     9.6455     0.0076     2.5180     0.0131
 1858.0000  -999.2500  -999.2500  -999.2500   170.4346     9.6446     0.0166     2.5299     0.0038
 1858.5000  -999.2500  -999.2500  -999.2500   172.8098     9.6437     0.0184     2.5411     0.0057
 1859.0000  -999.2500  -999.2500  -999.2500   175.5234     9.6428     0.0089     2.5311     0.0105
 1859.5000  -999.2500  -999.2500  -999.2500   176.7749     9.6419     0.0004     2.5205     0.0153
 1860.0000  -999.2500  -999.2500  -999.2500   175.9663     9.6410    -0.0083     2.5089     0.0200
 1860.5000  -999.2500  -999.2500  -999.2500   178.0529     9.6401    -0.0167     2.4979     0.0247
 1861.0000  -999.2500  -999.2500  -999.2500   175.6534     9.6392    -0.0268     2.4837     0.0295
 1861.5000  -999.2500  -999.2500  -999.2500   170.4917     9.6383    -0.0229     2.4727     0.0362
 1862.0000  -999.2500  -999.2500  -999.2500   164.6605     9.6375    -0.0065     2.4887     0.0275
 1862.5000  -999.2500  -999.2500  -999.2500   166.3011     9.6366     0.0102     2.5131     0.0132
 1863.0000  -999.2500  -999.2500  -999.2500   168.4766     9.6357     0.0286     2.5375     0.0012
 1863.5000  -999.2500  -999.2500  -999.2500   171.1707     9.6348     0.0341     2.5512     0.0007
 1864.0000  -999.2500  -999.2500  -999.2500   171.1491     9.6339     0.0211     2.5432     0.0061
 1864.5000  -999.2500  -999.2500  -999.2500   169.2954     9.6330     0.0108     2.5253     0.0115
 1865.0000  -999.2500  -999.2500  -999.2500   172.1359     9.6321    -0.0018     2.5118     0.0169
 1865.5000  -999.2500  -999.2500  -999.2500   173.3700     9.6312    -0.0031     2.5026     0.0224
 1866.0000  -999.2500  -999.2500  -999.2500   171.7295     9.6303    -0.0033     2.5020     0.0220
 1866.5000  -999.2500  -999.2500  -999.2500   173.1112     9.6294    -0.0081     2.5016     0.0231
 1867.0000  -999.2500  -999.2500  -999.2500   170.8240     9.6285    -0.0158     2.4934     0.0268
 1867.5000  -999.2500  -999.2500  -999.2500   167.4025     9.6276    -0.0195     2.4867     0.0305
 1868.0000  -999.2500  -999.2500  -999.2500   166.0838     9.6267    -0.0181     2.4792     0.0305
 1868.5000  -999.2500  -999.2500  -999.2500   169.5999     9.6259    -0.0057     2.4888     0.0273
 1869.0000  -999.2500  -999.2500  -999.2500   171.8846     9.6250     0.0052     2.4994     0.0218
 1869.5000  -999.2500  -999.2500  -999.2500   170.1458     9.6241     0.0165     2.5113     0.0163
 1870.0000  -999.2500  -999.2500  -999.2500   177.0302     9.6232     0.0239     2.5206     0.0115
 1870.5000  -999.2500  -999.2500  -999.2500   175.9725     9.6223     0.0128     2.5203     0.0123
 1871.0000  -999.2500  -999.2500  -999.2500   171.3125     9.6214     0.0060     2.5165     0.0135
 1871.5000  -999.2500  -999.2500  -999.2500   165.8918     9.6205     0.0143     2.5236     0.0123
 1872.0000  -999.2500  -999.2500  -999.2500   163.7910     9.6196     0.0199     2.5170     0.0111
 1872.5000  -999.2500  -999.2500  -999.2500   165.3397     9.6187     0.0217     2.5096     0.0155
 1873.0000  -999.2500  -999.2500  -999.2500   167.2146     9.6178     0.0450     2.5124     0.0184
 1873.5000  -999.2500  -999.2500  -999.2500   166.1732     9.6170     0.0844     2.5329     0.0014
 1874.0000  -999.2500  -999.2500  -999.2500   164.5596     9.6173     0.0968     2.5676    -0.0099
 1874.5000  -999.2500  -999.2500  -999.2500   162.2018     9.6179     0.0649     2.5552     0.0083
 1875.0000  -999.2500  -999.2500  -999.2500   168.3797     9.6185     0.0480     2.4949     0.0273
 1875.5000  -999.2500  -999.2500  -999.2500   173.5298     9.6191     0.0709     2.4901     0.0297
 1876.0000  -999.2500  -999.2500  -999.2500   169.3790     9.6197     0.1028     2.4915     0.0182
 1876.5000  -999.2500  -999.2500  -999.2500   172.1423     9.6203     0.1433     2.5475    -0.0010
 1877.0000  -999.2500  -999.2500  -999.2500   175.9438     9.6209     0.0788     2.5210     0.0208
 1877.5000  -999.2500  -999.2500  -999.2500   179.7858     9.6215    -0.0027     2.4593     0.0426
 1878.0000  -999.2500  -999.2500  -999.2500   181.5429     9.6221     0.0100     2.4830     0.0253
 1878.5000  -999.2500  -999.2500  -999.2500   179.4457     9.6227     0.0174     2.4959     0.0250
 1879.0000  -999.2500  -999.2500  -999.2500   174.1936     9.6233     0.0079     2.4931     0.0254
 1879.5000  -999.2500  -999.2500  -999.2500   171.0116     9.6239     0.0066     2.4911     0.0257
 1880.0000  -999.2500  -999.2500  -999.2500   171.6833     9.6245     0.0096     2.4973     0.0232
 1880.5000  -999.2500  -999.2500  -999.2500   170.8432     9.6251     0.0127     2.5068     0.0192
 1881.0000  -999.2500  -999.2500  -999.2500   168.9044     9.6257     0.0088     2.5124     0.0160
 1881.5000  -999.2500  -999.2500  -999.2500   167.1649     9.6263    -0.0012     2.4944     0.0253
 1882.0000  -999.2500  -999.2500  -999.2500   164.9670     9.6269    -0.0098     2.4781     0.0345
 1882.5000  -999.2500  -999.2500  -999.2500   162.3825     9.6275     0.0041     2.4740     0.0287
 1883.0000  -999.2500  -999.2500  -999.2500   161.6487     9.6281     0.0131     2.5019     0.0200
 1883.5000  -999.2500  -999.2500  -999.2500   163.7303     9.6287     0.0207     2.5021     0.0211
 1884.0000  -999.2500  -999.2500  -999.2500   165.9392     9.6293     0.0252     2.5003     0.0208
 1884.5000  -999.2500  -999.2500  -999.2500   168.3078     9.6299     0.0242     2.5065     0.0168
 1885.0000  -999.2500  -999.2500  -999.2500   170.4746     9.6305     0.0155     2.4950     0.0265
 1885.5000  -999.2500  -999.2500  -999.2500   172.4837     9.6311     0.0071     2.4713     0.0365
