~VERSION INFORMATION
 VERS.                2.0:   CWLS LOG ASCII STANDARD - VERSION 2.0
 WRAP.                 NO:   ONE LINE PER DEPTH STEP
~WELL INFORMATION
#MNEM.UNIT      DATA TYPE    INFORMATION
#----------   ------------   ------------------------------
 STRT.F          432.0000:   START DEPTH
 STOP.F         1258.0000:   STOP DEPTH
 STEP.F            0.5000:   STEP LENGTH
 NULL.          -999.2500:   NO VALUE
 COMP. FENIX & SCISSON INC:   COMPANY
 WELL.   12 SHX 34 #12-34:   WELL
 FLD .            WILDCAT:   FIELD
 LOC .      S34 T39N R78W:   LOCATION
 CNTY.            NATRONA:   COUNTY
 STAT.            WYOMING:   STATE
 CTRY. UNITED STATES OF AMERICA:   COUNTRY
 SRVC.              Welex:   SERVICE COMPANY
 DATE.        23-APR-1979:   LOGDATE
 API .       490251078200:   API NUMBER
~CURVE INFORMATION
#MNEM.UNIT       API CODE    CURVE DESCRIPTION
#----------   ------------   ------------------------------
 DEPT.F                  :   
 CALD.IN     45 280 60 00:   CALIPER
 GRD .GAPI   45 310 01 00:   GAMMA RAY FROM DENSITY LOG
 RHOB.G/C3   45 350 01 00:   BULK DENSITY
 DPHI.DEC    45 890 12 00:   DENSITY POROSITY SANDSTONE
 CORR.G/C3   45 356 01 00:   DENSITY CORRECTION
~PARAMETER INFORMATION
#MNEM.UNIT          VALUE    DESCRIPTION
#----------   ------------   ------------------------------
 PD  .                 GL:   PERMANENT DATUM
 EPD .F              5092:   ELEVATION PERMANENT DATUM
 LMF .                 KB:   LOG MEASURED FROM
 DAPD.F                10:   FEET ABOVE PERMANENT DATUM
 DMF .                 KB:   DRILLING MEASURED FROM
 EKB .F              5102:   KELLING BUSHING
 EGL .F              5092:   GROUND LEVEL
 DATE.            4-23-79:   RUN DATE
 RUN .                  1:   RUN NUMBER
 DD  .F              1260:   DEPTH DRILLER
 DL  .F              1260:   DEPTH LOGGER
 BLI .F              1258:   BOTTOM LOG INTERVAL
 TLI .F               446:   TOP LOG INTERVAL
 CS  .IN            9.625:   CASING SIZE
 CBD .F               440:   CASING BOTTOM DRILLER
 BS  .IN            8.375:   BIT SIZE
 BSD .F              1260:   BIT SIZE AT DEPTH
 DFT .                OIL:   DRILLING FLUID TYPE
 DFD .                8.7:   DRILLING FLUID DENSITY
 TCS .HRS               1:   TIME CURCULATED STOPPED
 ENGI.               REIN:   RECORDING ENGINEER
 WITN.              AMEND:   WITNESSED BY
 CLNT.            A2DTECH:   CLIENT CODE
 ORIG.           5" PRINT:   ORIGIN OF DATA
 UWI .       490251078200:   UNIQUE WELL ID
 DICO. A2D Technologies, Inc.:   DIGITIZING COMPANY
~OTHER INFORMATION
~A   DEPT     CALD         GRD      RHOB       DPHI       CORR   
# ...
  981.0000     8.5960    98.5262     2.4931     0.0379     0.0026
  981.5000     8.5892    99.2542     2.4992     0.0386     0.0055
  982.0000     8.5825    98.2423     2.5100     0.0307     0.0106
  982.5000     8.5757    97.2258     2.5209     0.0177     0.0132
  983.0000     8.5689    96.2469     2.5317     0.0151     0.0162
  983.5000     8.5622    96.0421     2.5323     0.0128     0.0193
  984.0000     8.5554    96.1153     2.5308     0.0174     0.0223
  984.5000     8.5487    98.1411     2.5233     0.0201     0.0250
  985.0000     8.5419   100.2178     2.5160     0.0185     0.0273
  985.5000     8.5351   102.2834     2.5087     0.0211     0.0203
  986.0000     8.5285   104.3489     2.5013     0.0260     0.0105
  986.5000     8.5242   106.4169     2.4960     0.0310     0.0012
  987.0000     8.5191   107.8613     2.5017     0.0338     0.0016
  987.5000     8.5139   108.3880     2.5084     0.0315     0.0044
  988.0000     8.5087   106.5664     2.5112     0.0276     0.0072
  988.5000     8.5035   104.0775     2.5133     0.0225     0.0101
  989.0000     8.4983   101.5844     2.5154     0.0197     0.0132
  989.5000     8.4931    99.1117     2.5168     0.0198     0.0131
  990.0000     8.4879    98.2468     2.5206     0.0219     0.0126
  990.5000     8.4855    99.1455     2.5263     0.0206     0.0118
  991.0000     8.4890    98.6693     2.5320     0.0171     0.0111
  991.5000     8.4992    96.5074     2.5347     0.0140     0.0102
  992.0000     8.5093    99.2210     2.5148     0.0205     0.0053
  992.5000     8.5195    97.3695     2.4912     0.0307     0.0003
  993.0000     8.5296    94.6276     2.4801     0.0409    -0.0045
  993.5000     8.5398    92.8494     2.4903     0.0443    -0.0051
  994.0000     8.5436    94.2568     2.5038     0.0351    -0.0015
  994.5000     8.5510    95.7161     2.5173     0.0235     0.0043
  995.0000     8.5597    97.1778     2.5214     0.0182     0.0103
  995.5000     8.5684    98.6053     2.5241     0.0150     0.0146
  996.0000     8.5771    98.3596     2.5331     0.0108     0.0152
  996.5000     8.5858    94.4615     2.5391     0.0104     0.0151
  997.0000     8.5945    90.3091     2.5323     0.0124     0.0151
  997.5000     8.6024    90.7332     2.5253     0.0144     0.0144
  998.0000     8.5971    92.9130     2.5238     0.0148     0.0116
  998.5000     8.5897    95.0128     2.5258     0.0156     0.0088
  999.0000     8.5822    97.0974     2.5282     0.0165     0.0061
  999.5000     8.5748    98.7781     2.5170     0.0201     0.0033
 1000.0000     8.5674    99.4717     2.4995     0.0294     0.0006
 1000.5000     8.5600    98.7695     2.4822     0.0398    -0.0021
 1001.0000     8.5526    97.8747     2.4674     0.0483    -0.0049
 1001.5000     8.5451    97.3031     2.4720     0.0496    -0.0071
 1002.0000     8.5439   100.0214     2.4789     0.0462    -0.0062
 1002.5000     8.5433   100.5230     2.4838     0.0408    -0.0054
 1003.0000     8.5324    99.6600     2.4776     0.0405    -0.0045
 1003.5000     8.5216    99.6752     2.4798     0.0475    -0.0037
 1004.0000     8.5111   100.8394     2.4871     0.0439    -0.0028
 1004.5000     8.5064   102.0082     2.4869     0.0399    -0.0020
 1005.0000     8.5102   103.1124     2.4885     0.0390    -0.0011
 1005.5000     8.5140   101.3758     2.4998     0.0370    -0.0003
 1006.0000     8.5177    99.3768     2.5109     0.0310     0.0005
 1006.5000     8.5215    98.9314     2.5227     0.0244     0.0014
 1007.0000     8.5252   100.7269     2.5169     0.0193     0.0022
 1007.5000     8.5289   103.0059     2.5079     0.0203     0.0030
 1008.0000     8.5327   101.7212     2.5090     0.0237     0.0033
 1008.5000     8.5365   101.4909     2.5273     0.0196     0.0036
 1009.0000     8.5402   103.3367     2.5447     0.0119     0.0039
 1009.5000     8.5438   104.1025     2.5431     0.0107     0.0043
 1010.0000     8.5439   100.0901     2.5321     0.0145     0.0046
 1010.5000     8.5439   100.3911     2.5211     0.0182     0.0050
 1011.0000     8.5439   102.1548     2.5101     0.0220     0.0036
 1011.5000     8.5439   103.9960     2.4993     0.0257     0.0015
 1012.0000     8.5439   102.3075     2.5022     0.0295    -0.0006
 1012.5000     8.5439   102.1654     2.5077     0.0288    -0.0027
 1013.0000     8.5439   103.5815     2.5132     0.0257    -0.0025
 1013.5000     8.5439   103.9118     2.5189     0.0225     0.0000
 1014.0000     8.5438   103.4377     2.5202     0.0225     0.0011
 1014.5000     8.5434   105.9804     2.5148     0.0254     0.0032
 1015.0000     8.5429   108.6852     2.5078     0.0284     0.0030
 1015.5000     8.5425   109.9056     2.5008     0.0314     0.0030
 1016.0000     8.5420   106.2337     2.4936     0.0345     0.0030
 1016.5000     8.5415   102.6764     2.4919     0.0370     0.0033
 1017.0000     8.5411   100.6916     2.4959     0.0370     0.0056
 1017.5000     8.5406   101.6263     2.5027     0.0313     0.0078
 1018.0000     8.5401   102.5262     2.5097     0.0255     0.0101
 1018.5000     8.5397   100.6210     2.5164     0.0193     0.0123
 1019.0000     8.5392    97.9639     2.5204     0.0197     0.0146
 1019.5000     8.5387    96.5121     2.5178     0.0230     0.0151
 1020.0000     8.5383    98.7413     2.5155     0.0261     0.0152
 1020.5000     8.5378   101.5107     2.5150     0.0242     0.0150
 1021.0000     8.5373   104.2949     2.5181     0.0205     0.0170
 1021.5000     8.5368   105.8006     2.5220     0.0169     0.0218
 1022.0000     8.5364   102.5558     2.5335     0.0132     0.0237
 1022.5000     8.5359    98.4541     2.5399     0.0096     0.0253
 1023.0000     8.5354    97.7470     2.5200     0.0181     0.0250
 1023.5000     8.5350    99.6284     2.5032     0.0264     0.0211
 1024.0000     8.5345   101.7854     2.4858     0.0338     0.0171
 1024.5000     8.5340   102.2669     2.4785     0.0400     0.0131
 1025.0000     8.5336   100.3507     2.4738     0.0449     0.0091
 1025.5000     8.5331    98.2124     2.4692     0.0486     0.0051
 1026.0000     8.5326    99.6937     2.4676     0.0504     0.0012
 1026.5000     8.5322    98.4711     2.4761     0.0463    -0.0028
 1027.0000     8.5317    96.8829     2.4798     0.0431    -0.0068
 1027.5000     8.5312    95.2879     2.4799     0.0447    -0.0107
 1028.0000     8.5308    93.6900     2.4800     0.0463    -0.0135
 1028.5000     8.5303    92.5060     2.4837     0.0400    -0.0173
 1029.0000     8.5298    94.7278     2.4922     0.0398    -0.0193
 1029.5000     8.5294    98.1062     2.5006     0.0395    -0.0125
 1030.0000     8.5289    99.1724     2.5031     0.0308    -0.0049
 1030.5000     8.5284    96.8949     2.4946     0.0286    -0.0010
 1031.0000     8.5280    94.5753     2.4863     0.0411     0.0012
 1031.5000     8.5275    95.2176     2.4851     0.0426     0.0028
 1032.0000     8.5270    94.4432     2.4990     0.0403     0.0034
 1032.5000     8.5266    91.8657     2.5124     0.0331     0.0072
 1033.0000     8.5261    92.5074     2.5259     0.0240     0.0124
 1033.5000     8.5256    94.3036     2.5291     0.0149     0.0180
 1034.0000     8.5251    92.4955     2.5199     0.0129     0.0236
 1034.5000     8.5247    90.5399     2.5110     0.0237     0.0238
 1035.0000     8.5252    90.9781     2.5021     0.0312     0.0210
 1035.5000     8.5279    91.8599     2.4931     0.0372     0.0181
 1036.0000     8.5304    92.5917     2.4843     0.0410     0.0157
 1036.5000     8.5330    91.4320     2.4754     0.0447     0.0135
 1037.0000     8.5356    90.1019     2.4708     0.0487     0.0164
 1037.5000     8.5382    88.7694     2.4709     0.0487     0.0190
 1038.0000     8.5409    87.4322     2.4740     0.0473     0.0216
 1038.5000     8.5443    86.1420     2.4773     0.0454     0.0232
 1039.0000     8.5124    86.1719     2.4801     0.0439     0.0203
 1039.5000     8.4744    87.8318     2.4861     0.0423     0.0161
 1040.0000     8.4348    89.4968     2.4991     0.0377     0.0126
 1040.5000     8.4444    90.1459     2.5120     0.0300     0.0109
 1041.0000     8.4676    88.1206     2.5251     0.0222     0.0193
 1041.5000     8.4858    85.9667     2.5276     0.0165     0.0299
