~VERSION INFORMATION
 VERS.                2.0:   CWLS LOG ASCII STANDARD - VERSION 2.0
 WRAP.                 NO:   ONE LINE PER DEPTH STEP
~WELL INFORMATION
#MNEM.UNIT      DATA TYPE    INFORMATION
#----------   ------------   ------------------------------
 STRT.F          502.0000:   START DEPTH
 STOP.F         5661.0000:   STOP DEPTH
 STEP.F            0.5000:   STEP LENGTH
 NULL.          -999.2500:   NO VALUE
 COMP. FENIX & SCISSON INC:   COMPANY
 WELL.   NPR 3 #32DX22-22:   WELL
 FLD .             TEAPOT:   FIELD
 LOC .      S22 T38N R78W:   LOCATION
 CNTY.            NATRONA:   COUNTY
 STAT.            WYOMING:   STATE
 CTRY. UNITED STATES OF AMERICA:   COUNTRY
 SRVC.       Schlumberger:   SERVICE COMPANY
 DATE.        29-NOV-1978:   LOGDATE
 API .       490251073100:   API NUMBER
~CURVE INFORMATION
#MNEM.UNIT       API CODE    CURVE DESCRIPTION
#----------   ------------   ------------------------------
 DEPT.F                  :   
 SPR .MV     07 010 01 00:   SPONTANEOUS POTENTIAL
 GRR .GAPI   07 310 01 00:   GAMMA RAY FROM RES. LOG.
 SFL .OHMM   07 220 01 00:   SHALLOW FOCUSED LOG RESISTIVITY
 ILD .OHMM   07 120 46 00:   INDUCTION LOG DEEP
 ILM .OHMM   07 120 44 00:   INDUCTION LOG MEDIUM
 NPHI.DEC    42 890 03 00:   NEUTRON POROSITY SANDSTONE
 DPHI.DEC    45 890 12 00:   DENSITY POROSITY SANDSTONE
 RHOB.G/C3   45 350 01 00:   BULK DENSITY
 CORR.G/C3   45 356 01 00:   DENSITY CORRECTION
 CALD.IN     45 280 60 00:   CALIPER
~PARAMETER INFORMATION
#MNEM.UNIT          VALUE    DESCRIPTION
#----------   ------------   ------------------------------
 PD  .                 GL:   PERMANENT DATUM
 EPD .F              5514:   ELEVATION PERMANENT DATUM
 LMF .                 KB:   LOG MEASURED FROM
 DAPD.F                10:   FEET ABOVE PERMANENT DATUM
 DMF .                 KB:   DRILLING MEASURED FROM
 EKB .F              5524:   KELLING BUSHING
 EGL .F              5514:   GROUND LEVEL
 DATE.           11-29-78:   RUN DATE
 RUN .                  1:   RUN NUMBER
 DD  .F              5680:   DEPTH DRILLER
 DL  .F              5667:   DEPTH LOGGER
 BLI .F              5661:   BOTTOM LOG INTERVAL
 TLI .F               530:   TOP LOG INTERVAL
 CS  .IN            8.625:   CASING SIZE
 CBD .F               513:   CASING BOTTOM DRILLER
 CBL .F               530:   CASING BOTTOM LOGGER
 BS  .IN            7.875:   BIT SIZE
 BSD .F              5680:   BIT SIZE AT DEPTH
 DFT .                FGM:   DRILLING FLUID TYPE
 DFD .                9.2:   DRILLING FLUID DENSITY
 DFV .                 50:   DRILLING FLUID VISCOSITY
 DFPH.               11.5:   DRILLING FLUID PH
 DFL .                6.8:   DRILLING FLUID LOSS
 MSS .               TANK:   MUD SAMPLE SOURCE
 RMS .OHMM           1.45:   RESISTIVITY MUD SAMPLE
 MST .F                56:   MUD SAMPLE TEMPERATURE
 RMF .OHMM           1.16:   RESISTIVITY MUD FILTRATE SAMPLE
 MFST.F                56:   MUD FILTRATE SAMPLE TEMPERATURE
 MFSS.               MEAS:   MUD FILTRATE SAMPLE SOURCE
 RMB .OHMM            .62:   RESISTIVITY MUD AT BHT
 BHT .F               132:   BOTTOM HOLE TEMPERATURE
 TCS .HRS            0700:   TIME CURCULATED STOPPED
 TLAB.HRS            1200:   TIME LOGGER AT BOTTOM
 MRT .F               132:   MAXIMUM RECORDED TEMPERATURE
 LUN .               8039:   LOGGING UNIT NUMBER
 LUL .               CSPR:   LOGGING UNIT LOCATION
 ENGI.           STADULIS:   RECORDING ENGINEER
 WITN.           DINSMORE:   WITNESSED BY
 CLNT.            A2DTECH:   CLIENT CODE
 ORIG.       2", 5" PRINT:   ORIGIN OF DATA
 UWI .       490251073100:   UNIQUE WELL ID
 DICO. A2D Technologies, Inc.:   DIGITIZING COMPANY
~OTHER INFORMATION
~A   DEPT      SPR         GRR       SFL        ILD        ILM       NPHI       DPHI       RHOB       CORR       CALD   
# ...
 4957.5000   -35.2450   149.3645     4.6435     3.3401     3.7824     0.3084     0.1593     2.4023     0.0216     8.9883
 4958.0000   -35.6519   149.9639     5.1164     3.2357     3.7949     0.2973     0.1363     2.4316     0.0293     8.9905
 4958.5000   -36.0490   157.6099     5.2369     3.1345     3.4715     0.2936     0.1300     2.4360     0.0430     8.9927
 4959.0000   -36.1366   165.9042     4.6885     3.0364     3.2025     0.3369     0.1504     2.3714     0.0508     8.9950
 4959.5000   -36.2096   175.5268     3.7252     2.9415     3.0134     0.3894     0.1796     2.3184     0.0284     8.9972
 4960.0000   -36.2843   185.6906     3.0192     2.8286     2.9076     0.3986     0.2071     2.2908     0.0010     8.9994
 4960.5000   -36.3592   190.1781     2.5846     2.8661     3.0055     0.3751     0.2199     2.3391    -0.0258     9.0016
 4961.0000   -36.4348   179.0550     3.0443     2.9244     3.1053     0.3512     0.1723     2.4055    -0.0179     9.0039
 4961.5000   -36.4646   160.3832     3.8260     2.9615     3.2270     0.3272     0.1251     2.4696    -0.0038     9.0059
 4962.0000   -36.4649   150.2541     4.8171     2.9615     3.3534     0.3120     0.1006     2.4896     0.0052     9.0032
 4962.5000   -36.4653   150.2048     5.3303     3.1606     3.4848     0.3007     0.0927     2.4994     0.0137     9.0002
 4963.0000   -36.2398   155.0454     5.2521     3.4219     3.6213     0.2948     0.0905     2.4999     0.0230     8.9973
 4963.5000   -35.8085   160.4810     5.1148     3.6296     3.7632     0.2954     0.0899     2.4962     0.0300     8.9944
 4964.0000   -35.3708   161.1690     4.9268     3.7739     3.8547     0.2976     0.0964     2.4785     0.0325     8.9914
 4964.5000   -34.8880   164.1167     4.7457     3.8686     3.9009     0.3024     0.1064     2.4591     0.0193     8.9885
 4965.0000   -34.7990   167.2699     4.6444     3.8790     3.9476     0.3062     0.1165     2.4533     0.0138     8.9855
 4965.5000   -34.7612   168.9959     4.6444     3.8884     3.9955     0.3051     0.1176     2.4574     0.0122     8.9826
 4966.0000   -34.7205   168.0647     4.9358     3.8979     4.0595     0.3030     0.1147     2.4673     0.0128     8.9797
 4966.5000   -34.6782   166.5040     5.2232     3.9741     4.1328     0.3018     0.1067     2.4768     0.0185     8.9767
 4967.0000   -34.5995   165.9303     5.5297     4.0775     4.2073     0.3023     0.0979     2.4910     0.0258     8.9738
 4967.5000   -34.3820   166.6855     5.5297     4.1747     4.2832     0.3067     0.0868     2.5126     0.0397     8.9708
 4968.0000   -34.1786   165.1738     5.4718     4.2414     4.3553     0.3196     0.0749     2.5593     0.0392     8.9679
 4968.5000   -34.3142   152.5833     5.3811     4.3155     4.4866     0.3241     0.0277     2.6203     0.0656     8.9687
 4969.0000   -35.0934   145.2248     5.8426     4.2840     4.6020     0.3355    -0.0139     2.6703     0.1203     8.9864
 4969.5000   -35.8608   137.6427     6.4002     4.2405     4.4766     0.3589     0.0118     2.6020     0.1325     9.0029
 4970.0000   -36.2371   135.1665     6.5838     4.1982     4.3461     0.3821     0.0712     2.4860     0.0857     9.0397
 4970.5000   -36.1809   152.0575     5.0227     4.1982     4.2763     0.3639     0.1370     2.4162     0.0230     9.0783
 4971.0000   -36.1257   162.6519     4.2760     4.1982     4.3280     0.3428     0.1410     2.4226     0.0044     9.1171
 4971.5000   -36.0665   170.0648     4.4909     4.1982     4.3646     0.3217     0.1201     2.4588     0.0051     9.1556
 4972.0000   -36.1643   171.4586     5.0420     4.0349     4.3972     0.3063     0.1081     2.4694     0.0133     9.1946
 4972.5000   -36.2904   172.3177     5.9016     3.8997     4.2238     0.2956     0.1061     2.4748     0.0312     9.2132
 4973.0000   -36.4177   172.8487     5.7369     3.8391     4.0135     0.2918     0.1019     2.4800     0.0494     9.2373
 4973.5000   -36.5477   171.4394     5.7410     3.7782     3.8299     0.2974     0.1016     2.4809     0.0709     9.2603
 4974.0000   -36.6463   167.9569     5.0335     3.7279     3.9707     0.3052     0.1138     2.4700     0.0617     9.2823
 4974.5000   -36.1105   161.3469     4.5759     3.6821     3.8346     0.3169     0.1303     2.4352     0.0469     9.3523
 4975.0000   -35.5557   154.9094     4.2924     3.6369     3.6906     0.3214     0.1436     2.4152     0.0348     9.5686
 4975.5000   -35.0014   150.0643     4.1733     3.5922     3.6242     0.3276     0.1431     2.4114     0.0317     9.7977
 4976.0000   -34.4620   146.8704     4.0459     3.5489     3.6242     0.3341     0.1371     2.4220     0.0370     9.8801
 4976.5000   -34.4404   147.8509     4.1050     3.4796     3.6245     0.3411     0.1285     2.4336     0.0403     9.7276
 4977.0000   -34.4430   149.5739     4.3060     3.3892     3.5650     0.3390     0.1201     2.4454     0.0427     9.5525
 4977.5000   -34.4453   149.5463     4.4804     3.2757     3.5200     0.3377     0.1097     2.4569     0.0637     9.3751
 4978.0000   -34.6309   149.5490     4.6006     3.1585     3.3876     0.3382     0.1209     2.4642     0.1081     9.2591
 4978.5000   -34.8388   149.8746     4.6444     3.0454     3.1582     0.3706     0.1763     2.4039     0.1537     9.2062
 4979.0000   -35.0465   150.4691     3.7749     2.9615     3.0724     0.4231     0.2399     2.3086     0.1952     9.2550
 4979.5000   -35.2538   147.4007     3.1697     3.0682     3.1592     0.4146     0.2894     2.2128     0.1520     9.2937
 4980.0000   -35.4612   144.0062     2.6525     3.1902     3.2836     0.3645     0.2993     2.1247     0.0885     9.1689
 4980.5000   -35.6685   142.1923     2.8950     3.3171     3.4313     0.3285     0.2406     2.1939     0.0583     9.0292
 4981.0000   -35.8759   141.0412     3.7399     3.4490     3.8156     0.2903     0.1388     2.3063     0.0360     8.9667
 4981.5000   -36.0832   140.5152     5.3816     3.4938     4.1982     0.2667     0.0953     2.4149     0.0524     8.9654
 4982.0000   -36.2905   136.3470     7.2820     3.4199     4.2760     0.2645     0.1030     2.4960     0.0871     8.9652
 4982.5000   -36.4979   129.6695     8.1321     3.3162     4.2369     0.2816     0.2003     2.4750     0.1216     8.9634
 4983.0000   -36.7052   143.2300     7.3198     3.1756     3.6593     0.2990     0.2803     2.2993     0.1611     9.0049
 4983.5000   -36.9126   151.5209     5.9510     3.0333     3.1467     0.2992     0.2998     2.1034     0.1314     9.1502
 4984.0000   -37.1204   167.8985     4.0388     2.8738     2.7059     0.2993     0.2998     1.9983     0.0516     9.7265
 4984.5000   -37.3273   188.3689     2.7410     2.7227     2.5103     0.2995     0.2998     1.9980    -0.0071    10.1717
 4985.0000   -37.4789   195.3896     2.1279     2.6283     2.8932     0.2997     0.3016     1.9971    -0.0413     9.8897
 4985.5000   -37.4724   149.2036     2.6529     2.8939     3.2256     0.2864     0.1752     2.2274    -0.0191     9.2812
 4986.0000   -37.2704   150.1245     4.5080     3.0164     3.5987     0.2488     0.0738     2.4860     0.0110     8.8975
 4986.5000   -36.6926   129.8732     6.7967     3.0164     3.6875     0.2554     0.0817     2.5216     0.0362     8.8455
 4987.0000   -36.1580   119.6334     8.1380     3.3497     4.0098     0.2672     0.0946     2.5027     0.0434     8.9471
 4987.5000   -35.7116   119.0654     6.7467     3.6940     3.9368     0.2790     0.1041     2.4796     0.0510     9.0441
 4988.0000   -35.2706   124.4768     5.4441     4.0736     4.1708     0.2898     0.1058     2.4751     0.0667     9.1408
 4988.5000   -35.2510   125.1441     4.5993     4.3779     4.4769     0.2950     0.0919     2.4875     0.0857     9.2377
 4989.0000   -35.2432   122.7872     4.3506     4.4360     4.4665     0.2883     0.0856     2.5038     0.1047     9.3278
 4989.5000   -34.9725   118.7165     4.5396     4.3661     4.4540     0.2791     0.0864     2.5077     0.1199     9.3532
 4990.0000   -34.6937   115.8741     4.9412     4.3161     4.4360     0.2701     0.0914     2.5015     0.1272     9.3696
 4990.5000   -34.4182   113.5826     5.6767     4.2766     4.7403     0.2646     0.1029     2.4830     0.1144     9.2032
