~VERSION INFORMATION
 VERS.                2.0:   CWLS LOG ASCII STANDARD - VERSION 2.0
 WRAP.                 NO:   ONE LINE PER DEPTH STEP
~WELL INFORMATION
#MNEM.UNIT      DATA TYPE    INFORMATION
#----------   ------------   ------------------------------
 STRT.F            0.0000:   START DEPTH
 STOP.F         2758.0000:   STOP DEPTH
 STEP.F            0.5000:   STEP LENGTH
 NULL.          -999.2500:   NO VALUE
 COMP. FENIX & SCISSON INC:   COMPANY
 WELL.       402A #402-20:   WELL
 FLD .             TEAPOT:   FIELD
 LOC .      S20 T39N R78W:   LOCATION
 CNTY.            NATRONA:   COUNTY
 STAT.            WYOMING:   STATE
 CTRY. UNITED STATES OF AMERICA:   COUNTRY
 SRVC.      NL McCullough:   SERVICE COMPANY
 DATE.        15-JUL-1965:   LOGDATE
 API .       490251021100:   API NUMBER
~CURVE INFORMATION
#MNEM.UNIT       API CODE    CURVE DESCRIPTION
#----------   ------------   ------------------------------
 DEPT.F                  :   
 GR  .GAPI   30 310 01 00:   GAMMA RAY
 CALI.IN     70 280 01 00:   CALIPER
~PARAMETER INFORMATION
#MNEM.UNIT          VALUE    DESCRIPTION
#----------   ------------   ------------------------------
 PD  .                 GL:   PERMANENT DATUM
 LMF .                 GL:   LOG MEASURED FROM
 DMF .                 GL:   DRILLING MEASURED FROM
 DATE.            7-15-65:   RUN DATE
 RUN .                  1:   RUN NUMBER
 DL  .F              2759:   DEPTH LOGGER
 BLI .F              2758:   BOTTOM LOG INTERVAL
 TLI .F              2100:   TOP LOG INTERVAL
 CS  .IN                7:   CASING SIZE
 ENGI. FITZSIMMONS/COWLTHORPE:   RECORDING ENGINEER
 WITN.             HUDSON:   WITNESSED BY
 CLNT.            A2DTECH:   CLIENT CODE
 ORIG.           5" PRINT:   ORIGIN OF DATA
 UWI .       490251021100:   UNIQUE WELL ID
 DICO. A2D Technologies, Inc.:   DIGITIZING COMPANY
~OTHER INFORMATION
~A    DEPT      GR         CALI 
# ...
 2551.5000   116.1725     5.4317
 2552.0000   115.3518     5.4317
 2552.5000   118.5712     5.4317
 2553.0000   115.1955     5.4317
 2553.5000   111.8175     5.4317
 2554.0000   108.4446     5.4317
 2554.5000   105.9156     5.4317
 2555.0000   105.1680     5.4317
 2555.5000   104.9548     5.4317
 2556.0000   106.1974     5.4317
 2556.5000   108.5934     5.4317
 2557.0000   100.6267     5.4317
 2557.5000    91.1293     5.4317
 2558.0000    85.9071     5.4318
 2558.5000    85.8554     5.4317
 2559.0000    97.6263     5.4304
 2559.5000   106.4376     5.4244
 2560.0000   113.3449     5.4186
 2560.5000   118.4413     5.4127
 2561.0000   123.4060     5.4069
 2561.5000   128.5346     5.4011
 2562.0000   135.0809     5.3952
 2562.5000   124.9671     5.3894
 2563.0000   123.1352     5.3836
 2563.5000   122.2137     5.3777
 2564.0000   123.5053     5.3719
 2564.5000   128.5127     5.3660
 2565.0000   122.7319     5.3602
 2565.5000   117.9601     5.3544
 2566.0000   114.0048     5.3579
 2566.5000   118.2376     5.3776
 2567.0000   123.0840     5.3971
 2567.5000   123.0306     5.4165
 2568.0000   122.1799     5.4312
 2568.5000   135.5694     5.4259
 2569.0000   131.9976     5.4210
 2569.5000   128.3443     5.4161
 2570.0000   127.0934     5.4117
 2570.5000   131.1216     5.4117
 2571.0000   134.0179     5.4117
 2571.5000   135.2308     5.4117
 2572.0000   124.6333     5.4117
 2572.5000   128.1328     5.4117
 2573.0000   131.4034     5.4117
 2573.5000   124.9397     5.4117
 2574.0000   127.8446     5.4117
 2574.5000   130.0488     5.4117
 2575.0000   121.7733     5.4117
 2575.5000   125.3615     5.4117
 2576.0000   127.2527     5.4117
 2576.5000   120.7990     5.4117
 2577.0000   120.0216     5.4117
 2577.5000   117.1938     5.4120
 2578.0000   113.8799     5.4134
 2578.5000   116.5993     5.4148
 2579.0000   119.4743     5.4163
 2579.5000   126.0204     5.4177
 2580.0000   129.6743     5.4191
 2580.5000   133.5651     5.4205
 2581.0000   130.1961     5.4219
 2581.5000   124.7427     5.4233
 2582.0000   122.2210     5.4248
 2582.5000   125.9718     5.4262
 2583.0000   123.6896     5.4276
 2583.5000   120.0634     5.4290
 2584.0000   112.0642     5.4303
 2584.5000   104.8066     5.4322
 2585.0000   106.6971     5.4427
 2585.5000   108.3687     5.4531
 2586.0000   113.3665     5.4634
 2586.5000   115.9751     5.4658
 2587.0000   111.4180     5.4226
 2587.5000   112.0095     5.3791
 2588.0000   117.3871     5.3794
 2588.5000   121.6418     5.3920
 2589.0000   122.4015     5.4049
 2589.5000   121.8270     5.4178
 2590.0000   117.9097     5.4305
 2590.5000   114.1396     5.4309
 2591.0000   112.9869     5.4295
 2591.5000   120.0016     5.4281
 2592.0000   124.8749     5.4268
 2592.5000   127.1392     5.4254
 2593.0000   126.0501     5.4241
 2593.5000   124.8293     5.4227
 2594.0000   123.6436     5.4214
 2594.5000   125.0178     5.4200
 2595.0000   129.0189     5.4187
 2595.5000   133.2048     5.4173
 2596.0000   132.8093     5.4160
 2596.5000   124.9735     5.4146
 2597.0000   127.1863     5.4133
 2597.5000   129.1789     5.4114
 2598.0000   120.5174     5.4303
 2598.5000   110.6846     5.4536
 2599.0000   110.6331     5.4768
 2599.5000   122.3237     5.4999
 2600.0000   124.8911     5.5055
 2600.5000   123.5174     5.4924
 2601.0000   121.6883     5.4795
 2601.5000   120.9443     5.4717
 2602.0000   122.7274     5.4718
 2602.5000   124.8078     5.4718
 2603.0000   127.0861     5.4718
 2603.5000   133.9650     5.4718
 2604.0000   139.9666     5.4718
 2604.5000   140.4690     5.4718
 2605.0000   134.8280     5.4718
 2605.5000   126.9346     5.4718
 2606.0000   119.4416     5.4718
 2606.5000   116.9376     5.4718
 2607.0000   114.4519     5.4718
 2607.5000   114.4239     5.4718
 2608.0000   118.9352     5.4718
 2608.5000   122.1169     5.4718
 2609.0000   122.3444     5.4718
 2609.5000   125.2953     5.4718
 2610.0000   130.5356     5.4718
 2610.5000   134.5518     5.4718
 2611.0000   133.4945     5.4718
 2611.5000   129.9181     5.4718
 2612.0000   128.2970     5.4718
 2612.5000   124.5094     5.4718
 2613.0000   125.0644     5.4718
 2613.5000   125.9917     5.4718
 2614.0000   122.0062     5.4718
 2614.5000   121.5291     5.4718
 2615.0000   121.8580     5.4718
 2615.5000   125.6695     5.4718
 2616.0000   127.9120     5.4718
 2616.5000   124.0742     5.4718
 2617.0000   128.0067     5.4718
 2617.5000   125.9064     5.4718
 2618.0000   124.0377     5.4718
 2618.5000   132.2032     5.4718
 2619.0000   132.7186     5.4718
 2619.5000   136.3108     5.4718
 2620.0000   131.3289     5.4717
 2620.5000   126.8116     5.4720
 2621.0000   130.2001     5.4809
 2621.5000   136.6875     5.4902
 2622.0000   135.3906     5.4994
 2622.5000   139.4800     5.5087
 2623.0000   140.7280     5.5179
 2623.5000   142.5632     5.5271
 2624.0000   143.4229     5.5308
 2624.5000   140.9048     5.5285
 2625.0000   134.9339     5.5262
 2625.5000   129.0008     5.5240
 2626.0000   123.0157     5.5217
 2626.5000   117.0355     5.5194
 2627.0000   116.1433     5.5171
 2627.5000   126.6249     5.5149
 2628.0000   126.6377     5.5125
 2628.5000   128.2454     5.5143
 2629.0000   130.0961     5.5177
 2629.5000   129.0618     5.5211
 2630.0000   130.9674     5.5245
 2630.5000   126.9173     5.5280
 2631.0000   123.7350     5.5314
 2631.5000   124.6251     5.5348
 2632.0000   124.8244     5.5383
 2632.5000   121.4431     5.5417
 2633.0000   117.6558     5.5452
 2633.5000   118.9797     5.5486
 2634.0000   119.7320     5.5520
 2634.5000   119.2511     5.5434
 2635.0000   119.8209     5.5304
 2635.5000   120.3064     5.5172
 2636.0000   123.5813     5.5125
 2636.5000   123.8443     5.5152
 2637.0000   122.1506     5.5181
 2637.5000   126.9364     5.5209
 2638.0000   129.1966     5.5238
 2638.5000   124.5091     5.5266
 2639.0000   119.1176     5.5294
 2639.5000   110.6831     5.5323
 2640.0000   108.7748     5.5351
 2640.5000   109.6249     5.5379
 2641.0000   113.9817     5.5408
 2641.5000   119.1256     5.5436
 2642.0000   129.5605     5.5464
 2642.5000   133.5724     5.5492
 2643.0000   123.4117     5.5522
 2643.5000   123.4532     5.5596
 2644.0000   141.5271     5.5669
 2644.5000   146.5986     5.5742
 2645.0000   143.9058     5.5816
 2645.5000   146.6242     5.5889
 2646.0000   151.8198     5.5962
 2646.5000   155.1353     5.6035
 2647.0000   153.3961     5.6113
 2647.5000   151.2440     5.5976
 2648.0000   148.2853     5.5801
 2648.5000   140.2234     5.5738
 2649.0000   132.0790     5.5786
 2649.5000   124.4840     5.5836
 2650.0000   123.1626     5.5885
 2650.5000   121.3413     5.5935
 2651.0000   119.6264     5.5985
 2651.5000   114.9949     5.6034
 2652.0000   111.0815     5.6084
 2652.5000   110.9315     5.6111
 2653.0000   109.7903     5.6067
 2653.5000   115.2321     5.6025
 2654.0000   121.6776     5.5982
 2654.5000   118.3875     5.5940
 2655.0000   113.2462     5.5898
 2655.5000   112.7086     5.5855
 2656.0000   118.9122     5.5813
 2656.5000   122.8668     5.5771
 2657.0000   118.1753     5.5728
 2657.5000   114.7687     5.5719
 2658.0000   114.9026     5.5719
 2658.5000   116.5601     5.5720
 2659.0000   115.6275     5.5720
 2659.5000   123.1501     5.5720
 2660.0000   130.1902     5.5720
 2660.5000   131.6889     5.5720
 2661.0000   135.0421     5.5720
 2661.5000   127.6824     5.5720
 2662.0000   117.9030     5.5719
 2662.5000   116.2696     5.5720
 2663.0000   114.4221     5.5719
 2663.5000   112.4095     5.5782
 2664.0000   106.6529     5.5885
 2664.5000   104.7300     5.5988
 2665.0000   106.8458     5.6096
 2665.5000   104.2832     5.6121
 2666.0000   104.2105     5.6120
 2666.5000   110.7430     5.6122
 2667.0000   111.1304     5.5782
 2667.5000   113.6157     5.5787
 2668.0000   116.0387     5.5867
 2668.5000   111.5600     5.5947
 2669.0000   106.2739     5.6028
 2669.5000   105.8467     5.6108
 2670.0000   107.3247     5.6039
 2670.5000   109.0134     5.5658
 2671.0000   110.7934     5.5286
 2671.5000   110.1585     5.5126
 2672.0000   104.3785     5.5331
 2672.5000    97.3405     5.5554
