~VERSION INFORMATION
 VERS.                2.0:   CWLS LOG ASCII STANDARD - VERSION 2.0
 WRAP.                 NO:   ONE LINE PER DEPTH STEP
~WELL INFORMATION
#MNEM.UNIT      DATA TYPE    INFORMATION
#----------   ------------   ------------------------------
 STRT.F            0.0000:   START DEPTH
 STOP.F          412.0000:   STOP DEPTH
 STEP.F            0.5000:   STEP LENGTH
 NULL.          -999.2500:   NO VALUE
 COMP. DEPARTMENT OF ENERGY:   COMPANY
 WELL. 65-24 SXS C-3 #65-3:   WELL
 FLD .        TEAPOT EAST:   FIELD
 LOC .       S3 T38N R78W:   LOCATION
 CNTY.            NATRONA:   COUNTY
 STAT.            WYOMING:   STATE
 CTRY. UNITED STATES OF AMERICA:   COUNTRY
 SRVC.      Dresser Atlas:   SERVICE COMPANY
 DATE.        30-JUN-1985:   LOGDATE
 API .       490251134700:   API NUMBER
~CURVE INFORMATION
#MNEM.UNIT       API CODE    CURVE DESCRIPTION
#----------   ------------   ------------------------------
 DEPT.F                  :   
 CALD.IN     45 280 60 00:   CALIPER FROM DENSITY LOG
 CNC .DEC    42 890 03 00:   NEUTRON POROSITY SANDSTONE
 CORR.G/C3   45 356 01 00:   DENSITY CORRECTION
 PORD.DEC    45 890 12 00:   POROSITY DENSITY SANDSTONE
 DEN .G/C3   45 350 01 00:   COMPENSATED BULK DENSTIY
 GRR .GAPI   07 310 01 00:   GAMMA RAY
 RILD.OHMM   07 120 46 00:   INDUCTION LOG DEEP RESISTIVITY
 RILM.OHMM   07 120 44 00:   INDUCTION LOG MEDIUM RESISTIVITY
~PARAMETER INFORMATION
#MNEM.UNIT          VALUE    DESCRIPTION
#----------   ------------   ------------------------------
 PD  .                 GL:   PERMANENT DATUM
 EPD .F              5161:   ELEVATION PERMANENT DATUM
 LMF .                 GL:   LOG MEASURED FROM
 DMF .                 GL:   DRILLING MEASURED FROM
 EGL .F              5161:   GROUND LEVEL
 DATE.        30-JUN-1985:   RUN DATE
 RUN .              1-424:   RUN NUMBER
 DD  .F               424:   DEPTH DRILLER
 DL  .F               422:   DEPTH LOGGER
 BLI .F               414:   BOTTOM LOG INTERVAL
 CS  .IN                7:   CASING SIZE
 CBD .F                80:   CASING BOTTOM DRILLER
 CBL .F                85:   CASING BOTTOM LOGGER
 BS  .IN            4.875:   BIT SIZE
 BSD .F               424:   BIT SIZE AT DEPTH
 DFT .                OIL:   DRILLING FLUID TYPE
 TCS .HRS               3:   TIME CURCULATED STOPPED
 LUN .               6274:   LOGGING UNIT NUMBER
 LUL .           GILLETTE:   LOGGING UNIT LOCATION
 ENGI.             RAUTIO:   RECORDING ENGINEER
 WITN.             GROOMS:   WITNESSED BY
 CLNT.            A2DTECH:   CLIENT CODE
 ORIG.           5" PRINT:   ORIGIN OF DATA
 UWI .       490251134700:   UNIQUE WELL ID
 DICO. A2D Technologies, Inc.:   DIGITIZING COMPANY
~OTHER INFORMATION
~A    DEPT    CALD        CNC       CORR       PORD        DEN         GRR      RILD       RILM   
# ...
  324.0000     5.1498     0.1981     0.0438     0.1562     2.5049    87.0517     3.8958     3.7993
  324.5000     5.1498     0.1778     0.0559     0.1103     2.5335    83.4371     4.0348     3.8003
  325.0000     5.1346     0.1614     0.0604     0.0746     2.5456    80.0907     4.1498     3.7228
  325.5000     5.1346     0.1626     0.0635     0.0643     2.5501    79.7838     4.2385     3.6468
  326.0000     5.1346     0.1973     0.0560     0.0607     2.5162    83.7323     4.2104     3.5478
  326.5000     5.1346     0.2205    -0.0339     0.0818     2.4642    90.1123     4.0678     3.4513
  327.0000     5.1346     0.2266    -0.0437     0.1159     2.3940    91.0213     3.9261     3.3342
  327.5000     5.1346     0.2302     0.0077     0.1545     2.3783    90.3697     3.6931     3.1986
  328.0000     5.1498     0.2314     0.0304     0.1627     2.3949    88.2791     3.4462     3.0462
  328.5000     5.1498     0.2342     0.0214     0.1454     2.4107    88.2761     3.2608     2.8563
  329.0000     5.1498     0.2416     0.0184     0.1439     2.3979    88.5779     3.0853     2.7088
  329.5000     5.1498     0.2512     0.0214     0.1593     2.3768    88.2703     2.9602     2.6169
  330.0000     5.1498     0.2648     0.0275     0.1714     2.3632    85.5318     2.8401     2.5455
  330.5000     5.1498     0.2666     0.0258     0.1695     2.3738    84.9209     2.7616     2.5112
  331.0000     5.1498     0.2663     0.0215     0.1625     2.3836    85.2219     2.6883     2.4944
  331.5000     5.1498     0.2632     0.0291     0.1560     2.3911    85.8262     2.6520     2.4951
  332.0000     5.1498     0.2626     0.0382     0.1516     2.3979    89.4707     2.6528     2.4959
  332.5000     5.1498     0.2626     0.0397     0.1540     2.3949    91.8994     2.6721     2.5316
  333.0000     5.1498     0.2635     0.0337     0.1579     2.3881    91.8964     2.6916     2.5500
  333.5000     5.1498     0.2632     0.0277     0.1618     2.3827    91.2856     2.6924     2.5685
  334.0000     5.1498     0.2613     0.0494     0.1624     2.3881    88.2431     2.6932     2.5692
  334.5000     5.1498     0.2595     0.0761     0.1575     2.3979    88.2401     2.6753     2.5343
  335.0000     5.1498     0.2592     0.0822     0.1503     2.4062    89.4524     2.6576     2.4654
  335.5000     5.1498     0.2601     0.0641     0.1435     2.4115    90.3613     2.6217     2.4152
  336.0000     5.1498     0.2601     0.0460     0.1442     2.4145    90.9662     2.6227     2.3990
  336.5000     5.1498     0.2576     0.0249     0.1460     2.4099    91.8759     2.6235     2.3998
  337.0000     5.1649     0.2543     0.0219     0.1459     2.4084    93.0882     2.6243     2.4172
  337.5000     5.1649     0.2540     0.0310     0.1432     2.4182    93.6930     2.6251     2.4517
  338.0000     5.1649     0.2533     0.0340     0.1405     2.4160    93.3415     2.6444     2.4695
  338.5000     5.1649     0.2518     0.0295     0.1402     2.4054    91.2548     2.6822     2.4530
  339.0000     5.1649     0.2491     0.0296     0.1474     2.3986    89.7321     2.7017     2.4539
  339.5000     5.1649     0.2470     0.0281     0.1525     2.3971    88.5134     2.7404     2.4545
  340.0000     5.1649     0.2490     0.0160     0.1464     2.4197    88.2065     2.7603     2.4380
  340.5000     5.1649     0.2530     0.0191     0.1331     2.4348    89.4195     2.7612     2.4559
  341.0000     5.1649     0.2538     0.0282     0.1252     2.4461    91.5522     2.7813     2.4910
  341.5000     5.1649     0.2502     0.0531     0.1213     2.4499    93.6681     2.7823     2.5266
  342.0000     5.1649     0.2472     0.0751     0.1203     2.4484    95.1849     2.8221     2.5627
  342.5000     5.1649     0.2447     0.0766     0.1269     2.4356    96.3978     2.8625     2.5995
  343.0000     5.1649     0.2432     0.0932     0.1351     2.4249    96.6995     2.9237     2.6551
  343.5000     5.1649     0.2423     0.1023     0.1384     2.4197    97.3045     2.9862     2.6930
  344.0000     5.1649     0.2429     0.0978     0.1396     2.4182    95.4771     3.0713     2.7506
  344.5000     5.1649     0.2437     0.0631     0.1401     2.4160    89.0425     3.1609     2.7899
  345.0000     5.1649     0.2434     0.0450     0.1407     2.4137    86.9599     3.3176     2.8495
  345.5000     5.1649     0.2428     0.0435     0.1419     2.4099    88.1728     3.4360     2.9317
  346.0000     5.1498     0.2407     0.0421     0.1449     2.4030    90.6015     3.5586     3.0146
  346.5000     5.1498     0.2388     0.0149     0.1503     2.3979    88.4709     3.6856     3.1222
  347.0000     5.1498     0.2367     0.0164     0.1539     2.3964    85.7324     3.8705     3.3019
  347.5000     5.1498     0.2334     0.0195     0.1548     2.3934    86.0334     4.0647     3.5656
  348.0000     5.1649     0.2246     0.0089     0.1561     2.3858    89.4468     4.2447     3.9868
  348.5000     5.1649     0.2176    -0.0092     0.1641     2.3730    91.8019     4.6742     4.4889
  349.0000     5.1649     0.2089     0.0033     0.1750     2.3579    91.7989     5.2256     5.2455
  349.5000     5.1800     0.1916     0.0272     0.1810     2.3429    92.4039     5.9239     7.1114
  350.0000     5.1800     0.1756     0.0302     0.1858     2.3358    95.0270     6.7155     9.1393
  350.5000     5.1654     0.1569     0.0016     0.1901     2.3273   100.2972     7.8275    10.7292
  351.0000     5.1507     0.1382    -0.0256     0.1948     2.3233   101.8111     9.0605    12.6838
  351.5000     5.1211     0.1149    -0.0452     0.1985     2.3188   103.0211    10.3208    14.9943
  352.0000     5.1063     0.1025    -0.0285     0.2005     2.3158   105.1752    12.8348    17.7258
  352.5000     5.1069     0.0973    -0.0073     0.2017     2.3136   106.6570    15.1696    20.9846
  353.0000     5.1225     0.0927     0.0048     0.2029     2.3113   107.5616    17.4375    24.2618
  353.5000     5.1533     0.0887     0.0031     0.2044     2.3091   108.1637    19.6307    28.0887
  354.0000     5.1690     0.0846    -0.0056     0.2059     2.3061   109.0697    21.4937    34.1433
  354.5000     5.1846     0.0822    -0.0010     0.2080     2.3008   110.2797    22.7297    38.9823
  355.0000     5.2003     0.0806     0.0050     0.2113     2.2978   110.8818    24.2556    44.5071
  355.5000     5.2007     0.0800     0.0142     0.2158     2.2940   109.0509    26.3199    53.3525
  356.0000     5.2164     0.0797     0.0202     0.2173     2.2894   102.9661    28.8178    63.1911
  356.5000     5.2168     0.0794     0.0248     0.2204     2.2813    98.0970    31.7729    77.7469
  357.0000     5.2174     0.0775     0.0279     0.2324     2.2647    93.4955    35.0310    90.6390
  357.5000     5.2027     0.0740     0.0278     0.2581     2.2338    88.3575    38.6231   102.0541
  358.0000     5.1880     0.0667     0.0174     0.2867     2.1916    83.4885    44.0897   104.9641
  358.5000     5.1734     0.0603    -0.0127     0.3003     2.1577    83.7867    49.7434   104.2570
  359.0000     5.1588     0.0600    -0.0791     0.3040     2.1472    84.6942    54.7289   104.2920
  359.5000     5.1594     0.0603    -0.0731     0.3045     2.1457    84.3789    58.6863   103.5560
  360.0000     5.1599     0.0608    -0.0458     0.3042     2.1464    82.2481    62.4939   102.9053
  360.5000     5.1605     0.0617    -0.0307     0.3036     2.1472    83.7620    66.5486   102.9399
  361.0000     5.1609     0.0656    -0.0321     0.3024     2.1487    85.5799    71.8584   103.6869
  361.5000     5.1614     0.0741    -0.0412     0.3011     2.1495    84.6623    77.0544   110.4209
  362.0000     5.1619     0.0876    -0.0502     0.3017     2.1473    82.2249    80.4208   170.0673
  362.5000     5.1775     0.0906    -0.0063     0.3051     2.1442    83.4334    83.8144   202.4526
  363.0000     5.1780     0.0897     0.0179     0.3044     2.1548    85.8593    87.4104   199.6248
  363.5000     5.1634     0.0891     0.0240     0.3008     2.1706    90.7167    89.9021   186.3395
  364.0000     5.1640     0.0894    -0.0424     0.2833     2.1850    92.2321    91.1882   173.8551
