~VERSION INFORMATION
 VERS.                2.0:   CWLS LOG ASCII STANDARD - VERSION 2.0
 WRAP.                 NO:   ONE LINE PER DEPTH STEP
~WELL INFORMATION
#MNEM.UNIT      DATA TYPE    INFORMATION
#----------   ------------   ------------------------------
 STRT.F          714.0000:   START DEPTH
 STOP.F         2268.0000:   STOP DEPTH
 STEP.F            0.5000:   STEP LENGTH
 NULL.          -999.2500:   NO VALUE
 COMP. LAWRENCE/ALLISON INC:   COMPANY
 WELL. 25-1-STX 10 #25-10:   WELL
 FLD .             TEAPOT:   FIELD
 LOC .      S10 T38N R78W:   LOCATION
 CNTY.            NATRONA:   COUNTY
 STAT.            WYOMING:   STATE
 CTRY. UNITED STATES OF AMERICA:   COUNTRY
 SRVC.            Unknown:   SERVICE COMPANY
 DATE.        07-JUN-1991:   LOGDATE
 API .       490251091300:   API NUMBER
~CURVE INFORMATION
#MNEM.UNIT       API CODE    CURVE DESCRIPTION
#----------   ------------   ------------------------------
 DEPT.F                  :   
 TGAS.UNITS  91 830 01 00:   TOTAL GAS FROM HOTWIRE
 ROP .MIN/FT 91 810 01 00:   RATE OF DRILLING PENETRATION
~PARAMETER INFORMATION
#MNEM.UNIT          VALUE    DESCRIPTION
#----------   ------------   ------------------------------
 EKB .F              5243:   KELLING BUSHING
 EGL .F              5233:   GROUND LEVEL
 DATE.             6-8-91:   RUN DATE
 BLI .F              2280:   BOTTOM LOG INTERVAL
 TLI .F              1680:   TOP LOG INTERVAL
 CS  .IN            9.625:   CASING SIZE
 CBD .F               740:   CASING BOTTOM DRILLER
 ENGI.              TOWER:   RECORDING ENGINEER
 WITN.               HUSK:   WITNESSED BY
 CLNT.            A2DTECH:   CLIENT CODE
 ORIG.           5" PRINT:   ORIGIN OF DATA
 UWI .       490251091300:   UNIQUE WELL ID
 DICO. A2D Technologies, Inc.:   DIGITIZING COMPANY
~OTHER INFORMATION
~A   DEPT     TGAS          ROP 
# ...
 1078.5000  -999.2500     0.4507
 1079.0000  -999.2500     0.4552
 1079.5000  -999.2500     0.4493
 1080.0000  -999.2500     0.4218
 1080.5000  -999.2500     0.4226
 1081.0000  -999.2500     0.4234
 1081.5000  -999.2500     0.4241
 1082.0000  -999.2500     0.4249
 1082.5000  -999.2500     0.4256
 1083.0000  -999.2500     0.4264
 1083.5000  -999.2500     0.4271
 1084.0000  -999.2500     0.4279
 1084.5000  -999.2500     0.4286
 1085.0000  -999.2500     0.4294
 1085.5000  -999.2500     0.4301
 1086.0000  -999.2500     0.4309
 1086.5000  -999.2500     0.4316
 1087.0000  -999.2500     0.4324
 1087.5000  -999.2500     0.4331
 1088.0000  -999.2500     0.4340
 1088.5000  -999.2500     0.4348
 1089.0000  -999.2500     0.4355
 1089.5000  -999.2500     0.4362
 1090.0000  -999.2500     0.4370
 1090.5000  -999.2500     0.4000
 1091.0000  -999.2500     0.3631
 1091.5000  -999.2500     0.3638
 1092.0000  -999.2500     0.3622
 1092.5000  -999.2500     0.3276
 1093.0000  -999.2500     0.3284
 1093.5000  -999.2500     0.3292
 1094.0000  -999.2500     0.3299
 1094.5000  -999.2500     0.3307
 1095.0000  -999.2500     0.3315
 1095.5000  -999.2500     0.3322
 1096.0000  -999.2500     0.3330
 1096.5000  -999.2500     0.3337
 1097.0000  -999.2500     0.3345
 1097.5000  -999.2500     0.3352
 1098.0000  -999.2500     0.3360
 1098.5000  -999.2500     0.3367
 1099.0000  -999.2500     0.3180
 1099.5000  -999.2500     0.2798
 1100.0000  -999.2500     0.2263
 1100.5000  -999.2500     0.1546
 1101.0000  -999.2500     0.1582
 1101.5000  -999.2500     0.1242
 1102.0000  -999.2500     0.1279
 1102.5000  -999.2500     0.0938
 1103.0000  -999.2500     0.0979
 1103.5000  -999.2500     0.1011
 1104.0000  -999.2500     0.0671
 1104.5000  -999.2500     0.0716
 1105.0000  -999.2500     0.0753
 1105.5000  -999.2500     0.0791
 1106.0000  -999.2500     0.0829
 1106.5000  -999.2500     0.0866
 1107.0000  -999.2500     0.1053
 1107.5000  -999.2500     0.1157
 1108.0000  -999.2500     0.0979
 1108.5000  -999.2500     0.1017
 1109.0000  -999.2500     0.1055
 1109.5000  -999.2500     0.1092
 1110.0000  -999.2500     0.1130
 1110.5000  -999.2500     0.1168
 1111.0000  -999.2500     0.1205
 1111.5000  -999.2500     0.1243
 1112.0000  -999.2500     0.1003
 1112.5000  -999.2500     0.0942
 1113.0000  -999.2500     0.0986
 1113.5000  -999.2500     0.1023
 1114.0000  -999.2500     0.1059
 1114.5000  -999.2500     0.1096
 1115.0000  -999.2500     0.1132
 1115.5000  -999.2500     0.1168
 1116.0000  -999.2500     0.1205
 1116.5000  -999.2500     0.1243
 1117.0000  -999.2500     0.1281
 1117.5000  -999.2500     0.1318
 1118.0000  -999.2500     0.1356
 1118.5000  -999.2500     0.1394
 1119.0000  -999.2500     0.1431
 1119.5000  -999.2500     0.1469
 1120.0000  -999.2500     0.1507
 1120.5000  -999.2500     0.1544
 1121.0000  -999.2500     0.1582
 1121.5000  -999.2500     0.1620
 1122.0000  -999.2500     0.1657
 1122.5000  -999.2500     0.1695
 1123.0000  -999.2500     0.1733
 1123.5000  -999.2500     0.1770
 1124.0000  -999.2500     0.1808
 1124.5000  -999.2500     0.1623
 1125.0000  -999.2500     0.1507
 1125.5000  -999.2500     0.1544
 1126.0000  -999.2500     0.1582
 1126.5000  -999.2500     0.1620
 1127.0000  -999.2500     0.1370
 1127.5000  -999.2500     0.1318
 1128.0000  -999.2500     0.1362
 1128.5000  -999.2500     0.1399
 1129.0000  -999.2500     0.1058
 1129.5000  -999.2500     0.1095
 1130.0000  -999.2500     0.1131
 1130.5000  -999.2500     0.1544
 1131.0000  -999.2500     0.1582
 1131.5000  -999.2500     0.1620
 1132.0000  -999.2500     0.1657
 1132.5000  -999.2500     0.1695
 1133.0000  -999.2500     0.1733
 1133.5000  -999.2500     0.1770
 1134.0000  -999.2500     0.1808
 1134.5000  -999.2500     0.1846
 1135.0000  -999.2500     0.1883
 1135.5000  -999.2500     0.1921
 1136.0000  -999.2500     0.1959
 1136.5000  -999.2500     0.1996
 1137.0000  -999.2500     0.2034
 1137.5000  -999.2500     0.2072
 1138.0000  -999.2500     0.2109
 1138.5000  -999.2500     0.2147
 1139.0000  -999.2500     0.2185
 1139.5000  -999.2500     0.2222
 1140.0000  -999.2500     0.2260
 1140.5000  -999.2500     0.2298
 1141.0000  -999.2500     0.2335
 1141.5000  -999.2500     0.2373
 1142.0000  -999.2500     0.2114
 1142.5000  -999.2500     0.2072
 1143.0000  -999.2500     0.2115
 1143.5000  -999.2500     0.2151
 1144.0000  -999.2500     0.2187
 1144.5000  -999.2500     0.2224
 1145.0000  -999.2500     0.2260
 1145.5000  -999.2500     0.2298
 1146.0000  -999.2500     0.2335
 1146.5000  -999.2500     0.2373
 1147.0000  -999.2500     0.2411
 1147.5000  -999.2500     0.2448
 1148.0000  -999.2500     0.2560
 1148.5000  -999.2500     0.2900
 1149.0000  -999.2500     0.2838
 1149.5000  -999.2500     0.2599
 1150.0000  -999.2500     0.2633
 1150.5000  -999.2500     0.2662
 1151.0000  -999.2500     0.2689
 1151.5000  -999.2500     0.2716
 1152.0000  -999.2500     0.2742
 1152.5000  -999.2500     0.2768
 1153.0000  -999.2500     0.2795
 1153.5000  -999.2500     0.2821
 1154.0000  -999.2500     0.2847
 1154.5000  -999.2500     0.2874
 1155.0000  -999.2500     0.3111
 1155.5000  -999.2500     0.3303
 1156.0000  -999.2500     0.3330
 1156.5000  -999.2500     0.3356
 1157.0000  -999.2500     0.3382
 1157.5000  -999.2500     0.3409
 1158.0000  -999.2500     0.3435
 1158.5000  -999.2500     0.3461
 1159.0000  -999.2500     0.3493
 1159.5000  -999.2500     0.3518
 1160.0000  -999.2500     0.3544
 1160.5000  -999.2500     0.3569
 1161.0000  -999.2500     0.3595
 1161.5000  -999.2500     0.3621
 1162.0000  -999.2500     0.3646
 1162.5000  -999.2500     0.3672
 1163.0000  -999.2500     0.3697
 1163.5000  -999.2500     0.3346
 1164.0000  -999.2500     0.3375
 1164.5000  -999.2500     0.3401
 1165.0000  -999.2500     0.3427
 1165.5000  -999.2500     0.3531
 1166.0000  -999.2500     0.3768
 1166.5000  -999.2500     0.3507
 1167.0000  -999.2500     0.3533
 1167.5000  -999.2500     0.3683
 1168.0000  -999.2500     0.3962
 1168.5000  -999.2500     0.3841
 1169.0000  -999.2500     0.3638
 1169.5000  -999.2500     0.3665
 1170.0000  -999.2500     0.3509
 1170.5000  -999.2500     0.3341
 1171.0000  -999.2500     0.3367
 1171.5000  -999.2500     0.3394
 1172.0000  -999.2500     0.3420
 1172.5000  -999.2500     0.3446
 1173.0000  -999.2500     0.3473
 1173.5000  -999.2500     0.3499
 1174.0000  -999.2500     0.3525
 1174.5000  -999.2500     0.3552
 1175.0000  -999.2500     0.3578
 1175.5000  -999.2500     0.3609
 1176.0000  -999.2500     0.3635
 1176.5000  -999.2500     0.3660
 1177.0000  -999.2500     0.3686
 1177.5000  -999.2500     0.3711
 1178.0000  -999.2500     0.3737
 1178.5000  -999.2500     0.3763
 1179.0000  -999.2500     0.3803
 1179.5000  -999.2500     0.4192
 1180.0000  -999.2500     0.4216
 1180.5000  -999.2500     0.3819
 1181.0000  -999.2500     0.3514
 1181.5000  -999.2500     0.3544
 1182.0000  -999.2500     0.3571
 1182.5000  -999.2500     0.3501
 1183.0000  -999.2500     0.3247
 1183.5000  -999.2500     0.3273
 1184.0000  -999.2500     0.3299
 1184.5000  -999.2500     0.3326
 1185.0000  -999.2500     0.3352
 1185.5000  -999.2500     0.3379
 1186.0000  -999.2500     0.3405
 1186.5000  -999.2500     0.3431
 1187.0000  -999.2500     0.3458
 1187.5000  -999.2500     0.3484
 1188.0000  -999.2500     0.3510
 1188.5000  -999.2500     0.3537
 1189.0000  -999.2500     0.3563
 1189.5000  -999.2500     0.3589
 1190.0000  -999.2500     0.3616
 1190.5000  -999.2500     0.3642
 1191.0000  -999.2500     0.3669
 1191.5000  -999.2500     0.3700
 1192.0000  -999.2500     0.3725
 1192.5000  -999.2500     0.3751
 1193.0000  -999.2500     0.3777
 1193.5000  -999.2500     0.3802
 1194.0000  -999.2500     0.3451
 1194.5000  -999.2500     0.3477
 1195.0000  -999.2500     0.3503
 1195.5000  -999.2500     0.3529
 1196.0000  -999.2500     0.3556
 1196.5000  -999.2500     0.3582
 1197.0000  -999.2500     0.3608
 1197.5000  -999.2500     0.3635
 1198.0000  -999.2500     0.3661
 1198.5000  -999.2500     0.3687
 1199.0000  -999.2500     0.3714
 1199.5000  -999.2500     0.3740
