~VERSION INFORMATION
 VERS.                2.0:   CWLS LOG ASCII STANDARD - VERSION 2.0
 WRAP.                 NO:   ONE LINE PER DEPTH STEP
~WELL INFORMATION
#MNEM.UNIT      DATA TYPE    INFORMATION
#----------   ------------   ------------------------------
 STRT.F           20.0000:   START DEPTH
 STOP.F         2420.0000:   STOP DEPTH
 STEP.F            0.5000:   STEP LENGTH
 NULL.          -999.2500:   NO VALUE
 COMP. FENIX & SCISSON INC:   COMPANY
 WELL.    SHX 15 #71-1-15:   WELL
 FLD .             TEAPOT:   FIELD
 LOC .      S15 T38N R78W:   LOCATION
 CNTY.            NATRONA:   COUNTY
 STAT.            WYOMING:   STATE
 CTRY. UNITED STATES OF AMERICA:   COUNTRY
 SRVC.           BIRDWELL:   SERVICE COMPANY
 DATE.        03-SEP-1978:   LOGDATE
 API .       490251081800:   API NUMBER
~CURVE INFORMATION
#MNEM.UNIT       API CODE    CURVE DESCRIPTION
#----------   ------------   ------------------------------
 DEPT.F                  :   
 CALD.IN     45 280 60 00:   CALIPER
 GRD .GAPI   45 310 01 00:   GAMMA RAY FROM DENSITY LOG
 RHOB.G/C3   45 350 01 00:   BULK DENSITY
 DPHI.DEC    45 890 12 00:   DENSITY POROSITY SANDSTONE
 CORR.G/C3   45 356 01 00:   DENSITY CORRECTION
 NPHI.DEC    42 890 03 00:   NEUTRON POROSITY
~PARAMETER INFORMATION
#MNEM.UNIT          VALUE    DESCRIPTION
#----------   ------------   ------------------------------
 PD  .                 GL:   PERMANENT DATUM
 EPD .F              5249:   ELEVATION PERMANENT DATUM
 LMF .                 KB:   LOG MEASURED FROM
 DAPD.F                10:   FEET ABOVE PERMANENT DATUM
 DMF .                 KB:   DRILLING MEASURED FROM
 EKB .F              5259:   KELLING BUSHING
 EGL .F              5249:   GROUND LEVEL
 DATE.             9-3-78:   RUN DATE
 RUN .                  1:   RUN NUMBER
 DD  .F              2450:   DEPTH DRILLER
 DL  .F              2422:   DEPTH LOGGER
 BLI .F              2420:   BOTTOM LOG INTERVAL
 TLI .F                50:   TOP LOG INTERVAL
 CS  .IN            9.625:   CASING SIZE
 CBD .F               650:   CASING BOTTOM DRILLER
 CBL .F               676:   CASING BOTTOM LOGGER
 BS  .IN             8.75:   BIT SIZE
 BSD .F              2450:   BIT SIZE AT DEPTH
 DFT .           AIR MIST:   DRILLING FLUID TYPE
 LUN .               2958:   LOGGING UNIT NUMBER
 LUL .               CASP:   LOGGING UNIT LOCATION
 ENGI.             MILLER:   RECORDING ENGINEER
 WITN.           MCGINLEY:   WITNESSED BY
 CLNT.            A2DTECH:   CLIENT CODE
 ORIG.         2.5" PRINT:   ORIGIN OF DATA
 UWI .       490251081800:   UNIQUE WELL ID
 DICO. A2D Technologies, Inc.:   DIGITIZING COMPANY
~OTHER INFORMATION
~A   DEPT     CALD        GRD       RHOB       DPHI       CORR         NPHI 
# ...
 1164.0000    14.9826   143.9654     2.5272     0.0867     0.1029  -999.2500
 1164.5000    14.9840   146.9132     2.5174     0.0805     0.1011  -999.2500
 1165.0000    14.9857   147.0547     2.5215     0.0798     0.0999  -999.2500
 1165.5000    14.9871   147.6930     2.5192     0.0849     0.0984  -999.2500
 1166.0000    14.9886   149.1743     2.5233     0.0893     0.1068  -999.2500
 1166.5000    14.9901   150.9204     2.5251     0.0872     0.1141  -999.2500
 1167.0000    14.9916   149.8483     2.5232     0.0853     0.1156  -999.2500
 1167.5000    14.9931   146.3798     2.5178     0.0892     0.1171  -999.2500
 1168.0000    14.9946   140.6391     2.5111     0.0930     0.1031  -999.2500
 1168.5000    14.9961   141.4792     2.5022     0.0967     0.0835  -999.2500
 1169.0000    14.9977   142.2090     2.4935     0.0988     0.0793  -999.2500
 1169.5000    14.9992   144.4397     2.4872     0.0969     0.0755  -999.2500
 1170.0000    15.0007   145.9344     2.4877     0.0951     0.0740  -999.2500
 1170.5000    15.0022   143.1095     2.4938     0.0933     0.0740  -999.2500
 1171.0000    15.0037   140.7193     2.5019     0.0915     0.0740  -999.2500
 1171.5000    15.0052   137.7856     2.5081     0.0908     0.0742  -999.2500
 1172.0000    15.0067   137.5897     2.5131     0.0922     0.0752  -999.2500
 1172.5000    15.0082   137.5474     2.5048     0.0954     0.0762  -999.2500
 1173.0000    15.0098   137.5309     2.5088     0.0962     0.0771  -999.2500
 1173.5000    15.0113   138.1171     2.5160     0.0938     0.0798  -999.2500
 1174.0000    15.0130   139.1820     2.5113     0.0935     0.0880  -999.2500
 1174.5000    15.0145   140.4585     2.5074     0.0964     0.0961  -999.2500
 1175.0000    15.0157   141.7386     2.5018     0.0964     0.1044  -999.2500
 1175.5000    15.0182   142.7161     2.4969     0.0964     0.1126  -999.2500
 1176.0000    15.0184   142.6425     2.4911     0.0984     0.1207  -999.2500
 1176.5000    15.0165   140.3872     2.4854     0.1001     0.1295  -999.2500
 1177.0000    14.9260   139.0104     2.4828     0.1019     0.1350  -999.2500
 1177.5000    14.7911   139.0225     2.4826     0.0964     0.1358  -999.2500
 1178.0000    14.6517   138.7734     2.4878     0.0907     0.1380  -999.2500
 1178.5000    14.5380   139.0621     2.5283     0.0740     0.1323  -999.2500
 1179.0000    14.4730   141.3699     2.5238     0.0760     0.1203  -999.2500
 1179.5000    14.4163   145.2775     2.5231     0.0785     0.1086  -999.2500
 1180.0000    14.3591   142.1904     2.5213     0.0810     0.0987  -999.2500
 1180.5000    14.3024   137.7661     2.5238     0.0829     0.0914  -999.2500
 1181.0000    14.2454   133.3131     2.5265     0.0843     0.0835  -999.2500
 1181.5000    14.1882   129.9628     2.5230     0.0857     0.0756  -999.2500
 1182.0000    14.1322   131.9476     2.5148     0.0873     0.0679  -999.2500
 1182.5000    14.0749   134.9322     2.5068     0.0889     0.0601  -999.2500
 1183.0000    14.0589   133.8708     2.4982     0.0905     0.0586  -999.2500
 1183.5000    14.0598   133.6500     2.4893     0.0921     0.0608  -999.2500
 1184.0000    14.0601   135.5654     2.4783     0.0940     0.0706  -999.2500
 1184.5000    14.0597   139.4032     2.4892     0.0873     0.0939  -999.2500
 1185.0000    14.0600   140.1923     2.5085     0.0714     0.0994  -999.2500
 1185.5000    14.0599   139.7041     2.5313     0.0622     0.1020  -999.2500
 1186.0000    14.0600   135.3472     2.5522     0.0692     0.0963  -999.2500
 1186.5000    14.0600   131.7812     2.5438     0.0792     0.0912  -999.2500
 1187.0000    14.0600   127.3696     2.5161     0.0861     0.0937  -999.2500
 1187.5000    14.0600   128.8219     2.5044     0.0861     0.1050  -999.2500
 1188.0000    14.0600   133.2612     2.5100     0.0606     0.1168  -999.2500
 1188.5000    14.0600   135.7921     2.5278     0.0632     0.1088  -999.2500
 1189.0000    14.0600   133.3639     2.5499     0.0699     0.1023  -999.2500
 1189.5000    14.0600   130.5981     2.5289     0.0858     0.1041  -999.2500
 1190.0000    14.0600   131.5711     2.5031     0.0919     0.1064  -999.2500
 1190.5000    14.0600   133.7369     2.4859     0.0925     0.1012  -999.2500
 1191.0000    14.0600   135.8986     2.4782     0.0893     0.0893  -999.2500
 1191.5000    14.0599   136.2223     2.4945     0.0883     0.0789  -999.2500
 1192.0000    14.0600   134.0288     2.5211     0.0899     0.0668  -999.2500
 1192.5000    14.0597   132.0444     2.5006     0.0946     0.0661  -999.2500
 1193.0000    14.0600   131.8234     2.4858     0.1043     0.0662  -999.2500
 1193.5000    14.0603   132.6861     2.4840     0.1051     0.0742  -999.2500
 1194.0000    14.0579   133.5582     2.4854     0.1027     0.0852  -999.2500
 1194.5000    14.0828   134.3279     2.4957     0.0990     0.0834  -999.2500
 1195.0000    14.1404   134.3578     2.5034     0.0952     0.0770  -999.2500
 1195.5000    14.1952   134.8526     2.5055     0.0914     0.0703  -999.2500
 1196.0000    14.2503   137.2108     2.5052     0.0892     0.0705  -999.2500
 1196.5000    14.3061   139.4636     2.4992     0.0879     0.0862  -999.2500
 1197.0000    14.3611   140.7537     2.4918     0.0866     0.1045  -999.2500
 1197.5000    14.4162   140.5777     2.5121     0.0853     0.1059  -999.2500
 1198.0000    14.4791   139.9176     2.5186     0.0896     0.1053  -999.2500
 1198.5000    14.5654   138.1805     2.5130     0.0937     0.1004  -999.2500
 1199.0000    14.6515   136.1676     2.5072     0.0988     0.0963  -999.2500
 1199.5000    14.7381   136.4408     2.5026     0.0995     0.0917  -999.2500
 1200.0000    14.8241   137.7709     2.4966     0.1005     0.0899  -999.2500
 1200.5000    14.9121   139.2542     2.4913     0.1015     0.0900  -999.2500
 1201.0000    14.9823   140.3730     2.4895     0.1027     0.0901  -999.2500
 1201.5000    15.0250   139.5691     2.4872     0.0984     0.0881  -999.2500
 1202.0000    15.0629   138.1376     2.4922     0.0940     0.0830  -999.2500
 1202.5000    15.1017   139.6711     2.5027     0.0942     0.0779  -999.2500
 1203.0000    15.1767   140.8857     2.5013     0.0944     0.0732  -999.2500
 1203.5000    15.2481   142.1592     2.4931     0.0946     0.0663  -999.2500
 1204.0000    15.3340   139.7775     2.4841     0.0948     0.0677  -999.2500
 1204.5000    15.3935   136.8542     2.4903     0.0930     0.0703  -999.2500
 1205.0000    15.4232   137.9416     2.4989     0.0914     0.0737  -999.2500
 1205.5000    15.4194   139.5290     2.5017     0.0899     0.0714  -999.2500
 1206.0000    15.4202   139.2095     2.5038     0.0896     0.0679  -999.2500
 1206.5000    15.4201   137.5936     2.5062     0.0903     0.0658  -999.2500
 1207.0000    15.4198   137.1009     2.5066     0.0908     0.0661  -999.2500
 1207.5000    15.3998   136.7487     2.5051     0.0904     0.0658  -999.2500
 1208.0000    15.3786   134.3827     2.5066     0.0900     0.0663  -999.2500
 1208.5000    15.3484   130.7431     2.5095     0.0896     0.0632  -999.2500
 1209.0000    15.3446   127.4417     2.5124     0.0892     0.0575  -999.2500
 1209.5000    15.3544   127.3860     2.5112     0.0924     0.0484  -999.2500
 1210.0000    15.3641   127.6392     2.5003     0.0984     0.0421  -999.2500
 1210.5000    15.3725   127.8284     2.4832     0.1044     0.0435  -999.2500
 1211.0000    15.3780   125.6782     2.4722     0.1100     0.0472  -999.2500
 1211.5000    15.3540   121.1089     2.4757     0.1092     0.0510  -999.2500
 1212.0000    15.3342   119.4924     2.4770     0.1076     0.0540  -999.2500
 1212.5000    15.3125   121.8560     2.4543     0.1100     0.0528  -999.2500
 1213.0000    15.2917   123.9782     2.4626     0.1124     0.0498  -999.2500
 1213.5000    15.2706   124.3575     2.4662     0.1124     0.0468  -999.2500
 1214.0000    15.2493   124.0349     2.4634     0.1124     0.0436  -999.2500
 1214.5000    15.2295   123.2097     2.4646     0.1124     0.0419  -999.2500
 1215.0000    15.2040   122.5020     2.4649     0.1124     0.0421  -999.2500
 1215.5000    15.1742   121.2296     2.4656     0.1124     0.0415  -999.2500
