~VERSION INFORMATION
 VERS.                2.0:   CWLS LOG ASCII STANDARD - VERSION 2.0
 WRAP.                 NO:   ONE LINE PER DEPTH STEP
~WELL INFORMATION
#MNEM.UNIT      DATA TYPE    INFORMATION
#----------   ------------   ------------------------------
 STRT.F            6.0000:   START DEPTH
 STOP.F          528.0000:   STOP DEPTH
 STEP.F            0.5000:   STEP LENGTH
 NULL.          -999.2500:   NO VALUE
 COMP.       F D SERV INC:   COMPANY
 WELL.  82-3 SX-10 #82-10:   WELL
 FLD .             TEAPOT:   FIELD
 LOC .      S10 T38N R78W:   LOCATION
 CNTY.            NATRONA:   COUNTY
 STAT.            WYOMING:   STATE
 CTRY. UNITED STATES OF AMERICA:   COUNTRY
 SRVC.     Atlas Wireline:   SERVICE COMPANY
 DATE.        08-DEC-1992:   LOGDATE
 API .       490252257800:   API NUMBER
~CURVE INFORMATION
#MNEM.UNIT       API CODE    CURVE DESCRIPTION
#----------   ------------   ------------------------------
 DEPT.F                  :   
 GRR .GAPI   07 310 01 00:   GAMMA RAY
 RILD.OHMM   07 120 46 00:   INDUCTION LOG DEEP RESISTIVITY
 RILM.OHMM   07 120 44 00:   INDUCTION LOG MEDIUM RESISTIVITY
~PARAMETER INFORMATION
#MNEM.UNIT          VALUE    DESCRIPTION
#----------   ------------   ------------------------------
 PD  .                 GL:   PERMANENT DATUM
 EPD .F              5168:   ELEVATION PERMANENT DATUM
 LMF .                 KB:   LOG MEASURED FROM
 DAPD.F                10:   FEET ABOVE PERMANENT DATUM
 DMF .                 KB:   DRILLING MEASURED FROM
 EKB .F              5178:   KELLING BUSHING
 EDF .F              5177:   DRILLING FLOOR
 EGL .F              5168:   GROUND LEVEL
 DATE.        08-DEC-1992:   RUN DATE
 RUN .                  1:   RUN NUMBER
 DD  .F               530:   DEPTH DRILLER
 DL  .F               530:   DEPTH LOGGER
 BLI .F               522:   BOTTOM LOG INTERVAL
 CS  .IN            8.625:   CASING SIZE
 CBD .F                97:   CASING BOTTOM DRILLER
 CBL .F                98:   CASING BOTTOM LOGGER
 BS  .IN            7.875:   BIT SIZE
 BSD .F               530:   BIT SIZE AT DEPTH
 DFT .           AIR FOAM:   DRILLING FLUID TYPE
 MRT .F                71:   MAXIMUM RECORDED TEMPERATURE
 LUN .            HL 6321:   LOGGING UNIT NUMBER
 LUL .        RK. SPRINGS:   LOGGING UNIT LOCATION
 ENGI.        J. THOMPSON:   RECORDING ENGINEER
 WITN.          G. STRONG:   WITNESSED BY
 CLNT.            A2DTECH:   CLIENT CODE
 ORIG.           5" PRINT:   ORIGIN OF DATA
 UWI .       490252257800:   UNIQUE WELL ID
 DICO. A2D Technologies, Inc.:   DIGITIZING COMPANY
~OTHER INFORMATION
~A    DEPT     GRR       RILD       RILM   
# ...
   97.0000   161.8707  -999.2500  -999.2500
   97.5000   177.8947  -999.2500  -999.2500
   98.0000   179.3985     2.9468     3.4843
   98.5000   179.3985     1.8151     2.4781
   99.0000   180.6015     2.2805     2.6191
   99.5000   181.5038     3.3824     3.3132
  100.0000   180.6015     7.1876     4.4914
  100.5000   180.6857    12.3269     6.3465
  101.0000   183.6090    10.2992     7.5964
  101.5000   187.2180     7.1892     8.1403
  102.0000   189.3233     6.3482     7.1876
  102.5000   187.8195     6.0071     6.1733
  103.0000   179.7174     5.8436     6.2593
  103.5000   177.0025     5.6845     6.8955
  104.0000   175.2125     5.7641     7.2375
  104.5000   174.3131     6.5286     6.6153
  105.0000   174.6167     6.9965     6.2593
  105.5000   176.4301     6.9487     6.1733
  106.0000   181.2396     6.4402     6.0885
  106.5000   189.0620     6.0104     6.0049
  107.0000   194.4784     5.8874     5.9635
  107.5000   192.3759     5.7669     5.8411
  108.0000   184.2592     5.7673     5.8411
  108.5000   183.0583     5.7677     5.8009
  109.0000   187.8739     5.7681     5.8411
  109.5000   193.2903     5.8488     5.8411
  110.0000   194.4961     5.8492     5.8816
  110.5000   189.6869     5.9311     5.9225
  111.0000   189.6904     6.0141     6.0049
  111.5000   189.0918     6.0983     6.0885
  112.0000   184.8848     6.1836     6.2162
  112.5000   177.6696     6.3574     6.3465
  113.0000   174.6649     6.5363     6.5244
  113.5000   173.1639     6.6277     6.6612
  114.0000   174.6707     6.7671     6.8008
  114.5000   176.1779     6.9094     6.9916
  115.0000   178.8875     7.0548     7.1876
  115.5000   184.9053     7.2031     7.2877
  116.0000   189.2631     7.3039     7.3892
  116.5000   190.9268     7.3550     7.4405
  117.0000   188.5236     7.3050     7.4405
  117.5000   186.7219     7.3054     7.3892
  118.0000   184.3187     7.2055     7.2877
  118.5000   183.7201     7.2060     7.2375
  119.0000   184.9266     7.1075     7.1876
  119.5000   187.9370     7.1081     7.1381
  120.0000   188.5413     7.1086     7.0889
  120.5000   181.3268     7.1090     7.0834
  121.0000   174.7131     7.0606     7.0401
  121.5000   175.9189     7.0123     7.0401
  122.0000   179.2421     7.0615     7.0889
  122.5000   181.9404     7.1110     7.0938
  123.0000   183.7477     7.1609     7.1876
  123.5000   184.3520     7.2111     7.2375
  124.0000   182.5383     7.2616     7.2877
  124.5000   179.5464     7.3868     7.3892
  125.0000   178.9470     7.5181     7.4921
  125.5000   179.2506     7.6233     7.6491
  126.0000   177.1489     7.6941     7.8095
  126.5000   171.4381     7.8382     7.9263
  127.0000   172.3432     7.9556     8.1403
  127.5000   173.8498     8.1714     8.3686
  128.0000   175.0557     8.2857     8.4851
  128.5000   176.2622     8.4599     8.6105
  129.0000   175.9636     8.6446     8.8445
  129.5000   172.0574     8.8808     9.0299
  130.0000   169.3534     9.1305     9.2192
  130.5000   168.7548     9.3224     9.4155
  131.0000   168.7583     9.5185     9.6097
  131.5000   169.9641     9.7188     9.8112
  132.0000   171.7715     9.9231    10.0168
  132.5000   171.6842    10.0620    10.0886
  133.0000   168.7704    10.2736    10.2977
  133.5000   168.1710    10.3457    10.3692
  134.0000   169.9790    10.4904    10.4411
  134.5000   171.1850    10.4911    10.4411
  135.0000   168.4816    10.4894    10.4411
  135.5000   165.7770    10.3484    10.3692
  136.0000   169.6903    10.3492    10.2977
  136.5000   173.0596    10.2076    10.2973
  137.0000   176.0125    10.1376    10.0863
  137.5000   177.2183     9.9307    10.0168
  138.0000   176.3189     9.8629     9.8792
  138.5000   174.8180     9.7955     9.8792
  139.0000   174.5208     9.7288     9.7436
  139.5000   172.4184     9.5959     9.6764
  140.0000   164.3009     9.5303     9.6097
  140.5000   162.1985     9.5972     9.5435
  141.0000   162.2020     9.5978     9.6097
  141.5000   163.4079     9.5323     9.6097
  142.0000   168.2227     9.5331     9.6097
  142.5000   182.9825     9.6664     9.7436
  143.0000   188.3795     9.8017     9.8112
  143.5000   180.8635    10.0080    10.0168
  144.0000   171.8438    10.0780    10.1563
  144.5000   174.2526    10.0787    10.1563
  145.0000   173.0532     9.9409    10.0863
  145.5000   166.1387     9.7279     9.8792
  146.0000   161.9310     9.4073     9.6097
  146.5000   162.5354     9.1513     9.4778
  147.0000   167.3509     8.9640     9.2192
  147.5000   170.9628     8.7130     9.0299
  148.0000   173.6724     8.5416     8.8445
  148.5000   174.2767     8.3669     8.7231
  149.0000   171.8736     8.3096     8.5440
  149.5000   171.2749     8.3103     8.4851
  150.0000   170.9777     8.3110     8.3686
  150.5000   169.7775     8.3692     8.3686
  151.0000   165.2698     8.3698     8.3686
  151.5000   161.0621     8.3126     8.3686
  152.0000   158.9597     8.3132     8.3686
  152.5000   159.8647     8.3138     8.2536
  153.0000   162.3499     8.2570     8.2536
  153.5000   164.0816     8.2007     8.1968
  154.0000   166.4905     8.1448     8.1403
  154.5000   168.8994     8.0892     8.1403
  155.0000   171.0074     8.0898     8.0842
  155.5000   166.0354     8.0346     8.0842
  156.0000   159.8859     8.0352     8.0842
  156.5000   156.5804     8.0915     8.0842
  157.0000   157.5379     8.0921     8.0842
  157.5000   162.6020     8.0926     8.0842
  158.0000   169.2214     8.0932     8.0842
  158.5000   174.6378     8.0380     8.0285
  159.0000   172.5354     7.9830     7.9182
  159.5000   171.3353     7.8740     7.8095
  160.0000   175.5494     7.6598     7.5964
  160.5000   182.1688     7.2984     7.2877
  161.0000   185.7807     7.1457     7.1011
  161.5000   185.1821     6.8590     6.9880
  162.0000   178.5042     6.8121     6.6612
  162.5000   169.8502     6.7656     6.5697
  163.0000   165.3418     6.7661     6.6153
  163.5000   162.9379     6.7642     6.7074
  164.0000   164.1445     6.7670     6.8008
  164.5000   171.3985     6.8146     6.8480
  165.0000   174.9780     6.8623     6.8955
  165.5000   175.8831     6.9583     6.9916
  166.0000   177.3897     7.0557     7.0889
  166.5000   179.4979     7.1076     7.0889
  167.0000   180.4030     7.2046     7.1876
  167.5000   178.6013     7.2551     7.2877
  168.0000   174.6952     7.3566     7.3383
  168.5000   166.8785     7.4082     7.3892
  169.0000   165.0761     7.4601     7.4921
  169.5000   172.6055     7.5202     7.4921
  170.0000   178.6171     7.6176     7.5964
  170.5000   179.8230     7.6709     7.5964
  171.0000   178.6228     7.6714     7.6491
  171.5000   175.0167     7.7252     7.7022
  172.0000   169.3053     7.7221     7.7022
  172.5000   168.7066     7.6729     7.6491
  173.0000   171.1162     7.6736     7.5964
  173.5000   174.7281     7.5687     7.4921
  174.0000   178.0392     7.4652     7.4405
  174.5000   180.4481     7.4657     7.4405
  175.0000   181.0532     7.4663     7.4405
  175.5000   178.6501     7.4668     7.3892
  176.0000   175.0439     7.4673     7.4405
  176.5000   172.3400     7.4678     7.4405
  177.0000   172.3288     7.4683     7.4405
  177.5000   172.6466     7.5206     7.4921
  178.0000   172.0486     7.5734     7.4921
  178.5000   170.8477     7.5739     7.5441
  179.0000   170.5499     7.5744     7.5964
  179.5000   173.8617     7.5749     7.5964
  180.0000   176.9524     7.5754     7.5964
  180.5000   178.0787     7.5761     7.5964
  181.0000   176.8778     7.5766     7.5441
  181.5000   177.7836     7.5771     7.4921
  182.0000   180.7940     7.4734     7.4405
  182.5000   183.2381     7.4740     7.3892
  183.0000   181.1012     7.4745     7.3383
  183.5000   177.7951     7.4235     7.2877
  184.0000   182.3100     7.3728     7.2877
  184.5000   184.1174     7.3734     7.2375
  185.0000   176.7821     7.2725     7.1876
  185.5000   173.8975     7.2230     7.1304
  186.0000   176.9086     7.0753     7.0401
  186.5000   176.3100     6.8827     6.8955
  187.0000   174.5083     6.6954     6.7074
  187.5000   174.5614     6.5132     6.4795
