~VERSION INFORMATION
 VERS.                2.0:   CWLS LOG ASCII STANDARD - VERSION 2.0
 WRAP.                 NO:   ONE LINE PER DEPTH STEP
~WELL INFORMATION
#MNEM.UNIT      DATA TYPE    INFORMATION
#----------   ------------   ------------------------------
 STRT.F          974.5000:   START DEPTH
 STOP.F         2805.0000:   STOP DEPTH
 STEP.F            0.5000:   STEP LENGTH
 NULL.          -999.2500:   NO VALUE
 COMP.   FLUOR DANIEL INC:   COMPANY
 WELL. NAVAL PETROLEUM RESERVE 3 SHX- #38-14:   WELL
 FLD .             TEAPOT:   FIELD
 LOC .      S14 T38N R78W:   LOCATION
 CNTY.            NATRONA:   COUNTY
 STAT.            WYOMING:   STATE
 CTRY. UNITED STATES OF AMERICA:   COUNTRY
 SRVC.            Unknown:   SERVICE COMPANY
 DATE.        20-AUG-1995:   LOGDATE
 API .       490252273400:   API NUMBER
~CURVE INFORMATION
#MNEM.UNIT       API CODE    CURVE DESCRIPTION
#----------   ------------   ------------------------------
 DEPT.F                  :   
 ROP .MIN/FT 91 810 01 00:   RAT OF DRILLING PENETRATION
 TGAS.UNITS  91 830 01 00:   TOTAL GAS FROM HOTWIRE
~PARAMETER INFORMATION
#MNEM.UNIT          VALUE    DESCRIPTION
#----------   ------------   ------------------------------
 EKB .F              5264:   KELLING BUSHING
 EGL .F              5254:   GROUND LEVEL
 DATE.            8-20-95:   RUN DATE
 DD  .F              2805:   DEPTH DRILLER
 CBD .F               980:   CASING BOTTOM DRILLER
 ENGI.              TOWER:   RECORDING ENGINEER
 WITN.               HUSK:   WITNESSED BY
 CLNT.            A2DTECH:   CLIENT CODE
 ORIG.           5" PRINT:   ORIGIN OF DATA
 UWI .       490252273400:   UNIQUE WELL ID
 DICO. A2D Technologies, Inc.:   DIGITIZING COMPANY
~OTHER INFORMATION
~A   DEPT      ROP         TGAS 
# ...
 2068.0000     0.6707    13.5153
 2068.5000     0.6708    13.4913
 2069.0000     0.6600    13.4674
 2069.5000     0.6602    13.4434
 2070.0000     0.6603    13.4226
 2070.5000     0.6605    13.4339
 2071.0000     0.6606    13.6604
 2071.5000     0.6607    13.6689
 2072.0000     0.8674    13.6774
 2072.5000     0.8567    13.4666
 2073.0000     0.8568    12.1676
 2073.5000     0.8678    11.3073
 2074.0000     0.8788    10.8799
 2074.5000     0.6072    10.6705
 2075.0000     0.6074    10.0239
 2075.5000     0.6075    10.0338
 2076.0000     0.6076    10.0423
 2076.5000     0.6078    10.2687
 2077.0000     0.6079    10.2787
 2077.5000     0.6189    10.2872
 2078.0000     0.6190    10.5136
 2078.5000     0.6192    10.5221
 2079.0000     0.6210    10.3113
 2079.5000     0.6303    10.5391
 2080.0000     0.6129    10.5476
 2080.5000     0.5870    10.3368
 2081.0000     0.5870    10.5661
 2081.5000     0.5870    10.5746
 2082.0000     0.5978    10.5831
 2082.5000     0.6087    10.5916
 2083.0000     0.6087    10.6001
 2083.5000     0.6087    10.6086
 2084.0000     0.6087    10.6186
 2084.5000     0.6087    10.6271
 2085.0000     0.6087    10.4148
 2085.5000     0.6196    10.4262
 2086.0000     0.6087    10.4347
 2086.5000     0.6087    10.4432
 2087.0000     0.6087    10.4517
 2087.5000     0.6087    10.4616
 2088.0000     0.6087    10.4702
 2088.5000     0.5978    10.4787
 2089.0000     0.5870    10.4872
 2089.5000     0.5870    10.4957
 2090.0000     0.6522    10.5042
 2090.5000     0.6739    10.5127
 2091.0000     0.6739    10.5226
 2091.5000     0.6739    10.5311
 2092.0000     0.6739    10.5397
 2092.5000     0.6739    10.5482
 2093.0000     0.6739    10.7746
 2093.5000     0.6739    10.5638
 2094.0000     0.6739    10.7916
 2094.5000     0.6739    10.5808
 2095.0000     0.6739    10.5921
 2095.5000     0.6739    10.6007
 2096.0000     0.6739    10.6092
 2096.5000     0.6630    10.6177
 2097.0000     0.6630    10.6262
 2097.5000     0.6522    10.6361
 2098.0000     0.6522    10.6446
 2098.5000     0.6522    10.6531
 2099.0000     0.6630    10.6617
 2099.5000     0.6630    10.6702
 2100.0000     0.6630    10.6773
 2100.5000     0.6630    10.6560
 2101.0000     0.6630    10.6364
 2101.5000     0.6630    10.6167
 2102.0000     0.6630    10.5971
 2102.5000     0.6630    10.5774
 2103.0000     0.6630    10.5578
 2103.5000     0.6522    10.5381
 2104.0000     0.6522    10.5185
 2104.5000     0.6522    10.4988
 2105.0000     0.6522    10.4792
 2105.5000     0.6630    10.4595
 2106.0000     0.6630    10.4399
 2106.5000     0.6623    10.4202
 2107.0000     0.6630    10.4006
 2107.5000     0.6630    10.3809
 2108.0000     0.6630    10.3613
 2108.5000     0.6739    10.3416
 2109.0000     0.6739    10.3220
 2109.5000     0.6739    10.3024
 2110.0000     0.6739    10.2827
 2110.5000     0.6739    10.2631
 2111.0000     0.6739    10.2434
 2111.5000     0.6739    10.2238
 2112.0000     0.6739    10.2041
 2112.5000     0.6739    10.1845
 2113.0000     0.6739    10.1648
 2113.5000     0.6739    10.1452
 2114.0000     0.6739    10.1255
 2114.5000     0.6739    10.1059
 2115.0000     0.6739    10.0862
 2115.5000     0.6739    10.0666
 2116.0000     0.6739    10.0469
 2116.5000     0.6739    10.0273
 2117.0000     0.6739    10.0076
 2117.5000     0.6739     9.9880
 2118.0000     0.6739     9.9683
 2118.5000     0.6739     9.9487
 2119.0000     0.6630     9.9290
 2119.5000     0.6630     9.9094
 2120.0000     0.6630     9.8920
 2120.5000     0.5217     9.9004
 2121.0000     0.5109     9.9080
 2121.5000     0.5116     9.9156
 2122.0000     0.5326     9.9232
 2122.5000     0.5326     9.9308
 2123.0000     0.5326     9.9384
 2123.5000     0.5326     9.9460
 2124.0000     0.5457     9.9536
 2124.5000     0.5459     9.9612
 2125.0000     0.5462     9.9688
 2125.5000     0.5465     9.9764
 2126.0000     0.5468     9.9840
 2126.5000     0.5470     9.9916
 2127.0000     0.5473     9.9992
 2127.5000     0.5476    10.0068
 2128.0000     0.5370    10.0144
 2128.5000     0.5372    10.0220
 2129.0000     0.5375    10.0296
 2129.5000     0.5269    10.0372
 2130.0000     0.5272    10.0449
 2130.5000     0.5165    10.0525
 2131.0000     0.5169    10.0601
 2131.5000     0.5171    10.0677
 2132.0000     0.5065    10.0753
 2132.5000     0.5068    10.0829
 2133.0000     0.5071    10.0905
 2133.5000     0.5074    10.0981
 2134.0000     0.5076    10.1057
 2134.5000     0.5079    10.1133
 2135.0000     0.5082    10.1209
 2135.5000     0.5084    10.1285
 2136.0000     0.5087    10.1361
 2136.5000     0.5090    10.1437
 2137.0000     0.5093    10.1513
 2137.5000     0.5204    10.1589
 2138.0000     0.5315    10.1665
 2138.5000     0.5318    10.1741
 2139.0000     0.5321    10.1817
 2139.5000     0.5432    10.1893
 2140.0000     0.5380    10.1985
 2140.5000     0.5220    10.2116
 2141.0000     0.5114    10.2247
 2141.5000     0.5117    10.2378
 2142.0000     0.5120    10.2508
 2142.5000     0.5123    10.2639
 2143.0000     0.5125    10.2770
 2143.5000     0.5128    10.2901
 2144.0000     0.5130    10.3031
 2144.5000     0.5133    10.3162
 2145.0000     0.5136    10.3293
 2145.5000     0.5139    10.3424
 2146.0000     0.5142    10.3554
 2146.5000     0.5036    10.3685
 2147.0000     0.5038    10.3816
 2147.5000     0.5041    10.3947
 2148.0000     0.5043    10.4077
 2148.5000     0.5046    10.4208
 2149.0000     0.5049    10.4339
 2149.5000     0.5161    10.4470
 2150.0000     0.6359    10.4600
 2150.5000     0.6470    10.4847
 2151.0000     0.6473    10.5094
 2151.5000     0.6693    10.5341
 2152.0000     0.6804    10.5587
 2152.5000     0.6808    10.5834
 2153.0000     0.6810    10.6081
 2153.5000     0.6813    10.6328
 2154.0000     0.5619    10.6575
 2154.5000     0.5622    10.6821
 2155.0000     0.5734    10.7068
 2155.5000     0.5736    10.7315
 2156.0000     0.5848    10.7562
 2156.5000     0.5742    10.7808
 2157.0000     0.5636    10.8055
 2157.5000     0.5748    10.8302
 2158.0000     0.5859    10.8549
 2158.5000     0.5861    10.8795
 2159.0000     0.5973    10.9042
 2159.5000     0.5976    10.9264
 2160.0000     0.5978    10.9395
 2160.5000     0.5974    10.9525
 2161.0000     0.5861    10.9656
 2161.5000     0.5639    10.9787
 2162.0000     0.5527    10.9918
 2162.5000     0.5523    11.0048
 2163.0000     0.5410    11.0179
 2163.5000     0.5297    11.0310
 2164.0000     0.5185    11.0441
 2164.5000     0.5181    11.0571
 2165.0000     0.5177    11.0702
 2165.5000     0.5173    11.0833
 2166.0000     0.5168    11.0964
 2166.5000     0.5164    11.1094
 2167.0000     0.5160    11.1225
 2167.5000     0.5156    11.1356
 2168.0000     0.5152    11.1487
 2168.5000     0.5148    11.1617
 2169.0000     0.5144    11.1748
 2169.5000     0.5140    11.1879
 2170.0000     0.5136    11.2010
 2170.5000     0.5132    11.2140
 2171.0000     0.5127    11.2271
 2171.5000     0.5123    11.2402
 2172.0000     0.5119    11.2533
 2172.5000     0.5115    11.2663
 2173.0000     0.5111    11.2794
 2173.5000     0.5107    11.2925
 2174.0000     0.5103    11.3056
 2174.5000     0.5099    11.3186
 2175.0000     0.5095    11.3317
 2175.5000     0.5102    11.3448
 2176.0000     0.5196    11.3579
 2176.5000     0.5301    11.3709
 2177.0000     0.5296    11.3840
 2177.5000     0.5292    11.3971
 2178.0000     0.5288    11.4127
 2178.5000     0.5284    11.4256
 2179.0000     0.5280    11.4384
 2179.5000     0.5276    11.4513
 2180.0000     0.5272    11.0283
 2180.5000     0.5268    10.3875
 2181.0000     0.5154     9.9624
 2181.5000     0.5150     9.7573
 2182.0000     0.6124     9.7723
 2182.5000     0.6339     9.7852
 2183.0000     0.6334    10.0160
 2183.5000     0.6221    10.2489
 2184.0000     0.6217    10.2618
 2184.5000     0.6213    10.2747
 2185.0000     0.6101    10.2875
 2185.5000     0.5988    10.3004
 2186.0000     0.5983    10.3133
 2186.5000     0.5870    10.3261
 2187.0000     0.5866    10.3390
 2187.5000     0.5862    10.3519
 2188.0000     0.5858    10.3648
 2188.5000     0.5854    10.3798
 2189.0000     0.5850    10.1726
