~VERSION INFORMATION
 VERS.                2.0:   CWLS LOG ASCII STANDARD - VERSION 2.0
 WRAP.                 NO:   ONE LINE PER DEPTH STEP
~WELL INFORMATION
#MNEM.UNIT      DATA TYPE    INFORMATION
#----------   ------------   ------------------------------
 STRT.F           34.0000:   START DEPTH
 STOP.F          616.0000:   STOP DEPTH
 STEP.F            0.5000:   STEP LENGTH
 NULL.          -999.2500:   NO VALUE
 COMP. FENIX & SCISSON INC:   COMPANY
 WELL. NAVAL PETROLEUM RESERVE 3 S-10 #86-10:   WELL
 FLD .             TEAPOT:   FIELD
 LOC .      S10 T38N R78W:   LOCATION
 CNTY.            NATRONA:   COUNTY
 STAT.            WYOMING:   STATE
 CTRY. UNITED STATES OF AMERICA:   COUNTRY
 SRVC.              Welex:   SERVICE COMPANY
 DATE.        12-APR-1977:   LOGDATE
 API .       490251033800:   API NUMBER
~CURVE INFORMATION
#MNEM.UNIT       API CODE    CURVE DESCRIPTION
#----------   ------------   ------------------------------
 DEPT.F                  :   
 CALD.IN     45 280 60 00:   CALIPER FROM DENSITY LOG
 GRD .GAPI   45 310 01 00:   GAMMA RAY FROM DENSITY LOG
 CORR.G/C3   45 356 01 00:   DENSITY CORRECTION
 DPHI.DEC    45 890 12 00:   DENSITY POROSITY SANDSTONE
 RHOB.G/C3   45 350 01 00:   BULK DENSITY
 SPR .MV     07 010 01 00:   SPONTANEOUS POTENTIAL
 ILD .OHMM   07 120 46 00:   INDUCTION LOG DEEP
 ILM .OHMM   07 120 44 00:   INDUCTION LOG MEDIUM
 SGRD.OHMM   07 221 05 00:   SHALLOW SHORT GUARD RESISTIVITY
~PARAMETER INFORMATION
#MNEM.UNIT          VALUE    DESCRIPTION
#----------   ------------   ------------------------------
 PD  .                 GL:   PERMANENT DATUM
 EPD .F              5240:   ELEVATION PERMANENT DATUM
 LMF .                 KB:   LOG MEASURED FROM
 DAPD.F                 5:   FEET ABOVE PERMANENT DATUM
 DMF .                 KB:   DRILLING MEASURED FROM
 EKB .F              5245:   KELLING BUSHING
 EGL .F              5240:   GROUND LEVEL
 DATE.        12-APR-1977:   RUN DATE
 RUN .                  1:   RUN NUMBER
 DD  .F               625:   DEPTH DRILLER
 DL  .F               617:   DEPTH LOGGER
 BLI .F               615:   BOTTOM LOG INTERVAL
 TLI .F                35:   TOP LOG INTERVAL
 CS  .IN            8.625:   CASING SIZE
 BS  .IN            7.875:   BIT SIZE
 BSD .F               625:   BIT SIZE AT DEPTH
 DFT .           KCL- GEL:   DRILLING FLUID TYPE
 DFD .                8.8:   DRILLING FLUID DENSITY
 BHT .F                68:   BOTTOM HOLE TEMPERATURE
 TCS .HRS            0100:   TIME CURCULATED STOPPED
 MRT .F                68:   MAXIMUM RECORDED TEMPERATURE
 ENGI.        E. CALLAHAN:   RECORDING ENGINEER
 WITN.            R. LYON:   WITNESSED BY
 CLNT.            A2DTECH:   CLIENT CODE
 ORIG.           5" PRINT:   ORIGIN OF DATA
 UWI .       490251033800:   UNIQUE WELL ID
 DICO. A2D Technologies, Inc.:   DIGITIZING COMPANY
~OTHER INFORMATION
~A   DEPT     CALD        GRD       CORR       DPHI         RHOB      SPR        ILD        ILM       SGRD   
# ...
  143.5000     8.1527   127.6302     0.0095     0.1162     2.4605   -85.1796     6.6507     7.9209    10.2322
  144.0000     8.1537   123.9299     0.0096     0.1135     2.4673   -85.7784     6.6954     7.8636    10.2287
  144.5000     8.1547   120.9714     0.0112     0.1111     2.4741   -86.0778     6.6941     7.9155    10.2962
  145.0000     8.1560   120.2362     0.0143     0.1069     2.4771   -85.9281     6.7391     8.0787    10.6549
  145.5000     8.1570   119.5055     0.0173     0.1053     2.4817   -85.4790     6.8316     8.1337    11.8162
  146.0000     8.1581   118.6241     0.0189     0.1077     2.4772   -83.8323     6.8776     8.4769    12.5712
  146.5000     8.1591   115.5173     0.0160     0.1119     2.4705   -82.0359     7.0204     8.9545    12.5668
  147.0000     8.1601   116.4164     0.0116     0.1146     2.4638   -80.6886     7.0687     9.2650    12.3044
  147.5000     8.1612   117.6122     0.0086     0.1166     2.4578   -79.4910     7.2646     9.0069    11.9643
  148.0000     8.1622   119.2531     0.0072     0.1196     2.4504   -79.0419     7.3650     8.6996    12.2959
  148.5000     8.1632   120.5973     0.0058     0.1223     2.4444   -79.6407     7.4654     8.9412    12.7244
  149.0000     8.1643   121.9415     0.0029     0.1252     2.4385   -81.2874     7.4638     9.2522    12.4586
  149.5000     8.1651   122.8383     0.0014     0.1270     2.4340   -83.0838     7.5141     9.1848    12.1984
  150.0000     8.1662   121.0424     0.0000     0.1273     2.4355   -84.2814     7.3072     8.8086    11.9437
  150.5000     8.1521   120.8960     0.0001     0.1220     2.4430   -82.9664     7.2038     8.7436    11.2971
  151.0000     8.1529   120.7893     0.0002     0.1195     2.4484   -81.8912     7.1018     9.2375    11.3724
  151.5000     8.1536   120.8042    -0.0012     0.1188     2.4515   -81.3009     7.0989     8.7971    11.6085
  152.0000     8.1544   120.9634    -0.0011     0.1176     2.4545   -82.5109     7.0959     8.4944    11.6045
  152.5000     8.1551   120.7963     0.0005     0.1148     2.4591   -83.8548     7.2418     8.7898    11.6013
  153.0000     8.1558   118.6647     0.0036     0.1081     2.4722   -84.0089     7.3397     8.9714    11.5981
  153.5000     8.1566   116.2067     0.0082     0.0978     2.4929   -83.8637     7.4905     9.0917    11.5949
  154.0000     8.1573   114.2413     0.0142     0.0876     2.5095   -83.8683     7.6453     9.6053    11.7532
  154.5000     8.1581   110.2819     0.0188     0.0785     2.5215   -83.7230     7.8566    10.2892    11.9973
  155.0000     8.1588   108.0415     0.0219     0.0737     2.5276   -83.4182     8.0181    10.5747    13.6783
  155.5000     8.1595   108.4500     0.0265     0.0728     2.5291   -83.2829     8.1256    10.3521    25.4910
  156.0000     8.1603   109.9703     0.0266     0.0755     2.5240   -83.1376     8.1222    10.2056    20.8504
  156.5000     8.1610   112.4619     0.0267     0.0977     2.5023   -82.8427     8.0629    10.2014    13.0208
  157.0000     8.1617   116.9634     0.0238     0.1048     2.4881   -82.8334     8.0040    10.1971    12.4017
  157.5000     8.1625   122.2421     0.0209     0.1078     2.4792   -82.7020     7.8907     9.9835    12.3982
  158.0000     8.1632   124.0314     0.0195     0.1096     2.4717   -82.7066     7.8330     9.5075    12.5684
  158.5000     8.1640   125.3756     0.0181     0.1099     2.4703   -82.5612     7.7222     9.1171    12.6522
  159.0000     8.1499   125.3845     0.0166     0.1090     2.4726   -82.5658     7.6129     9.3691    11.8841
  159.5000     8.1506   125.9868     0.0152     0.1069     2.4779   -82.2708     7.6097     9.6949    11.3199
  160.0000     8.1513   127.1826     0.0153     0.1020     2.4840   -82.1256     7.5541     9.1690    12.0431
  160.5000     8.1463   127.4882     0.0169     0.0999     2.4848   -81.5313     7.4472     8.7934    12.3779
  161.0000     8.1411   128.3873     0.0170     0.0989     2.4833   -81.3643     7.4441     9.1624    12.3743
  161.5000     8.1360   127.9511     0.0201     0.0954     2.4909   -81.0911     7.3897     9.3507    12.2855
  162.0000     8.1308   126.4763     0.0217     0.0936     2.4954   -80.9459     7.3864     9.0280    12.1133
  162.5000     8.1257   126.3346     0.0248     0.0924     2.4985   -80.9506     7.3836     8.7174    12.0265
  163.0000     8.1205   126.7908     0.0264     0.0917     2.4993   -80.5058     7.3803     8.9584    12.0232
  163.5000     8.1154   127.3931     0.0280     0.0920     2.4979   -80.1571     7.3775     9.1425    12.0198
  164.0000     8.1103   127.4020     0.0281     0.0939     2.4964   -79.2895     7.3744     9.0757    11.9336
  164.5000     8.1051   126.9658     0.0296     0.0972     2.4935   -78.3369     7.3714     9.0094    11.6852
  165.0000     8.1000   125.9361     0.0297     0.1004     2.4906   -76.9320     7.3683     9.0057    11.3631
  165.5000     8.0948   124.9063     0.0298     0.1009     2.4854   -76.1880     7.3653     9.1275    11.2816
  166.0000     8.0897   125.0636     0.0314     0.1009     2.4809   -75.7423     7.3622     9.0607    11.3568
  166.5000     8.0845   125.3692     0.0315     0.1021     2.4825   -75.7479     7.4103     8.7490    11.5919
  167.0000     8.0794   125.8232     0.0301     0.1039     2.4848   -76.2015     7.4072     8.1606    11.9139
  167.5000     8.0735   126.5739     0.0302     0.1051     2.4826   -76.6551     7.3531     8.6814    11.9106
  168.0000     8.0743   127.1762     0.0288     0.1065     2.4744   -76.9589     7.3501     8.7422    11.0346
  168.5000     8.0600   127.4818     0.0259     0.1095     2.4700   -77.5622     7.3470     8.5550    11.0250
  169.0000     8.0609   127.6391     0.0290     0.1095     2.4700   -77.8661     7.3440     8.6109    11.3380
  169.5000     8.0617   128.0930     0.0320     0.1083     2.4731   -77.5712     7.3409     8.6671    11.4987
  170.0000     8.0624   128.5448     0.0366     0.1056     2.4852   -77.2763     7.3378     8.7842    10.9464
  170.5000     8.0631   128.4053     0.0412     0.0948     2.4950   -76.3825     7.3347     8.7806    11.2505
  171.0000     8.0639   127.9713     0.0413     0.0905     2.5010   -75.4888     7.3274     8.7164    11.8056
  171.5000     8.0646   127.2361     0.0414     0.0911     2.5018   -74.5951     7.2781     8.5931    11.4801
  172.0000     8.0654   128.4342     0.0430     0.0920     2.4996   -74.0008     7.1751     8.4130    11.1636
  172.5000     8.0661   128.8881     0.0431     0.0932     2.4982   -74.4544     7.1227     8.4096    11.1606
  173.0000     8.0668   128.8970     0.0447     0.0938     2.4984   -75.6565     7.1197     8.7685    11.2350
  173.5000     8.0676   128.4608     0.0448     0.0899     2.5046   -76.7089     7.0677     9.0047    11.2318
  174.0000     8.0683   127.7278     0.0449     0.0814     2.5128   -77.1624     7.0648     8.7918    11.1513
  174.5000     8.0691   126.4014     0.0435     0.0790     2.5188   -76.8675     7.0619     8.3869    10.9192
  175.0000     8.0698   124.4815     0.0420     0.0790     2.5211   -76.4229     7.0589     8.4116    10.9162
  175.5000     8.0705   124.4903     0.0391     0.0814     2.5176   -76.2766     7.1051     8.7554    11.2199
  176.0000     8.0713   124.6476     0.0362     0.0862     2.5076   -75.8319     7.1113     8.8015    11.5311
  176.5000     8.0720   124.6564     0.0333     0.0933     2.4964   -75.6867     7.1485     8.8589    11.6080
  177.0000     8.0728   124.6653     0.0304     0.0954     2.4883   -75.0935     7.2452     9.0401    11.5205
  177.5000     8.0735   124.6742     0.0275     0.0996     2.4808   -74.4992     7.2414     8.9121    11.1298
  178.0000     8.0742   124.8322     0.0231     0.1041     2.4771   -73.6055     7.2894     8.5462    12.2586
  178.5000     8.0750   124.8403     0.0217     0.1053     2.4764   -72.8615     7.3370     8.4252    12.3403
  179.0000     8.0757   124.8492     0.0217     0.1029     2.4855   -72.7151     7.4354     8.3645    12.1628
  179.5000     8.0764   125.0064     0.0248     0.1004     2.4953   -72.7207     7.4839     9.0214    11.5040
