~VERSION INFORMATION
 VERS.                2.0:   CWLS LOG ASCII STANDARD - VERSION 2.0
 WRAP.                 NO:   ONE LINE PER DEPTH STEP
~WELL INFORMATION
#MNEM.UNIT      DATA TYPE    INFORMATION
#----------   ------------   ------------------------------
 STRT.F            0.0000:   START DEPTH
 STOP.F          534.0000:   STOP DEPTH
 STEP.F            0.1000:   STEP LENGTH
 NULL.          -999.2500:   NO VALUE
 COMP.       F D SERV INC:   COMPANY
 WELL. NAVAL PETROLEUM RESERVE 3 SX-1 #71-2-10:   WELL
 FLD .            N.P.R 3:   FIELD
 LOC .      S10 T38N R78W:   LOCATION
 CNTY.            NATRONA:   COUNTY
 STAT.            WYOMING:   STATE
 CTRY. UNITED STATES OF AMERICA:   COUNTRY
 SRVC.     Atlas Wireline:   SERVICE COMPANY
 DATE.        07-DEC-1992:   LOGDATE
 API .       490252257200:   API NUMBER
~CURVE INFORMATION
#MNEM.UNIT       API CODE    CURVE DESCRIPTION
#----------   ------------   ------------------------------
 DEPT.F                  :   
 GRR .GAPI   07 310 01 00:   GAMMA RAY
 RILD.OHMM   07 120 46 00:   INDUCTION LOG DEEP RESISTIVITY
 RILM.OHMM   07 120 44 00:   RESITIVITY LONG MEDIUM
~PARAMETER INFORMATION
#MNEM.UNIT          VALUE    DESCRIPTION
#----------   ------------   ------------------------------
 PD  .                 GL:   PERMANENT DATUM
 EPD .F              5165:   ELEVATION PERMANENT DATUM
 LMF .                 KB:   LOG MEASURED FROM
 DAPD.F                10:   FEET ABOVE PERMANENT DATUM
 DMF .                 KB:   DRILLING MEASURED FROM
 EKB .F              5175:   KELLING BUSHING
 EDF .F              5174:   DRILLING FLOOR
 EGL .F              5165:   GROUND LEVEL
 DATE.        07-DEC-1992:   RUN DATE
 RUN .                  1:   RUN NUMBER
 DD  .F               540:   DEPTH DRILLER
 DL  .F               542:   DEPTH LOGGER
 BLI .F               534:   BOTTOM LOG INTERVAL
 CS  .IN            8.625:   CASING SIZE
 CBD .F                78:   CASING BOTTOM DRILLER
 CBL .F                82:   CASING BOTTOM LOGGER
 BS  .IN            7.875:   BIT SIZE
 BSD .F               540:   BIT SIZE AT DEPTH
 DFT .           AIR FOAM:   DRILLING FLUID TYPE
 BHT .F                70:   BOTTOM HOLE TEMPERATURE
 MRT .F                70:   MAXIMUM RECORDED TEMPERATURE
 LUN .           HL- 6345:   LOGGING UNIT NUMBER
 LUL .         FT. MORGAN:   LOGGING UNIT LOCATION
 ENGI.             BURLEY:   RECORDING ENGINEER
 WITN.        GARY STRONG:   WITNESSED BY
 CLNT.            A2DTECH:   CLIENT CODE
 ORIG.           5" PRINT:   ORIGIN OF DATA
 UWI .       490252257200:   UNIQUE WELL ID
 DICO. A2D Technologies, Inc.:   DIGITIZING COMPANY
~OTHER INFORMATION
~A    DEPT      GRR      RILD       RILM   
# ...
  182.0000   115.1988     7.7333     7.7905
  182.1000   115.5686     7.7329     7.7939
  182.2000   115.8979     7.7325     7.8012
  182.3000   115.8943     7.7186     7.8086
  182.4000   116.1148     7.6776     7.8160
  182.5000   116.0191     7.6771     7.8234
  182.6000   115.8855     7.6767     7.8308
  182.7000   115.8825     7.6468     7.8381
  182.8000   115.8795     7.6022     7.8441
  182.9000   115.8760     7.5686     7.8438
  183.0000   116.0823     7.5682     7.8436
  183.1000   116.1717     7.5677     7.8434
  183.2000   116.2723     7.5315     7.8432
  183.3000   116.5179     7.5140     7.8430
  183.4000   116.7650     7.4964     7.8369
  183.5000   117.0090     7.4607     7.7872
  183.6000   117.2546     7.4603     7.7870
  183.7000   117.5002     7.4599     7.7868
  183.8000   117.6566     7.3941     7.7644
  183.9000   117.6536     7.3552     7.7315
  184.0000   117.6504     7.3404     7.7312
  184.1000   118.1126     7.2976     7.7310
  184.2000   118.4269     7.2516     7.6925
  184.3000   118.6725     7.2129     7.6476
  184.4000   118.9928     7.1709     7.6218
  184.5000   119.4430     7.1494     7.6216
  184.6000   119.4394     7.1375     7.6213
  184.7000   119.4367     7.0959     7.5768
  184.8000   119.2683     7.0487     7.5325
  184.9000   118.9039     7.0135     7.5136
  185.0000   118.3434     6.9726     7.4975
  185.1000   117.6022     6.9320     7.4537
  185.2000   117.0115     6.8916     7.4074
  185.3000   116.1946     6.8519     7.3267
  185.4000   115.3482     6.8515     7.3030
  185.5000   114.5994     6.7882     7.2593
  185.6000   113.8964     6.7325     7.1874
  185.7000   113.3824     6.6933     7.1454
  185.8000   113.1377     6.6480     7.0984
  185.9000   113.0753     6.5675     7.0982
  186.0000   113.2089     6.4952     7.0435
  186.1000   113.5384     6.4477     6.9981
  186.2000   114.0638     6.4101     6.9787
  186.3000   114.8702     6.3728     6.8974
  186.4000   115.5493     6.3357     6.8023
  186.5000   116.2921     6.2949     6.7381
  186.6000   116.9128     6.2621     6.5238
  186.7000   117.3375     6.2256     6.2531
  186.8000   117.6169     6.2062     6.0675
  186.9000   118.4664     6.1966     6.0307
  187.0000   118.6767     6.1605     6.0305
  187.1000   119.0825     6.1188     6.0041
  187.2000   119.3614     6.1185     5.9877
  187.3000   119.4135     6.1181     5.9989
  187.4000   119.6567     6.1178     6.0298
  187.5000   119.6536     6.1033     6.0296
  187.6000   119.6506     6.0319     6.0612
  187.7000   119.7934     6.0316     6.0721
  187.8000   119.9458     6.0313     6.0719
  187.9000   119.8211     6.0309     6.0811
  188.0000   119.0360     6.0306     6.1164
  188.1000   117.8504     6.0303     6.1579
  188.2000   116.9723     6.0299     6.1578
  188.3000   116.3548     6.0296     6.1801
  188.4000   115.9333     6.0292     6.2011
  188.5000   115.6034     6.0289     6.2081
  188.6000   114.4997     6.0286     6.2448
  188.7000   113.8307     6.0312     6.2446
  188.8000   113.4209     6.0702     6.2444
  188.9000   113.2861     6.1007     6.2647
  189.0000   113.2831     6.1123     6.3012
  189.1000   113.2801     6.1280     6.3329
  189.2000   113.2766     6.1632     6.3327
  189.3000   113.4817     6.1976     6.3667
  189.4000   113.5723     6.1971     6.3773
  189.5000   113.4669     6.2558     6.3957
  189.6000   113.2651     6.2840     6.4222
  189.7000   113.2620     6.2836     6.4220
  189.8000   113.0133     6.2899     6.4218
  189.9000   112.7616     6.3271     6.4865
  190.0000   112.6506     6.3624     6.5130
  190.1000   112.5596     6.3709     6.5128
  190.2000   112.3080     6.3908     6.5211
  190.3000   112.0389     6.4275     6.5590
  190.4000   111.5735     6.4598     6.5972
  190.5000   111.2520     6.4594     6.6048
  190.6000   110.7482     6.4932     6.6272
  190.7000   109.8524     6.5305     6.6658
  190.8000   108.6482     6.5495     6.7046
  190.9000   107.8038     6.5596     6.7457
  191.0000   107.3675     6.5973     6.7829
  191.1000   106.8673     6.6408     6.8224
  191.2000   106.5904     6.6734     6.8621
  191.3000   106.7645     6.7117     6.8897
  191.4000   107.5072     6.7335     6.8972
  191.5000   108.3880     6.7416     6.9874
  191.6000   108.7903     6.7803     6.9872
  191.7000   109.5840     6.8193     7.0420
  191.8000   110.5755     6.8585     7.0864
  191.9000   111.4331     6.8979     7.1066
  192.0000   111.6866     6.9226     7.1870
  192.1000   113.2714     6.9222     7.1867
  192.2000   114.9938     6.9218     7.2558
  192.3000   116.4053     6.9595     7.3146
  192.4000   117.7108     6.9995     7.3572
  192.5000   118.5593     7.0184     7.3922
  192.6000   118.9755     7.0307     7.3920
  192.7000   119.2464     7.0670     7.3918
  192.8000   119.7948     7.0665     7.4573
  192.9000   119.7922     7.1027     7.4966
  193.0000   119.7892     7.1154     7.4964
  193.1000   119.6701     7.1150     7.4962
  193.2000   119.3551     7.1146     7.4960
  193.3000   118.8657     7.1142     7.4958
  193.4000   118.5718     7.1138     7.4956
  193.5000   118.1556     7.1134     7.4954
  193.6000   117.3470     7.1130     7.4952
  193.7000   116.3496     7.1127     7.4950
  193.8000   115.3522     7.1123     7.4947
  193.9000   114.3403     7.1118     7.4945
  194.0000   114.3373     7.1115     7.4943
  194.1000   114.3343     7.1111     7.4941
  194.2000   114.4711     7.1107     7.4849
  194.3000   114.8910     7.0959     7.4409
  194.4000   115.7028     7.0545     7.4406
  194.5000   117.0329     7.0105     7.4067
  194.6000   117.7217     7.0101     7.3878
  194.7000   118.2865     7.0097     7.3572
  194.8000   118.7807     7.0093     7.2776
  194.9000   119.1295     6.9971     7.2320
  195.0000   119.1265     6.9563     7.1927
  195.1000   119.1231     6.9105     7.1806
  195.2000   119.1205     6.9102     7.1594
  195.3000   119.1175     6.9098     7.1296
  195.4000   119.0036     6.8916     7.1261
  195.5000   118.8102     6.8608     7.0789
  195.6000   118.8016     6.8595     7.0788
  195.7000   118.5024     6.8120     7.0786
  195.8000   118.5000     6.8117     7.0784
  195.9000   118.3480     6.8113     7.0782
  196.0000   118.1928     6.8109     7.0780
  196.1000   118.1022     6.8106     7.0777
  196.2000   117.5842     6.8102     7.0776
  196.3000   117.3416     6.8098     7.0774
  196.4000   116.1542     6.8094     7.0772
  196.5000   115.0632     6.8090     7.0770
  196.6000   114.1506     6.7829     7.0768
  196.7000   112.9632     6.7135     7.0766
  196.8000   112.1443     6.7131     7.0764
  196.9000   111.4656     6.7127     7.0762
  197.0000   110.8895     6.6855     7.0630
  197.1000   110.3894     6.6465     7.0217
  197.2000   110.0241     6.6182     6.9761
  197.3000   110.0211     6.6178     6.9760
  197.4000   110.0176     6.6174     6.9758
  197.5000   110.0151     6.5526     6.9567
  197.6000   110.0120     6.5246     6.9160
  197.7000   110.2203     6.5242     6.8756
  197.8000   110.6084     6.5158     6.8285
  197.9000   110.6054     6.4779     6.7955
  198.0000   111.1004     6.4775     6.7558
  198.1000   111.7910     6.4477     6.7163
  198.2000   112.5338     6.3888     6.6844
  198.3000   113.1854     6.3417     6.6842
  198.4000   113.6029     6.3300     6.6084
  198.5000   113.5992     6.2527     6.5606
  198.6000   113.5964     6.1846     6.4808
  198.7000   113.5934     6.1131     6.3681
  198.8000   113.5904     6.0067     6.2528
  198.9000   113.4339     5.8895     6.0959
  199.0000   112.9338     5.8213     5.9993
  199.1000   112.3762     5.7463     5.9191
  199.2000   112.1534     5.6300     5.8503
  199.3000   111.9018     5.5436     5.7730
  199.4000   111.7651     5.4941     5.6685
  199.5000   111.7620     5.4542     5.4812
  199.6000   111.7494     5.3911     5.3738
  199.7000   111.4543     5.3181     5.2692
  199.8000   111.2462     5.2673     5.1776
  199.9000   111.1476     5.2064     5.0858
  200.0000   111.1360     5.1745     4.9888
  200.1000   111.1117     5.1785     4.9597
