~VERSION INFORMATION
 VERS.                2.0:   CWLS LOG ASCII STANDARD - VERSION 2.0
 WRAP.                 NO:   ONE LINE PER DEPTH STEP
~WELL INFORMATION
#MNEM.UNIT      DATA TYPE    INFORMATION
#----------   ------------   ------------------------------
 STRT.F            4.0000:   START DEPTH
 STOP.F          468.5000:   STOP DEPTH
 STEP.F            0.1000:   STEP LENGTH
 NULL.          -999.2500:   NO VALUE
 COMP. BROWN JOHN E&C INC:   COMPANY
 WELL.  SX-10 #1-14-SX-10:   WELL
 FLD .        N.P.R. No.3:   FIELD
 LOC .      S10 T38N R78W:   LOCATION
 CNTY.            NATRONA:   COUNTY
 STAT.            WYOMING:   STATE
 CTRY. UNITED STATES OF AMERICA:   COUNTRY
 SRVC.     Atlas Wireline:   SERVICE COMPANY
 DATE.        21-SEP-1991:   LOGDATE
 API .       490251125800:   API NUMBER
~CURVE INFORMATION
#MNEM.UNIT       API CODE    CURVE DESCRIPTION
#----------   ------------   ------------------------------
 DEPT.F                  :   
 GRR .GAPI   07 310 01 00:   GAMMA RAY FROM RES. LOG.
 ILD .OHMM   07 120 46 00:   INDUCTION LOG DEEP
 RILM.OHMM   07 120 44 00:   INDUCTION LOG MEDIUM RESISTIVITY
~PARAMETER INFORMATION
#MNEM.UNIT          VALUE    DESCRIPTION
#----------   ------------   ------------------------------
 PD  .                 GL:   PERMANENT DATUM
 EPD .F              5183:   ELEVATION PERMANENT DATUM
 LMF .                 KB:   LOG MEASURED FROM
 DAPD.F                10:   FEET ABOVE PERMANENT DATUM
 DMF .                 KB:   DRILLING MEASURED FROM
 EKB .F              5193:   KELLING BUSHING
 EGL .F              5183:   GROUND LEVEL
 DATE.            9-21-91:   RUN DATE
 RUN .                  1:   RUN NUMBER
 DD  .F               480:   DEPTH DRILLER
 DL  .F               478:   DEPTH LOGGER
 BLI .F               470:   BOTTOM LOG INTERVAL
 CS  .IN                7:   CASING SIZE
 CBD .F                90:   CASING BOTTOM DRILLER
 CBL .F                90:   CASING BOTTOM LOGGER
 BS  .IN             6.25:   BIT SIZE
 BSD .F               480:   BIT SIZE AT DEPTH
 DFT .                AIR:   DRILLING FLUID TYPE
 TCS .HRS               1:   TIME CURCULATED STOPPED
 MRT .F                80:   MAXIMUM RECORDED TEMPERATURE
 LUN .            HL-6307:   LOGGING UNIT NUMBER
 LUL .             CASPER:   LOGGING UNIT LOCATION
 ENGI.             RAUTIO:   RECORDING ENGINEER
 WITN.             STRONG:   WITNESSED BY
 CLNT.            A2DTECH:   CLIENT CODE
 ORIG.        2" 5" PRINT:   ORIGIN OF DATA
 UWI .       490251125800:   UNIQUE WELL ID
 DICO. A2D Technologies, Inc.:   DIGITIZING COMPANY
~OTHER INFORMATION
~A    DEPT       GRR      ILD       RILM   
# ...
  404.4000   133.0704     5.6051     5.8599
  404.5000   133.2570     5.4929     5.7098
  404.6000   133.6315     5.4504     5.6538
  404.7000   134.0061     5.4079     5.5979
  404.8000   134.3806     5.3654     5.5419
  404.9000   134.7552     5.3229     5.4860
  405.0000   135.1297     5.2804     5.4300
  405.1000   136.6753     5.2804     5.4300
  405.2000   138.2209     5.2804     5.4300
  405.3000   139.7665     5.2804     5.4300
  405.4000   141.3121     5.2804     5.4300
  405.5000   142.8577     5.2804     5.4300
  405.6000   144.6777     5.2967     5.4300
  405.7000   146.4977     5.3129     5.4300
  405.8000   148.3177     5.3292     5.4300
  405.9000   150.1377     5.3454     5.4300
  406.0000   151.9577     5.3617     5.4300
  406.1000   151.9351     5.3820     5.5111
  406.2000   151.9124     5.4024     5.5921
  406.3000   151.8898     5.4228     5.6731
  406.4000   151.8672     5.4431     5.7542
  406.5000   151.8445     5.4635     5.8352
  406.6000   150.1772     5.4843     5.9420
  406.7000   148.5098     5.5050     6.0488
  406.8000   146.8425     5.5257     6.1556
  406.9000   145.1751     5.5465     6.2624
  407.0000   143.5078     5.5672     6.3692
  407.1000   140.9609     5.6403     6.4858
  407.2000   138.4141     5.7133     6.6024
  407.3000   135.8672     5.7863     6.7190
  407.4000   133.3204     5.8593     6.8356
  407.5000   130.7735     5.9323     6.9522
  407.6000   128.5742     6.0493     7.0794
  407.7000   126.3749     6.1663     7.2067
  407.8000   124.1755     6.2834     7.3339
  407.9000   121.9762     6.4004     7.4612
  408.0000   119.7769     6.5174     7.5884
  408.1000   118.8100     6.6459     7.7273
  408.2000   117.8432     6.7745     7.8662
  408.3000   116.8763     6.9031     8.0051
  408.4000   115.9095     7.0316     8.1440
  408.5000   114.9427     7.1602     8.2829
  408.6000   115.5923     7.3014     8.4220
  408.7000   116.2419     7.4426     8.5612
  408.8000   116.8916     7.5839     8.7003
  408.9000   117.5412     7.7251     8.8394
  409.0000   118.1908     7.8663     8.9785
  409.1000   118.6983     8.0222     9.0593
  409.2000   119.2057     8.1781     9.1400
  409.3000   119.7132     8.3340     9.2208
  409.4000   120.2206     8.4898     9.3015
  409.5000   120.7281     8.6457     9.3823
  409.6000   120.4010     8.6913     9.4603
  409.7000   120.0739     8.7369     9.5384
  409.8000   119.7468     8.7824     9.6164
  409.9000   119.4198     8.8280     9.6945
  410.0000   119.0927     8.8736     9.7726
  410.1000   118.9738     8.9163     9.8470
  410.2000   118.8550     8.9590     9.9215
  410.3000   118.7361     9.0017     9.9960
  410.4000   118.6172     9.0444    10.0705
  410.5000   118.4984     9.0872    10.1450
  410.6000   118.7691     9.1301    10.1652
  410.7000   119.0399     9.1731    10.1853
  410.8000   119.3107     9.2160    10.2055
  410.9000   119.5814     9.2590    10.2257
  411.0000   119.8522     9.3019    10.2459
  411.1000   120.2439     9.3413    10.2663
  411.2000   120.6355     9.3807    10.2867
  411.3000   121.0272     9.4201    10.3071
  411.4000   121.4188     9.4595    10.3275
  411.5000   121.8105     9.4989    10.3479
  411.6000   122.2064     9.5346    10.3685
  411.7000   122.6023     9.5704    10.3890
  411.8000   122.9981     9.6061    10.4096
  411.9000   123.3940     9.6418    10.4302
  412.0000   123.7899     9.6776    10.4508
  412.1000   123.6720     9.7140    10.4835
  412.2000   123.5541     9.7504    10.5162
  412.3000   123.4362     9.7868    10.5489
  412.4000   123.3183     9.8232    10.5816
  412.5000   123.2004     9.8596    10.6143
  412.6000   123.0553     9.8967    10.6705
  412.7000   122.9103     9.9338    10.7267
  412.8000   122.7652     9.9709    10.7829
  412.9000   122.6202    10.0079    10.8391
  413.0000   122.4751    10.0450    10.8953
  413.1000   122.8646    10.0828    10.9530
  413.2000   123.2541    10.1206    11.0107
  413.3000   123.6436    10.1584    11.0684
  413.4000   124.0331    10.1962    11.1260
  413.5000   124.4227    10.2340    11.1837
  413.6000   124.8622    10.2725    11.2429
  413.7000   125.3017    10.3110    11.3021
  413.8000   125.7412    10.3495    11.3614
  413.9000   126.1807    10.3880    11.4206
  414.0000   126.6202    10.4265    11.4798
  414.1000   126.4495    10.4657    11.5406
  414.2000   126.2787    10.5049    11.6013
  414.3000   126.1079    10.5441    11.6621
  414.4000   125.9372    10.5834    11.7229
  414.5000   125.7664    10.6226    11.7837
  414.6000   125.3943    10.6625    11.8461
  414.7000   125.0221    10.7025    11.9084
  414.8000   124.6500    10.7425    11.9708
  414.9000   124.2778    10.7824    12.0332
  415.0000   123.9056    10.8224    12.0956
  415.1000   123.7943    10.8631    12.1283
  415.2000   123.6828    10.9038    12.1611
  415.3000   123.5714    10.9445    12.1938
  415.4000   123.4600    10.9852    12.2265
  415.5000   123.3486    11.0259    12.2592
  415.6000   123.7918    11.0674    12.2924
  415.7000   124.2350    11.1089    12.3256
  415.8000   124.6782    11.1504    12.3587
  415.9000   125.1214    11.1918    12.3919
  416.0000   125.5645    11.2333    12.4251
  416.1000   126.3721    11.2743    12.4583
  416.2000   127.1797    11.3153    12.4916
  416.3000   127.9873    11.3563    12.5249
  416.4000   128.7949    11.3973    12.5581
  416.5000   129.6024    11.4383    12.5914
  416.6000   129.6420    11.4606    12.6239
  416.7000   129.6816    11.4829    12.6564
  416.8000   129.7212    11.5052    12.6889
  416.9000   129.7608    11.5275    12.7214
  417.0000   129.8004    11.5498    12.7539
  417.1000   129.8055    11.5716    12.7869
  417.2000   129.8105    11.5934    12.8198
  417.3000   129.8156    11.6152    12.8527
  417.4000   129.8207    11.6370    12.8857
  417.5000   129.8257    11.6588    12.9186
  417.6000   129.3846    11.6809    12.9519
  417.7000   128.9435    11.7029    12.9853
  417.8000   128.5024    11.7249    13.0186
  417.9000   128.0613    11.7469    13.0520
  418.0000   127.6202    11.7690    13.0853
  418.1000   127.0698    11.7912    13.1191
  418.2000   126.5194    11.8134    13.1529
  418.3000   125.9689    11.8357    13.1867
  418.4000   125.4185    11.8579    13.2205
  418.5000   124.8681    11.8802    13.2543
  418.6000   124.3428    11.9026    13.2885
  418.7000   123.8176    11.9251    13.3227
  418.8000   123.2923    11.9475    13.3569
  418.9000   122.7671    11.9700    13.3911
  419.0000   122.2418    11.9924    13.4254
  419.1000   122.5862    12.0130    13.4600
  419.2000   122.9305    12.0337    13.4947
  419.3000   123.2748    12.0543    13.5293
  419.4000   123.6191    12.0750    13.5640
  419.5000   123.9634    12.0956    13.5987
  419.6000   124.7257    12.1178    13.6338
  419.7000   125.4880    12.1401    13.6689
  419.8000   126.2503    12.1623    13.7040
  419.9000   127.0126    12.1845    13.7391
  420.0000   127.7749    12.2067    13.7742
  420.1000   128.3450    12.2273    13.8098
  420.2000   128.9151    12.2479    13.8453
  420.3000   129.4852    12.2685    13.8809
  420.4000   130.0553    12.2891    13.9165
  420.5000   130.6254    12.3097    13.9520
  420.6000   130.3339    12.3305    13.9880
  420.7000   130.0423    12.3512    14.0241
  420.8000   129.7507    12.3720    14.0601
  420.9000   129.4591    12.3927    14.0961
  421.0000   129.1676    12.4135    14.1321
  421.1000   128.2670    12.4344    14.1686
  421.2000   127.3665    12.4554    14.2051
  421.3000   126.4659    12.4763    14.2416
  421.4000   125.5654    12.4973    14.2781
  421.5000   124.6648    12.5182    14.3146
  421.6000   123.7888    12.5490    14.3390
  421.7000   122.9128    12.5798    14.3635
  421.8000   122.0368    12.6106    14.3879
  421.9000   121.1609    12.6413    14.4124
  422.0000   120.2849    12.6721    14.4369
  422.1000   119.7825    12.6658    14.4369
  422.2000   119.2802    12.6595    14.4369
  422.3000   118.7779    12.6532    14.4369
  422.4000   118.2755    12.6468    14.4369
  422.5000   117.7732    12.6405    14.4369
