~VERSION INFORMATION
 VERS.                2.0:   CWLS LOG ASCII STANDARD - VERSION 2.0
 WRAP.                 NO:   ONE LINE PER DEPTH STEP
~WELL INFORMATION
#MNEM.UNIT      DATA TYPE    INFORMATION
#----------   ------------   ------------------------------
 STRT.F           29.0000:   START DEPTH
 STOP.F          507.0000:   STOP DEPTH
 STEP.F            0.5000:   STEP LENGTH
 NULL.          -999.2500:   NO VALUE
 COMP.    FENIX & SCISSON:   COMPANY
 WELL.       NPR #64-SX-3:   WELL
 FLD .            WILDCAT:   FIELD
 LOC .       S3 T38N R78W:   LOCATION
 CNTY.            NATRONA:   COUNTY
 STAT.            WYOMING:   STATE
 CTRY. UNITED STATES OF AMERICA:   COUNTRY
 SRVC.           BIRDWELL:   SERVICE COMPANY
 DATE.        28-MAR-1977:   LOGDATE
 API .       490251032200:   API NUMBER
~CURVE INFORMATION
#MNEM.UNIT       API CODE    CURVE DESCRIPTION
#----------   ------------   ------------------------------
 DEPT.F                  :   
 SPR .MV     05 010 01 00:   SPONTANEOUS POTENTIAL FROM RES.
 ILD .OHMM   05 120 46 00:   INDUCTION LOG DEEP
 SN  .OHMM   05 040 16 00:   SHORT NORMAL 16"
 GRD .GAPI   45 310 01 00:   GAMMA RAY FROM DENSITY LOG
 CALD.IN     45 280 60 00:   CALIPER FROM DENSITY LOG
 CORR.G/C3   45 356 01 00:   DENSITY CORRECTION
 RHOB.G/C3   45 350 01 00:   BULK DENSITY
 DPHI.DEC    45 890 12 00:   DENSITY POROSITY SANDSTONE
~PARAMETER INFORMATION
#MNEM.UNIT          VALUE    DESCRIPTION
#----------   ------------   ------------------------------
 PD  .                 GL:   PERMANENT DATUM
 EPD .F              5145:   ELEVATION PERMANENT DATUM
 LMF .                 GL:   LOG MEASURED FROM
 DMF .                 GL:   DRILLING MEASURED FROM
 EKB .F              5150:   KELLING BUSHING
 EDF .F              5149:   DRILLING FLOOR
 EGL .F              5145:   GROUND LEVEL
 DATE.        28-MAR-1977:   RUN DATE
 RUN .                  1:   RUN NUMBER
 DD  .F               507:   DEPTH DRILLER
 DL  .F               507:   DEPTH LOGGER
 BLI .F               501:   BOTTOM LOG INTERVAL
 TLI .F                40:   TOP LOG INTERVAL
 CS  .IN            8.625:   CASING SIZE
 CBD .F                40:   CASING BOTTOM DRILLER
 CBL .F                43:   CASING BOTTOM LOGGER
 BS  .IN            7.875:   BIT SIZE
 BSD .F               507:   BIT SIZE AT DEPTH
 DFT .                KCL:   DRILLING FLUID TYPE
 DFD .                8.5:   DRILLING FLUID DENSITY
 DFV .                 31:   DRILLING FLUID VISCOSITY
 DFPH.                 10:   DRILLING FLUID PH
 DFL .                 78:   DRILLING FLUID LOSS
 MSS .                PIT:   MUD SAMPLE SOURCE
 RMS .OHMM            .54:   RESISTIVITY MUD SAMPLE
 MST .F                60:   MUD SAMPLE TEMPERATURE
 RMF .OHMM            .46:   RESISTIVITY MUD FILTRATE SAMPLE
 MFST.F                64:   MUD FILTRATE SAMPLE TEMPERATURE
 RMC .OHMM            .52:   RESISTIVITY MUD CAKE
 MCST.F                64:   MUD CAKE SAMPLE TEMPERATURE
 MFSS.               MEAS:   MUD FILTRATE SAMPLE SOURCE
 MCSS.               MEAS:   MUD CAKE SAMPLE SOURCE
 RMB .OHMM            .51:   RESISTIVITY MUD AT BHT
 BHT .F                63:   BOTTOM HOLE TEMPERATURE
 TCS .HRS            0300:   TIME CURCULATED STOPPED
 MRT .F                63:   MAXIMUM RECORDED TEMPERATURE
 LUN .               3026:   LOGGING UNIT NUMBER
 LUL .             CASPER:   LOGGING UNIT LOCATION
 ENGI.             RAWSON:   RECORDING ENGINEER
 WITN.         STUERINCER:   WITNESSED BY
 CLNT.            A2DTECH:   CLIENT CODE
 ORIG.           5" PRINT:   ORIGIN OF DATA
 UWI .       490251032200:   UNIQUE WELL ID
 DICO. A2D Technologies, Inc.:   DIGITIZING COMPANY
~OTHER INFORMATION
~A   DEPT      SPR        ILD         SN        GRD       CALD       CORR       RHOB       DPHI   
# ...
  393.5000   -34.0887    29.5714    26.1735    57.5767     7.5680    -0.0412     2.2969     0.2127
  394.0000   -33.9453    28.9567    25.8092    56.3080     7.5697    -0.0459     2.2948     0.2088
  394.5000   -34.4061    28.1472    25.4500    57.3600     7.5713    -0.0641     2.2949     0.2000
  395.0000   -35.0157    27.3817    25.0951    56.5423     7.5730    -0.0749     2.2972     0.1882
  395.5000   -35.4746    26.9991    24.5747    56.1714     7.5746    -0.0676     2.3200     0.1842
  396.0000   -35.4819    26.6220    23.7334    57.1500     7.5763    -0.0572     2.3382     0.1929
  396.5000   -35.3384    26.4327    23.2412    57.9030     7.5929    -0.0167     2.3405     0.2071
  397.0000   -35.3473    25.8832    22.8965    58.7309     7.5946    -0.0034     2.3308     0.2092
  397.5000   -35.3545    25.5205    22.5981    59.5587     7.5962    -0.0036     2.3037     0.2076
  398.0000   -35.3617    25.3391    22.5951    60.3866     7.5979    -0.0068     2.3000     0.2060
  398.5000   -35.3690    25.1589    22.5922    60.9888     7.5995    -0.0145     2.3016     0.2039
  399.0000   -35.3778    24.9801    22.4329    59.2728     7.5862    -0.0177     2.3017     0.2011
  399.5000   -35.3850    24.7807    22.4299    58.6774     7.5728    -0.0194     2.3131     0.1990
  400.0000   -35.4891    24.6153    22.5832    58.7567     7.5417    -0.0211     2.3158     0.2013
  400.5000   -35.6928    24.4557    22.5814    58.3880     7.4860    -0.0429     2.3168     0.1995
  401.0000   -35.5422    24.4557    22.7369    58.2417     7.5025    -0.0713     2.3177     0.1977
  401.5000   -35.8434    24.4557    22.7353    57.4987     7.5040    -0.0745     2.3185     0.2042
  402.0000   -36.8976    24.2866    22.8925    56.6798     7.4904    -0.0880     2.3140     0.2067
  402.5000   -37.5025    23.9521    23.0503    56.8339     7.4919    -0.0957     2.3118     0.2036
  403.0000   -37.8012    23.6221    23.2093    57.9611     7.4784    -0.1080     2.3134     0.1958
  403.5000   -37.9518    23.2967    23.2073    58.5644     7.4499    -0.1262     2.3271     0.1822
  404.0000   -37.9518    23.1357    23.2057    58.7934     7.4514    -0.1203     2.3392     0.1870
  404.5000   -37.9518    22.9758    23.0437    58.7230     7.4229    -0.0753     2.3446     0.2044
  405.0000   -37.8012    22.8170    22.8827    59.7854     7.4090    -0.0513     2.3386     0.2147
  405.5000   -37.6506    22.6593    22.8811    60.1198     7.3809    -0.0726     2.2965     0.2059
  406.0000   -37.6506    22.5027    22.8796    61.4316     7.3824    -0.0939     2.2912     0.1862
  406.5000   -37.6506    22.3472    22.8780    60.0888     7.3688    -0.1272     2.3102     0.1784
  407.0000   -37.6506    22.1927    22.7181    60.5423     7.3553    -0.1349     2.3367     0.1841
  407.5000   -37.6506    22.0393    22.5592    60.7702     7.3568    -0.1335     2.3420     0.1838
  408.0000   -37.6506    21.8870    22.5576    59.2791     7.3583    -0.1292     2.3398     0.1852
  408.5000   -37.6506    21.4363    22.4001    59.9615     7.3598    -0.1338     2.3354     0.1912
  409.0000   -37.6506    21.2882    22.2436    59.8213     7.3613    -0.1415     2.3309     0.1873
  409.5000   -37.6506    20.9949    22.0882    58.5443     7.3628    -0.1477     2.3319     0.1836
  410.0000   -37.8012    20.8498    21.9340    58.9230     7.3643    -0.1464     2.3398     0.1734
  410.5000   -37.8012    20.7057    21.6301    60.1250     7.3658    -0.1342     2.3681     0.1643
  411.0000   -37.8012    20.5626    21.4790    60.8780     7.3676    -0.0923     2.3795     0.1659
  411.5000   -37.9518    20.2794    21.0350    61.4063     7.3691    -0.0881     2.3705     0.1594
  412.0000   -38.1024    20.1392    20.7436    62.0096     7.3552    -0.0838     2.3774     0.1689
  412.5000   -38.2530    19.7245    20.4562    61.1907     7.3721    -0.0870     2.3797     0.1812
  413.0000   -38.5542    19.1848    20.3133    61.3448     7.4185    -0.1459     2.3519     0.1810
  413.5000   -38.7048    18.7898    20.1715    61.7984     7.4500    -0.1702     2.3429     0.1726
  414.0000   -38.8554    18.5309    20.0306    61.9525     7.4815    -0.1538     2.3536     0.1897
  414.5000   -39.0060    18.5309    19.7531    62.0318     7.5279    -0.0771     2.3551     0.1942
  415.0000   -39.3072    18.5309    19.6151    62.1859     7.5294    -0.0276     2.3379     0.1954
  415.5000   -39.4578    18.5309    19.3431    61.8910     7.5009    -0.0217     2.3213     0.1933
  416.0000   -39.6084    18.4029    19.2080    60.8475     7.4870    -0.0204     2.3275     0.1905
  416.5000   -39.9096    18.2757    18.8109    59.4298     7.4735    -0.0130     2.3260     0.1935
  417.0000   -39.9096    18.0239    18.5503    60.1827     7.4450    -0.0101     2.3246     0.1917
  417.5000   -40.0602    17.7756    18.2933    60.8616     7.4769    -0.0133     2.3262     0.1850
  418.0000   -40.0602    17.1698    18.1655    59.4438     7.5083    -0.0210     2.3324     0.1771
  418.5000   -40.0602    16.4700    17.9139    60.2241     7.5248    -0.0287     2.3448     0.1693
  419.0000   -40.0602    15.7987    17.6657    59.8969     7.5112    -0.0349     2.3625     0.1614
  419.5000   -40.0602    15.1547    17.3005    59.3816     7.4678    -0.0351     2.3815     0.1553
  420.0000   -40.0602    14.7401    17.0608    60.5099     7.4243    -0.0292     2.3907     0.1538
  420.5000   -40.0602    14.3368    16.8245    61.2628     7.4258    -0.0278     2.3900     0.1547
  421.0000   -40.0602    14.0416    16.5914    60.6684     7.4725    -0.0155     2.3893     0.1577
  421.5000   -39.9096    13.7524    16.3616    60.2986     7.5487    -0.0026     2.3864     0.1604
  422.0000   -39.9096    13.5630    16.1349    62.2492     7.5652    -0.0058     2.3811     0.1591
  422.5000   -40.0602    13.3762    15.7977    63.0021     7.5497    -0.0075     2.3850     0.1537
  423.0000   -40.0602    13.2837    15.3676    62.0335     7.5232    -0.0137     2.3911     0.1473
  423.5000   -40.0602    13.1919    15.0499    61.2883     7.5250    -0.0199     2.3957     0.1436
  424.0000   -40.2108    13.1007    14.7385    61.7430     7.5265    -0.0260     2.4026     0.1396
  424.5000   -40.3760    13.0102    14.5344    61.9720     7.5130    -0.0337     2.4117     0.1359
  425.0000   -40.6878    13.0102    14.3330    61.9016     7.5145    -0.0399     2.4201     0.1305
  425.5000   -41.1145    12.9203    14.1345    61.2324     7.5160    -0.0341     2.4239     0.1327
  426.0000   -41.4157    12.9203    14.1335    62.4344     7.5175    -0.0252     2.4164     0.1475
  426.5000   -41.7169    12.9203    14.0348    61.9901     7.5189    -0.0254     2.4044     0.1477
  427.0000   -41.8675    12.9203    13.9368    59.8239     7.5204    -0.0240     2.4008     0.1498
  427.5000   -42.0181    12.9203    14.0331    59.6027     7.5065    -0.0257     2.4008     0.1483
  428.0000   -42.1687    12.9203    13.9349    60.8807     7.4634    -0.0424     2.4010     0.1458
  428.5000   -42.3193    12.9203    13.9339    61.5588     7.4495    -0.0576     2.4025     0.1449
  429.0000   -42.3193    12.9203    13.8366    61.7129     7.4061    -0.0593     2.4033     0.1440
  429.5000   -42.3193    12.9203    13.8356    61.8670     7.3925    -0.0685     2.4064     0.1331
  430.0000   -42.1687    12.9203    13.7390    62.3210     7.3790    -0.0867     2.4125     0.1307
  430.5000   -42.1687    12.9203    13.7381    62.5499     7.3655    -0.0884     2.4232     0.1364
  431.0000   -42.0171    12.8310    13.7371    62.7041     7.3674    -0.0931     2.4278     0.1390
  431.5000   -41.8559    12.8310    13.6411    63.6067     7.3689    -0.0997     2.4218     0.1393
  432.0000   -41.7169    12.7423    13.5458    62.1142     7.3853    -0.1176     2.4189     0.1351
  432.5000   -42.0181    12.7423    13.5447    61.6684     7.4018    -0.1373     2.4189     0.1278
  433.0000   -42.1687    12.7423    13.5438    62.7971     7.4333    -0.1706     2.4220     0.1223
  433.5000   -42.4699    12.5667    13.5429    63.0253     7.4648    -0.1843     2.4289     0.1211
