~VERSION INFORMATION
 VERS.                2.0:   CWLS LOG ASCII STANDARD - VERSION 2.0
 WRAP.                 NO:   ONE LINE PER DEPTH STEP
~WELL INFORMATION
#MNEM.UNIT      DATA TYPE    INFORMATION
#----------   ------------   ------------------------------
 STRT.F            3.0000:   START DEPTH
 STOP.F          523.0000:   STOP DEPTH
 STEP.F            0.1000:   STEP LENGTH
 NULL.          -999.2500:   NO VALUE
 COMP.     BROWN JOHN E&C:   COMPANY
 WELL.   NPR 3 #52-2-SX-3:   WELL
 FLD .             TEAPOT:   FIELD
 LOC .       S3 T38N R78W:   LOCATION
 CNTY.            NATRONA:   COUNTY
 STAT.            WYOMING:   STATE
 CTRY. UNITED STATES OF AMERICA:   COUNTRY
 SRVC.     Atlas Wireline:   SERVICE COMPANY
 DATE.        18-APR-1992:   LOGDATE
 API .       490252251500:   API NUMBER
~CURVE INFORMATION
#MNEM.UNIT       API CODE    CURVE DESCRIPTION
#----------   ------------   ------------------------------
 DEPT.F                  :   
 GRR .GAPI   07 310 01 00:   GAMMA RAY
 RILD.OHMM   07 120 46 00:   INDUCTION LOG DEEP RESISTIVITY
 RILM.OHMM   07 120 44 00:   INDUCTION LOG MEDIUM RESISTIVITY
~PARAMETER INFORMATION
#MNEM.UNIT          VALUE    DESCRIPTION
#----------   ------------   ------------------------------
 PD  .                 GL:   PERMANENT DATUM
 EPD .F              5128:   ELEVATION PERMANENT DATUM
 LMF .                 KB:   LOG MEASURED FROM
 DAPD.F                 5:   FEET ABOVE PERMANENT DATUM
 DMF .                 KB:   DRILLING MEASURED FROM
 EKB .F              5133:   KELLING BUSHING
 EDF .F              5132:   DRILLING FLOOR
 EGL .F              5128:   GROUND LEVEL
 DATE.        18-APR-1992:   RUN DATE
 RUN .                  1:   RUN NUMBER
 DD  .F               525:   DEPTH DRILLER
 DL  .F               526:   DEPTH LOGGER
 BLI .F               524:   BOTTOM LOG INTERVAL
 CS  .IN            8.625:   CASING SIZE
 CBD .F                48:   CASING BOTTOM DRILLER
 CBL .F                49:   CASING BOTTOM LOGGER
 BS  .IN            7.875:   BIT SIZE
 BSD .F               525:   BIT SIZE AT DEPTH
 DFT .                AIR:   DRILLING FLUID TYPE
 TCS .HRS               2:   TIME CURCULATED STOPPED
 MRT .F                87:   MAXIMUM RECORDED TEMPERATURE
 LUN .            HL 6274:   LOGGING UNIT NUMBER
 LUL .             CASPER:   LOGGING UNIT LOCATION
 ENGI.            LEBSOCK:   RECORDING ENGINEER
 WITN.             STRONG:   WITNESSED BY
 CLNT.            A2DTECH:   CLIENT CODE
 ORIG.       2", 5" PRINT:   ORIGIN OF DATA
 UWI .       490252251500:   UNIQUE WELL ID
 DICO. A2D Technologies, Inc.:   DIGITIZING COMPANY
~OTHER INFORMATION
~A    DEPT     GRR       RILD       RILM   
# ...
  367.0000    92.9979    16.2538    15.2944
  367.1000    92.4242    16.2532    15.2289
  367.2000    92.2166    16.2529    15.2289
  367.3000    92.1212    16.1957    15.2289
  367.4000    92.1212    16.1031    15.2289
  367.5000    92.1212    16.0259    15.1794
  367.6000    92.1212    16.0255    15.1229
  367.7000    92.3531    15.9396    15.1229
  367.8000    92.7765    15.9130    15.1229
  367.9000    93.3915    15.9126    15.0459
  368.0000    94.3274    15.8885    15.0175
  368.1000    95.8109    15.8009    15.0175
  368.2000    97.5758    15.8003    14.9989
  368.3000    98.9787    15.7272    14.9130
  368.4000   100.2756    15.6374    14.9130
  368.5000   101.0869    15.5798    14.8479
  368.6000   101.6145    15.5675    14.8091
  368.7000   102.4242    15.4704    14.7824
  368.8000   102.8736    15.4700    14.7060
  368.9000   103.1992    15.4096    14.7060
  369.0000   103.4465    15.3614    14.7060
  369.1000   103.6364    15.3408    14.6524
  369.2000   103.6331    15.2536    14.6036
  369.3000   103.1386    15.2532    14.5878
  369.4000   102.4508    15.2528    14.5019
  369.5000   101.9838    15.2042    14.4225
  369.6000   101.8182    15.1457    14.4009
  369.7000   101.8182    15.1363    14.3589
  369.8000   101.8182    15.0393    14.3006
  369.9000   101.8182    14.9639    14.2956
  370.0000   101.8182    14.9338    14.2010
  370.1000   101.8182    14.9334    14.2010
  370.2000   101.8182    14.9158    14.2010
  370.3000   101.8182    14.8286    14.1699
  370.4000   101.8182    14.8282    14.1021
  370.5000   101.8182    14.7644    14.1021
  370.6000   101.8182    14.7241    14.0272
  370.7000   101.8182    14.6985    14.0039
  370.8000   101.8182    14.6207    13.9654
  370.9000   101.8182    14.6203    13.9064
  371.0000   101.8182    14.5493    13.9038
  371.1000   101.9725    14.5177    13.8096
  371.2000   102.4170    14.4844    13.8096
  371.3000   103.1588    14.4158    13.7639
  371.4000   103.9394    14.4154    13.7134
  371.5000   104.6425    14.3374    13.7032
  371.6000   105.2057    14.3142    13.6179
  371.7000   105.7002    14.3138    13.6179
  371.8000   106.1948    14.3134    13.5653
  371.9000   106.6780    14.3130    13.5231
  372.0000   106.9697    14.3125    13.5055
  372.1000   106.7668    14.2455    13.4289
  372.2000   106.6667    14.2121    13.4289
  372.3000   106.6667    14.2118    13.3695
  372.4000   106.5602    14.2114    13.3354
  372.5000   105.7576    14.2109    13.3106
  372.6000   105.3035    14.1364    13.2425
  372.7000   104.8089    14.1112    13.2425
  372.8000   104.1988    14.1108    13.2425
  372.9000   103.5168    14.1104    13.1936
  373.0000   103.0183    14.1087    13.1503
  373.1000   102.2764    14.0281    13.1503
  373.2000   101.5346    14.0110    13.1503
  373.3000   100.7928    14.0106    13.1503
  373.4000   100.1350    14.0102    13.1503
  373.5000    99.6687    14.0007    13.1503
  373.6000    99.3939    13.9118    13.1503
  373.7000    99.3939    13.9115    13.1503
  373.8000    99.3939    13.9111    13.1503
  373.9000    99.3939    13.9107    13.1503
  374.0000    99.4465    13.9103    13.1503
  374.1000    99.6970    13.9099    13.1503
  374.2000   100.1851    13.9095    13.1503
  374.3000   100.8679    13.9091    13.1503
  374.4000   101.6098    13.8664    13.1503
  374.5000   102.2748    13.8115    13.1503
  374.6000   102.7904    13.8111    13.1874
  374.7000   103.6364    13.8107    13.2425
  374.8000   104.0615    13.8783    13.2425
  374.9000   104.5561    13.9068    13.2425
  375.0000   104.9495    13.9064    13.3045
  375.1000   105.2419    13.9060    13.3354
  375.2000   105.7576    13.9056    13.3633
  375.3000   105.7576    13.9052    13.4289
  375.4000   105.7576    13.9631    13.4289
  375.5000   105.7576    14.0020    13.4289
  375.6000   105.7576    14.0241    13.4289
  375.7000   105.7302    14.0994    13.4353
  375.8000   105.1515    14.0989    13.5231
  375.9000   104.5358    14.0986    13.5231
  376.0000   103.7940    14.0982    13.5231
  376.1000   103.1459    14.1284    13.5231
  376.2000   102.6513    14.1963    13.5666
  376.3000   102.1212    14.1958    13.6179
  376.4000   101.8917    14.1955    13.6179
  376.5000   101.8182    14.2521    13.6179
  376.6000   101.8182    14.2942    13.6869
  376.7000   101.8182    14.2938    13.7134
  376.8000   101.8182    14.2956    13.7134
  376.9000   101.8182    14.3932    13.7134
  377.0000   102.0162    14.3929    13.7134
  377.1000   102.1212    14.4398    13.7906
  377.2000   102.1212    14.4930    13.8096
  377.3000   102.1212    14.4926    13.8096
  377.4000   102.1212    14.4921    13.8096
  377.5000   101.8989    14.4918    13.8096
  377.6000   101.3188    14.5472    13.8096
  377.7000   100.5771    14.5926    13.8772
  377.8000    99.8902    14.5922    13.9064
  377.9000    99.3939    14.5917    13.9064
  378.0000    99.3939    14.5913    13.9064
  378.1000    99.3939    14.5909    13.9064
  378.2000    99.5289    14.5905    13.9064
  378.3000    99.9345    14.6169    13.9064
  378.4000   100.6529    14.6921    13.9064
  378.5000   101.2121    14.6916    13.9064
  378.6000   101.6420    14.6912    13.9064
  378.7000   101.8182    14.6908    13.9064
  378.8000   101.8182    14.6904    13.9064
  378.9000   101.8182    14.7062    13.8589
  379.0000   101.8182    14.7926    13.8096
  379.1000   101.8182    14.7922    13.8096
  379.2000   101.8182    14.7917    13.8096
  379.3000   101.8182    14.7913    13.8096
  379.4000   101.7463    14.7909    13.8096
  379.5000   101.5152    14.7905    13.8096
  379.6000   101.5152    14.7900    13.8096
  379.7000   101.3074    14.8608    13.8096
  379.8000   101.2121    14.8930    13.8096
  379.9000   101.2121    14.8926    13.8726
  380.0000   101.2121    14.8921    13.9064
  380.1000   101.2121    14.8917    13.9064
  380.2000   101.4441    14.8913    13.9064
  380.3000   101.6913    14.8306    13.9064
  380.4000   101.9386    14.7868    13.9064
  380.5000   102.1858    14.7644    13.9064
  380.6000   102.4331    14.6830    13.9064
  380.7000   102.7273    14.6825    13.9064
  380.8000   103.1280    14.6145    13.9064
  380.9000   103.6226    14.5795    13.9064
  381.0000   104.0283    14.5791    13.8457
  381.1000   104.2424    14.5676    13.8096
  381.2000   103.9394    14.4767    13.7847
  381.3000   103.9394    14.4016    13.7063
  381.4000   103.9394    14.3194    13.6179
  381.5000   103.8263    14.2375    13.6179
  381.6000   103.5217    14.1562    13.5683
  381.7000   103.0222    14.0747    13.4912
  381.8000   101.7859    13.9149    13.4145
  381.9000   100.5494    13.8180    13.3354
  382.0000    99.5878    13.7391    13.2623
  382.1000    98.9277    13.6605    13.1869
  382.2000    98.4590    13.5825    13.1120
  382.3000    98.1818    13.4955    13.0374
  382.4000    98.3992    13.4277    12.9632
  382.5000    98.6465    13.3510    12.8775
  382.6000    98.7879    13.2747    12.8163
  382.7000    98.8380    13.1988    12.7878
  382.8000    99.0909    13.1217    12.7598
  382.9000   101.0234    13.0485    12.6872
  383.0000   102.6301    12.9739    12.6103
  383.1000   103.9837    12.9385    12.6103
  383.2000   105.1457    12.9160    12.5595
  383.3000   106.1164    12.8422    12.4881
  383.4000   106.9697    12.7578    12.4353
  383.5000   107.3898    12.6959    12.4353
  383.6000   107.8844    12.6683    12.4353
  383.7000   108.1818    12.6392    12.3783
  383.8000   108.2246    12.5794    12.3487
  383.9000   108.4848    12.5790    12.3487
  384.0000   108.4848    12.5786    12.3395
  384.1000   108.6634    12.5783    12.2627
  384.2000   108.7879    12.5779    12.2627
  384.3000   108.7879    12.5582    12.2154
  384.4000   108.7992    12.4897    12.1773
  384.5000   109.0909    12.4892    12.1615
  384.6000   109.0909    12.4890    12.0925
  384.7000   109.0909    12.4886    12.0925
  384.8000   109.1822    12.4883    12.0925
  384.9000   109.3939    12.4879    12.0925
  385.0000   109.3939    12.4875    12.0925
  385.1000   109.3939    12.4872    12.0856
