~VERSION INFORMATION
 VERS.                2.0:   CWLS LOG ASCII STANDARD - VERSION 2.0
 WRAP.                 NO:   ONE LINE PER DEPTH STEP
~WELL INFORMATION
#MNEM.UNIT      DATA TYPE    INFORMATION
#----------   ------------   ------------------------------
 STRT.F            2.0000:   START DEPTH
 STOP.F          602.0000:   STOP DEPTH
 STEP.F            0.1000:   STEP LENGTH
 NULL.          -999.2500:   NO VALUE
 COMP.       F D SERV INC:   COMPANY
 WELL.    63-1 SX-3 #63-3:   WELL
 FLD .             TEAPOT:   FIELD
 LOC .       S3 T38N R78W:   LOCATION
 CNTY.            NATRONA:   COUNTY
 STAT.            WYOMING:   STATE
 CTRY. UNITED STATES OF AMERICA:   COUNTRY
 SRVC.     Atlas Wireline:   SERVICE COMPANY
 DATE.        20-APR-1992:   LOGDATE
 API .       490252251300:   API NUMBER
~CURVE INFORMATION
#MNEM.UNIT       API CODE    CURVE DESCRIPTION
#----------   ------------   ------------------------------
 DEPT.F                  :   
 GRR .GAPI   07 310 01 00:   GAMMA RAY
 RILD.OHMM   07 120 46 00:   INDUCTION LOG DEEP RESISTIVITY
 RILM.OHMM   07 120 44 00:   INDUCTION LOG MEDIUM RESISTIVITY
~PARAMETER INFORMATION
#MNEM.UNIT          VALUE    DESCRIPTION
#----------   ------------   ------------------------------
 PD  .                 GL:   PERMANENT DATUM
 EPD .F              5176:   ELEVATION PERMANENT DATUM
 LMF .                 KB:   LOG MEASURED FROM
 DAPD.F                 5:   FEET ABOVE PERMANENT DATUM
 DMF .                 KB:   DRILLING MEASURED FROM
 EKB .F              5181:   KELLING BUSHING
 EDF .F              5180:   DRILLING FLOOR
 EGL .F              5176:   GROUND LEVEL
 DATE.        20-APR-1992:   RUN DATE
 RUN .                  1:   RUN NUMBER
 DD  .F               608:   DEPTH DRILLER
 DL  .F               608:   DEPTH LOGGER
 BLI .F               602:   BOTTOM LOG INTERVAL
 CS  .IN            8.625:   CASING SIZE
 CBD .F                48:   CASING BOTTOM DRILLER
 CBL .F                50:   CASING BOTTOM LOGGER
 BS  .IN            7.875:   BIT SIZE
 BSD .F               608:   BIT SIZE AT DEPTH
 DFT .                AIR:   DRILLING FLUID TYPE
 TCS .HRS               2:   TIME CURCULATED STOPPED
 MRT .F                85:   MAXIMUM RECORDED TEMPERATURE
 LUN .           HL- 6274:   LOGGING UNIT NUMBER
 LUL .             CASPER:   LOGGING UNIT LOCATION
 ENGI.             RAUTIO:   RECORDING ENGINEER
 WITN.        GARY STRONG:   WITNESSED BY
 CLNT.            A2DTECH:   CLIENT CODE
 ORIG.           5" PRINT:   ORIGIN OF DATA
 UWI .       490252251300:   UNIQUE WELL ID
 DICO. A2D Technologies, Inc.:   DIGITIZING COMPANY
~OTHER INFORMATION
~A    DEPT      GRR      RILD       RILM   
# ...
  184.0000   118.4435    10.2789    10.1996
  184.1000   118.6885    10.3355    10.1994
  184.2000   119.0136    10.3508    10.1991
  184.3000   119.4570    10.3506    10.2207
  184.4000   119.4570    10.3832    10.2701
  184.5000   119.8813    10.4962    10.2698
  184.6000   120.0603    10.4960    10.3233
  184.7000   120.1594    10.4959    10.3412
  184.8000   120.4047    10.5307    10.3952
  184.9000   120.6637    10.5906    10.4998
  185.0000   120.6637    10.6433    10.5594
  185.1000   120.8384    10.6431    10.6193
  185.2000   120.9653    10.7517    10.7266
  185.3000   121.0271    10.7927    10.8155
  185.4000   121.2670    10.7925    10.8768
  185.5000   121.2670    10.8047    10.9385
  185.6000   121.4608    10.8680    11.0097
  185.7000   121.5686    10.9280    11.0629
  185.8000   121.5686    11.0366    11.1257
  185.9000   121.5929    11.0979    11.1888
  186.0000   121.8703    11.1332    11.2628
  186.1000   121.6573    11.2571    11.3996
  186.2000   121.5686    11.3327    11.3993
  186.3000   121.5686    11.3855    11.4909
  186.4000   121.5252    11.4502    11.5591
  186.5000   121.2670    11.5153    11.5913
  186.6000   121.0349    11.5891    11.7211
  186.7000   120.6141    11.7352    11.7208
  186.8000   120.0047    11.7351    11.8260
  186.9000   119.1443    11.7794    11.9609
  187.0000   117.9242    11.8464    12.0520
  187.1000   116.9441    11.9137    12.0653
  187.2000   115.7685    11.9832    12.2209
  187.3000   114.9574    12.0496    12.2206
  187.4000   114.4672    12.1181    12.3097
  187.5000   114.0020    12.1870    12.3920
  187.6000   113.7255    12.2563    12.4172
  187.7000   113.9394    12.3259    12.5656
  187.8000   114.0272    12.4086    12.5653
  187.9000   114.1279    12.4084    12.6166
  188.0000   114.3730    12.4082    12.6882
  188.1000   114.6305    12.4080    12.7411
  188.2000   114.3977    12.4171    12.7407
  188.3000   114.1525    12.4948    12.7403
  188.4000   113.9074    12.4947    12.7400
  188.5000   113.6622    12.5421    12.7397
  188.6000   113.4101    12.5819    12.7393
  188.7000   112.9200    12.5818    12.7390
  188.8000   112.6251    12.5816    12.7385
  188.9000   112.3799    12.5814    12.7382
  189.0000   112.1348    12.5813    12.7855
  189.1000   111.9155    12.5811    12.8268
  189.2000   111.9155    12.6014    12.8264
  189.3000   112.1301    12.6690    12.8261
  189.4000   112.3753    12.6688    12.8258
  189.5000   112.6204    12.6095    12.8254
  189.6000   112.9107    12.5802    12.7881
  189.7000   113.4238    12.5800    12.7354
  189.8000   113.8913    12.5799    12.7350
  189.9000   114.3815    12.5797    12.7346
  190.0000   114.9924    12.5152    12.7343
  190.1000   115.7280    12.4441    12.6914
  190.2000   116.4556    12.4044    12.6191
  190.3000   117.0437    12.4043    12.5565
  190.4000   116.8474    12.4041    12.5561
  190.5000   116.6023    12.4039    12.4280
  190.6000   116.2738    12.3511    12.3812
  190.7000   115.8104    12.2809    12.3809
  190.8000   115.5354    12.2311    12.3507
  190.9000   115.3200    12.2269    12.2083
  191.0000   114.9159    12.1455    12.2080
  191.1000   114.4256    12.0885    12.1555
  191.2000   113.9356    12.0606    12.0863
  191.3000   113.4238    12.0104    12.0175
  191.4000   112.9549    11.8927    11.9489
  191.5000   112.4644    11.8925    11.8698
  191.6000   111.9741    11.7708    11.8695
  191.7000   111.4840    11.7270    11.8284
  191.8000   111.0106    11.6973    11.7610
  191.9000   111.0106    11.6309    11.7038
  192.0000   110.8134    11.5637    11.7034
  192.1000   110.7089    11.5635    11.7031
  192.2000   110.7089    11.5140    11.7028
  192.3000   110.7364    11.4486    11.6720
  192.4000   111.0106    11.4025    11.6056
  192.5000   111.0106    11.4023    11.5394
  192.6000   111.0106    11.4021    11.5391
  192.7000   111.1137    11.4020    11.4884
  192.8000   111.3588    11.4018    11.4230
  192.9000   111.6139    11.4016    11.3780
  193.0000   111.6139    11.4015    11.3724
  193.1000   111.9715    11.4013    11.2981
  193.2000   112.4618    11.4012    11.2433
  193.3000   113.0177    11.4010    11.2188
  193.4000   113.7441    11.4008    11.2185
  193.5000   114.3288    11.4007    11.2181
  193.6000   115.1204    11.4005    11.2178
  193.7000   116.1010    11.4003    11.2176
  193.8000   117.0816    11.4002    11.2173
  193.9000   118.0056    11.4000    11.2169
  194.0000   118.5520    11.3808    11.2166
  194.1000   118.7691    11.3203    11.2163
  194.2000   118.8537    11.3201    11.2160
  194.3000   118.8537    11.3200    11.2156
  194.4000   118.8537    11.3198    11.2153
  194.5000   118.8537    11.3196    11.2150
  194.6000   118.3813    11.3103    11.2148
  194.7000   118.0707    11.2404    11.2144
  194.8000   117.7025    11.2403    11.1589
  194.9000   117.1454    11.2401    11.1357
  195.0000   116.4203    11.2399    11.1354
  195.1000   115.8371    11.2257    11.1350
  195.2000   115.2411    11.1613    11.1347
  195.3000   114.5058    11.1611    11.1345
  195.4000   113.5992    11.1610    11.1342
  195.5000   112.3731    11.1608    11.1338
  195.6000   111.0106    11.1418    11.1502
  195.7000   110.3573    11.0828    11.2113
  195.8000   109.7831    11.0826    11.2109
  195.9000   109.3976    11.0825    11.2106
  196.0000   109.1040    11.0823    11.2103
  196.1000   108.5973    11.0821    11.2100
  196.2000   108.5973    11.0820    11.2097
  196.3000   108.4169    11.0818    11.2094
  196.4000   108.4195    11.0817    11.2091
  196.5000   108.7321    11.1248    11.2088
  196.6000   109.2222    11.1591    11.2085
  196.7000   109.8039    11.1732    11.2081
  196.8000   110.4023    11.2371    11.2078
  196.9000   111.1378    11.2369    11.2075
  197.0000   111.8734    11.2368    11.2072
  197.1000   112.6087    11.2366    11.2069
  197.2000   113.4238    11.2365    11.2066
  197.3000   113.8611    11.2363    11.2063
  197.4000   114.0272    11.2361    11.2059
  197.5000   114.1328    11.2360    11.2056
  197.6000   114.3288    11.2359    11.2053
  197.7000   114.3288    11.2357    11.2050
  197.8000   114.0911    11.2356    11.2047
  197.9000   113.8459    11.2354    11.2044
  198.0000   113.6008    11.2353    11.2041
  198.1000   113.2876    11.2351    11.2038
  198.2000   112.8205    11.2349    11.2035
  198.3000   112.8205    11.2348    11.2031
  198.4000   112.4198    11.2346    11.2028
  198.5000   111.9295    11.2344    11.2025
  198.6000   111.5266    11.2343    11.2022
  198.7000   111.2813    11.2685    11.2019
  198.8000   111.0106    11.3325    11.2016
  198.9000   110.7911    11.3921    11.2013
  199.0000   110.5459    11.3125    11.2009
  199.1000   110.1945    11.2582    11.2006
  199.2000   109.7541    11.2333    11.2003
  199.3000   109.5023    11.2332    11.2000
  199.4000   109.2638    11.2233    11.1903
  199.5000   109.0186    11.1546    11.1214
  199.6000   108.8989    11.0963    11.0632
  199.7000   108.8300    11.0766    10.9575
  199.8000   108.5973    11.0764    10.8615
  199.9000   108.5973    11.0763    10.7996
  200.0000   108.7984    11.0761    10.7380
  200.1000   109.3327    11.0223    10.7196
  200.2000   110.0681    10.9685    10.7011
  200.3000   110.8670    10.9147    10.6827
  200.4000   112.2172    10.8609    10.6643
  200.5000   113.3184    10.8071    10.6459
  200.6000   114.3803    10.7697    10.6274
  200.7000   115.4680    10.7592    10.6090
  200.8000   116.5926    10.6197    10.5878
  200.9000   117.3454    10.5672    10.5877
  201.0000   118.0635    10.4301    10.5875
  201.1000   118.6160    10.2278    10.5873
  201.2000   119.1063    10.0414    10.5761
  201.3000   119.5268    10.0412    10.5133
  201.4000   119.7719    10.2701    10.4557
  201.5000   120.0603    10.3258    10.4398
  201.6000   119.8584    10.3577    10.3786
  201.7000   119.6133    10.3790    10.2947
  201.8000   119.3681    10.3254    10.2904
  201.9000   119.1230    10.3252    10.2226
  202.0000   118.8537    10.3251    10.1732
  202.1000   118.8537    10.2861    10.1512
