~VERSION INFORMATION
 VERS.                2.0:   CWLS LOG ASCII STANDARD - VERSION 2.0
 WRAP.                 NO:   ONE LINE PER DEPTH STEP
~WELL INFORMATION
#MNEM.UNIT      DATA TYPE    INFORMATION
#----------   ------------   ------------------------------
 STRT.F           39.0000:   START DEPTH
 STOP.F          590.0000:   STOP DEPTH
 STEP.F            0.5000:   STEP LENGTH
 NULL.          -999.2500:   NO VALUE
 COMP. FENIX & SCISSON INC:   COMPANY
 WELL.    NPR-3 SX #41-34:   WELL
 FLD .             TEAPOT:   FIELD
 LOC .      S34 T39N R78W:   LOCATION
 CNTY.            NATRONA:   COUNTY
 STAT.            WYOMING:   STATE
 CTRY. UNITED STATES OF AMERICA:   COUNTRY
 SRVC.           BIRDWELL:   SERVICE COMPANY
 DATE.        28-AUG-1978:   LOGDATE
 API .       490251069800:   API NUMBER
~CURVE INFORMATION
#MNEM.UNIT       API CODE    CURVE DESCRIPTION
#----------   ------------   ------------------------------
 DEPT.F                  :   
 SPR .MV     05 010 01 00:   SPONTANEOUS POTENTIAL FROM RES.
 SN  .OHMM   05 040 16 00:   SHORT NORMAL 16"
 ILD .OHMM   05 120 46 00:   INDUCTION LOG DEEP
 CALD.IN     45 280 60 00:   CALIPER
 GRD .GAPI   45 310 01 00:   GAMMA RAY FROM DENSITY LOG
 RHOB.G/C3   45 350 01 00:   BULK DENSITY
 DPHI.DEC    45 890 12 00:   DENSITY POROSITY SANDSTONE
 CORR.G/C3   45 356 01 00:   DENSITY CORRECTION
~PARAMETER INFORMATION
#MNEM.UNIT          VALUE    DESCRIPTION
#----------   ------------   ------------------------------
 PD  .                 GL:   PERMANENT DATUM
 EPD .F              5064:   ELEVATION PERMANENT DATUM
 LMF .                 KB:   LOG MEASURED FROM
 DAPD.F                 4:   FEET ABOVE PERMANENT DATUM
 DMF .                 KB:   DRILLING MEASURED FROM
 EKB .F              5068:   KELLING BUSHING
 EGL .F              5064:   GROUND LEVEL
 DATE.          8-28-1978:   RUN DATE
 RUN .                  1:   RUN NUMBER
 DD  .F               600:   DEPTH DRILLER
 DL  .F               596:   DEPTH LOGGER
 BLI .F               590:   BOTTOM LOG INTERVAL
 TLI .F                50:   TOP LOG INTERVAL
 CS  .IN            8.625:   CASING SIZE
 CBD .F                40:   CASING BOTTOM DRILLER
 BS  .IN            7.875:   BIT SIZE
 BSD .F               600:   BIT SIZE AT DEPTH
 DFT .                KCL:   DRILLING FLUID TYPE
 DFD .                8.7:   DRILLING FLUID DENSITY
 DFV .                 35:   DRILLING FLUID VISCOSITY
 DFPH.                  9:   DRILLING FLUID PH
 DFL .                 10:   DRILLING FLUID LOSS
 MSS .          FLOW LINE:   MUD SAMPLE SOURCE
 RMS .OHMM             .4:   RESISTIVITY MUD SAMPLE
 MST .F                76:   MUD SAMPLE TEMPERATURE
 RMF .OHMM             .3:   RESISTIVITY MUD FILTRATE SAMPLE
 MFST.F                80:   MUD FILTRATE SAMPLE TEMPERATURE
 RMC .OHMM             .4:   RESISTIVITY MUD CAKE
 MCST.F                80:   MUD CAKE SAMPLE TEMPERATURE
 MFSS.               MEAS:   MUD FILTRATE SAMPLE SOURCE
 MCSS.               MEAS:   MUD CAKE SAMPLE SOURCE
 TCS .HRS               3:   TIME CURCULATED STOPPED
 LUN .               2958:   LOGGING UNIT NUMBER
 LUL .               CASP:   LOGGING UNIT LOCATION
 ENGI.             MILLER:   RECORDING ENGINEER
 WITN.              AMEND:   WITNESSED BY
 CLNT.            A2DTECH:   CLIENT CODE
 ORIG.           5" PRINT:   ORIGIN OF DATA
 UWI .       490251069800:   UNIQUE WELL ID
 DICO. A2D Technologies, Inc.:   DIGITIZING COMPANY
~OTHER INFORMATION
~A   DEPT      SPR         SN        ILD       CALD        GRD         RHOB       DPHI      CORR  
# ...
  525.0000   -30.0646     9.6218     9.2009     7.4832    84.1435     2.4268     0.1673     0.0316
  525.5000   -30.3246     9.4904     8.9971     7.4695    83.5428     2.4094     0.1584     0.0340
  526.0000   -30.5071     9.3612     8.7979     7.4435    83.7287     2.4276     0.1413     0.0364
  526.5000   -30.6334     9.2074     8.6030     7.4167    83.9358     2.4516     0.1311     0.0358
  527.0000   -30.7578     8.8832     8.4125     7.3776    84.1293     2.4755     0.1208     0.0302
  527.5000   -30.8823     8.5701     8.2262     7.3606    84.3231     2.4995     0.1105     0.0399
  528.0000   -31.0109     8.2680     8.0441     7.3432    84.3445     2.5123     0.1017     0.0514
  528.5000   -31.0381     7.9766     7.8388     7.3255    84.2264     2.5186     0.0957     0.0629
  529.0000   -31.0359     7.6955     7.2576     7.3078    84.1052     2.5228     0.0942     0.0745
  529.5000   -31.0502     7.1912     6.7295     7.2901    83.9858     2.5224     0.0976     0.0702
  530.0000   -30.8281     6.6476     6.2401     7.2724    83.8621     2.5194     0.1023     0.0634
  530.5000   -30.7946     6.1739     5.8981     7.2547    84.3469     2.5126     0.1070     0.0576
  531.0000   -30.4346     6.0616     6.2154     7.2372    85.2875     2.5060     0.1087     0.0569
  531.5000   -30.0769     6.1175     6.6578     7.2190    85.8985     2.4994     0.1103     0.0560
  532.0000   -29.7199     6.4814     7.2104     7.1875    86.0829     2.4971     0.1118     0.0545
  532.5000   -29.3631     7.0642     7.8089     7.1310    86.0089     2.4954     0.1127     0.0516
  533.0000   -29.0064     7.6996     8.4570     7.0735    83.6688     2.4939     0.1128     0.0488
  533.5000   -28.6496     8.3920     9.1672     7.0637    80.8853     2.4925     0.1130     0.0460
  534.0000   -28.2928     8.8650     9.3435     7.0657    78.7757     2.4938     0.1069     0.0455
  534.5000   -27.9360     9.0837     9.5435     7.0745    77.6825     2.5046     0.0933     0.0525
  535.0000   -27.5792     9.3078     9.7475     7.0829    77.2944     2.5169     0.0842     0.0594
  535.5000   -27.2223     9.5375     9.9562     7.0912    76.8788     2.5292     0.0904     0.0655
  536.0000   -26.8651     9.7728    10.1694     7.0996    77.1315     2.5288     0.0947     0.0597
  536.5000   -26.5069    10.0139    10.3872     7.1046    77.5031     2.5218     0.0990     0.0534
  537.0000   -26.3321    10.2610    10.6096     7.1255    78.0212     2.5146     0.1014     0.0515
  537.5000   -26.1938    10.5141    10.8368     7.1114    79.3498     2.5074     0.1030     0.0510
  538.0000   -26.0558    10.7735    11.0688     7.0947    80.6144     2.5065     0.1046     0.0505
  538.5000   -25.9175    11.0393    11.3058     7.0788    81.1004     2.5064     0.1054     0.0499
  539.0000   -25.7791    11.3181    11.5479     7.0614    81.4017     2.5083     0.0998     0.0525
  539.5000   -25.6407    11.4683    11.7952     6.9520    81.3249     2.5103     0.1039     0.0553
  540.0000   -25.5023    11.5460    12.0478     6.8162    81.2566     2.5118     0.1112     0.0582
  540.5000   -25.3639    11.6243    12.4066     6.6547    81.1856     2.5007     0.1186     0.0611
  541.0000   -25.2255    11.7031    12.5309     6.4946    81.1177     2.4876     0.1234     0.0640
  541.5000   -25.0868    11.7824    12.5609     6.4039    81.0419     2.4756     0.1164     0.0711
  542.0000   -24.9489    11.8622    12.5910     6.4489    81.7705     2.4760     0.1048     0.0872
  542.5000   -24.8483    11.9426    12.6212     6.5138    83.0680     2.5043     0.0932     0.1032
  543.0000   -24.8502    12.0236    12.6514     6.5785    84.3426     2.5254     0.0870     0.1177
  543.5000   -24.8502    12.1050    12.6817     6.6436    83.7253     2.5290     0.0941     0.1136
  544.0000   -24.8503    12.1871    12.7121     6.7368    80.1281     2.5196     0.1020     0.1011
  544.5000   -24.8503    12.2697    12.7425     6.8918    80.3581     2.5078     0.1100     0.0758
  545.0000   -24.8503    12.3528    12.7730     6.7148    80.4820     2.4960     0.1123     0.0718
  545.5000   -24.8503    12.4365    12.8036     6.4620    80.5768     2.4948     0.1029     0.0774
  546.0000   -24.8502    12.5208    12.8343     6.5887    81.2218     2.5103     0.0924     0.0968
  546.5000   -24.8505    12.6057    12.8653     6.7168    83.1990     2.5241     0.0882     0.1154
  547.0000   -24.8493    12.6911    12.8707     6.6987    85.2883     2.5283     0.1101     0.1074
  547.5000   -24.9145    12.7531    12.8708     6.7187    84.9579     2.4989     0.1261     0.0877
  548.0000   -25.0074    12.7531    12.8778     6.9380    83.5555     2.4768     0.1401     0.0681
  548.5000   -25.1017    12.7531    12.9348     7.1026    83.0358     2.4457     0.1253     0.0538
  549.0000   -25.1959    12.7531    12.9889     6.5687    84.2987     2.4664     0.1121     0.0700
  549.5000   -25.2899    12.7531    12.8408     6.8606    84.7234     2.4915     0.1022     0.0857
  550.0000   -25.3840    12.7531    12.6945     6.9849    84.0483     2.5037     0.1095     0.0914
  550.5000   -25.4781    12.7533    12.5504     6.9643    83.3569     2.4954     0.1165     0.0830
  551.0000   -25.5721    12.7548    12.4081     7.0065    83.2347     2.4865     0.1214     0.0614
  551.5000   -25.6662    12.7577    12.2588     7.0897    84.9302     2.4774     0.1256     0.0413
  552.0000   -25.7603    12.5210    12.0733     7.0971    87.1956     2.4707     0.1274     0.0315
  552.5000   -25.8544    12.3459    11.8907     7.0354    89.4581     2.4795     0.1183     0.0309
  553.0000   -25.9485    12.1765    11.7109     7.0083    91.7281     2.4884     0.1075     0.0374
  553.5000   -26.0420    12.0095    11.5338     7.0477    92.1137     2.4975     0.1023     0.0439
  554.0000   -26.1383    11.8447    11.3594     7.0877    90.4469     2.5018     0.1039     0.0506
  554.5000   -26.2468    11.6822    11.1876     7.1104    88.6264     2.5035     0.1054     0.0498
  555.0000   -26.1217    11.5219    11.0184     7.1221    88.4006     2.5035     0.1054     0.0471
  555.5000   -26.4373    11.3638    10.8518     7.1336    88.4660     2.5045     0.1028     0.0443
  556.0000   -26.7490    11.2079    10.6876     7.1436    88.5398     2.5099     0.0979     0.0421
  556.5000   -27.0625    11.0541    10.5260     7.1631    88.5691     2.5153     0.0963     0.0431
  557.0000   -27.3757    10.9024    10.3668     7.1897    88.3042     2.5148     0.0995     0.0445
  557.5000   -27.6894    10.7529    10.2101     7.2164    88.3901     2.5116     0.1027     0.0459
  558.0000   -28.0032    10.6053    10.0556     7.2430    88.6918     2.5084     0.1058     0.0452
  558.5000   -28.0607    10.4598     9.9036     7.2700    88.9878     2.5051     0.1090     0.0443
  559.0000   -28.1275    10.3163     9.7537     7.2988    88.9137     2.4990     0.1121     0.0423
  559.5000   -28.1915    10.1747     9.6063     7.2826    87.9389     2.4888     0.1153     0.0389
  560.0000   -28.2560    10.0350     9.4610     7.2711    86.9726     2.4845     0.1158     0.0354
  560.5000   -28.3206     9.8587     9.3330     7.2601    86.6329     2.4865     0.1135     0.0321
  561.0000   -28.3851     9.8645     9.3330     7.2493    87.6096     2.4937     0.1088     0.0359
  561.5000   -28.4497     9.7715     9.3250     7.2289    89.5895     2.5010     0.1025     0.0401
  562.0000   -28.5142     9.7715     9.3167     7.1739    88.5943     2.5084     0.0962     0.0438
  562.5000   -28.5788     9.7715     9.3084     7.1462    87.4325     2.5127     0.0946     0.0418
  563.0000   -28.6433     9.7715     9.3001     7.1249    87.1077     2.5047     0.1080     0.0398
  563.5000   -28.7079     9.7715     9.2918     7.1040    86.9616     2.4966     0.1142     0.0378
  564.0000   -28.7725     9.7715     9.2835     7.1207    87.1253     2.4887     0.1154     0.0361
  564.5000   -28.8370     9.7716     9.2753     7.1463    93.1939     2.4841     0.1122     0.0396
  565.0000   -28.9016     9.7717     9.2671     7.1722    93.4795     2.4931     0.1076     0.0433
