~VERSION INFORMATION
 VERS.                2.0:   CWLS LOG ASCII STANDARD - VERSION 2.0
 WRAP.                 NO:   ONE LINE PER DEPTH STEP
~WELL INFORMATION
#MNEM.UNIT      DATA TYPE    INFORMATION
#----------   ------------   ------------------------------
 STRT.F           12.0000:   START DEPTH
 STOP.F          793.0000:   STOP DEPTH
 STEP.F            0.5000:   STEP LENGTH
 NULL.          -999.2500:   NO VALUE
 COMP.   FLUOR DANIEL INC:   COMPANY
 WELL.   35-1-X-10 #35-10:   WELL
 FLD .            WILDCAT:   FIELD
 LOC .      S10 T38N R78W:   LOCATION
 CNTY.            NATRONA:   COUNTY
 STAT.            WYOMING:   STATE
 CTRY. UNITED STATES OF AMERICA:   COUNTRY
 SRVC.      Western Atlas:   SERVICE COMPANY
 DATE.        20-AUG-1996:   LOGDATE
 API .       490252282200:   API NUMBER
~CURVE INFORMATION
#MNEM.UNIT       API CODE    CURVE DESCRIPTION
#----------   ------------   ------------------------------
 DEPT.F                  :   
 RFOC.OHMM   07 220 04 00:   RESISTIVITY FOCUSED LOG
 RILD.OHMM   07 120 46 00:   INDUCTION LOG DEEP RESISTIVITY
 RILM.OHMM   07 120 44 00:   INDUCTION LOG MEDIUM RESISTIVITY
 SPR .MV     07 010 01 00:   SPONTANEOUS POTENTIAL
 CALD.IN     45 280 60 00:   CALIPER FROM DENSITY LOG
 GRD .GAPI   45 310 01 00:   GAMMA RAY FROM DENSITY LOG
 ZCOR.G/C3   45 356 01 00:   DENSITY CORRECTION
 ZDEN.G/C3   45 350 01 00:   BULK DENSITY
 PORZ.DEC    45 890 12 00:   DENSITY POROSITY SANDSTONE
 CNC .DEC    42 890 03 00:   NEUTRON POROSITY SANDSTONE
~PARAMETER INFORMATION
#MNEM.UNIT          VALUE    DESCRIPTION
#----------   ------------   ------------------------------
 PD  .                 GL:   PERMANENT DATUM
 EPD .F              5228:   ELEVATION PERMANENT DATUM
 LMF .                 KB:   LOG MEASURED FROM
 DAPD.F                10:   FEET ABOVE PERMANENT DATUM
 DMF .                 KB:   DRILLING MEASURED FROM
 EKB .F              5238:   KELLING BUSHING
 EGL .F              5228:   GROUND LEVEL
 DATE.        20-AUG-1996:   RUN DATE
 RUN .                  1:   RUN NUMBER
 DD  .F               794:   DEPTH DRILLER
 DL  .F               794:   DEPTH LOGGER
 BLI .F               793:   BOTTOM LOG INTERVAL
 TLI .F                12:   TOP LOG INTERVAL
 CS  .IN           13.375:   CASING SIZE
 CBD .F                58:   CASING BOTTOM DRILLER
 CBL .F                59:   CASING BOTTOM LOGGER
 BS  .IN            12.25:   BIT SIZE
 BSD .F               794:   BIT SIZE AT DEPTH
 DFT .           SPUD MUD:   DRILLING FLUID TYPE
 DFD .                9.2:   DRILLING FLUID DENSITY
 DFV .                 50:   DRILLING FLUID VISCOSITY
 DFPH.                  9:   DRILLING FLUID PH
 DFL .               13.8:   DRILLING FLUID LOSS
 MSS .              CIRC.:   MUD SAMPLE SOURCE
 RMS .OHMM           1.14:   RESISTIVITY MUD SAMPLE
 MST .F                77:   MUD SAMPLE TEMPERATURE
 RMF .OHMM           0.90:   RESISTIVITY MUD FILTRATE SAMPLE
 MFST.F                77:   MUD FILTRATE SAMPLE TEMPERATURE
 RMC .OHMM            1.4:   RESISTIVITY MUD CAKE
 MCST.F                77:   MUD CAKE SAMPLE TEMPERATURE
 MFSS.               CALC:   MUD FILTRATE SAMPLE SOURCE
 MCSS.               CALC:   MUD CAKE SAMPLE SOURCE
 RMB .OHMM            .84:   RESISTIVITY MUD AT BHT
 BHT .F               104:   BOTTOM HOLE TEMPERATURE
 TCS .HRS               3:   TIME CURCULATED STOPPED
 MRT .F               104:   MAXIMUM RECORDED TEMPERATURE
 LUN .            HL-6530:   LOGGING UNIT NUMBER
 LUL .             CASPER:   LOGGING UNIT LOCATION
 ENGI.           BROWNLOW:   RECORDING ENGINEER
 WITN.      SCHULTE/HARDY:   WITNESSED BY
 CLNT.            A2DTECH:   CLIENT CODE
 ORIG.           5" PRINT:   ORIGIN OF DATA
 UWI .       490252282200:   UNIQUE WELL ID
 DICO. A2D Technologies, Inc.:   DIGITIZING COMPANY
~OTHER INFORMATION
~A   DEPT     RFOC       RILD       RILM        SPR       CALD        GRD       ZCOR       ZDEN       PORZ        CNC   
# ...
  380.5000     7.1049     7.1713     7.0859   -15.1547    12.9515    86.2872     0.0476     2.4935     0.1006     0.4176
  381.0000     7.2043     7.2656     7.1349   -15.1492    12.9514    87.8007     0.0581     2.4973     0.0978     0.4094
  381.5000     7.2043     7.3162     7.0849   -15.2971    12.9512    88.1056     0.0687     2.5003     0.0957     0.4049
  382.0000     7.1544     7.3162     7.0845   -15.2916    12.9510    86.5986     0.0581     2.5010     0.0927     0.4037
  382.5000     7.1544     7.2656     7.0840   -15.2872    12.9660    86.2987     0.0458     2.5018     0.0903     0.4124
  383.0000     7.0541     7.1655     7.0834   -15.2828    12.9659    85.6980     0.0399     2.5025     0.0900     0.4127
  383.5000     6.9584     7.0668     7.0340   -15.2784    12.9657    86.6072     0.0460     2.5040     0.0900     0.4025
  384.0000     6.9584     7.0180     6.9366   -15.2738    12.9655    89.0277     0.0475     2.5041     0.0895     0.4012
  384.5000     6.8624     6.9189     6.8406   -15.2685    12.9654    92.0517     0.0490     2.5032     0.0886     0.4004
  385.0000     6.6743     6.7788     6.7459   -15.1128    12.9653    92.6581     0.0505     2.4987     0.0883     0.3855
  385.5000     6.3576     6.5933     6.3814   -15.1084    12.9651    91.4532     0.0474     2.4942     0.0916     0.3928
  386.0000     6.2265     6.3686     6.2495   -14.9527    12.9649    91.4567     0.0444     2.4904     0.0967     0.4019
  386.5000     6.3136     6.1943     6.2478   -14.6457    12.9648    92.0638     0.0413     2.4866     0.1001     0.4139
  387.0000     6.4915     5.9008     5.8537   -14.4900    12.9647    92.3688     0.0415     2.4866     0.1004     0.4250
  387.5000     6.5823     5.4674     5.2172   -14.3343    12.9645    91.4653     0.0458     2.4866     0.0989     0.4365
  388.0000     6.5367     4.9614     4.6046   -14.3298    12.9643    91.1218     0.0473     2.4836     0.1022     0.4537
  388.5000     5.5330     4.6937     4.1207   -14.3244    12.9642    89.9612     0.0579     2.4511     0.1191     0.4721
  389.0000     4.3691     4.3701     4.0637   -14.3200    12.9640    89.0577     0.0670     2.3890     0.1565     0.4899
  389.5000     4.2494     4.1716     4.0353   -14.3156    12.9639    88.4563     0.0791     2.3325     0.1903     0.4938
  390.0000     4.7820     4.6937     4.4774   -14.4636    12.9637    87.8349     0.0821     2.3370     0.1924     0.4727
  390.5000     5.3441     5.1010     5.0724   -14.6105    12.9636    86.3479     0.0579     2.3899     0.1547     0.4512
  391.0000     6.4019     5.3920     5.3630   -14.9075    12.9634    85.1423     0.0291     2.4405     0.1107     0.4452
  391.5000     6.4012     5.6997     5.6432   -15.0545    12.9633    84.2381     0.0338     2.4828     0.1023     0.4392
  392.0000     6.3576     6.1515     6.0734   -15.2013    12.9631    83.3354     0.0351     2.4911     0.0968     0.4277
  392.5000     6.4019     6.6854     6.5092   -15.3482    12.9630    83.0361     0.0336     2.4918     0.0956     0.4156
  393.0000     6.4465     6.9213     6.8325   -15.4951    12.9628    84.2481     0.0275     2.4926     0.0950     0.4132
  393.5000     6.4465     6.9213     6.8797   -15.4895    12.9627    83.6460     0.0275     2.4941     0.0938     0.4117
  394.0000     6.4915     6.6392     6.8316   -15.4851    12.9625    82.7433     0.0275     2.4956     0.0945     0.4041
  394.5000     6.4915     6.3686     6.6905   -15.6331    12.9624    83.0483     0.0290     2.4918     0.0960     0.3930
  395.0000     6.4915     6.0248     6.3289   -15.6276    12.9622    83.0518     0.0365     2.4903     0.0972     0.3912
  395.5000     6.5823     5.6603     5.7809   -15.6232    12.9621    82.4497     0.0607     2.4850     0.0991     0.3918
  396.0000     6.5367     5.2445     5.0211   -15.6188    12.9619    82.4533     0.0683     2.4646     0.1072     0.3978
  396.5000     5.8087     5.0658     4.6959   -15.6142    12.9467    83.0775     0.0713     2.4011     0.1238     0.4358
  397.0000     4.8154     4.9960     4.6309   -15.6089    12.9163    84.2724     0.1001     2.3852     0.1484     0.4521
  397.5000     4.4922     4.9960     4.6952   -15.6045    12.8406    83.6703     0.1063     2.3867     0.1636     0.4421
  398.0000     4.8827     4.9960     4.8270   -15.7525    12.7176    82.7668     0.0828     2.4119     0.1470     0.4128
  398.5000     5.7285     5.0658     4.9970   -15.8982    12.6439    82.4683     0.0213     2.4736     0.1247     0.4038
  399.0000     6.2265     5.1365     5.1017   -15.8938    12.6287    82.7740     0.0243     2.4826     0.1024     0.4068
  399.5000     6.0981     5.3920     5.2814   -16.0408    12.6134    81.2663     0.0333     2.4781     0.1018     0.4119
  400.0000     5.8899     5.6603     5.5437   -16.1876    12.6303    80.0607     0.0455     2.4721     0.1072     0.4213
  400.5000     5.9718     6.0248     5.9008   -16.3413    12.6381    79.4619     0.0409     2.4834     0.1054     0.4152
  401.0000     6.2256     6.2808     6.1090   -16.4949    12.6419    81.8860     0.0394     2.4947     0.0958     0.4092
  401.5000     6.4901     6.4583     6.3686   -16.6486    12.6380    83.1002     0.0424     2.4978     0.0930     0.4053
  402.0000     6.8130     6.6916     6.6392   -16.8022    12.6341    83.1060     0.0454     2.4902     0.0954     0.4031
  402.5000     7.0044     6.8327     6.8259   -16.9559    12.6303    83.1118     0.0452     2.4917     0.0972     0.4010
  403.0000     7.1513     6.8550     6.9695   -17.0865    12.6323    84.0253     0.0406     2.4985     0.0948     0.3995
  403.5000     7.2510     6.8774     7.0668   -17.2360    12.6425    85.2395     0.0390     2.5069     0.0915     0.4013
  404.0000     7.3520     6.8997     7.1662   -17.2345    12.6574    84.9431     0.0344     2.5129     0.0881     0.4034
  404.5000     7.3514     7.0325     7.2656   -17.3840    12.6572    84.6465     0.0298     2.5174     0.0827     0.4006
  405.0000     7.3000     7.0343     7.3162   -17.5339    12.6420    84.6526     0.0343     2.5114     0.0803     0.3914
  405.5000     7.1987     7.0362     7.1655   -17.6837    12.5965    84.3561     0.0661     2.5008     0.0833     0.3881
  406.0000     7.1982     7.0381     7.0668   -17.8336    12.5661    83.1548     0.0955     2.4910     0.0908     0.3877
  406.5000     7.1479     7.0404     7.0180   -17.9834    12.5509    81.3479     0.1312     2.4763     0.1007     0.3865
  407.0000     7.2474     7.0423     7.0668   -18.1329    12.5508    81.0514     0.1417     2.4646     0.1092     0.3819
  407.5000     7.3995     7.0441     7.1655   -18.1315    12.5506    82.6285     0.1553     2.4623     0.1131     0.3793
  408.0000     7.5102     7.0952     7.2656   -18.1300    12.5504    85.8983     0.1416     2.4707     0.1095     0.3808
  408.5000     7.6070     7.1966     7.4183   -18.1286    12.5503    86.8104     0.1188     2.4865     0.1004     0.3796
  409.0000     7.6064     7.2493     7.5220   -17.9755    12.5652    85.9098     0.1112     2.5016     0.0937     0.3748
  409.5000     7.6059     7.2512     7.5743   -17.9741    12.5651    85.0092     0.1066     2.5001     0.0901     0.3685
  410.0000     7.4485     7.2531     7.5220   -17.8214    12.5649    84.4107     0.1066     2.4994     0.0922     0.3524
  410.5000     7.1873     7.2551     7.4700   -17.6686    12.5648    84.1143     0.1111     2.5047     0.0901     0.3407
  411.0000     6.9961     7.2570     7.4700   -17.5159    12.5646    85.6321     0.1095     2.5138     0.0871     0.3376
  411.5000     6.9472     7.3101     7.5220   -17.5141    12.5494    86.8463     0.1034     2.5175     0.0816     0.3355
  412.0000     7.0441     7.3631     7.5743   -17.5127    12.5492    86.8640     0.0927     2.5130     0.0807     0.3328
  412.5000     7.1918     7.4683     7.7336   -17.5113    12.5491    84.7444     0.0881     2.5123     0.0834     0.3265
  413.0000     7.3997     7.5751     7.8416   -17.5098    12.5489    82.3332     0.0881     2.5115     0.0843     0.3192
  413.5000     7.6546     7.6336     8.0064   -17.3567    12.5488    80.8270     0.1001     2.5123     0.0846     0.3156
