~VERSION INFORMATION
 VERS.                2.0:   CWLS LOG ASCII STANDARD - VERSION 2.0
 WRAP.                 NO:   ONE LINE PER DEPTH STEP
~WELL INFORMATION
#MNEM.UNIT      DATA TYPE    INFORMATION
#----------   ------------   ------------------------------
 STRT.F           64.0000:   START DEPTH
 STOP.F          532.0000:   STOP DEPTH
 STEP.F            0.5000:   STEP LENGTH
 NULL.          -999.2500:   NO VALUE
 COMP.       F D SERV INC:   COMPANY
 WELL.  81-3 SX 10 #81-10:   WELL
 FLD .             TEAPOT:   FIELD
 LOC .      S10 T38N R78W:   LOCATION
 CNTY.            NATRONA:   COUNTY
 STAT.            WYOMING:   STATE
 CTRY. UNITED STATES OF AMERICA:   COUNTRY
 SRVC.     Atlas Wireline:   SERVICE COMPANY
 DATE.        29-JAN-1993:   LOGDATE
 API .       490252258400:   API NUMBER
~CURVE INFORMATION
#MNEM.UNIT       API CODE    CURVE DESCRIPTION
#----------   ------------   ------------------------------
 DEPT.F                  :   
 C13 .IN     45 280 13 00:   
 ZCOR.G/C3   45 356 01 00:   DENSITY CORRECTION
 ZDEN.G/C3   45 350 01 00:   BULK DENSITY
 GRD .GAPI   45 310 01 00:   GAMMA RAY FROM DENSITY LOG
 PORS.DEC    42 890 00 00:   
 PORZ.DEC    45 890 00 00:   DENSITY POROSITY
 RILD.OHMM   07 120 46 00:   INDUCTION LOG DEEP RESISTIVITY
 RILM.OHMM   07 120 44 00:   INDUCTION LOG MEDIUM RESISTIVITY
~PARAMETER INFORMATION
#MNEM.UNIT          VALUE    DESCRIPTION
#----------   ------------   ------------------------------
 PD  .                 GL:   PERMANENT DATUM
 EPD .F              5161:   ELEVATION PERMANENT DATUM
 LMF .                 KB:   LOG MEASURED FROM
 DAPD.F                10:   FEET ABOVE PERMANENT DATUM
 DMF .                 KB:   DRILLING MEASURED FROM
 EKB .F              5171:   KELLING BUSHING
 EDF .F              5170:   DRILLING FLOOR
 EGL .F              5161:   GROUND LEVEL
 DATE.        29-JAN-1993:   RUN DATE
 RUN .                  1:   RUN NUMBER
 DD  .F               536:   DEPTH DRILLER
 DL  .F               536:   DEPTH LOGGER
 BLI .F               527:   BOTTOM LOG INTERVAL
 TLI .F                96:   TOP LOG INTERVAL
 CS  .IN            8.625:   CASING SIZE
 CBD .F                96:   CASING BOTTOM DRILLER
 CBL .F                96:   CASING BOTTOM LOGGER
 BS  .IN            7.875:   BIT SIZE
 BSD .F               536:   BIT SIZE AT DEPTH
 DFT .                AIR:   DRILLING FLUID TYPE
 MRT .F                65:   MAXIMUM RECORDED TEMPERATURE
 LUN .            HL-6274:   LOGGING UNIT NUMBER
 LUL .             CASPER:   LOGGING UNIT LOCATION
 ENGI.        P.RASMUSSEN:   RECORDING ENGINEER
 WITN.           G.STRONG:   WITNESSED BY
 CLNT.            A2DTECH:   CLIENT CODE
 ORIG.           5" PRINT:   ORIGIN OF DATA
 UWI .       490252258400:   UNIQUE WELL ID
 DICO. A2D Technologies, Inc.:   DIGITIZING COMPANY
~OTHER INFORMATION
~A   DEPT      C13       ZCOR       ZDEN        GRD       PORS       PORZ       RILD       RILM   
# ...
  509.5000     8.1085     0.0187     2.5565  -999.2500     0.2769     0.0581     9.9374     9.6553
  510.0000     8.1081     0.0187     2.5535  -999.2500     0.2766     0.0593     9.9374     9.6553
  510.5000     8.1076     0.0187     2.5535  -999.2500     0.2763     0.0584     9.8637     9.7225
  511.0000     8.1072     0.0187     2.5557  -999.2500     0.2760     0.0563     9.8007     9.7225
  511.5000     8.1068     0.0262     2.5579  -999.2500     0.2757     0.0545     9.7330     9.7225
  512.0000     8.1062     0.0351     2.5594  -999.2500     0.2760     0.0521     9.6659     9.5885
  512.5000     8.1058     0.0321     2.5631  -999.2500     0.2760     0.0518     9.5992     9.4565
  513.0000     8.1054     0.0232     2.5638  -999.2500     0.2757     0.0527     9.5329     9.3262
  513.5000     8.1050     0.0037     2.5615  -999.2500  -999.2500     0.0539     9.4018     9.1977
  514.0000     8.1119     0.0097     2.5578  -999.2500  -999.2500     0.0557     9.3369     8.8228
  514.5000     8.1191     0.0187     2.5555  -999.2500  -999.2500     0.0566     9.1764     8.5814
  515.0000     8.1336     0.0232     2.5532  -999.2500  -999.2500     0.0587     8.9569     8.4047
  515.5000     8.1181     0.0217     2.5517  -999.2500  -999.2500     0.0593     8.7727     8.2890
  516.0000     8.1177     0.0187     2.5502  -999.2500  -999.2500     0.0587     8.5924     8.2317
  516.5000     8.1173     0.0157     2.5569  -999.2500  -999.2500     0.0545     8.4157     8.1748
  517.0000     8.1187     0.0202     2.5576  -999.2500  -999.2500     0.0542     8.2999     8.1748
  517.5000     8.1314     0.0232     2.5576  -999.2500  -999.2500     0.0560     8.1858     8.2317
  518.0000     8.1309     0.0262     2.5575  -999.2500  -999.2500     0.0563     8.1293     8.2317
  518.5000     8.1304     0.0216     2.5575  -999.2500  -999.2500     0.0554     8.0732     8.1183
  519.0000     8.1150     0.0127     2.5567  -999.2500  -999.2500     0.0557     7.8526     7.8416
  519.5000     8.0995     0.0067     2.5462  -999.2500  -999.2500     0.0593     7.6381     7.5695
  520.0000     8.0840     0.0127     2.5334  -999.2500  -999.2500     0.0725     7.2264     7.3502
  520.5000     8.0535     0.0277     2.5169  -999.2500  -999.2500     0.0887     6.7429     7.1160
  521.0000     8.0081     0.0396     2.4876  -999.2500  -999.2500     0.1021     6.1988     6.9695
  521.5000     7.9626     0.0486     2.4808  -999.2500  -999.2500     0.0994     6.1624     7.0180
  522.0000     7.9167     0.0486     2.5018  -999.2500  -999.2500     0.0861     6.5135     7.1655
  522.5000     7.8715     0.0456     2.5370  -999.2500  -999.2500     0.0701     6.7429     7.4700
  523.0000     7.8411     0.0426     2.5535  -999.2500  -999.2500     0.0560     6.8901     7.8416
  523.5000     7.8256     0.0411     2.5625  -999.2500  -999.2500     0.0523     7.0779     8.1211
  524.0000     7.7952     0.0381     2.5715  -999.2500  -999.2500     0.0433  -999.2500     8.6412
  524.5000     7.7647     0.0366     2.5797  -999.2500  -999.2500     0.0373  -999.2500     8.9461
  525.0000     7.7642     0.0426     2.5857  -999.2500  -999.2500     0.0367  -999.2500     9.2617
  525.5000     7.7637     0.0488     2.5841  -999.2500  -999.2500     0.0385  -999.2500     9.5885
  526.0000     7.7483     0.0546     2.5781  -999.2500  -999.2500     0.0418  -999.2500     9.8743
  526.5000     7.7329     0.0546     2.5736  -999.2500  -999.2500     0.0448  -999.2500  -999.2500
  527.0000     7.7278     0.0516     2.5728  -999.2500  -999.2500     0.0460  -999.2500  -999.2500
  527.5000     7.7020     0.0486     2.5720  -999.2500  -999.2500     0.0463  -999.2500  -999.2500
  528.0000     7.6714     0.0501     2.5735  -999.2500  -999.2500     0.0448  -999.2500  -999.2500
  528.5000     7.6560     0.0546     2.5750  -999.2500  -999.2500     0.0429  -999.2500  -999.2500
  529.0000     7.6405     0.0605     2.5764  -999.2500  -999.2500     0.0415  -999.2500  -999.2500
  529.5000     7.6401     0.0620     2.5779  -999.2500  -999.2500     0.0406  -999.2500  -999.2500
  530.0000     7.6396     0.0620     2.5779  -999.2500  -999.2500     0.0409  -999.2500  -999.2500
  530.5000     7.6391     0.0620     2.5719  -999.2500  -999.2500     0.0511  -999.2500  -999.2500
  531.0000     7.6387     0.0635     2.5563  -999.2500  -999.2500     0.0596  -999.2500  -999.2500
  531.5000     7.6382     0.0725     2.5410  -999.2500  -999.2500     0.0670  -999.2500  -999.2500
  532.0000     7.6254     0.0770     2.5345  -999.2500  -999.2500     0.0735  -999.2500  -999.2500
