~VERSION INFORMATION
 VERS.                2.0:   CWLS LOG ASCII STANDARD - VERSION 2.0
 WRAP.                 NO:   ONE LINE PER DEPTH STEP
~WELL INFORMATION
#MNEM.UNIT      DATA TYPE    INFORMATION
#----------   ------------   ------------------------------
 STRT.F           10.5000:   START DEPTH
 STOP.F          604.0000:   STOP DEPTH
 STEP.F            0.5000:   STEP LENGTH
 NULL.          -999.2500:   NO VALUE
 COMP. FENIX & SCISSON INC:   COMPANY
 WELL.  NPR 3 #87 S 10-10:   WELL
 FLD .             TEAPOT:   FIELD
 LOC .      S10 T38N R78W:   LOCATION
 CNTY.            NATRONA:   COUNTY
 STAT.            WYOMING:   STATE
 CTRY. UNITED STATES OF AMERICA:   COUNTRY
 SRVC.           BIRDWELL:   SERVICE COMPANY
 DATE.        11-DEC-1978:   LOGDATE
 API .       490251075400:   API NUMBER
~CURVE INFORMATION
#MNEM.UNIT       API CODE    CURVE DESCRIPTION
#----------   ------------   ------------------------------
 DEPT.F                  :   
 SPR .MV     05 010 01 00:   SPONTANEOUS POTENTIAL FROM RES.
 SN  .OHMM   05 040 16 00:   SHORT NORMAL 16"
 IL  .OHMM   05 120 00 00:   INDUCTION LOG
 CALD.IN     45 280 60 00:   CALIPER
 GRD .GAPI   45 310 01 00:   GAMMA RAY FROM DENSITY LOG
 RHOB.G/C3   45 350 01 00:   BULK DENSITY
 DPHI.DEC    45 890 12 00:   DENSITY POROSITY SANDSTONE
 CORR.G/C3   45 356 01 00:   DENSITY CORRECTION
~PARAMETER INFORMATION
#MNEM.UNIT          VALUE    DESCRIPTION
#----------   ------------   ------------------------------
 PD  .                 GL:   PERMANENT DATUM
 LMF .                 KB:   LOG MEASURED FROM
 DAPD.F                 4:   FEET ABOVE PERMANENT DATUM
 DMF .                 KB:   DRILLING MEASURED FROM
 DATE.           12-11-78:   RUN DATE
 RUN .                  1:   RUN NUMBER
 DD  .F               600:   DEPTH DRILLER
 DL  .F               602:   DEPTH LOGGER
 BLI .F               596:   BOTTOM LOG INTERVAL
 TLI .F                60:   TOP LOG INTERVAL
 CBD .F                40:   CASING BOTTOM DRILLER
 CBL .F                35:   CASING BOTTOM LOGGER
 BS  .IN            7.875:   BIT SIZE
 BSD .F               600:   BIT SIZE AT DEPTH
 DFT .                KCC:   DRILLING FLUID TYPE
 DFD .                8.7:   DRILLING FLUID DENSITY
 DFV .                 39:   DRILLING FLUID VISCOSITY
 DFPH.               10.5:   DRILLING FLUID PH
 DFL .                 10:   DRILLING FLUID LOSS
 MSS .           FLOWLINE:   MUD SAMPLE SOURCE
 RMS .OHMM              1:   RESISTIVITY MUD SAMPLE
 MST .F                62:   MUD SAMPLE TEMPERATURE
 RMF .OHMM            .85:   RESISTIVITY MUD FILTRATE SAMPLE
 MFST.F                58:   MUD FILTRATE SAMPLE TEMPERATURE
 RMC .OHMM             .8:   RESISTIVITY MUD CAKE
 MCST.F                66:   MUD CAKE SAMPLE TEMPERATURE
 MFSS.           MEASURED:   MUD FILTRATE SAMPLE SOURCE
 MCSS.           MEASURED:   MUD CAKE SAMPLE SOURCE
 BHT .F                72:   BOTTOM HOLE TEMPERATURE
 TCS .HRS               3:   TIME CURCULATED STOPPED
 MRT .F                72:   MAXIMUM RECORDED TEMPERATURE
 LUN .               2958:   LOGGING UNIT NUMBER
 LUL .             CASPER:   LOGGING UNIT LOCATION
 ENGI.            ROLLINS:   RECORDING ENGINEER
 WITN.           DINSMORE:   WITNESSED BY
 CLNT.            A2DTECH:   CLIENT CODE
 ORIG.       2", 5" PRINT:   ORIGIN OF DATA
 UWI .       490251075400:   UNIQUE WELL ID
 DICO. A2D Technologies, Inc.:   DIGITIZING COMPANY
~OTHER INFORMATION
~A   DEPT      SPR         SN         IL       CALD        GRD       RHOB       DPHI       CORR   
# ...
  537.0000   -30.9860    13.4260    13.1420     8.4730    90.6710     2.4360     0.1510     0.0020
  537.5000   -31.0260    13.4380    12.9070     8.4600    91.1550     2.4410     0.1530     0.0020
  538.0000   -31.0660    13.4510    12.7310     8.3920    94.7130     2.4490     0.1470     0.0020
  538.5000   -31.1060    13.4630    12.5490     8.3670    94.7270     2.4400     0.1430     0.0050
  539.0000   -31.1470    13.4760    12.5050     8.5410    95.1140     2.4300     0.1550     0.0070
  539.5000   -31.1870    13.4880    12.4590     8.5780    97.1530     2.4310     0.1560     0.0100
  540.0000   -31.2270    13.5010    12.4130     8.5770    98.3970     2.4410     0.1520     0.0130
  540.5000   -31.2680    13.5100    12.3670     8.5760    94.3750     2.4500     0.1430     0.0150
  541.0000   -31.3210    13.3780    12.3200     8.5740    95.2600     2.4520     0.1410     0.0150
  541.5000   -31.4260    13.2660    12.2270     8.5720    95.9510     2.4530     0.1410     0.0140
  542.0000   -31.5320    13.1540    12.1330     8.5710    95.1560     2.4550     0.1410     0.0130
  542.5000   -31.6380    13.0210    11.9840     8.5690    95.2340     2.4550     0.1390     0.0120
  543.0000   -31.7440    13.0390    12.0060     8.5670    98.0610     2.4520     0.1430     0.0110
  543.5000   -31.8500    13.0610    12.0590     8.5650    98.0020     2.4490     0.1440     0.0100
  544.0000   -31.9550    13.0820    12.1130     8.5630    98.1400     2.4500     0.1430     0.0090
  544.5000   -32.0620    13.1040    12.1660     8.5620    98.9070     2.4510     0.1430     0.0080
  545.0000   -32.1370    13.1260    12.2070     8.5600    99.6820     2.4550     0.1440     0.0070
  545.5000   -32.1950    13.1420    11.9140     8.5580    99.0410     2.4520     0.1430     0.0060
  546.0000   -32.2530    12.8710    11.5490     8.5560    98.1420     2.4470     0.1420     0.0060
  546.5000   -32.3110    12.6660    11.5580     8.5550    97.2610     2.4530     0.1410     0.0070
  547.0000   -32.3690    12.6660    11.5780     8.5530    97.7940     2.4550     0.1400     0.0070
  547.5000   -32.4270    12.6660    11.5980     8.5510    98.7310     2.4550     0.1410     0.0080
  548.0000   -32.4850    12.6660    11.6170     8.5490    98.9000     2.4540     0.1410     0.0090
  548.5000   -32.5430    12.6660    11.6370     8.5470    95.2970     2.4560     0.1400     0.0100
  549.0000   -32.6010    12.6660    11.6570     8.5460    92.0840     2.4630     0.1380     0.0110
  549.5000   -32.6590    12.6660    11.6760     8.5440    89.8060     2.4680     0.1350     0.0120
  550.0000   -32.7120    12.6660    11.6960     8.5420    95.9660     2.4670     0.1320     0.0130
  550.5000   -32.7560    12.6660    11.7160     8.5410    99.7360     2.4650     0.1330     0.0130
  551.0000   -32.7990    12.6660    11.7350     8.5410    98.1130     2.4620     0.1350     0.0140
  551.5000   -32.8420    12.6660    11.7640     8.5410    96.6660     2.4580     0.1380     0.0140
  552.0000   -32.8850    12.6650    11.6980     8.5410    97.6260     2.4610     0.1380     0.0150
  552.5000   -32.9280    12.6640    11.5710     8.5410   102.6410     2.4670     0.1360     0.0150
  553.0000   -32.9710    12.6660    11.4430     8.5410   105.0350     2.4710     0.1320     0.0150
  553.5000   -33.0140    12.5480    11.3160     8.5410    99.8950     2.4740     0.1290     0.0110
  554.0000   -33.0560    12.4590    11.1880     8.5410    94.7490     2.4690     0.1270     0.0080
  554.5000   -33.1040    12.3710    11.0610     8.5410    94.9610     2.4600     0.1380     0.0060
  555.0000   -33.2720    12.2820    10.9330     8.5410   101.7650     2.4590     0.1370     0.0070
  555.5000   -33.4470    12.1930    10.8030     8.5410   102.9670     2.4600     0.1370     0.0080
  556.0000   -33.6210    12.1050    10.6560     8.5410   103.5330     2.4600     0.1370     0.0090
  556.5000   -33.7950    12.0160    10.5090     8.5410   104.0790     2.4620     0.1390     0.0100
  557.0000   -33.9680    11.9280    10.3620     8.5410   104.0030     2.4680     0.1330     0.0100
  557.5000   -34.1150    11.8100    10.2160     8.5410    99.9530     2.4650     0.1350     0.0110
  558.0000   -34.1650    11.6480    10.0690     8.5410   101.7340     2.4640     0.1350     0.0120
  558.5000   -34.2160    11.4860     9.9220     8.5410   106.6990     2.4700     0.1330     0.0130
  559.0000   -34.2680    11.3230     9.7760     8.5400   103.7080     2.4690     0.1340     0.0160
  559.5000   -34.3200    11.1610     9.6290     8.5390   101.1340     2.4660     0.1350     0.0190
  560.0000   -34.3720    10.8230     9.4460     8.5380   105.8690     2.4670     0.1340     0.0210
  560.5000   -34.4240    10.4940     9.1880     8.5380   110.3250     2.4770     0.1280     0.0160
  561.0000   -34.4750    10.3300     9.0320     8.5370   111.9030     2.4870     0.1230     0.0120
  561.5000   -34.5270    10.1660     8.8750     8.5360   108.2710     2.4820     0.1190     0.0120
  562.0000   -34.5790    10.0030     8.6090     8.5350   106.7840     2.4720     0.1270     0.0130
  562.5000   -34.6310     9.8390     8.0020     8.5340   107.3660     2.4710     0.1300     0.0170
  563.0000   -34.6830     9.5220     7.3960     8.5330   108.3740     2.4620     0.1320     0.0290
  563.5000   -34.7340     9.1250     6.7890     8.5320   114.3130     2.4450     0.1440     0.0290
  564.0000   -34.7850     8.7270     6.2230     8.5310   112.2630     2.4310     0.1550     0.0100
  564.5000   -34.8420     8.2720     6.1620     8.5300   105.4450     2.4680     0.1480     0.0180
  565.0000   -34.9130     7.7530     6.1050     8.5290    98.7540     2.4760     0.1340     0.0310
  565.5000   -34.3220     7.1920     6.0530     8.5280    91.8770     2.5020     0.1160     0.0240
  566.0000   -34.0040     6.5870     6.2150     8.5270   107.5420     2.5100     0.1100     0.0180
  566.5000   -34.2630     6.1660     6.3630     8.5260   106.3350     2.4970     0.1130     0.0120
  567.0000   -34.5160     6.6090     6.5120     8.5250   101.5650     2.4940     0.1160     0.0110
  567.5000   -34.8400     7.2390     6.6600     8.5240    95.3330     2.4860     0.1190     0.0130
  568.0000   -35.4350     8.3770     7.3640     8.5230    98.0100     2.4760     0.1230     0.0150
  568.5000   -36.0210     9.6030     9.4270     8.5230   102.8520     2.4800     0.1250     0.0140
  569.0000   -36.2310     9.7530     9.5390     8.5220   104.9630     2.4870     0.1230     0.0130
  569.5000   -36.3860     9.9160     9.6610     8.5210   104.1260     2.4960     0.1150     0.0120
  570.0000   -36.5390    10.0820     9.7830     8.5190   107.9990     2.4970     0.1140     0.0140
  570.5000   -36.6920    10.2690     9.9040     8.5180   111.4070     2.4940     0.1130     0.0220
  571.0000   -36.8450    10.4550    10.0260     8.5170   108.4270     2.5020     0.1110     0.0210
  571.5000   -36.9980    10.6420    10.2000     8.5150   109.6350     2.5060     0.1100     0.0180
  572.0000   -37.1280    10.8280    10.3910     8.5140   111.7720     2.5050     0.1090     0.0140
  572.5000   -37.2150    11.0150    10.5820     8.5130   110.8710     2.5030     0.1100     0.0100
  573.0000   -37.3020    11.2010    10.7730     8.5120   108.3300     2.5010     0.1110     0.0090
  573.5000   -37.3890    11.3880    10.9650     8.5100   106.4250     2.4990     0.1120     0.0090
  574.0000   -37.4750    11.5740    11.1560     8.5090   105.5870     2.4970     0.1120     0.0080
  574.5000   -37.5620    11.7610    11.3450     8.5080   104.7200     2.4960     0.1150     0.0080
  575.0000   -37.6480    11.9470    11.5330     8.5060   104.6360     2.4940     0.1160     0.0090
  575.5000   -37.7420    12.1340    11.7220     8.5050   105.0520     2.4930     0.1170     0.0120
  576.0000   -37.8470    12.3730    11.9100     8.5040   105.6390     2.4930     0.1180     0.0170
  576.5000   -37.9510    12.6460    12.0990     8.5030   106.9340     2.4960     0.1170     0.0220
  577.0000   -38.0570    12.9190    12.2870     8.5010   108.0390     2.4960     0.1160     0.0250
