~VERSION INFORMATION
 VERS.                2.0:   CWLS LOG ASCII STANDARD - VERSION 2.0
 WRAP.                 NO:   ONE LINE PER DEPTH STEP
~WELL INFORMATION
#MNEM.UNIT      DATA TYPE    INFORMATION
#----------   ------------   ------------------------------
 STRT.F            4.0000:   START DEPTH
 STOP.F          693.0000:   STOP DEPTH
 STEP.F            0.5000:   STEP LENGTH
 NULL.          -999.2500:   NO VALUE
 COMP.   FLUOR DANIEL INC:   COMPANY
 WELL. NAVAL PETROLEUM RESERVE 3 SX-3 #1-34:   WELL
 FLD .             TEAPOT:   FIELD
 LOC .      S34 T39N R78W:   LOCATION
 CNTY.            NATRONA:   COUNTY
 STAT.            WYOMING:   STATE
 CTRY. UNITED STATES OF AMERICA:   COUNTRY
 SRVC.      Western Atlas:   SERVICE COMPANY
 DATE.        06-FEB-1994:   LOGDATE
 API .       490252269600:   API NUMBER
~CURVE INFORMATION
#MNEM.UNIT       API CODE    CURVE DESCRIPTION
#----------   ------------   ------------------------------
 DEPT.F                  :   
 GRR .GAPI   07 310 01 00:   GAMMA RAY FROM RES. LOG.
 ILD .OHMM   07 120 46 00:   INDUCTION LOG DEEP
 ILM .OHMM   07 120 44 00:   INDUCTION LOG MEDIUM
~PARAMETER INFORMATION
#MNEM.UNIT          VALUE    DESCRIPTION
#----------   ------------   ------------------------------
 PD  .                 GL:   PERMANENT DATUM
 EPD .F              5097:   ELEVATION PERMANENT DATUM
 LMF .                 KB:   LOG MEASURED FROM
 DAPD.F                10:   FEET ABOVE PERMANENT DATUM
 DMF .                 KB:   DRILLING MEASURED FROM
 EKB .F              5107:   KELLING BUSHING
 EDF .F              5106:   DRILLING FLOOR
 EGL .F              5097:   GROUND LEVEL
 DATE.         6-FEB-1994:   RUN DATE
 RUN .                  1:   RUN NUMBER
 DD  .F               700:   DEPTH DRILLER
 DL  .F               701:   DEPTH LOGGER
 BLI .F               693:   BOTTOM LOG INTERVAL
 CS  .IN            9.625:   CASING SIZE
 CBD .F                56:   CASING BOTTOM DRILLER
 CBL .F                56:   CASING BOTTOM LOGGER
 BS  .IN             8.75:   BIT SIZE
 BSD .F               700:   BIT SIZE AT DEPTH
 DFT .                AIR:   DRILLING FLUID TYPE
 MRT .F                89:   MAXIMUM RECORDED TEMPERATURE
 LUN .            HL-6274:   LOGGING UNIT NUMBER
 LUL .             CASPER:   LOGGING UNIT LOCATION
 ENGI.        VERN RAUTIO:   RECORDING ENGINEER
 WITN.        GARY STRONG:   WITNESSED BY
 CLNT.            A2DTECH:   CLIENT CODE
 ORIG.           5" PRINT:   ORIGIN OF DATA
 UWI .       490252269600:   UNIQUE WELL ID
 DICO. A2D Technologies, Inc.:   DIGITIZING COMPANY
~OTHER INFORMATION
~A    DEPT      GRR       ILD        ILM   
# ...
  550.0000    85.5730    16.5160    16.6440
  550.5000    82.5790    16.3550    16.4280
  551.0000    82.6540    16.1940    16.2120
  551.5000    84.8240    16.0330    16.1230
  552.0000    84.2320    15.8230    15.9720
  552.5000    83.0650    16.2030    16.4970
  553.0000    83.3640    16.7130    17.3860
  553.5000    85.1910    17.2870    18.6870
  554.0000    83.7930    17.8600    19.9870
  554.5000    80.0250    18.4340    21.2880
  555.0000    76.9650    19.0070    21.9650
  555.5000    74.6060    19.0850    21.7600
  556.0000    75.2270    18.8990    20.6320
  556.5000    77.7540    18.4400    19.6000
  557.0000    82.2480    17.6220    18.5680
  557.5000    85.4240    16.8040    17.5360
  558.0000    87.1380    15.9860    16.5040
  558.5000    86.2520    15.0990    15.3850
  559.0000    84.3700    14.7100    15.1620
  559.5000    82.5020    14.2840    14.9190
  560.0000    80.7360    13.8590    14.6810
  560.5000    81.4560    13.6010    14.6810
  561.0000    84.1650    13.5550    14.6810
  561.5000    84.9720    13.5100    14.6810
  562.0000    85.8590    13.4650    14.6810
  562.5000    87.7120    13.4200    14.6810
  563.0000    88.4330    13.3750    14.5460
  563.5000    87.4880    13.2840    14.3800
  564.0000    84.6260    13.1840    14.2140
  564.5000    83.4330    13.0850    14.0470
  565.0000    83.8300    12.9850    13.8810
  565.5000    86.1360    12.8850    13.7140
  566.0000    89.1000    12.7860    13.5940
  566.5000    91.3050    12.6860    13.5330
  567.0000    90.4600    12.6150    13.4710
  567.5000    88.8810    12.5700    13.4100
  568.0000    87.5120    12.5260    13.3490
  568.5000    87.1930    12.4820    13.2880
  569.0000    88.7660    12.4380    13.2260
  569.5000    90.6590    12.3930    13.1650
  570.0000    92.5490    12.3490    13.1040
  570.5000    94.0160    12.2870    13.0430
  571.0000    93.1240    12.3080    12.9820
  571.5000    92.4460    12.3450    12.9200
  572.0000    93.2070    12.3810    12.8760
  572.5000    94.0530    12.4180    12.9200
  573.0000    92.8810    12.4540    13.0080
  573.5000    91.5490    12.4910    13.0950
  574.0000    89.8400    12.5550    13.1830
  574.5000    89.1110    12.7180    13.2710
  575.0000    86.4130    12.8810    13.3580
  575.5000    83.6930    13.0440    13.4460
  576.0000    81.8240    13.2430    13.5340
  576.5000    83.4100    13.0780    13.6210
  577.0000    85.3340    12.8760    13.6210
  577.5000    86.4010    12.2340    13.5270
  578.0000    85.2680    11.6180    13.4160
  578.5000    83.8000    11.0030    13.3060
  579.0000    83.1630    10.3800    13.1960
  579.5000    84.3990    10.2830    13.0850
  580.0000    87.0890    10.9840    12.9750
  580.5000    89.7630    11.4820    12.8650
  581.0000    90.2280    11.8350    12.7540
  581.5000    90.4960    11.7580    12.6440
  582.0000    91.2360    11.6540    12.5330
  582.5000    91.2570    11.5500    12.4230
  583.0000    91.4090    11.4460    12.3130
  583.5000    91.5820    11.3420    12.2020
  584.0000    91.9120    11.2810    12.0920
  584.5000    92.3660    11.2580    11.9820
  585.0000    93.5980    11.2360    11.8710
  585.5000    94.9070    11.2130    11.7610
  586.0000    94.8700    11.1880    11.7240
  586.5000    93.6690    11.3640    11.8350
  587.0000    92.4970    11.5600    11.9460
  587.5000    91.3370    11.7560    12.0590
  588.0000    90.3910    11.9460    13.0520
  588.5000    91.7370    12.9640    14.1090
  589.0000    93.4010    13.9470    15.1670
  589.5000    90.8630    14.9310    16.2250
  590.0000    82.0530    15.9140    17.2830
  590.5000    72.7070    16.8970    18.3400
  591.0000    64.7730    17.8810    19.3980
  591.5000    62.4740    18.7850    20.4560
  592.0000    64.7550    19.6480    20.7640
  592.5000    68.3210    20.3780    20.6610
  593.0000    71.5910    20.3780    20.4720
  593.5000    74.2030    20.1110    20.2830
  594.0000    74.7750    19.8430    20.0930
  594.5000    75.0000    19.5740    19.9040
  595.0000    76.0100    19.4460    19.8130
  595.5000    77.7610    19.7660    20.2410
  596.0000    76.1590    20.1940    20.8130
  596.5000    72.2580    20.6220    21.3840
  597.0000    70.1140    21.0500    21.9560
  597.5000    71.6790    21.4770    22.5270
  598.0000    71.3940    21.9050    23.0980
  598.5000    69.2420    22.1710    23.6740
  599.0000    68.1180    21.9610    23.6740
  599.5000    69.0480    21.6140    23.1620
  600.0000    73.1470    21.2680    22.5470
  600.5000    77.3630    20.9210    21.9320
  601.0000    77.1720    19.8810    21.3170
  601.5000    75.7450    18.2670    20.7030
  602.0000    75.2400    16.6520    20.0880
  602.5000    78.1570    15.0380    19.4730
  603.0000    79.4710    14.5440    18.8580
  603.5000    79.4690    14.2260    18.3830
  604.0000    81.0410    14.1410    18.3830
  604.5000    82.1340    14.2540    18.3830
  605.0000    81.3870    14.9110    18.5330
  605.5000    79.3170    15.9700    18.9020
  606.0000    79.4400    16.7380    19.2710
  606.5000    79.8960    16.7380    19.6400
  607.0000    82.0310    16.7380    19.8130
  607.5000    84.8060    16.7380    19.3440
  608.0000    86.1820    16.7620    18.8500
  608.5000    84.4450    16.8200    18.3560
  609.0000    81.9410    16.8780    17.8620
  609.5000    81.6410    16.9370    17.7060
  610.0000    82.4250    16.9950    17.7060
  610.5000    83.1010    17.0540    17.7060
  611.0000    82.6650    17.0270    17.7570
  611.5000    82.0010    16.9970    17.8860
  612.0000    80.1320    16.9680    18.0150
  612.5000    79.0980    16.9390    18.1430
  613.0000    79.1450    16.8970    18.2720
  613.5000    81.3320    16.9950    18.4010
  614.0000    82.9980    17.1770    18.5300
  614.5000    81.5630    17.3590    18.6590
  615.0000    80.7760    17.5410    18.7300
  615.5000    80.9950    17.7060    18.5000
  616.0000    82.9120    17.5230    18.2330
  616.5000    84.8850    17.3540    17.9660
  617.0000    86.0230    17.2070    17.6990
  617.5000    87.1540    17.1580    17.4950
  618.0000    87.2010    17.1100    17.3800
  618.5000    86.7870    17.0610    17.2650
  619.0000    85.5250    17.0130    17.1500
  619.5000    83.9650    16.9640    17.0350
  620.0000    83.1270    16.9160    16.9210
  620.5000    82.9930    16.6420    16.5890
  621.0000    84.4160    16.2140    16.1990
  621.5000    84.5700    15.7850    15.8090
  622.0000    84.3690    15.3570    15.4190
  622.5000    85.1240    14.9280    15.0280
  623.0000    87.8690    14.5000    14.6380
  623.5000    90.9860    14.0720    14.2480
  624.0000    88.9150    13.6430    13.8580
  624.5000    83.7830    13.2430    13.4930
  625.0000    81.0770    12.9540    13.4280
  625.5000    80.4670    12.6830    13.3670
  626.0000    80.8360    12.4020    13.3060
  626.5000    83.9290    12.4020    13.2440
  627.0000    86.6360    12.4020    13.1830
  627.5000    86.9240    12.3860    13.1220
  628.0000    84.7570    12.3490    13.0600
  628.5000    83.9950    12.3120    12.9990
  629.0000    84.5950    12.2750    12.9380
  629.5000    85.4000    12.2380    12.8760
  630.0000    85.8740    12.2010    12.8760
  630.5000    85.3960    12.1640    12.8760
  631.0000    84.9420    12.1270    12.8760
  631.5000    85.1650    12.0900    12.8760
  632.0000    87.0150    12.0530    12.8760
  632.5000    89.4100    12.0210    12.8760
  633.0000    91.8000    11.9880    12.8770
  633.5000    91.9130    11.9550    12.8130
  634.0000    90.3420    11.9220    12.7360
  634.5000    89.8750    11.8890    12.6580
  635.0000    91.1250    11.8560    12.5810
  635.5000    92.8410    11.8070    12.5040
  636.0000    92.7460    11.7290    12.4270
  636.5000    91.2800    11.6520    12.3500
  637.0000    90.1550    11.5740    12.2730
  637.5000    91.4390    11.4970    12.1950
  638.0000    93.2680    11.4190    12.1180
  638.5000    94.4700    11.3640    12.0410
  639.0000    93.8130    11.3160    11.9640
  639.5000    92.4010    11.2680    11.8870
  640.0000    92.4760    11.2200    11.8100
  640.5000    94.1520    11.1720    11.7240
