~VERSION INFORMATION
 VERS.                2.0:   CWLS LOG ASCII STANDARD - VERSION 2.0
 WRAP.                 NO:   ONE LINE PER DEPTH STEP
~WELL INFORMATION
#MNEM.UNIT      DATA TYPE    INFORMATION
#----------   ------------   ------------------------------
 STRT.F            0.0000:   START DEPTH
 STOP.F          534.0000:   STOP DEPTH
 STEP.F            0.1000:   STEP LENGTH
 NULL.          -999.2500:   NO VALUE
 COMP.       F D SERV INC:   COMPANY
 WELL. NAVAL PETROLEUM RESERVE 3 SX-1 #71-2-10:   WELL
 FLD .            N.P.R 3:   FIELD
 LOC .      S10 T38N R78W:   LOCATION
 CNTY.            NATRONA:   COUNTY
 STAT.            WYOMING:   STATE
 CTRY. UNITED STATES OF AMERICA:   COUNTRY
 SRVC.     Atlas Wireline:   SERVICE COMPANY
 DATE.        07-DEC-1992:   LOGDATE
 API .       490252257200:   API NUMBER
~CURVE INFORMATION
#MNEM.UNIT       API CODE    CURVE DESCRIPTION
#----------   ------------   ------------------------------
 DEPT.F                  :   
 GRR .GAPI   07 310 01 00:   GAMMA RAY
 RILD.OHMM   07 120 46 00:   INDUCTION LOG DEEP RESISTIVITY
 RILM.OHMM   07 120 44 00:   RESITIVITY LONG MEDIUM
~PARAMETER INFORMATION
#MNEM.UNIT          VALUE    DESCRIPTION
#----------   ------------   ------------------------------
 PD  .                 GL:   PERMANENT DATUM
 EPD .F              5165:   ELEVATION PERMANENT DATUM
 LMF .                 KB:   LOG MEASURED FROM
 DAPD.F                10:   FEET ABOVE PERMANENT DATUM
 DMF .                 KB:   DRILLING MEASURED FROM
 EKB .F              5175:   KELLING BUSHING
 EDF .F              5174:   DRILLING FLOOR
 EGL .F              5165:   GROUND LEVEL
 DATE.        07-DEC-1992:   RUN DATE
 RUN .                  1:   RUN NUMBER
 DD  .F               540:   DEPTH DRILLER
 DL  .F               542:   DEPTH LOGGER
 BLI .F               534:   BOTTOM LOG INTERVAL
 CS  .IN            8.625:   CASING SIZE
 CBD .F                78:   CASING BOTTOM DRILLER
 CBL .F                82:   CASING BOTTOM LOGGER
 BS  .IN            7.875:   BIT SIZE
 BSD .F               540:   BIT SIZE AT DEPTH
 DFT .           AIR FOAM:   DRILLING FLUID TYPE
 BHT .F                70:   BOTTOM HOLE TEMPERATURE
 MRT .F                70:   MAXIMUM RECORDED TEMPERATURE
 LUN .           HL- 6345:   LOGGING UNIT NUMBER
 LUL .         FT. MORGAN:   LOGGING UNIT LOCATION
 ENGI.             BURLEY:   RECORDING ENGINEER
 WITN.        GARY STRONG:   WITNESSED BY
 CLNT.            A2DTECH:   CLIENT CODE
 ORIG.           5" PRINT:   ORIGIN OF DATA
 UWI .       490252257200:   UNIQUE WELL ID
 DICO. A2D Technologies, Inc.:   DIGITIZING COMPANY
~OTHER INFORMATION
~A    DEPT      GRR      RILD       RILM   
# ...
  254.8000   133.6983     5.2115     5.1760
  254.9000   132.9493     5.2373     5.2353
  255.0000   132.1599     5.2675     5.2654
  255.1000   131.1077     5.3111     5.2957
  255.2000   130.3988     5.3725     5.3441
  255.3000   129.8323     5.4345     5.3943
  255.4000   129.4616     5.4974     5.4301
  255.5000   129.2868     5.5610     5.4966
  255.6000   129.2868     5.6253     5.5262
  255.7000   129.2868     5.6783     5.5813
  255.8000   129.2868     5.7211     5.6457
  255.9000   129.2868     5.8266     5.7011
  256.0000   129.2868     5.8581     5.7338
  256.1000   129.3976     5.9166     5.7712
  256.2000   129.8969     5.9850     5.8290
  256.3000   130.3963     6.0541     5.8963
  256.4000   130.8957     6.1241     5.9643
  256.5000   131.3952     6.2040     6.0331
  256.6000   132.0742     6.2982     6.1027
  256.7000   133.0727     6.3592     6.1732
  256.8000   134.1426     6.4289     6.2732
  256.9000   135.0702     6.5231     6.3822
  257.0000   136.6031     6.5600     6.4792
  257.1000   138.2264     6.5599     6.5597
  257.2000   139.5835     6.5902     6.6809
  257.3000   140.5656     6.6282     6.7168
  257.4000   141.4264     6.6663     6.7275
  257.5000   141.8513     6.6984     6.7470
  257.6000   142.0334     6.6983     6.7744
  257.7000   142.0334     6.7349     6.7743
  257.8000   141.9314     6.7737     6.7742
  257.9000   141.4264     6.7923     6.8078
  258.0000   140.6858     6.8042     6.8215
  258.1000   139.9367     6.8434     6.8214
  258.2000   139.1878     6.8875     6.8213
  258.3000   138.6096     6.8874     6.8212
  258.4000   138.3915     6.8873     6.8211
  258.5000   138.3915     6.8872     6.8210
  258.6000   138.1641     6.8966     6.8435
  258.7000   137.9144     6.9353     6.8686
  258.8000   137.7845     6.9352     6.8685
  258.9000   137.7845     6.9676     6.8684
  259.0000   137.7845     6.9836     6.8683
  259.1000   137.7845     6.9990     6.8966
  259.2000   137.9926     7.0393     6.9162
  259.3000   138.3964     7.0815     6.9161
  259.4000   138.7954     7.0814     6.9160
  259.5000   139.1847     7.0813     6.9159
  259.6000   140.2124     7.1029     6.9500
  259.7000   140.2124     7.1307     6.9641
  259.8000   140.2124     7.1306     6.9813
  259.9000   140.2124     7.1305     7.0127
  260.0000   140.2124     7.1671     7.0126
  260.1000   140.2124     7.1803     7.0936
  260.2000   140.2124     7.1802     7.1109
  260.3000   140.2124     7.1801     7.1108
  260.4000   140.2124     7.1800     7.1107
  260.5000   140.3277     7.1799     7.1106
  260.6000   140.5159     7.2139     7.1105
  260.7000   140.5237     7.2300     7.1484
  260.8000   140.8194     7.2299     7.1601
  260.9000   140.8194     7.2298     7.1600
  261.0000   140.8194     7.2297     7.1599
  261.1000   140.7235     7.2296     7.1598
  261.2000   140.5159     7.2295     7.1597
  261.3000   140.5159     7.2294     7.1596
  261.4000   140.5159     7.2157     7.1333
  261.5000   140.3318     7.1789     7.1096
  261.6000   140.2124     7.1788     7.1095
  261.7000   140.0595     7.1787     7.1095
  261.8000   139.5602     7.1786     7.1094
  261.9000   138.9985     7.1785     7.0775
  262.0000   137.4689     7.1677     7.0597
  262.1000   136.7093     7.1283     7.0454
  262.2000   136.4597     7.1282     7.0104
  262.3000   136.2671     7.1281     7.0103
  262.4000   136.2638     7.1028     6.9732
  262.5000   136.0142     7.0783     6.9614
  262.6000   135.9636     7.0782     6.9613
  262.7000   136.1089     7.0781     6.9612
  262.8000   136.2671     7.0780     6.9611
  262.9000   136.2671     7.0779     6.9610
  263.0000   136.2671     7.0778     6.9609
  263.1000   136.2671     7.0777     6.9608
  263.2000   136.2671     7.0776     6.9607
  263.3000   136.2671     7.0775     6.9524
  263.4000   136.2671     7.0774     6.9121
  263.5000   136.2489     7.0773     6.9120
  263.6000   135.9636     7.0772     6.9119
  263.7000   135.9636     7.0771     6.9118
  263.8000   135.9636     7.0770     6.9117
  263.9000   135.9636     7.0769     6.9116
  264.0000   135.9636     7.0768     6.9115
  264.1000   135.9636     7.0767     6.9115
  264.2000   135.9636     7.0766     6.9114
  264.3000   135.9636     7.0765     6.9113
  264.4000   136.2452     7.0764     6.9112
  264.5000   136.7446     7.0764     6.9111
  264.6000   137.2438     7.0763     6.9110
  264.7000   137.7845     7.0762     6.9109
  264.8000   138.2425     7.0761     6.9108
  264.9000   138.3915     7.0760     6.9107
  265.0000   138.6344     7.0758     6.9187
  265.1000   138.9985     7.0758     6.9589
  265.2000   138.9985     7.0757     6.9588
  265.3000   138.9985     7.0756     6.9587
  265.4000   139.2081     7.0755     6.9586
  265.5000   139.3020     7.0754     6.9585
  265.6000   139.3020     7.0752     6.9584
  265.7000   139.3020     7.0752     6.9583
  265.8000   139.3020     7.0751     6.9582
  265.9000   139.3020     7.0750     6.9581
  266.0000   139.1118     7.0749     6.9580
  266.1000   138.9985     7.0748     6.9579
  266.2000   138.8335     7.0747     6.9578
  266.3000   138.3340     7.0746     6.9577
  266.4000   137.7845     7.0745     6.9576
  266.5000   137.3353     7.0744     6.9575
  266.6000   136.8360     7.0743     6.9574
  266.7000   136.3367     7.0742     6.9573
  266.8000   135.9005     7.0741     6.9572
  266.9000   135.6508     7.0740     6.9571
  267.0000   135.3566     7.0739     6.9570
  267.1000   135.1514     7.0738     6.9569
  267.2000   135.0531     7.0737     6.9568
  267.3000   135.0531     7.0736     6.9567
  267.4000   135.0968     7.0735     6.9566
  267.5000   135.3566     7.0734     6.9565
  267.6000   136.3148     7.0733     6.9564
  267.7000   137.3135     7.0732     6.9564
  267.8000   138.0484     7.0731     6.9563
  267.9000   138.5477     7.0730     6.9562
  268.0000   138.9985     7.0729     6.9560
  268.1000   138.9985     7.0728     6.9560
  268.2000   138.9985     7.0876     6.9559
  268.3000   138.9985     7.1222     6.9395
  268.4000   138.9985     7.1221     6.9073
  268.5000   138.9985     7.1220     6.9072
  268.6000   138.9936     7.0923     6.9071
  268.7000   138.6950     7.0722     6.9070
  268.8000   138.4943     7.0721     6.8851
  268.9000   138.3915     7.0720     6.8456
  269.0000   138.3915     7.0719     6.8110
  269.1000   138.3915     7.0365     6.8109
  269.2000   138.3915     6.9960     6.7755
  269.3000   138.3915     6.9558     6.7366
  269.4000   138.7541     6.9158     6.7163
  269.5000   139.3809     6.8766     6.6960
  269.6000   140.1300     6.8765     6.6212
  269.7000   140.8591     6.8448     6.5768
  269.8000   141.4264     6.8054     6.5454
  269.9000   141.6421     6.7663     6.5078
  270.0000   141.8917     6.7211     6.4555
  270.1000   142.0334     6.6401     6.3885
  270.2000   142.0334     6.5681     6.3509
  270.3000   142.0322     6.5203     6.2806
  270.4000   141.2833     6.4828     6.2086
  270.5000   140.7304     6.4455     6.1565
  270.6000   140.0885     6.4118     6.1096
  270.7000   139.5168     6.4117     6.0437
  270.8000   139.2672     6.3793     6.0056
  270.9000   138.9985     6.3670     5.9745
  271.0000   138.5372     6.3669     5.9402
  271.1000   138.3915     6.3580     5.9061
  271.2000   138.3915     6.3224     5.8809
  271.3000   138.4607     6.3223     5.8808
  271.4000   138.7256     6.3222     5.8807
  271.5000   139.3020     6.3221     5.8806
  271.6000   139.9356     6.3220     5.8805
  271.7000   140.6846     6.3220     5.8941
  271.8000   141.8480     6.3219     5.9216
  271.9000   143.3469     6.3218     5.9215
  272.0000   143.8543     6.3217     5.9214
  272.1000   144.3456     6.3216     5.9213
  272.2000   145.6123     6.3215     5.9397
  272.3000   146.5583     6.3177     5.9739
  272.4000   146.8892     6.2773     6.0043
  272.5000   146.9499     6.2452     6.0042
  272.6000   147.4962     6.1853     6.0041
  272.7000   147.2700     6.1144     6.0040
  272.8000   147.0203     6.0444     6.0039
  272.9000   146.6521     5.9738     6.0039
