~VERSION INFORMATION
 VERS.                2.0:   CWLS LOG ASCII STANDARD - VERSION 2.0
 WRAP.                 NO:   ONE LINE PER DEPTH STEP
~WELL INFORMATION
#MNEM.UNIT      DATA TYPE    INFORMATION
#----------   ------------   ------------------------------
 STRT.F           40.0000:   START DEPTH
 STOP.F         3444.0000:   STOP DEPTH
 STEP.F            0.5000:   STEP LENGTH
 NULL.          -999.2500:   NO VALUE
 COMP.    FENIX & SCISSON:   COMPANY
 WELL.     13-A-10 #13-10:   WELL
 FLD .            WILDCAT:   FIELD
 LOC .      S10 T38N R78W:   LOCATION
 CNTY.            NATRONA:   COUNTY
 STAT.            WYOMING:   STATE
 CTRY. UNITED STATES OF AMERICA:   COUNTRY
 SRVC.       Schlumberger:   SERVICE COMPANY
 DATE.        08-JUL-1970:   LOGDATE
 API .       490251090300:   API NUMBER
~CURVE INFORMATION
#MNEM.UNIT       API CODE    CURVE DESCRIPTION
#----------   ------------   ------------------------------
 DEPT.F                  :   
 ASN .OHMM   05 041 16 00:   AMPLIFIED SHORT NORMAL 16"
 CILD.MMHO   05 110 46 00:   CONDUCTIVITY INDUCTION LOG DEEP
 ILD .OHMM   05 120 46 00:   INDUCTION LOG DEEP
 SPR .MV     05 010 01 00:   SPONTANEOUS POTENTIAL FROM RES.
 CALD.IN     45 280 60 00:   CALIPER FROM DENSITY
 CORR.G/C3   45 356 01 00:   DENSITY CORRECTION
 DPHI.DEC    45 890 12 00:   DENSITY POROSITY SANDSTONE
 RHOB.G/C3   45 350 01 00:   BULK DENSITY
~PARAMETER INFORMATION
#MNEM.UNIT          VALUE    DESCRIPTION
#----------   ------------   ------------------------------
 PD  .                 GL:   PERMANENT DATUM
 EPD .F              5295:   ELEVATION PERMANENT DATUM
 LMF .                 KB:   LOG MEASURED FROM
 DAPD.F                10:   FEET ABOVE PERMANENT DATUM
 DMF .                 KB:   DRILLING MEASURED FROM
 EKB .F              5305:   KELLING BUSHING
 EGL .F              5295:   GROUND LEVEL
 DATE.        08-JUL-1970:   RUN DATE
 RUN .                  3:   RUN NUMBER
 DD  .F              3450:   DEPTH DRILLER
 DL  .F              3444:   DEPTH LOGGER
 BLI .F              3443:   BOTTOM LOG INTERVAL
 TLI .F              2950:   TOP LOG INTERVAL
 CS  .IN            10.75:   CASING SIZE
 CBD .F               842:   CASING BOTTOM DRILLER
 BS  .IN                9:   BIT SIZE
 BSD .F              3450:   BIT SIZE AT DEPTH
 DFT .      FRESH GEL MUD:   DRILLING FLUID TYPE
 DFD .               10.4:   DRILLING FLUID DENSITY
 DFV .                 43:   DRILLING FLUID VISCOSITY
 DFPH.                7.6:   DRILLING FLUID PH
 DFL .                  8:   DRILLING FLUID LOSS
 MSS .           FLOWLINE:   MUD SAMPLE SOURCE
 RMS .OHMM              2:   RESISTIVITY MUD SAMPLE
 MST .F                85:   MUD SAMPLE TEMPERATURE
 RMF .OHMM            1.6:   RESISTIVITY MUD FILTRATE SAMPLE
 MFST.F                85:   MUD FILTRATE SAMPLE TEMPERATURE
 MFSS.               MEAS:   MUD FILTRATE SAMPLE SOURCE
 RMB .OHMM           1.49:   RESISTIVITY MUD AT BHT
 BHT .F               114:   BOTTOM HOLE TEMPERATURE
 TCS .HRS               3:   TIME CURCULATED STOPPED
 MRT .F               114:   MAXIMUM RECORDED TEMPERATURE
 LUN .               4507:   LOGGING UNIT NUMBER
 LUL .               CSPR:   LOGGING UNIT LOCATION
 ENGI.             TURNER:   RECORDING ENGINEER
 WITN.                MAY:   WITNESSED BY
 CLNT.            A2DTECH:   CLIENT CODE
 ORIG.     2.5", 5" PRINT:   ORIGIN OF DATA
 UWI .       490251090300:   UNIQUE WELL ID
 DICO. A2D Technologies, Inc.:   DIGITIZING COMPANY
~OTHER INFORMATION
~A   DEPT        ASN      CILD         ILD      SPR       CALD       CORR       DPHI       RHOB   
# ...
 2105.5000     9.1892   120.8678     8.0329   -42.5759     9.8371    -0.0036     0.0609     2.5496
 2106.0000     9.1592   122.3852     7.8925   -42.5774     9.8518    -0.0021     0.0696     2.5368
 2106.5000     9.0896   125.3906     7.8910   -42.2812     9.8666     0.0002     0.0651     2.5406
 2107.0000     8.9870   126.9080     7.7403   -42.2827     9.8662     0.0010     0.0588     2.5414
 2107.5000     8.8939   131.4016     7.5895   -42.2645     9.8659     0.0040     0.0555     2.5511
 2108.0000     8.7708   134.4071     7.5880   -41.9880     9.8656     0.0108     0.0546     2.5571
 2108.5000     8.6176   137.4126     7.4373   -41.9896     9.8654     0.0033     0.0600     2.5466
 2109.0000     8.5415   138.9300     7.3870   -41.9911     9.8657     0.0070     0.0651     2.5398
 2109.5000     8.4685   138.9593     7.2850   -41.9925     9.8660     0.0070     0.0675     2.5368
 2110.0000     8.4084   138.9886     7.2836   -41.9940     9.8664     0.0041     0.0723     2.5338
 2110.5000     8.3784   139.0179     7.2169   -41.9956     9.8667     0.0026     0.0621     2.5444
 2111.0000     8.2883   137.5591     7.1314   -41.9970     9.8670     0.0086     0.0612     2.5466
 2111.5000     8.2282   137.5893     6.9806   -41.9985     9.8673     0.0064     0.0690     2.5406
 2112.0000     8.1682   137.6191     6.9791   -41.7022     9.8677     0.0011     0.0660     2.5316
 2112.5000     8.1081   137.6488     6.8284   -41.7039     9.8680     0.0004     0.0606     2.5474
 2113.0000     8.0781   137.6786     6.6773   -41.7054     9.8683     0.0011     0.0630     2.5451
 2113.5000     8.0180   137.7083     6.6759   -41.7069     9.8687     0.0027     0.0660     2.5436
 2114.0000     8.0160   138.0658     6.5251   -41.7083     9.8690     0.0072     0.0612     2.5504
 2114.5000     7.9845   140.7441     6.3744   -41.7098     9.8693    -0.0041     0.0729     2.5316
 2115.0000     7.9580   142.6842     6.3730   -41.7113     9.8696     0.0087     0.0648     2.5429
 2115.5000     7.9515   145.7358     6.3715   -41.7128     9.8700     0.0163     0.0570     2.5586
 2116.0000     7.8819   148.7905     6.2208   -41.7143     9.8703     0.0223     0.0534     2.5586
 2116.5000     7.7588   153.8928     6.0701   -41.7158     9.8706     0.0170     0.0572     2.5519
 2117.0000     7.6357   157.8725     6.0686   -41.4197     9.8709     0.0133     0.0723     2.5293
 2117.5000     7.4575   158.7797     6.0671   -41.4214     9.8713     0.0388     0.0675     2.5331
 2118.0000     7.1811   157.3214     6.0657   -41.4229     9.8716     0.0328     0.0702     2.5308
 2118.5000     7.0571   155.8631     6.0676   -41.4244     9.8719     0.0524     0.0925     2.5128
 2119.0000     7.2193   154.4047     6.2209   -41.4258     9.8722    -0.0032     0.0965     2.4865
 2119.5000     7.6877   152.1005     6.3741   -41.4273     9.8726    -0.0047     0.0933     2.5135
 2120.0000     8.0781   147.0297     6.6568   -41.4288     9.8729     0.0014     0.0674     2.5429
 2120.5000     8.3183   141.1066     6.8299   -41.4302     9.8732     0.0034     0.0501     2.5632
 2121.0000     8.4685   135.1835     7.1324   -41.1340     9.8740     0.0141     0.0483     2.5684
 2121.5000     8.5586   130.7485     7.4349   -41.1356     9.8752     0.0052     0.0507     2.5654
 2122.0000     8.5586   126.3135     7.5880   -41.1370     9.8763     0.0037     0.0534     2.5594
 2122.5000     8.5285   123.3631     7.4975   -41.1385     9.8775     0.0052     0.0603     2.5519
 2123.0000     8.4985   130.8364     7.1394   -41.1400     9.8787     0.0059     0.0651     2.5429
 2123.5000     8.4379   141.2824     6.6463   -41.1414     9.8798     0.0045     0.0663     2.5390
 2124.0000     8.3403   148.7522     6.4318   -41.1429     9.8810     0.0037     0.0670     2.5368
 2124.5000     8.0236   153.2457     6.1955   -41.1444     9.8822     0.0165     0.0829     2.5128
 2125.0000     7.6626   156.2512     6.0448   -41.1458     9.8833     0.0473     0.0886     2.5045
 2125.5000     7.3419   159.2567     5.9632   -41.1473     9.8845     0.0548     0.0889     2.5030
 2126.0000     7.0029   160.7741     5.8925   -41.1488     9.8849     0.0226     0.1057     2.4609
 2126.5000     6.8769   162.3094     6.0400   -41.1503     9.8695     0.0361     0.0835     2.5120
 2127.0000     7.1122   163.8089     6.1878   -41.1518     9.8692     0.0076     0.0806     2.5165
 2127.5000     7.4324   160.5265     6.6341   -41.1931     9.8539     0.0136     0.0654     2.5429
 2128.0000     7.8459   153.1361     6.7819   -41.5001     9.8536     0.0159     0.0492     2.5677
 2128.5000     8.1401   147.1168     7.0789   -41.7515     9.8533     0.0181     0.0383     2.5858
 2129.0000     8.3223   141.1018     7.2268   -42.0506     9.8530     0.0144     0.0410     2.5789
 2129.5000     8.4384   136.8729     7.3745   -42.0521     9.8527     0.0136     0.0453     2.5722
 2130.0000     8.4685   132.3908     7.5223   -41.7558     9.8675     0.0015     0.0540     2.5609
 2130.5000     8.4985   129.7878     7.6701   -41.6702     9.8521    -0.0051     0.0660     2.5406
 2131.0000     8.5586   129.8214     7.6686   -41.3661     9.8518    -0.0013     0.0672     2.5398
 2131.5000     8.5886   129.8512     7.5179   -41.1649     9.8515     0.0077     0.0650     2.5444
 2132.0000     8.6186   129.8810     7.5143   -41.0557     9.8512     0.0070     0.0615     2.5474
 2132.5000     8.6186   130.4939     7.3582   -40.8702     9.8509     0.0070     0.0594     2.5504
 2133.0000     8.5886   131.4286     7.2149   -41.1696     9.8506     0.0085     0.0600     2.5526
 2133.5000     8.4975   132.9464     7.2134   -41.1711     9.8503     0.0108     0.0594     2.5429
 2134.0000     8.4044   134.4643     7.1881   -41.1726     9.8500     0.0108     0.0510     2.5639
 2134.5000     8.3113   135.2654     7.0612   -41.3250     9.8648     0.0108     0.0483     2.5654
 2135.0000     8.2282   136.0119     7.0597   -41.4732     9.8645     0.0116     0.0594     2.5541
 2135.5000     8.1982   137.5297     7.0180   -41.4747     9.8642     0.0123     0.0654     2.5429
 2136.0000     8.1982   139.0533     6.9077   -41.4762     9.8638     0.0011     0.0657     2.5406
 2136.5000     8.2077   139.0826     7.0555   -41.1800     9.8635    -0.0072     0.0717     2.5323
 2137.0000     8.2583   137.6238     7.2033   -41.1818     9.8632    -0.0026     0.0594     2.5496
 2137.5000     8.3183   136.1650     7.4130   -41.1833     9.8630     0.0004     0.0582     2.5526
 2138.0000     8.3623   133.2181     7.7154   -41.1847     9.8626     0.0041     0.0618     2.5474
 2138.5000     8.4540   130.2712     7.8687   -41.1862     9.8623     0.0079     0.0615     2.5444
 2139.0000     8.5326   127.3243     8.0925   -41.1877     9.8620     0.0064     0.0639     2.5474
 2139.5000     8.7688   124.3774     8.2403   -41.1892     9.8617     0.0064     0.0594     2.5511
 2140.0000     9.0691   121.4286     8.3878   -41.1906     9.8765     0.0035     0.0582     2.5534
 2140.5000     9.2793   119.9702     8.2370   -41.4897     9.8762     0.0012     0.0588     2.5519
 2141.0000     9.4595   120.0010     8.2356   -41.4912     9.8909     0.0005     0.0624     2.5474
 2141.5000     9.4895   120.0303     8.0849   -41.1950     9.8906    -0.0040     0.0612     2.5436
 2142.0000     9.3994   120.0596     8.0834   -41.1965     9.8904     0.0119     0.0561     2.5526
 2142.5000     9.3093   121.5774     7.9327   -41.1980     9.9051     0.0193     0.0492     2.5639
 2143.0000     9.0991   121.6071     7.9312   -41.1994     9.9349     0.0103     0.0531     2.5579
 2143.5000     8.9179   121.6369     7.7805   -41.2009     9.9647     0.0103     0.0567     2.5579
 2144.0000     8.7928   123.3334     7.7790   -40.9048     9.9644     0.0096     0.0627     2.5489
 2144.5000     8.6081   125.1244     7.7776   -40.9062     9.9642     0.0042     0.0732     2.5316
 2145.0000     8.4585   127.9514     7.7761   -40.9077     9.9638    -0.0039     0.0699     2.5316
 2145.5000     8.3654   130.6845     7.6254   -40.9093     9.9635     0.0014     0.0690     2.5353
