~VERSION INFORMATION
 VERS.                2.0:   CWLS LOG ASCII STANDARD - VERSION 2.0
 WRAP.                 NO:   ONE LINE PER DEPTH STEP
~WELL INFORMATION
#MNEM.UNIT      DATA TYPE    INFORMATION
#----------   ------------   ------------------------------
 STRT.F            4.0000:   START DEPTH
 STOP.F          584.0000:   STOP DEPTH
 STEP.F            0.1000:   STEP LENGTH
 NULL.          -999.2500:   NO VALUE
 COMP.       F D SERV INC:   COMPANY
 WELL. N P R 3 SX-3 #62-3:   WELL
 FLD .             TEAPOT:   FIELD
 LOC .       S3 T38N R78W:   LOCATION
 CNTY.            NATRONA:   COUNTY
 STAT.            WYOMING:   STATE
 CTRY. UNITED STATES OF AMERICA:   COUNTRY
 SRVC.     Atlas Wireline:   SERVICE COMPANY
 DATE.        17-APR-1992:   LOGDATE
 API .       490252251600:   API NUMBER
~CURVE INFORMATION
#MNEM.UNIT       API CODE    CURVE DESCRIPTION
#----------   ------------   ------------------------------
 DEPT.F                  :   
 GRR .GAPI   07 310 01 00:   GAMMA RAY
 RILD.OHMM   07 120 46 00:   INDUCTION LOG DEEP RESISTIVITY
 RILM.OHMM   07 120 44 00:   INDUCTION LOG MEDIUM RESISTIVITY
~PARAMETER INFORMATION
#MNEM.UNIT          VALUE    DESCRIPTION
#----------   ------------   ------------------------------
 PD  .                 GL:   PERMANENT DATUM
 EPD .F              5135:   ELEVATION PERMANENT DATUM
 LMF .                 KB:   LOG MEASURED FROM
 DAPD.F                 5:   FEET ABOVE PERMANENT DATUM
 DMF .                 KB:   DRILLING MEASURED FROM
 EKB .F              5140:   KELLING BUSHING
 EDF .F              5139:   DRILLING FLOOR
 EGL .F              5135:   GROUND LEVEL
 DATE.        17-APR-1992:   RUN DATE
 RUN .                  1:   RUN NUMBER
 DD  .F               589:   DEPTH DRILLER
 DL  .F               590:   DEPTH LOGGER
 BLI .F               584:   BOTTOM LOG INTERVAL
 TLI .F                48:   TOP LOG INTERVAL
 CS  .IN            8.625:   CASING SIZE
 CBD .F                48:   CASING BOTTOM DRILLER
 CBL .F                48:   CASING BOTTOM LOGGER
 BS  .IN            7.875:   BIT SIZE
 BSD .F               589:   BIT SIZE AT DEPTH
 DFT .                AIR:   DRILLING FLUID TYPE
 TCS .HRS               2:   TIME CURCULATED STOPPED
 MRT .F                85:   MAXIMUM RECORDED TEMPERATURE
 LUN .            HL-6274:   LOGGING UNIT NUMBER
 LUL .             CASPER:   LOGGING UNIT LOCATION
 ENGI.             RAUTIO:   RECORDING ENGINEER
 WITN.        GARY STRONG:   WITNESSED BY
 CLNT.            A2DTECH:   CLIENT CODE
 ORIG.           5" PRINT:   ORIGIN OF DATA
 UWI .       490252251600:   UNIQUE WELL ID
 DICO. A2D Technologies, Inc.:   DIGITIZING COMPANY
~OTHER INFORMATION
~A    DEPT      GRR      RILD       RILM   
# ...
  167.8000   137.4787     7.8122     7.8100
  167.9000   137.3749     7.7392     7.8090
  168.0000   136.8500     7.7383     7.8079
  168.1000   136.5948     7.7375     7.8066
  168.2000   136.3354     7.7366     7.8057
  168.3000   135.9326     7.7357     7.8046
  168.4000   135.4159     7.7349     7.8035
  168.5000   134.8660     7.7340     7.8024
  168.6000   134.0261     7.7331     7.8013
  168.7000   133.7886     7.7323     7.8003
  168.8000   133.1674     7.7628     7.7991
  168.9000   132.6447     7.7848     7.8225
  169.0000   132.3146     7.7962     7.8516
  169.1000   131.7974     7.8377     7.8560
  169.2000   131.2022     7.8366     7.9044
  169.3000   130.7640     7.8358     7.9033
  169.4000   130.4104     7.8637     7.9342
  169.5000   130.1510     7.8890     7.9566
  169.6000   129.8384     7.8976     7.9555
  169.7000   129.3181     7.9426     7.9574
  169.8000   129.0604     7.9417     8.0089
  169.9000   128.8011     7.9408     8.0079
  170.0000   128.3959     7.9399     8.0068
  170.1000   128.1515     7.9390     8.0056
  170.2000   128.4071     7.9446     8.0149
  170.3000   128.6817     7.9929     8.0602
  170.4000   129.1567     8.0348     8.1147
  170.5000   130.0363     8.0802     8.1515
  170.6000   130.8079     8.1026     8.1695
  170.7000   131.3211     8.1017     8.1864
  170.8000   131.8524     8.1042     8.2247
  170.9000   132.7329     8.1566     8.2234
  171.0000   132.9521     8.1558     8.2223
  171.1000   133.3734     8.1549     8.2211
  171.2000   133.6650     8.1743     8.2456
  171.3000   133.6631     8.2206     8.2921
  171.4000   133.6613     8.2671     8.3390
  171.5000   133.6594     8.3140     8.3905
  171.6000   133.2508     8.3231     8.4335
  171.7000   132.7340     8.3498     8.4470
  171.8000   132.0307     8.3796     8.4458
  171.9000   131.0369     8.3787     8.4447
  172.0000   130.2124     8.3776     8.4435
  172.1000   129.4880     8.3768     8.4422
  172.2000   129.0854     8.3758     8.4829
  172.3000   128.8260     8.3995     8.5308
  172.4000   128.6425     8.4470     8.5790
  172.5000   128.6406     8.4948     8.6163
  172.6000   128.6385     8.5493     8.6152
  172.7000   128.8602     8.5484     8.6741
  172.8000   128.9475     8.5798     8.6732
  172.9000   128.9457     8.6065     8.6720
  173.0000   129.0020     8.6056     8.6707
  173.1000   129.2544     8.6046     8.6695
  173.2000   129.2525     8.7047     8.6683
  173.3000   129.2506     8.7640     8.7152
  173.4000   129.2487     8.7839     8.7267
  173.5000   129.1511     8.8018     8.7526
  173.6000   128.9325     8.8437     8.8020
  173.7000   128.9305     8.8425     8.8459
  173.8000   128.6855     8.8416     8.8444
  173.9000   128.2378     8.8406     8.8433
  174.0000   127.8542     8.8660     8.8776
  174.1000   127.5948     8.9162     8.9028
  174.2000   127.3353     8.9621     8.9016
  174.3000   127.0441     8.9609     8.9003
  174.4000   127.0425     8.9600     8.8989
  174.5000   127.0406     8.9590     8.8978
  174.6000   127.0387     8.9580     8.8966
  174.7000   127.0976     8.9570     8.8954
  174.8000   127.3475     8.9560     8.9054
  174.9000   127.3453     8.9548     8.9552
  175.0000   127.3438     8.9540     8.9539
  175.1000   127.3419     8.9530     8.9527
  175.2000   127.4383     8.9520     8.9819
  175.3000   127.6939     8.9509     9.0130
  175.4000   127.9612     8.9499     9.0117
  175.5000   128.4511     8.9490     9.0104
  175.6000   128.7734     8.9480     9.0092
  175.7000   129.3008     8.9470     9.0080
  175.8000   129.9904     8.9460     9.0067
  175.9000   130.4777     8.9450     9.0054
  176.0000   130.7623     8.9439     9.0042
  176.1000   130.9889     8.9888     9.0028
  176.2000   131.0712     9.0047     9.0017
  176.3000   131.1878     9.0036     9.0004
  176.4000   131.3800     9.0027     8.9992
  176.5000   131.3864     9.0000     8.9979
  176.6000   131.6884     8.9378     8.9966
  176.7000   131.6868     8.9370     8.9952
  176.8000   131.8409     8.9360     8.9941
  176.9000   131.9957     8.9350     8.9598
  177.0000   132.0396     8.9340     8.9290
  177.1000   132.3043     8.9330     8.9277
  177.2000   132.3025     8.9320     8.9265
  177.3000   132.3006     8.9310     8.9253
  177.4000   132.4371     8.9300     8.9240
  177.5000   132.6928     8.9124     8.9228
  177.6000   132.9202     8.8658     8.9023
  177.7000   132.9179     8.8647     8.8581
  177.8000   133.3779     8.8638     8.8568
  177.9000   133.5394     8.8281     8.8556
  178.0000   133.6584     8.8001     8.8544
  178.1000   133.9799     8.7991     8.8532
  178.2000   134.4820     8.7982     8.8520
  178.3000   134.7816     8.7970     8.8508
  178.4000   135.2066     8.7962     8.8494
  178.5000   135.7197     8.7952     8.8483
  178.6000   136.2328     8.7942     8.8470
  178.7000   136.7461     8.7837     8.8458
  178.8000   137.2724     8.7310     8.8309
  178.9000   137.2706     8.7300     8.7817
  179.0000   137.4646     8.6910     8.7803
  179.1000   137.7202     8.6674     8.7793
  179.2000   137.9758     8.6498     8.7459
  179.3000   138.2009     8.6051     8.7157
  179.4000   138.1986     8.6040     8.7037
  179.5000   138.1969     8.5584     8.6526
  179.6000   138.0166     8.5423     8.6514
  179.7000   137.5107     8.5413     8.6502
  179.8000   136.6681     8.5404     8.6200
  179.9000   135.6225     8.5394     8.5875
  180.0000   134.1247     8.5383     8.5863
  180.1000   133.0437     8.4964     8.5851
  180.2000   132.3978     8.4771     8.5839
  180.3000   132.1385     8.4561     8.5462
  180.4000   131.9304     8.4162     8.5217
  180.5000   132.2406     8.4152     8.5049
  180.6000   132.2387     8.4143     8.4601
  180.7000   132.2368     8.4133     8.4587
  180.8000   132.5217     8.4124     8.4577
  180.9000   132.9464     8.4115     8.4901
  181.0000   133.2020     8.4106     8.5146
  181.1000   133.4792     8.4095     8.5134
  181.2000   133.4775     8.4087     8.5122
  181.3000   133.4756     8.4077     8.5109
  181.4000   133.4738     8.4305     8.5515
  181.5000   133.3303     8.4648     8.5683
  181.6000   132.7979     8.4638     8.5671
  181.7000   131.9053     8.4627     8.5659
  181.8000   131.4672     8.4619     8.5647
  181.9000   131.2769     8.4610     8.5635
  182.0000   131.2750     8.4806     8.5623
  182.1000   131.2731     8.5184     8.5611
  182.2000   131.2712     8.5175     8.5600
  182.3000   131.2694     8.5165     8.5667
  182.4000   131.2675     8.5156     8.6175
  182.5000   131.2656     8.5146     8.6637
  182.6000   131.2637     8.5137     8.6756
  182.7000   131.2618     8.5127     8.7009
  182.8000   131.2599     8.5117     8.7340
  182.9000   131.2581     8.5563     8.7328
  183.0000   131.0730     8.6047     8.7314
  183.1000   130.9418     8.6286     8.7756
  183.2000   130.7932     8.6419     8.7904
  183.3000   130.2765     8.6873     8.7891
  183.4000   129.6860     8.6861     8.8013
  183.5000   128.3592     8.7283     8.8509
  183.6000   127.3101     8.7452     8.9088
  183.7000   126.7573     8.7443     8.9512
  183.8000   126.5538     8.7433     8.9690
  183.9000   126.5519     8.7423     8.9896
  184.0000   126.5500     8.7920     9.0294
  184.1000   126.9548     8.8418     9.0281
  184.2000   127.3196     8.8918     9.0269
  184.3000   127.7622     8.9235     9.0256
  184.4000   128.4559     8.9302     9.0545
  184.5000   128.7280     8.9840     9.1057
  184.6000   129.2079     8.9831     9.1571
  184.7000   129.5352     9.0196     9.2116
  184.8000   129.7907     9.0974     9.2104
  184.9000   129.9706     9.1703     9.2483
  185.0000   129.9688     9.1736     9.2724
  185.1000   129.9666     9.2324     9.2711
  185.2000   129.7417     9.2315     9.2753
  185.3000   129.4823     9.3005     9.3333
  185.4000   128.9962     9.4071     9.4290
  185.5000   128.2800     9.4901     9.4622
  185.6000   127.7666     9.4890     9.4867
  185.7000   127.5073     9.5993     9.5259
  185.8000   127.4538     9.6648     9.5301
  185.9000   127.4519     9.7195     9.6570
