~VERSION INFORMATION
 VERS.                2.0:   CWLS LOG ASCII STANDARD - VERSION 2.0
 WRAP.                 NO:   ONE LINE PER DEPTH STEP
~WELL INFORMATION
#MNEM.UNIT      DATA TYPE    INFORMATION
#----------   ------------   ------------------------------
 STRT.F           20.0000:   START DEPTH
 STOP.F          468.0000:   STOP DEPTH
 STEP.F            0.1000:   STEP LENGTH
 NULL.          -999.2500:   NO VALUE
 COMP. LAWRENCE/ALLISON INC:   COMPANY
 WELL.    63-51 SX #10-10:   WELL
 FLD .             TEAPOT:   FIELD
 LOC .      S10 T38N R78W:   LOCATION
 CNTY.            NATRONA:   COUNTY
 STAT.            WYOMING:   STATE
 CTRY. UNITED STATES OF AMERICA:   COUNTRY
 SRVC.           Gearhart:   SERVICE COMPANY
 DATE.        01-OCT-1988:   LOGDATE
 API .       490251125100:   API NUMBER
~CURVE INFORMATION
#MNEM.UNIT       API CODE    CURVE DESCRIPTION
#----------   ------------   ------------------------------
 DEPT.F                  :   
 GRR .GAPI   07 310 01 00:   GAMMA RAY
 RILD.OHMM   07 120 46 00:   INDUCTION LOG DEEP RESISTIVITY
 RILM.OHMM   07 120 44 00:   INDUCTION LOG MEDIUM RESISTIVITY
~PARAMETER INFORMATION
#MNEM.UNIT          VALUE    DESCRIPTION
#----------   ------------   ------------------------------
 PD  .                 GL:   PERMANENT DATUM
 EPD .F              5157:   ELEVATION PERMANENT DATUM
 LMF .                 KB:   LOG MEASURED FROM
 DAPD.F                 5:   FEET ABOVE PERMANENT DATUM
 DMF .                 KB:   DRILLING MEASURED FROM
 EKB .F              5162:   KELLING BUSHING
 EGL .F              5157:   GROUND LEVEL
 DATE.        01-OCT-1988:   RUN DATE
 RUN .                  1:   RUN NUMBER
 DD  .F               475:   DEPTH DRILLER
 DL  .F               476:   DEPTH LOGGER
 BLI .F               468:   BOTTOM LOG INTERVAL
 TLI .F                20:   TOP LOG INTERVAL
 CS  .IN            9.625:   CASING SIZE
 CBD .F                45:   CASING BOTTOM DRILLER
 CBL .F                46:   CASING BOTTOM LOGGER
 BS  .IN             7.87:   BIT SIZE
 BSD .F               475:   BIT SIZE AT DEPTH
 TLAB.HRS            1630:   TIME LOGGER AT BOTTOM
 MRT .F                75:   MAXIMUM RECORDED TEMPERATURE
 LUN .               7597:   LOGGING UNIT NUMBER
 LUL .           GILLETTE:   LOGGING UNIT LOCATION
 ENGI.              BENCK:   RECORDING ENGINEER
 WITN.             STRONG:   WITNESSED BY
 CLNT.            A2DTECH:   CLIENT CODE
 ORIG.           5" PRINT:   ORIGIN OF DATA
 UWI .       490251125100:   UNIQUE WELL ID
 DICO. A2D Technologies, Inc.:   DIGITIZING COMPANY
~OTHER INFORMATION
~A   DEPT       GRR      RILD       RILM   
# ...
  420.4000   111.3380    10.6913    10.6001
  420.5000   111.3407    10.6341    10.5717
  420.6000   111.5635    10.6341    10.5259
  420.7000   111.6507    10.6341    10.5261
  420.8000   111.6531    10.5982    10.5263
  420.9000   111.7015    10.5593    10.4803
  421.0000   111.9635    10.5593    10.4526
  421.1000   112.2007    10.5593    10.4527
  421.2000   112.2736    10.5058    10.4529
  421.3000   112.5132    10.4850    10.4531
  421.4000   112.9494    10.4599    10.4532
  421.5000   113.2008    10.4113    10.4533
  421.6000   113.6977    10.4113    10.4535
  421.7000   114.1944    10.3549    10.4460
  421.8000   114.8236    10.3381    10.3804
  421.9000   115.6418    10.3098    10.3278
  422.0000   116.6168    10.2654    10.3078
  422.1000   117.4868    10.2654    10.2831
  422.2000   118.1044    10.2654    10.2246
  422.3000   118.5543    10.2654    10.1639
  422.4000   118.8038    10.2336    10.1089
  422.5000   119.0229    10.1932    10.0929
  422.6000   119.0256    10.1889    10.0651
  422.7000   119.0278    10.1215    10.0222
  422.8000   119.0302    10.1215    10.0214
  422.9000   118.9297    10.0866     9.9646
  423.0000   118.7293    10.0291     9.9081
  423.1000   118.7323     9.9796     9.8518
  423.2000   118.5009     9.9796     9.7959
  423.3000   118.2564     9.9283     9.7445
  423.4000   118.0117     9.8718     9.7447
  423.5000   117.8260     9.8155     9.6980
  423.6000   117.8284     9.7595     9.6430
  423.7000   117.8308     9.7018     9.6087
  423.8000   117.6436     9.6486     9.6012
  423.9000   117.3989     9.5936     9.5415
  424.0000   117.1542     9.5658     9.4925
  424.1000   116.9095     9.5517     9.4748
  424.2000   116.6221     9.4986     9.4749
  424.3000   116.6241     9.4986     9.4750
  424.4000   116.4808     9.4986     9.4752
  424.5000   116.2362     9.4986     9.4753
  424.6000   115.9916     9.4986     9.4754
  424.7000   115.7181     9.4986     9.5026
  424.8000   115.7203     9.4986     9.5427
  424.9000   115.5628     9.5450     9.5428
  425.0000   115.3180     9.5658     9.5430
  425.1000   115.0734     9.5658     9.5431
  425.2000   114.8142     9.5739     9.5432
  425.3000   114.8165     9.6336     9.5434
  425.4000   114.6446     9.6841     9.5435
  425.5000   114.5160     9.7018     9.5437
  425.6000   114.5185     9.7018     9.5438
  425.7000   114.5209     9.7018     9.5779
  425.8000   114.7701     9.7018     9.6116
  425.9000   115.0196     9.7561     9.6117
  426.0000   115.2691     9.7705     9.6118
  426.1000   115.5187     9.7988     9.6119
  426.2000   115.7822     9.8397     9.6121
  426.3000   116.3681     9.8397     9.6122
  426.4000   116.5728     9.8397     9.6123
  426.5000   116.8224     9.8397     9.6125
  426.6000   117.0720     9.8397     9.6127
  426.7000   117.3498     9.8397     9.6128
  426.8000   117.9069     9.8397     9.6129
  426.9000   118.1261     9.8397     9.6130
  427.0000   118.3756     9.8397     9.6132
  427.1000   118.6251     9.8397     9.6133
  427.2000   118.8746     9.8397     9.6134
  427.3000   119.1403     9.8397     9.6136
  427.4000   119.3739     9.8397     9.6137
  427.5000   119.6233     9.8397     9.6082
  427.6000   119.8729     9.8397     9.5465
  427.7000   120.1226     9.8397     9.5466
  427.8000   120.3738     9.8397     9.5467
  427.9000   120.3762     9.8397     9.5469
  428.0000   120.3786     9.8397     9.5470
  428.1000   120.1229     9.8397     9.5471
  428.2000   119.7019     9.8106     9.5473
  428.3000   119.4447     9.7705     9.5096
  428.4000   118.8621     9.7705     9.4805
  428.5000   118.2262     9.7705     9.4684
  428.6000   117.4460     9.7252     9.4142
  428.7000   116.6658     9.6697     9.3612
  428.8000   115.8857     9.6146     9.3081
  428.9000   115.1055     9.5658     9.2552
  429.0000   114.3253     9.5658     9.2177
  429.1000   113.5452     9.5181     9.2151
  429.2000   113.0797     9.4986     9.1533
  429.3000   113.0821     9.4766     9.1108
  429.4000   113.0847     9.4318     9.0591
  429.5000   113.0870     9.4318     9.0076
  429.6000   113.0895     9.3813     8.9623
  429.7000   113.3192     9.3279     8.9625
  429.8000   113.9265     9.2996     8.9177
  429.9000   114.9289     9.2996     8.8671
  430.0000   115.9085     9.2996     8.8167
  430.1000   118.0157     9.2466     8.7666
  430.2000   119.9774     9.2342     8.7140
  430.3000   121.1844     9.2062     8.6674
  430.4000   121.6814     9.1692     8.6182
  430.5000   122.2722     9.1692     8.5463
  430.6000   122.6747     9.1692     8.4607
  430.7000   123.0294     9.1260     8.4127
  430.8000   123.3627     9.0740     8.3649
  430.9000   123.8597     9.0407     8.3174
  431.0000   124.4217     9.0344     8.2702
  431.1000   124.6385     8.9771     8.2232
  431.2000   124.7316     8.9771     8.1765
  431.3000   124.5380     8.9437     8.1223
  431.4000   124.0462     8.9140     8.1224
  431.5000   123.5177     8.9140     8.1225
  431.6000   122.8337     8.9140     8.1395
  431.7000   122.0946     8.8657     8.1802
  431.8000   121.3556     8.8513     8.1803
  431.9000   120.6710     8.8270     8.1804
  432.0000   120.1710     8.7890     8.2114
  432.1000   119.4442     8.7890     8.2385
  432.2000   118.5208     8.7890     8.2386
  432.3000   117.6612     8.7501     8.2387
  432.4000   116.9221     8.7272     8.2389
  432.5000   116.1935     8.7119     8.2390
  432.6000   115.6060     8.6659     8.2391
  432.7000   115.0107     8.6659     8.2275
  432.8000   114.5534     8.6659     8.1807
  432.9000   114.2259     8.6360     8.1343
  433.0000   113.7344     8.6049     8.1243
  433.1000   113.1753     8.5982     8.0991
  433.2000   113.1774     8.5444     8.0531
  433.3000   113.1798     8.5005     8.0074
  433.4000   113.1823     8.4521     7.9548
  433.5000   113.2234     8.4039     7.9167
  433.6000   113.4927     8.3560     7.8446
  433.7000   113.7225     8.3066     7.7887
  433.8000   114.1414     8.2158     7.7826
  433.9000   114.8605     8.1561     7.7342
  434.0000   115.7455     8.1096     7.6549
  434.1000   116.2529     8.0753     7.5971
  434.2000   117.2226     8.0742     7.5539
  434.3000   118.0301     8.0282     7.5110
  434.4000   118.8994     8.0185     7.4670
  434.5000   119.8229     8.0185     7.3852
  434.6000   120.5666     8.0185     7.3627
  434.7000   121.4588     8.0225     7.3419
  434.8000   121.8565     8.0753     7.3002
  434.9000   122.4929     8.0753     7.2587
  435.0000   123.1554     8.0753     7.2176
  435.1000   123.6519     8.0930     7.1766
  435.2000   124.2190     8.1325     7.1586
  435.3000   124.6453     8.1325     7.1587
  435.4000   125.1420     8.1325     7.1588
  435.5000   125.4473     8.1642     7.1589
  435.6000   125.4122     8.1901     7.1590
  435.7000   125.1471     8.1901     7.1592
  435.8000   125.1493     8.1901     7.1592
  435.9000   125.1517     8.2359     7.1593
  436.0000   125.1542     8.2481     7.1594
  436.1000   125.1566     8.2721     7.1595
  436.2000   125.1591     8.3066     7.1597
  436.3000   125.4021     8.3084     7.1781
  436.4000   125.4693     8.3654     7.2193
  436.5000   125.5959     8.4039     7.2616
  436.6000   125.9115     8.4246     7.3024
  436.7000   126.4003     8.4407     7.3443
  436.8000   126.6500     8.4843     7.3649
  436.9000   126.8995     8.4843     7.3767
  437.0000   127.0107     8.5264     7.4189
  437.1000   126.9328     8.5753     7.4698
  437.2000   126.6882     8.6244     7.5044
  437.3000   126.4077     8.6739     7.5475
  437.4000   125.7771     8.7272     7.5908
  437.5000   125.1908     8.7735     7.6343
  437.6000   124.6046     8.8239     7.6839
  437.7000   123.8654     8.8745     7.7607
  437.8000   123.0610     8.9253     7.8214
  437.9000   121.9379     8.9771     7.8663
  438.0000   121.0383     9.0280     7.9189
  438.1000   120.6254     9.0797     8.0163
  438.2000   120.6278     9.1318     8.1021
  438.3000   120.6303     9.1841     8.1953
  438.4000   120.6327     9.2368     8.2676
  438.5000   120.6351     9.2996     8.3258
