~VERSION INFORMATION
 VERS.                2.0:   CWLS LOG ASCII STANDARD - VERSION 2.0
 WRAP.                 NO:   ONE LINE PER DEPTH STEP
~WELL INFORMATION
#MNEM.UNIT      DATA TYPE    INFORMATION
#----------   ------------   ------------------------------
 STRT.F           30.5000:   START DEPTH
 STOP.F          674.0000:   STOP DEPTH
 STEP.F            0.5000:   STEP LENGTH
 NULL.          -999.2500:   NO VALUE
 COMP. FENIX & SCISSON INC:   COMPANY
 WELL. NPR 3 #37 SX 34-34:   WELL
 FLD .        TEAPOT DOME:   FIELD
 LOC .      S34 T39N R78W:   LOCATION
 CNTY.            NATRONA:   COUNTY
 STAT.            WYOMING:   STATE
 CTRY. UNITED STATES OF AMERICA:   COUNTRY
 SRVC.           BIRDWELL:   SERVICE COMPANY
 DATE.        21-JAN-1979:   LOGDATE
 API .       490251074400:   API NUMBER
~CURVE INFORMATION
#MNEM.UNIT       API CODE    CURVE DESCRIPTION
#----------   ------------   ------------------------------
 DEPT.F                  :   
 SPR .MV     05 010 01 00:   SPONTANEOUS POTENTIAL FROM RES.
 SN  .OHMM   05 040 16 00:   SHORT NORMAL 16"
 IL  .OHMM   05 120 00 00:   INDUCTION LOG
 CALD.IN     45 280 60 00:   CALIPER
 GRD .GAPI   45 310 01 00:   GAMMA RAY FROM DENSITY LOG
 RHOB.G/C3   45 350 01 00:   BULK DENSITY
 DPHI.DEC    45 890 12 00:   DENSITY POROSITY SANDSTONE
 CORR.G/C3   45 356 01 00:   DENSITY CORRECTION
~PARAMETER INFORMATION
#MNEM.UNIT          VALUE    DESCRIPTION
#----------   ------------   ------------------------------
 PD  .                 GL:   PERMANENT DATUM
 EPD .F              5175:   ELEVATION PERMANENT DATUM
 LMF .                 KB:   LOG MEASURED FROM
 DAPD.F                 4:   FEET ABOVE PERMANENT DATUM
 DMF .                 KB:   DRILLING MEASURED FROM
 EKB .F              5179:   KELLING BUSHING
 EGL .F              5175:   GROUND LEVEL
 DATE.            1-21-79:   RUN DATE
 RUN .                  1:   RUN NUMBER
 DD  .F               674:   DEPTH DRILLER
 DL  .F               673:   DEPTH LOGGER
 BLI .F               666:   BOTTOM LOG INTERVAL
 TLI .F                40:   TOP LOG INTERVAL
 CS  .IN            8.625:   CASING SIZE
 CBD .F                40:   CASING BOTTOM DRILLER
 CBL .F                30:   CASING BOTTOM LOGGER
 BS  .IN            7.875:   BIT SIZE
 BSD .F               674:   BIT SIZE AT DEPTH
 DFT .                KCL:   DRILLING FLUID TYPE
 DFD .                8.8:   DRILLING FLUID DENSITY
 DFV .                 60:   DRILLING FLUID VISCOSITY
 DFPH.                9.5:   DRILLING FLUID PH
 DFL .                  8:   DRILLING FLUID LOSS
 MSS .           FLOWLINE:   MUD SAMPLE SOURCE
 RMS .OHMM            .23:   RESISTIVITY MUD SAMPLE
 MST .F                56:   MUD SAMPLE TEMPERATURE
 MFSS.           MEASURED:   MUD FILTRATE SAMPLE SOURCE
 MCSS.           MEASURED:   MUD CAKE SAMPLE SOURCE
 RMB .OHMM            .22:   RESISTIVITY MUD AT BHT
 BHT .F                60:   BOTTOM HOLE TEMPERATURE
 TCS .HRS               4:   TIME CURCULATED STOPPED
 MRT .F                60:   MAXIMUM RECORDED TEMPERATURE
 LUN .               3006:   LOGGING UNIT NUMBER
 LUL .             CASPER:   LOGGING UNIT LOCATION
 ENGI.            ROLLINS:   RECORDING ENGINEER
 WITN.           DINSMORE:   WITNESSED BY
 CLNT.            A2DTECH:   CLIENT CODE
 ORIG.       2", 5" PRINT:   ORIGIN OF DATA
 UWI .       490251074400:   UNIQUE WELL ID
 DICO. A2D Technologies, Inc.:   DIGITIZING COMPANY
~OTHER INFORMATION
~A   DEPT      SPR         SN         IL       CALD        GRD       RHOB       DPHI       CORR   
# ...
  597.5000   -49.2250     8.8000    10.3250     8.3390    97.5000     2.4740     0.1210     0.0180
  598.0000   -49.2670     8.7850    10.3010     8.3390    99.7700     2.4750     0.1180     0.0190
  598.5000   -49.3080     8.7690    10.2770     8.3390    97.9350     2.4780     0.1150     0.0190
  599.0000   -49.3490     8.7530    10.2530     8.3390    94.2070     2.4810     0.1140     0.0190
  599.5000   -49.3900     8.7370    10.2290     8.3360    96.0940     2.4840     0.1160     0.0200
  600.0000   -49.4310     8.7210    10.2030     8.3300    97.9640     2.4820     0.1200     0.0200
  600.5000   -49.4710     8.7050    10.1890     8.3240    97.1510     2.4800     0.1240     0.0210
  601.0000   -49.5120     8.6890    10.1730     8.3180    94.7310     2.4740     0.1270     0.0240
  601.5000   -49.5530     8.6730    10.1580     8.3110    95.0470     2.4680     0.1280     0.0260
  602.0000   -49.5940     8.6570    10.1420     8.3050    95.5260     2.4650     0.1280     0.0290
  602.5000   -49.6340     8.6430    10.1260     8.2990    95.4650     2.4640     0.1280     0.0310
  603.0000   -49.6750     8.6100    10.1100     8.2990    94.4310     2.4650     0.1270     0.0340
  603.5000   -49.7160     8.5790    10.0380     8.2990    93.4040     2.4660     0.1260     0.0360
  604.0000   -49.7570     8.5490     9.9610     8.2990    92.5360     2.4670     0.1260     0.0350
  604.5000   -49.7970     8.5180     9.8850     8.2990    92.9300     2.4680     0.1250     0.0310
  605.0000   -49.8380     8.4850     9.8080     8.2990    95.9940     2.4690     0.1230     0.0250
  605.5000   -49.8790     8.4190     9.7320     8.2990    96.2520     2.4710     0.1210     0.0220
  606.0000   -49.9200     8.3460     9.6550     8.2990    97.0510     2.4740     0.1210     0.0210
  606.5000   -49.9610     8.2720     9.5790     8.2990   101.0900     2.4750     0.1220     0.0210
  607.0000   -49.9970     8.1990     9.5260     8.2990   102.2220     2.4750     0.1230     0.0210
  607.5000   -49.9370     8.1260     9.4780     8.2990   102.7430     2.4750     0.1190     0.0200
  608.0000   -49.8750     8.0520     9.4300     8.2990   102.6660     2.4780     0.1170     0.0200
  608.5000   -49.8130     7.9790     9.3560     8.3160   100.7050     2.4810     0.1170     0.0190
  609.0000   -49.7510     7.9060     9.1560     8.3650    97.4440     2.4820     0.1180     0.0160
  609.5000   -49.6890     7.8320     8.9680     8.4130    94.4980     2.4820     0.1180     0.0130
  610.0000   -49.6270     7.7590     8.9290     8.4580    97.7100     2.4820     0.1180     0.0110
  610.5000   -49.5660     7.6080     8.8910     8.4400   101.2650     2.4810     0.1210     0.0110
  611.0000   -49.5040     7.4260     8.8540     8.4170   100.6650     2.4810     0.1270     0.0170
  611.5000   -49.4420     7.2430     8.8170     8.5540    98.8750     2.4770     0.1350     0.0230
  612.0000   -49.3800     7.0610     8.6010     8.5800    97.2230     2.4620     0.1390     0.0280
  612.5000   -49.3180     6.8780     8.2810     8.4200    97.4090     2.4470     0.1380     0.0330
  613.0000   -49.2570     6.6960     7.9620     8.3740   101.1720     2.4470     0.1390     0.0330
  613.5000   -49.1950     6.4890     7.4450     8.3640   105.8540     2.4480     0.1440     0.0310
  614.0000   -49.1330     6.2620     6.8630     8.3760   111.4570     2.4480     0.1500     0.0280
  614.5000   -49.0710     6.0360     6.2800     8.4070   117.2540     2.4320     0.1510     0.0270
  615.0000   -49.0100     5.8090     6.1010     8.4380   122.2790     2.4270     0.1410     0.0290
  615.5000   -48.9480     5.5820     5.9770     8.4680   122.9580     2.4260     0.1290     0.0320
  616.0000   -48.8860     5.3510     6.0700     8.6720   115.8170     2.4410     0.1170     0.0340
  616.5000   -48.8240     5.5250     6.1680     8.7520   107.5140     2.4740     0.1080     0.0360
  617.0000   -48.8120     5.7030     6.2660     8.6370    99.2730     2.4990     0.1080     0.0390
  617.5000   -48.8350     6.1850     6.4660     8.1610    94.2560     2.4990     0.1080     0.0410
  618.0000   -48.8580     6.8150     7.2330     8.1430    96.0290     2.4990     0.1070     0.0390
  618.5000   -48.8810     7.4580     8.1860     8.1370    96.3300     2.4990     0.1060     0.0340
  619.0000   -48.9050     7.6820     9.1400     8.1350    95.6610     2.4990     0.1030     0.0330
  619.5000   -48.9280     7.8550     9.4760     8.1330    98.1600     2.5030     0.1000     0.0320
  620.0000   -48.9520     7.9580     9.6840     8.1320    98.6820     2.5100     0.0990     0.0310
  620.5000   -48.9750     8.0610     9.7530     8.1310   103.1780     2.5130     0.0990     0.0270
  621.0000   -48.9980     8.1630     9.7700     8.1290   107.0180     2.5130     0.0990     0.0220
  621.5000   -49.0220     8.2660     9.7870     8.1280   104.3430     2.5130     0.0990     0.0160
  622.0000   -49.0450     8.3690     9.8050     8.1270    97.5950     2.5130     0.1040     0.0100
  622.5000   -49.0690     8.4720     9.8220     8.1260    94.9300     2.5120     0.1100     0.0060
  623.0000   -49.0920     8.5740     9.9130     8.1240    97.5590     2.5030     0.1110     0.0060
  623.5000   -49.1150     8.6770    10.1560     8.1230    99.6710     2.4950     0.1120     0.0070
  624.0000   -49.1390     8.7800    10.3990     8.1220   101.0760     2.4930     0.1140     0.0070
  624.5000   -49.1620     8.8830    10.6420     8.1200   103.1660     2.4900     0.1150     0.0080
  625.0000   -49.1860     8.9860    10.8850     8.1190   104.8450     2.4880     0.1140     0.0080
  625.5000   -49.2090     9.0880    11.1280     8.1170   105.9940     2.4860     0.1140     0.0100
  626.0000   -49.2330     9.1910    11.2560     8.0920   107.1610     2.4860     0.1140     0.0110
  626.5000   -49.2560     9.2940    11.3470     8.0630   107.1740     2.4860     0.1160     0.0180
  627.0000   -49.2790     9.3910    11.4210     8.0350   104.6860     2.4860     0.1160     0.0200
  627.5000   -49.3030     9.3970    11.4770     8.0240   101.6050     2.4860     0.1130     0.0200
  628.0000   -49.3260     9.4040    11.5320     8.0440    99.6890     2.4860     0.1090     0.0200
  628.5000   -49.3500     9.4110    11.5870     8.0630   100.3380     2.4900     0.1090     0.0210
  629.0000   -49.3730     9.4180    11.6420     8.0820    99.9590     2.4940     0.1140     0.0270
  629.5000   -49.3970     9.4250    11.6980     8.1010    95.5510     2.4980     0.1180     0.0330
  630.0000   -49.4200     9.4320    11.7530     8.1200    94.0260     2.4910     0.1240     0.0400
  630.5000   -49.4430     9.4390    11.8080     8.1380    94.8200     2.4790     0.1200     0.0460
  631.0000   -49.4670     9.4460    11.8630     8.1400    94.8520     2.4720     0.1120     0.0520
  631.5000   -49.4900     9.4530    11.9190     8.1430    94.6090     2.4800     0.1100     0.0600
  632.0000   -49.5140     9.4600    11.9740     8.1460    94.3490     2.4890     0.1090     0.0590
  632.5000   -49.5370     9.4680    12.0450     8.1490    94.4680     2.4940     0.1070     0.0540
  633.0000   -49.5610     9.4770    12.0140     8.1520    96.3730     2.4990     0.1050     0.0480
  633.5000   -49.5840     9.4590    11.9700     8.1550    98.2230     2.5050     0.1040     0.0410
  634.0000   -49.6070     9.4270    11.9260     8.1580    99.2350     2.5100     0.1020     0.0350
  634.5000   -49.6310     9.3940    11.8820     8.1610    99.4100     2.5160     0.1020     0.0290
  635.0000   -49.6540     9.3610    11.8380     8.1640    97.7230     2.5160     0.1030     0.0240
  635.5000   -49.6780     9.3280    11.7130     8.1670    95.1400     2.5070     0.1080     0.0250
  636.0000   -49.7010     9.2960    11.5550     8.1700    92.2610     2.4970     0.1200     0.0290
  636.5000   -49.7250     9.2630    11.3970     8.1730    92.7060     2.4870     0.1210     0.0340
  637.0000   -49.7480     9.2300    11.2390     8.1760    96.1950     2.4800     0.1160     0.0330
  637.5000   -49.7710     9.1530    11.0810     8.1760    97.7910     2.4860     0.1110     0.0330
