~VERSION INFORMATION
 VERS.                2.0:   CWLS LOG ASCII STANDARD - VERSION 2.0
 WRAP.                 NO:   ONE LINE PER DEPTH STEP
~WELL INFORMATION
#MNEM.UNIT      DATA TYPE    INFORMATION
#----------   ------------   ------------------------------
 STRT.F           43.0000:   START DEPTH
 STOP.F          620.0000:   STOP DEPTH
 STEP.F            0.5000:   STEP LENGTH
 NULL.          -999.2500:   NO VALUE
 COMP. FENIX & SCISSON INC:   COMPANY
 WELL.      16 SX 2 #16-2:   WELL
 FLD .             TEAPOT:   FIELD
 LOC .       S2 T38N R78W:   LOCATION
 CNTY.            NATRONA:   COUNTY
 STAT.            WYOMING:   STATE
 CTRY. UNITED STATES OF AMERICA:   COUNTRY
 SRVC.            Unknown:   SERVICE COMPANY
 DATE.        11-OCT-1978:   LOGDATE
 API .       490251071400:   API NUMBER
~CURVE INFORMATION
#MNEM.UNIT       API CODE    CURVE DESCRIPTION
#----------   ------------   ------------------------------
 DEPT.F                  :   
 SPR .MV     05 010 01 00:   SPONTANEOUS POTENTIAL FROM RES.
 SN  .OHMM   05 040 16 00:   SHORT NORMAL 16"
 ILD .OHMM   05 120 46 00:   INDUCTION LOG DEEP
 CALD.IN     45 280 60 00:   CALIPER
 GRD .GAPI   45 310 01 00:   GAMMA RAY FROM DENSITY LOG
 DPHI.DEC    45 890 12 00:   DENSITY POROSITY SANDSTONE
 RHOB.G/C3   45 350 01 00:   BULK DENSITY
 DRHO.G/C3   45 356 01 00:   DENSITY CORRECTION
~PARAMETER INFORMATION
#MNEM.UNIT          VALUE    DESCRIPTION
#----------   ------------   ------------------------------
 PD  .                 GL:   PERMANENT DATUM
 EPD .F              5135:   ELEVATION PERMANENT DATUM
 LMF .                 KB:   LOG MEASURED FROM
 DAPD.F                 4:   FEET ABOVE PERMANENT DATUM
 DMF .                 KB:   DRILLING MEASURED FROM
 EKB .F              5139:   KELLING BUSHING
 EGL .F              5135:   GROUND LEVEL
 DATE.           10-11-78:   RUN DATE
 RUN .                  1:   RUN NUMBER
 DD  .F               620:   DEPTH DRILLER
 DL  .F               620:   DEPTH LOGGER
 BLI .F               614:   BOTTOM LOG INTERVAL
 TLI .F                40:   TOP LOG INTERVAL
 CS  .IN            8.625:   CASING SIZE
 CBD .F                40:   CASING BOTTOM DRILLER
 CBL .F                40:   CASING BOTTOM LOGGER
 BS  .IN            7.875:   BIT SIZE
 BSD .F               620:   BIT SIZE AT DEPTH
 DFT .                KCL:   DRILLING FLUID TYPE
 RMS .OHMM            .16:   RESISTIVITY MUD SAMPLE
 MST .F                66:   MUD SAMPLE TEMPERATURE
 RMF .OHMM            .16:   RESISTIVITY MUD FILTRATE SAMPLE
 MFST.F                70:   MUD FILTRATE SAMPLE TEMPERATURE
 RMC .OHMM             .2:   RESISTIVITY MUD CAKE
 MCST.F                71:   MUD CAKE SAMPLE TEMPERATURE
 TCS .HRS               1:   TIME CURCULATED STOPPED
 MRT .F                70:   MAXIMUM RECORDED TEMPERATURE
 LUN .               2958:   LOGGING UNIT NUMBER
 LUL .               CASP:   LOGGING UNIT LOCATION
 ENGI.             MILLER:   RECORDING ENGINEER
 WITN.              AMEND:   WITNESSED BY
 CLNT.            A2DTECH:   CLIENT CODE
 ORIG.           5" PRINT:   ORIGIN OF DATA
 UWI .       490251071400:   UNIQUE WELL ID
 DICO. A2D Technologies, Inc.:   DIGITIZING COMPANY
~OTHER INFORMATION
~A   DEPT      SPR         SN        ILD       CALD         GRD      DPHI       RHOB       DRHO   
# ...
  164.5000   -59.1569     7.4954     8.4902     7.8482   109.1788     0.1085     2.5092     0.0495
  165.0000   -59.1429     7.4965     8.4373     7.8507   108.4416     0.1080     2.5142     0.0485
  165.5000   -59.1288     7.4975     8.4068     7.8532   108.8887     0.1040     2.5191     0.0492
  166.0000   -59.1147     7.4986     8.4073     7.8557   109.9702     0.1001     2.5227     0.0498
  166.5000   -59.1007     7.4997     8.4073     7.8583   111.0455     0.0960     2.5211     0.0492
  167.0000   -59.0867     7.5007     8.4072     7.8527   111.3312     0.0978     2.5196     0.0437
  167.5000   -59.0724     7.5018     8.4072     7.8459   111.6370     0.1006     2.5181     0.0382
  168.0000   -59.0318     7.5028     8.4072     7.8370   114.6198     0.1008     2.5169     0.0328
  168.5000   -58.9399     7.5039     8.4072     7.7878   116.7608     0.1010     2.5170     0.0273
  169.0000   -58.7744     7.5049     8.4072     7.7379   118.6629     0.1031     2.5168     0.0258
  169.5000   -58.2227     7.5060     8.4072     7.6937   118.9321     0.1057     2.5115     0.0251
  170.0000   -57.6856     7.5070     8.4072     7.6711   118.3109     0.1083     2.5062     0.0244
  170.5000   -57.5721     7.5081     8.4072     7.6479   117.6774     0.1099     2.5011     0.0237
  171.0000   -57.4787     7.5091     8.4072     7.6462   118.1531     0.1105     2.4997     0.0230
  171.5000   -57.3834     7.5102     8.4072     7.6566   118.8195     0.1111     2.4989     0.0219
  172.0000   -57.2874     7.5112     8.4072     7.6673   120.2417     0.1117     2.4986     0.0192
  172.5000   -57.1914     7.5123     8.4062     7.6779   123.3728     0.1124     2.4983     0.0165
  173.0000   -57.0955     7.5134     8.4083     7.6882   126.5669     0.1130     2.4984     0.0138
  173.5000   -56.9995     7.5144     8.4072     7.7012   129.9612     0.1133     2.5008     0.0111
  174.0000   -56.9035     7.5155     8.6147     7.7717   128.4077     0.1113     2.5032     0.0086
  174.5000   -56.8077     7.5165     8.7402     7.8454   126.0192     0.1094     2.5056     0.0098
  175.0000   -56.7108     7.5176     8.8675     7.8639   123.6284     0.1074     2.5041     0.0113
  175.5000   -56.6883     7.5186     8.9967     7.8707   122.1834     0.1098     2.5009     0.0146
  176.0000   -56.7112     7.5197     9.1278     7.8776   124.1653     0.1125     2.4988     0.0298
  176.5000   -56.7350     7.5207     9.3046     7.8653   127.1395     0.1123     2.5056     0.0594
  177.0000   -56.7589     7.5218     9.3046     7.8487   130.1307     0.1082     2.5138     0.0886
  177.5000   -56.7826     7.5229     9.2192     7.8263   134.0009     0.1033     2.5220     0.1128
  178.0000   -56.8065     7.5239     9.2192     7.7944   129.3547     0.0984     2.5303     0.1124
  178.5000   -56.8307     7.5250     9.2192     7.7626   117.6981     0.0934     2.5385     0.1020
  179.0000   -56.8540     7.5259     9.2192     7.7308   110.7926     0.0885     2.5466     0.0849
  179.5000   -56.8345     7.5195     9.0419     7.6992   111.4830     0.0862     2.5444     0.0677
  180.0000   -56.6299     7.4981     8.8556     7.6808   111.4794     0.0912     2.5375     0.0505
  180.5000   -56.4295     7.4768     8.6730     7.6859   109.5633     0.0953     2.5307     0.0352
  181.0000   -56.2303     7.4556     8.4834     7.6905   107.6289     0.0994     2.5239     0.0302
  181.5000   -56.0719     7.4344     8.4961     7.6953   106.8525     0.1035     2.5171     0.0251
  182.0000   -56.0753     7.4132     8.5128     7.7019   108.1376     0.1077     2.5103     0.0199
  182.5000   -56.0756     7.3921     8.5290     7.7186   113.7263     0.1118     2.5035     0.0147
  183.0000   -56.0757     7.3711     8.5450     7.7352   119.2886     0.1159     2.4967     0.0125
  183.5000   -56.0757     7.3502     8.5611     7.7517   124.7963     0.1185     2.4909     0.0136
  184.0000   -56.0757     7.3292     8.5771     7.7730   128.2443     0.1164     2.4928     0.0156
  184.5000   -56.0757     7.3084     8.5932     7.7979   123.1467     0.1137     2.4980     0.0176
  185.0000   -56.0757     7.2876     8.6094     7.8193   107.9072     0.1121     2.4952     0.0196
  185.5000   -56.0757     7.2666     8.6256     7.8188   106.2168     0.1143     2.4903     0.0215
  186.0000   -56.0757     7.2543     8.6418     7.8187   108.2739     0.1203     2.4859     0.0280
  186.5000   -56.0757     7.2887     8.6580     7.8187   108.6513     0.1215     2.4867     0.0392
  187.0000   -56.0757     7.3138     8.6742     7.8146   108.0264     0.1211     2.4901     0.0567
  187.5000   -56.0757     7.3389     8.6905     7.8029   107.3771     0.1141     2.5038     0.0743
  188.0000   -56.0760     7.3641     8.7069     7.7382   106.7966     0.1051     2.5176     0.0922
  188.5000   -56.0759     7.3894     8.7232     7.6578   106.8931     0.0939     2.5309     0.0856
  189.0000   -56.0730     7.4148     8.7396     7.5767   110.5267     0.1008     2.5229     0.0536
  189.5000   -55.9149     7.4402     8.7560     7.5056   114.4738     0.1101     2.5132     0.0217
  190.0000   -55.5590     7.4658     8.7725     7.4412   118.4028     0.1159     2.5033     0.0150
  190.5000   -55.2058     7.4914     8.7889     7.3755   121.9041     0.1153     2.4976     0.0102
  191.0000   -54.8513     7.5171     8.8054     7.3377   121.0564     0.1165     2.4920     0.0096
  191.5000   -54.4967     7.5299     8.8220     7.3065   118.0019     0.1218     2.4862     0.0090
  192.0000   -54.1437     7.5349     8.8385     7.2755   115.7989     0.1186     2.4841     0.0092
  192.5000   -53.8701     7.5398     8.8551     7.2579   114.8448     0.1154     2.4936     0.0117
  193.0000   -53.8362     7.5448     8.8718     7.2514   117.3876     0.1168     2.4931     0.0141
  193.5000   -53.7989     7.5498     8.8884     7.2453   124.5393     0.1181     2.4878     0.0165
  194.0000   -53.7613     7.5548     8.9051     7.2461   133.1734     0.1193     2.4856     0.0189
  194.5000   -53.7237     7.5598     8.9218     7.2629   139.1988     0.1186     2.4907     0.0214
  195.0000   -53.6860     7.5648     8.9386     7.2805   133.2360     0.1176     2.4952     0.0202
  195.5000   -53.6483     7.5698     8.9555     7.3282   105.8003     0.1165     2.4960     0.0200
  196.0000   -53.6107     7.5748     8.9744     7.3798   105.0608     0.1155     2.4968     0.0196
  196.5000   -53.5733     7.5798     9.0006     7.4314   103.6767     0.1145     2.4977     0.0192
  197.0000   -53.5344     7.5848     9.0267     7.4828   102.3754     0.1135     2.4986     0.0188
  197.5000   -53.5039     7.5899     9.0529     7.5345   104.5745     0.1125     2.4994     0.0185
  198.0000   -53.0944     7.5949     9.0791     7.5641   107.5646     0.1115     2.5005     0.0182
  198.5000   -52.5517     7.6349     9.1054     7.5739   109.9225     0.1130     2.4955     0.0174
  199.0000   -52.4730     7.6913     9.1318     7.5834   113.6734     0.1170     2.4905     0.0166
  199.5000   -52.4558     7.7481     9.1582     7.5927   117.7037     0.1213     2.4859     0.0158
  200.0000   -52.4392     7.8054     9.1847     7.6021   121.7757     0.1219     2.4865     0.0150
  200.5000   -52.4218     7.8631     9.2114     7.6115   126.2078     0.1208     2.4905     0.0147
  201.0000   -52.4042     7.9212     9.2380     7.6209   119.3625     0.1163     2.4946     0.0156
  201.5000   -52.3867     7.9797     9.2648     7.6303   109.7902     0.1113     2.4988     0.0165
  202.0000   -52.3691     8.0388     9.2916     7.6397   103.0864     0.1113     2.4992     0.0174
  202.5000   -52.3516     8.1028     9.5050     7.6490   103.5331     0.1112     2.4994     0.0182
  203.0000   -52.3349     8.1896     9.9042     7.6593   105.1212     0.1111     2.4996     0.0191
  203.5000   -52.3187     8.2849    10.3201     7.7048   106.7282     0.1110     2.4997     0.0200
  204.0000   -52.2938     8.3813    10.7535     7.7547   108.3346     0.1145     2.4999     0.0251
  204.5000   -51.8436     8.4789    11.2052     7.8048   107.1978     0.1126     2.5018     0.0342
