~VERSION INFORMATION
 VERS.                2.0:   CWLS LOG ASCII STANDARD - VERSION 2.0
 WRAP.                 NO:   ONE LINE PER DEPTH STEP
~WELL INFORMATION
#MNEM.UNIT      DATA TYPE    INFORMATION
#----------   ------------   ------------------------------
 STRT.F           46.0000:   START DEPTH
 STOP.F          522.0000:   STOP DEPTH
 STEP.F            0.5000:   STEP LENGTH
 NULL.          -999.2500:   NO VALUE
 COMP.       F D SERV INC:   COMPANY
 WELL.  82-4 SX 10 #82-10:   WELL
 FLD .             TEAPOT:   FIELD
 LOC .      S10 T38N R78W:   LOCATION
 CNTY.            NATRONA:   COUNTY
 STAT.            WYOMING:   STATE
 CTRY. UNITED STATES OF AMERICA:   COUNTRY
 SRVC.     Atlas Wireline:   SERVICE COMPANY
 DATE.        04-FEB-1993:   LOGDATE
 API .       490252257900:   API NUMBER
~CURVE INFORMATION
#MNEM.UNIT       API CODE    CURVE DESCRIPTION
#----------   ------------   ------------------------------
 DEPT.F                  :   
 C13 .IN     45 280 13 00:   CALIPER FROM DENSITY LOG
 GRD .GAPI   45 310 01 00:   GAMMA RAY FROM DENSITY LOG
 PORS.DEC    42 890 03 00:   NEUTRON POROSITY SANDSTONE
 PORZ.DEC    45 890 12 00:   DENSITY POROSITY SANDSTONE
 ZCOR.G/C3   45 356 01 00:   DENSITY CORRECTION
 ZDEN.G/C3   45 350 01 00:   BULK DENSITY
 RILD.OHMM   07 120 46 00:   INDUCTION LOG DEEP RESISTIVITY
 RILM.OHMM   07 120 44 00:   INDUCTION LOG MEDIUM RESISTIVITY
~PARAMETER INFORMATION
#MNEM.UNIT          VALUE    DESCRIPTION
#----------   ------------   ------------------------------
 PD  .                 GL:   PERMANENT DATUM
 EPD .F              5145:   ELEVATION PERMANENT DATUM
 LMF .                 KB:   LOG MEASURED FROM
 DAPD.F                10:   FEET ABOVE PERMANENT DATUM
 DMF .                 KB:   DRILLING MEASURED FROM
 EKB .F              5155:   KELLING BUSHING
 EDF .F              5154:   DRILLING FLOOR
 EGL .F              5145:   GROUND LEVEL
 DATE.        04-FEB-1993:   RUN DATE
 RUN .                  1:   RUN NUMBER
 DD  .F               525:   DEPTH DRILLER
 DL  .F               525:   DEPTH LOGGER
 BLI .F               517:   BOTTOM LOG INTERVAL
 TLI .F                81:   TOP LOG INTERVAL
 CS  .IN            8.625:   CASING SIZE
 CBD .F                45:   CASING BOTTOM DRILLER
 CBL .F                81:   CASING BOTTOM LOGGER
 BS  .IN            7.875:   BIT SIZE
 BSD .F               525:   BIT SIZE AT DEPTH
 DFT .                AIR:   DRILLING FLUID TYPE
 MRT .F                58:   MAXIMUM RECORDED TEMPERATURE
 LUN .            HL 6274:   LOGGING UNIT NUMBER
 LUL .             CASPER:   LOGGING UNIT LOCATION
 ENGI.          V. RAUTIO:   RECORDING ENGINEER
 WITN.          G. STRONG:   WITNESSED BY
 CLNT.            A2DTECH:   CLIENT CODE
 ORIG.           5" PRINT:   ORIGIN OF DATA
 UWI .       490252257900:   UNIQUE WELL ID
 DICO. A2D Technologies, Inc.:   DIGITIZING COMPANY
~OTHER INFORMATION
~A   DEPT      C13         GRD      PORS       PORZ       ZCOR       ZDEN       RILD       RILM   
# ...
  289.0000     8.4277   109.5066     0.2583     0.1819    -0.0024     2.3573    26.1115    25.7134
  289.5000     8.4273   107.1025     0.2550     0.2042    -0.0010     2.2937    27.9845    27.9449
  290.0000     8.4270   116.4469     0.2544     0.2146     0.0094     2.2952    29.9928    29.7450
  290.5000     8.4117   120.6694     0.2556     0.2153     0.0154     2.2967    31.7028    31.0110
  291.0000     8.4114   123.9883     0.2580     0.2123     0.0168     2.2974    33.0500    31.6672
  291.5000     8.4111   125.8223     0.2604     0.2141     0.0108     2.2914    33.5146    31.8947
  292.0000     8.4108   126.4105     0.2608     0.2231     0.0032     2.2816    33.5199    31.6796
  292.5000     8.4256   121.2957     0.2611     0.2363    -0.0029     2.2696    33.0638    30.8213
  293.0000     8.4253   114.0724     0.2611     0.2496    -0.0029     2.2462    32.1660    29.5706
  293.5000     8.4249   110.4649     0.2596     0.2592     0.0120     2.2236    30.8628    28.1854
  294.0000     8.4246   116.4946     0.2578     0.2529     0.0314     2.2387    29.6133    27.4218
  294.5000     8.4243   123.4280     0.2642     0.2351     0.0329     2.2696    28.6107    27.2369
  295.0000     8.4241   124.9396     0.2677     0.2221     0.0148     2.2846    28.0269    27.0558
  295.5000     8.4087   119.8262     0.2629     0.2167     0.0118     2.2892    27.6455    27.0624
  296.0000     8.3933   118.6270     0.2473     0.2029     0.0327     2.3065    27.8419    27.0695
  296.5000     8.3931   119.2350     0.2214     0.1586     0.0401     2.3486    28.2332    27.6408
  297.0000     8.3928   121.0492     0.2181     0.1297     0.0206     2.4134    28.6310    28.2257
  297.5000     8.3925   122.5609     0.2239     0.1180    -0.0095     2.4526    29.0334    28.6310
  298.0000     8.3921   120.4581     0.2299     0.1562    -0.0155     2.4093    29.2386    29.0300
  298.5000     8.4070   113.4188     0.2311     0.1840    -0.0156     2.3494    29.2425    29.2371
  299.0000     8.4217   110.5309     0.2305     0.2232     0.0114     2.2816    29.2471    29.4443
  299.5000     8.4214   109.6315     0.2296     0.2413     0.0308     2.2508    28.8482    28.6336
  300.0000     8.4361   114.1566     0.2329     0.2153     0.0427     2.2959    28.4566    27.6799
  300.5000     8.4313   117.7654     0.2408     0.2019     0.0172     2.3193    28.0694    26.9300
  301.0000     8.4268   116.8548     0.2459     0.1998     0.0020     2.3110    27.6875    26.3836
  301.5000     8.4223   116.8491     0.2462     0.2126     0.0090     2.2892    27.6919    26.0061
  302.0000     8.4211   117.1607     0.2462     0.2269     0.0141     2.2726    27.6964    25.8520
  302.5000     8.4211   118.0412     0.2465     0.2293     0.0171     2.2711    27.7000    26.2183
  303.0000     8.4211   118.6380     0.2468     0.2293     0.0201     2.2718    27.7035    26.4054
  303.5000     8.4211   119.8371     0.2462     0.2290     0.0230     2.2726    27.9052    26.7796
  304.0000     8.4361   121.6707     0.2456     0.2284     0.0185     2.2711    28.0975    26.9707
  304.5000     8.4511   122.8379     0.2453     0.2281     0.0125     2.2666    28.2961    26.7888
  305.0000     8.4511   121.6260     0.2451     0.2296     0.0094     2.2620    28.2997    26.6106
  305.5000     8.4511   120.7167     0.2445     0.2338     0.0139     2.2638    27.7223    26.2503
  306.0000     8.4361   125.2277     0.2439     0.2350     0.0169     2.2800    27.3451    25.8961
  306.5000     8.4211   129.4389     0.2441     0.2320     0.0198     2.2982    26.9730    25.5441
  307.0000     8.4211   130.0371     0.2484     0.2181     0.0198     2.3193    26.6068    25.3743
  307.5000     8.4211   127.6204     0.2531     0.1989     0.0183     2.3434    26.2456    25.3805
  308.0000     8.4211   126.4085     0.2552     0.1868     0.0108     2.3486    26.0681    25.5616
  308.5000     8.4211   130.0173     0.2555     0.1820     0.0077     2.3479    25.7134    25.9226
  309.0000     8.4211   131.5191     0.2558     0.1814     0.0062     2.3423    25.1896    25.1263
  309.5000     8.4211   131.2108     0.2558     0.1859     0.0077     2.3276    24.6756    24.7812
  310.0000     8.4211   131.2038     0.2549     0.1922     0.0136     2.3245    24.0056    24.2725
  310.5000     8.4211   132.1017     0.2515     0.1971     0.0316     2.3276    23.5158    23.9391
  311.0000     8.4211   133.6021     0.2486     0.1929     0.0406     2.3379    23.0367    23.4476
  311.5000     8.4211   135.7218     0.2483     0.1724     0.0435     2.3727    22.7232    22.9662
  312.0000     8.4361   137.8063     0.2486     0.1477     0.0225     2.4036    22.2596    22.6508
  312.5000     8.4361   138.4044     0.2495     0.1444     0.0075     2.4096    21.9574    22.4947
  313.0000     8.4361   137.1926     0.2505     0.1504     0.0105     2.4080    21.9602    22.1858
  313.5000     8.4361   135.3464     0.2499     0.1549     0.0119     2.3961    21.6610    22.1730
  314.0000     8.4361   133.8666     0.2493     0.1579     0.0134     2.3893    21.6645    22.0329
  314.5000     8.4361   137.1742     0.2484     0.1595     0.0104     2.3870    21.6674    22.1858
  315.0000     8.4211   138.9758     0.2481     0.1600     0.0043     2.3879    21.6904    22.1858
  315.5000     8.4361   139.8723     0.2484     0.1591     0.0013     2.3901    21.9756    22.4947
  316.0000     8.4361   137.1558     0.2490     0.1570    -0.0002     2.3916    21.9784    22.8080
  316.5000     8.4511   133.8369     0.2502     0.1555     0.0013     2.3931    22.2874    22.9662
  317.0000     8.4511   131.1204     0.2505     0.1591     0.0012     2.3946    22.7639    23.4476
  317.5000     8.4511   129.3061     0.2499     0.1628     0.0042     2.3855    23.3996    23.9391
  318.0000     8.4511   129.9029     0.2474     0.1646     0.0102     2.3810    24.3940    24.7812
  318.5000     8.4511   130.8008     0.2403     0.1486     0.0195     2.3825    25.9637    26.2235
  319.0000     8.4511   130.4842     0.2276     0.1232     0.0371     2.3917    28.0193    28.8529
  319.5000     8.4511   125.0652     0.2057     0.0911     0.0491     2.4187    30.4484    30.7055
  320.0000     8.4361   122.6499     0.1714     0.0547     0.0520     2.4575    31.9626    32.2283
  320.5000     8.4361   122.3431     0.1570     0.0279     0.0443     2.5151    32.6368    33.1406
  321.0000     8.4361   124.1808     0.1543     0.0182     0.0290     2.5726    32.8676    33.3620
  321.5000     8.4361   125.6450     0.1534     0.0165     0.0130     2.6069    32.6274    32.9038
  322.0000     8.4361   124.4331     0.1544     0.0222     0.0024     2.6205    31.7600    32.4519
  322.5000     8.4361   124.1263     0.1657     0.0291     0.0009     2.6190    31.1110    31.3491
  323.0000     8.4211   124.1546     0.1840     0.0374     0.0039     2.6114    29.8516    28.4566
  323.5000     8.4211   127.4268     0.2078     0.0667     0.0038     2.6032    27.8608    26.1907
  324.0000     8.4211   135.8554     0.2319     0.0989    -0.0037     2.5889    25.6466    24.7812
  324.5000     8.4211   140.0666     0.2541     0.1354    -0.0052     2.5482    24.7783    23.9391
  325.0000     8.4211   137.6499     0.2571     0.1522     0.0127     2.4857    22.9665    22.9662
  325.5000     8.4211   136.4394     0.2575     0.1558     0.0307     2.4096    21.8842    22.3397
  326.0000     8.4211   136.1326     0.2568     0.1579     0.0488     2.3946    21.1259    21.7303
  326.5000     8.4211   137.3303     0.2559     0.1531     0.0651     2.3893    20.7126    21.2842
  327.0000     8.4211   138.2297     0.2535     0.1465     0.0666     2.3938    20.5719    20.9755
  327.5000     8.4211   137.9214     0.2511     0.1453     0.0666     2.4066    20.4328    20.5609
  328.0000     8.4211   136.3855     0.2493     0.1474     0.0664     2.4089    20.2916    20.4192
  328.5000     8.4211   135.4991     0.2481     0.1534     0.0575     2.4096    19.8819    20.4192
  329.0000     8.4211   137.9030     0.2478     0.1619     0.0440     2.3931    19.8845    20.4192
