~VERSION INFORMATION
 VERS.                2.0:   CWLS LOG ASCII STANDARD - VERSION 2.0
 WRAP.                 NO:   ONE LINE PER DEPTH STEP
~WELL INFORMATION
#MNEM.UNIT      DATA TYPE    INFORMATION
#----------   ------------   ------------------------------
 STRT.F           20.0000:   START DEPTH
 STOP.F          626.0000:   STOP DEPTH
 STEP.F            0.5000:   STEP LENGTH
 NULL.          -999.2500:   NO VALUE
 COMP. FENIX & SCISSON INC:   COMPANY
 WELL. NPR-3  38-S-34 #38-34:   WELL
 FLD .             TEAPOT:   FIELD
 LOC .      S34 T39N R78W:   LOCATION
 CNTY.            NATRONA:   COUNTY
 STAT.            WYOMING:   STATE
 CTRY. UNITED STATES OF AMERICA:   COUNTRY
 SRVC.           BIRDWELL:   SERVICE COMPANY
 DATE.        08-AUG-1978:   LOGDATE
 API .       490251068300:   API NUMBER
~CURVE INFORMATION
#MNEM.UNIT       API CODE    CURVE DESCRIPTION
#----------   ------------   ------------------------------
 DEPT.F                  :   
 SPR .MV     05 010 01 00:   SPONTANEOUS POTENTIAL FROM RES.
 SN  .OHMM   05 040 16 00:   SHORT NORMAL 16"
 IL  .OHMM   05 120 00 00:   INDUCTION LOG
 RHOB.G/C3   45 350 01 00:   BULK DENSITY
 DPHI.DEC    45 890 12 00:   DENSITY POROSITY SANDSTONE
 CORR.G/C3   45 356 01 00:   DENSITY CORRECTION
 GRD .GAPI   45 310 01 00:   GAMMA RAY FROM DENSITY LOG
 CALD.IN     45 280 60 00:   CALIPER
~PARAMETER INFORMATION
#MNEM.UNIT          VALUE    DESCRIPTION
#----------   ------------   ------------------------------
 PD  .                 GL:   PERMANENT DATUM
 EPD .F              5213:   ELEVATION PERMANENT DATUM
 LMF .                 KB:   LOG MEASURED FROM
 DAPD.F                 4:   FEET ABOVE PERMANENT DATUM
 DMF .                 KB:   DRILLING MEASURED FROM
 EKB .F              5217:   KELLING BUSHING
 EGL .F              5213:   GROUND LEVEL
 DATE.             8-8-78:   RUN DATE
 RUN .                  1:   RUN NUMBER
 DD  .F               620:   DEPTH DRILLER
 DL  .F               632:   DEPTH LOGGER
 BLI .F               626:   BOTTOM LOG INTERVAL
 TLI .F                35:   TOP LOG INTERVAL
 CS  .IN            8.625:   CASING SIZE
 CBL .F                35:   CASING BOTTOM LOGGER
 BS  .IN            7.875:   BIT SIZE
 BSD .F               620:   BIT SIZE AT DEPTH
 DFT .                KCL:   DRILLING FLUID TYPE
 DFD .                8.7:   DRILLING FLUID DENSITY
 DFV .                 33:   DRILLING FLUID VISCOSITY
 DFPH.                  9:   DRILLING FLUID PH
 DFL .                  5:   DRILLING FLUID LOSS
 MSS .          FLOW LINE:   MUD SAMPLE SOURCE
 RMS .OHMM            .12:   RESISTIVITY MUD SAMPLE
 MST .F                80:   MUD SAMPLE TEMPERATURE
 RMF .OHMM            .13:   RESISTIVITY MUD FILTRATE SAMPLE
 MFST.F                83:   MUD FILTRATE SAMPLE TEMPERATURE
 RMC .OHMM            .16:   RESISTIVITY MUD CAKE
 MCST.F                84:   MUD CAKE SAMPLE TEMPERATURE
 MFSS.               MEAS:   MUD FILTRATE SAMPLE SOURCE
 TCS .HRS               1:   TIME CURCULATED STOPPED
 LUN .               3006:   LOGGING UNIT NUMBER
 LUL .               CASP:   LOGGING UNIT LOCATION
 ENGI.             MILLER:   RECORDING ENGINEER
 WITN.           MCGINLEY:   WITNESSED BY
 CLNT.            A2DTECH:   CLIENT CODE
 ORIG.           5" PRINT:   ORIGIN OF DATA
 UWI .       490251068300:   UNIQUE WELL ID
 DICO. A2D Technologies, Inc.:   DIGITIZING COMPANY
~OTHER INFORMATION
~A   DEPT      SPR         SN         IL       RHOB       DPHI       CORR         GRD      CALD   
# ...
  587.0000   -31.3684     7.2345     6.9748     2.4726     0.1207     0.0782    85.1590     7.6086
  587.5000   -31.4186     7.1704     6.9177     2.4765     0.1188     0.0741    86.7812     7.5918
  588.0000   -31.4686     7.1071     6.8607     2.4798     0.1195     0.0702    88.3893     7.5748
  588.5000   -31.5186     7.0447     6.8044     2.4765     0.1201     0.0676    90.0358     7.6234
  589.0000   -31.5686     6.9811     6.6353     2.4750     0.1208     0.0683    89.9562     7.6783
  589.5000   -31.6187     6.7649     6.4382     2.4751     0.1198     0.0689    89.6354     7.7341
  590.0000   -31.6687     6.5544     6.1788     2.4774     0.1187     0.0692    89.2693     7.7300
  590.5000   -31.7187     6.3504     5.8908     2.4799     0.1176     0.0640    89.1443     7.6944
  591.0000   -31.7688     6.1527     5.5613     2.4808     0.1220     0.0588    89.3901     7.6581
  591.5000   -31.8192     5.9612     5.1323     2.4712     0.1274     0.0556    92.6727     7.6215
  592.0000   -31.8698     5.7757     4.6590     2.4627     0.1285     0.0568    96.7572     7.5928
  592.5000   -31.9149     5.5993     4.8198     2.4623     0.1296     0.0580   100.8457     7.5658
  593.0000   -31.3221     5.5993     5.0609     2.4533     0.1365     0.0591   100.9677     7.5388
  593.5000   -30.5961     5.7919     4.9824     2.4434     0.1398     0.0603   100.5216     7.5118
  594.0000   -30.5311     5.9608     4.8923     2.4388     0.1417     0.0617   100.0683     7.4848
  594.5000   -30.5710     6.1347     4.8335     2.4393     0.1437     0.0508    99.7327     7.4577
  595.0000   -30.6116     6.3135     4.9331     2.4235     0.1528     0.0468   100.5256     7.4307
  595.5000   -30.6507     6.4977     5.0089     2.4005     0.1660     0.0540   109.1739     7.4033
  596.0000   -30.6897     6.6872     5.0858     2.3851     0.1738     0.0610   117.5855     7.3772
  596.5000   -30.7288     6.8369     5.1639     2.3979     0.1687     0.0634   118.0566     7.4018
  597.0000   -30.7678     6.9363     5.2504     2.4311     0.1403     0.0514   106.6095     7.4295
  597.5000   -30.8069     7.0373     5.5128     2.4595     0.1239     0.0499    97.5805     7.4570
  598.0000   -30.8457     7.1399     5.9010     2.4746     0.1192     0.0510    89.7116     7.4844
  598.5000   -30.8858     7.2435     6.3170     2.4749     0.1198     0.0523    88.7529     7.5117
  599.0000   -30.8311     7.2213     6.7616     2.4755     0.1205     0.0536    89.5262     7.5391
  599.5000   -30.7211     7.1948     7.1110     2.4762     0.1213     0.0549    91.0897     7.5665
  600.0000   -30.6097     7.1684     7.2898     2.4770     0.1191     0.0577    92.6927     7.5939
  600.5000   -30.4984     7.1420     7.4021     2.4856     0.1139     0.0644    92.7884     7.6216
  601.0000   -30.3872     7.1110     7.4787     2.4952     0.1087     0.0670    93.5289     7.6480
  601.5000   -30.2760     7.1736     7.5550     2.4970     0.1059     0.0602    97.9563     7.6755
  602.0000   -30.1647     7.2511     7.6323     2.4970     0.1076     0.0534   101.0460     7.6490
  602.5000   -30.0536     7.3296     7.7105     2.4970     0.1091     0.0466    99.0379     7.6125
  603.0000   -29.9415     7.4089     7.7895     2.4971     0.1107     0.0440    95.9355     7.5752
  603.5000   -29.9005     7.4890     7.8692     2.4937     0.1124     0.0449    95.8232     7.5379
  604.0000   -29.8998     7.5488     7.9471     2.4895     0.1136     0.0459    97.8245     7.5013
  604.5000   -29.8999     7.6187     8.0056     2.4872     0.1118     0.0469    99.8656     7.4797
  605.0000   -29.9000     7.6892     8.0646     2.4918     0.1101     0.0479   101.9446     7.4970
  605.5000   -29.9000     7.7605     8.1239     2.4964     0.1083     0.0488   102.4598     7.5136
  606.0000   -29.9000     7.8323     8.1836     2.5009     0.1048     0.0498   101.3198     7.5303
  606.5000   -29.9000     7.9050     8.2439     2.5054     0.0999     0.0507    96.7403     7.5468
  607.0000   -29.9000     7.9784     8.3046     2.5047     0.0988     0.0515    93.4119     7.5399
  607.5000   -29.9000     8.0516     8.4709     2.4989     0.1112     0.0531    93.5381     7.4955
  608.0000   -29.9000     8.0886     8.7047     2.4934     0.1104     0.0550    99.1720     7.4615
  608.5000   -29.9000     8.0134     8.6294     2.4881     0.1121     0.0569    99.1500     7.5725
  609.0000   -29.8997     7.9492     8.5317     2.4872     0.1134     0.0587    98.6983     7.5540
  609.5000   -29.9235     7.8844     8.3904     2.4890     0.1120     0.0606    96.0292     7.5437
  610.0000   -29.9606     7.8623     8.4485     2.4933     0.1130     0.0625    93.1389     7.6000
  610.5000   -29.9983     7.8526     8.5582     2.4861     0.1158     0.0643    90.2212     7.6556
  611.0000   -30.0369     7.8429     8.7047     2.4832     0.1137     0.0645    88.9805     7.7113
  611.5000   -30.0733     7.8331     8.6383     2.4858     0.1104     0.0622    92.7498     7.7171
  612.0000   -29.9996     7.8234     8.5423     2.4937     0.1094     0.0598    96.1739     7.7205
  612.5000   -29.9478     7.8137     8.4474     2.4996     0.1097     0.0576    87.7751     7.7243
  613.0000   -30.0136     7.8040     8.3538     2.4951     0.1086     0.0597    82.7558     7.7281
  613.5000   -30.0818     7.7943     8.2367     2.5008     0.1012     0.0617    85.5611     7.7323
  614.0000   -30.1489     7.7847     8.2382     2.5064     0.1053     0.0538    88.0125     7.7047
  614.5000   -30.2160     7.7750     8.1916     2.5012     0.1102     0.0479    90.4602     7.6565
  615.0000   -30.2830     7.7654     8.1529     2.4897     0.1152     0.0525    92.9927     7.6078
  615.5000   -30.3500     7.7558     8.1143     2.4852     0.1141     0.0569    93.4355     7.5592
  616.0000   -30.4169     7.7461     8.0759     2.4930     0.1110     0.0568    89.2362     7.5105
  616.5000   -30.4841     7.7365     8.0377     2.5103     0.1076     0.0507    86.2608     7.4613
  617.0000   -30.5828     7.7265     7.9996     2.5041     0.1104     0.0464    83.1803     7.4710
  617.5000   -30.6913     7.7078     7.9617     2.4941     0.1127     0.0551    82.4634     7.4897
  618.0000   -30.8000     7.6767     7.9240     2.4931     0.1120     0.0633    86.9431     7.5084
  618.5000   -30.9089     7.6458     7.8865     2.4997     0.1114     0.0581    90.9021     7.5270
  619.0000   -31.0173     7.6150     7.8492     2.4941     0.1123     0.0494    94.0188     7.5456
  619.5000   -31.1044     7.5844     7.8120     2.4882     0.1140     0.0534    94.7448     7.5469
  620.0000   -31.1146     7.5538     7.7751     2.4904     0.1118     0.0611    97.5158     7.5322
  620.5000   -31.1262     7.5234     7.7382     2.4934     0.1092     0.0576   100.9215     7.5173
  621.0000   -31.1378     7.4638     7.7016     2.4904     0.1132     0.0556   104.2522     7.5024
  621.5000   -31.1494     7.3919     7.6652     2.4937     0.1073     0.0578   105.7799     7.5124
  622.0000   -31.1611     7.3207     7.6289     2.4957     0.1098     0.0601   103.8056     7.5470
  622.5000   -31.1728     7.2502     7.5928     2.4918     0.1132     0.0609   101.2175     7.5819
  623.0000   -31.1844     7.1803     7.5568     2.4882     0.1136     0.0579    98.6209     7.5892
  623.5000   -31.1961     7.1110     7.5210     2.4965     0.1068     0.0549    97.9452     7.5777
  624.0000   -31.2078     7.0488     7.5142     2.5001     0.1095     0.0519  -999.2500     7.5658
  624.5000   -31.2194     6.9871     7.6335     2.4945     0.1140     0.0495  -999.2500     7.5564
  625.0000   -31.2311     6.9259     7.7314     2.4899     0.1100     0.0567  -999.2500     7.6025
  625.5000   -31.2428     6.8652     7.8307     2.4950     0.1033     0.0594  -999.2500     7.6510
  626.0000   -31.2544     6.8230     7.9022     2.4960     0.1024     0.0595  -999.2500     7.6592
