~VERSION INFORMATION
 VERS.                2.0:   CWLS LOG ASCII STANDARD - VERSION 2.0
 WRAP.                 NO:   ONE LINE PER DEPTH STEP
~WELL INFORMATION
#MNEM.UNIT      DATA TYPE    INFORMATION
#----------   ------------   ------------------------------
 STRT.F           27.0000:   START DEPTH
 STOP.F          538.0000:   STOP DEPTH
 STEP.F            0.5000:   STEP LENGTH
 NULL.          -999.2500:   NO VALUE
 COMP. FENIX & SCISSON INC:   COMPANY
 WELL.        NPR 3 #24-3:   WELL
 FLD .             TEAPOT:   FIELD
 LOC .       S3 T38N R78W:   LOCATION
 CNTY.            NATRONA:   COUNTY
 STAT.            WYOMING:   STATE
 CTRY. UNITED STATES OF AMERICA:   COUNTRY
 SRVC.            Unknown:   SERVICE COMPANY
 DATE.        26-SEP-1978:   LOGDATE
 API .       490251068800:   API NUMBER
~CURVE INFORMATION
#MNEM.UNIT       API CODE    CURVE DESCRIPTION
#----------   ------------   ------------------------------
 DEPT.F                  :   
 SPR .MV     05 010 01 00:   SPONTANEOUS POTENTIAL FROM RES.
 ILD .OHMM   05 120 46 00:   INDUCTION LOG DEEP
 SN  .OHMM   05 040 16 00:   SHORT NORMAL 16"
 CALD.IN     45 280 60 00:   CALIPER
 GRD .GAPI   45 310 01 00:   GAMMA RAY FROM DENSITY LOG
 DEN .G/C3   45 350 01 00:   COMPENSATED BULK DENSTIY
 DPHI.DEC    45 890 12 00:   DENSITY POROSITY SANDSTONE
 CORR.G/C3   45 356 01 00:   DENSITY CORRECTION
~PARAMETER INFORMATION
#MNEM.UNIT          VALUE    DESCRIPTION
#----------   ------------   ------------------------------
 PD  .                 GL:   PERMANENT DATUM
 EPD .F              5200:   ELEVATION PERMANENT DATUM
 LMF .                 KB:   LOG MEASURED FROM
 DAPD.F                 4:   FEET ABOVE PERMANENT DATUM
 DMF .                 KB:   DRILLING MEASURED FROM
 EKB .F              5204:   KELLING BUSHING
 EGL .F              5200:   GROUND LEVEL
 DATE.            9-26-78:   RUN DATE
 RUN .                  1:   RUN NUMBER
 DD  .F               537:   DEPTH DRILLER
 DL  .F               538:   DEPTH LOGGER
 BLI .F               532:   BOTTOM LOG INTERVAL
 TLI .F                40:   TOP LOG INTERVAL
 CS  .IN            8.625:   CASING SIZE
 CBD .F                40:   CASING BOTTOM DRILLER
 CBL .F                46:   CASING BOTTOM LOGGER
 BS  .IN            7.875:   BIT SIZE
 BSD .F               537:   BIT SIZE AT DEPTH
 DFT .                KCL:   DRILLING FLUID TYPE
 DFD .                8.7:   DRILLING FLUID DENSITY
 DFV .                 37:   DRILLING FLUID VISCOSITY
 DFPH.                  9:   DRILLING FLUID PH
 DFL .                 10:   DRILLING FLUID LOSS
 MSS .          FLOW LINE:   MUD SAMPLE SOURCE
 RMS .OHMM            .18:   RESISTIVITY MUD SAMPLE
 MST .F                72:   MUD SAMPLE TEMPERATURE
 RMF .OHMM            .16:   RESISTIVITY MUD FILTRATE SAMPLE
 MFST.F                76:   MUD FILTRATE SAMPLE TEMPERATURE
 RMC .OHMM            .26:   RESISTIVITY MUD CAKE
 MCST.F                76:   MUD CAKE SAMPLE TEMPERATURE
 MFSS.               MEAS:   MUD FILTRATE SAMPLE SOURCE
 RMB .OHMM            .18:   RESISTIVITY MUD AT BHT
 BHT .F                71:   BOTTOM HOLE TEMPERATURE
 TCS .HRS               3:   TIME CURCULATED STOPPED
 MRT .F                71:   MAXIMUM RECORDED TEMPERATURE
 LUN .               2958:   LOGGING UNIT NUMBER
 LUL .               CASP:   LOGGING UNIT LOCATION
 ENGI.           REYNOLDS:   RECORDING ENGINEER
 WITN.              AMEND:   WITNESSED BY
 CLNT.            A2DTECH:   CLIENT CODE
 ORIG.           5" PRINT:   ORIGIN OF DATA
 UWI .       490251068800:   UNIQUE WELL ID
 DICO. A2D Technologies, Inc.:   DIGITIZING COMPANY
~OTHER INFORMATION
~A   DEPT      SPR        ILD         SN       CALD         GRD       DEN       DPHI       CORR   
# ...
  189.0000   -60.7184     8.7419     8.2295     7.8074   114.5169     2.4851     0.1166     0.0413
  189.5000   -60.5860     8.7528     8.2537     7.7884   117.0045     2.4813     0.1188     0.0462
  190.0000   -60.5279     8.7638     8.2780     7.7695   120.0022     2.4771     0.1210     0.0515
  190.5000   -60.5118     8.7749     8.3022     7.7505   123.0465     2.4731     0.1226     0.0654
  191.0000   -60.4965     8.7867     8.3285     7.7316   123.6992     2.4715     0.1226     0.0787
  191.5000   -60.4812     8.8503     8.3558     7.7126   121.8872     2.4715     0.1226     0.0981
  192.0000   -60.4659     8.9446     8.3834     7.6936   120.0356     2.4715     0.1222     0.1185
  192.5000   -60.4505     9.0392     8.4112     7.6746   118.1873     2.4734     0.1134     0.1570
  193.0000   -60.4352     9.1351     8.4391     7.6553   116.1674     2.4869     0.0980     0.1656
  193.5000   -60.4198     9.2213     8.4705     7.6555   113.7010     2.5133     0.0819     0.1506
  194.0000   -60.4045     9.2828     8.4136     7.6630   111.5083     2.5396     0.0864     0.1052
  194.5000   -60.3891     9.3476     8.3490     7.6708   111.4707     2.5579     0.0819     0.0612
  195.0000   -60.3736     9.3765     8.3155     7.6785   112.1117     2.5371     0.0924     0.0214
  195.5000   -60.3587     9.2481     8.3511     7.6862   114.0832     2.5169     0.1044     0.0194
  196.0000   -60.3403     9.2152     8.3753     7.6939   118.9173     2.4968     0.1120     0.0184
  196.5000   -60.4888     9.2048     8.4705     7.7015   123.7074     2.4843     0.1156     0.0172
  197.0000   -60.7084     9.2049     8.5491     7.7092   126.0910     2.4798     0.1183     0.0160
  197.5000   -60.9316     9.2049     8.4014     7.7169   126.7439     2.4770     0.1194     0.0149
  198.0000   -61.1257     9.2049     8.2679     7.7246   127.6093     2.4752     0.1204     0.0138
  198.5000   -61.0121     9.2049     8.1365     7.7307   126.4427     2.4734     0.1213     0.0127
  199.0000   -60.8967     9.2049     8.0072     7.7325   123.9637     2.4723     0.1222     0.0116
  199.5000   -60.7827     9.2049     7.8671     7.7344   123.6952     2.4712     0.1232     0.0122
  200.0000   -60.6691     9.2049     7.9554     7.7363   123.6317     2.4701     0.1241     0.0147
  200.5000   -60.5554     9.2050     8.0549     7.7383   123.0405     2.4691     0.1246     0.0172
  201.0000   -60.4415     9.2052     8.1556     7.7402   122.4982     2.4693     0.1242     0.0197
  201.5000   -60.3276     9.2050     8.2575     7.7421   122.5020     2.4684     0.1203     0.0222
  202.0000   -60.2166     9.1175     8.3608     7.7440   122.9571     2.4736     0.1168     0.0237
  202.5000   -60.2196     8.9549     8.4664     7.7459   124.8511     2.4807     0.1133     0.0247
  203.0000   -60.4743     8.7956     8.3966     7.7479   126.4650     2.4880     0.1097     0.0245
  203.5000   -60.7245     8.6392     8.2147     7.7498   125.2819     2.4953     0.1062     0.0238
  204.0000   -60.9749     8.4856     8.1760     7.7476   122.7371     2.5025     0.1027     0.0231
  204.5000   -61.2260     8.3826     8.1359     7.7448   120.2136     2.5021     0.1037     0.0224
  205.0000   -61.4405     8.3565     8.0960     7.7420   117.9236     2.4989     0.1061     0.0217
  205.5000   -61.6314     8.3306     8.0564     7.7392   117.8856     2.4958     0.1078     0.0210
  206.0000   -61.8215     8.2953     8.0169     7.7365   117.8882     2.4935     0.1061     0.0203
  206.5000   -62.0115     8.2471     7.9776     7.7337   117.9622     2.4953     0.1041     0.0195
  207.0000   -62.2015     8.1991     7.9386     7.7309   119.2745     2.4993     0.1021     0.0191
  207.5000   -62.3915     8.1515     7.8997     7.7281   120.0571     2.5033     0.1001     0.0198
  208.0000   -62.5816     8.1041     7.8610     7.7254   120.1145     2.5055     0.1008     0.0204
  208.5000   -62.7716     8.0570     7.8225     7.7226   120.6236     2.5042     0.1030     0.0210
  209.0000   -62.9616     8.0101     7.7504     7.7198   121.7379     2.4977     0.1081     0.0202
  209.5000   -63.1524     7.9635     7.5844     7.7170   121.5470     2.4894     0.1131     0.0194
  210.0000   -63.3445     7.8762     7.4242     7.7143   119.0544     2.4807     0.1181     0.0186
  210.5000   -63.5046     7.6629     7.2672     7.7116   116.6406     2.4719     0.1230     0.0178
  211.0000   -63.2448     7.4408     7.1135     7.7149   116.0799     2.4704     0.1203     0.0171
  211.5000   -62.9822     7.4440     7.0416     7.7258   116.5137     2.4741     0.1177     0.0183
  212.0000   -62.7221     7.4420     7.0411     7.7366   117.8658     2.4786     0.1150     0.0196
  212.5000   -62.4622     7.4595     7.0408     7.7475   123.0382     2.4831     0.1123     0.0210
  213.0000   -62.1931     7.5769     7.1604     7.7583   128.7923     2.4876     0.1114     0.0223
  213.5000   -62.0438     7.6958     7.2882     7.7692   128.9051     2.4895     0.1110     0.0236
  214.0000   -61.9250     7.8164     7.4180     7.7800   128.2148     2.4908     0.1105     0.0249
  214.5000   -61.8077     7.9389     7.5501     7.7909   127.6725     2.4922     0.1093     0.0262
  215.0000   -61.6899     8.0138     7.6846     7.8017   125.0634     2.4942     0.1068     0.0262
  215.5000   -61.5717     7.9058     7.8215     7.8082   121.5019     2.4961     0.1044     0.0242
  216.0000   -61.4524     7.8293     7.9608     7.7983   119.7135     2.4980     0.1019     0.0221
  216.5000   -61.3395     7.7536     8.0138     7.7887   119.2593     2.5000     0.1014     0.0201
  217.0000   -61.4753     7.6786     8.0138     7.7792   118.0209     2.5019     0.1050     0.0180
  217.5000   -61.6270     7.5948     7.9674     7.7697   116.1619     2.5023     0.1097     0.0160
  218.0000   -61.7785     7.5152     7.8958     7.7602   114.1480     2.4940     0.1144     0.0139
  218.5000   -61.9238     7.5850     7.8248     7.7507   114.7348     2.4857     0.1176     0.0138
  219.0000   -61.9283     7.5539     7.7545     7.7411   118.0737     2.4772     0.1186     0.0153
  219.5000   -61.9200     7.5370     7.6848     7.7311   121.3424     2.4765     0.1189     0.0167
  220.0000   -62.2541     7.5202     7.6164     7.7456   124.4185     2.4765     0.1191     0.0182
  220.5000   -62.6544     7.3804     7.4994     7.7646   124.8061     2.4765     0.1194     0.0196
  221.0000   -63.0573     7.0546     7.3398     7.7836   121.8526     2.4765     0.1205     0.0211
  221.5000   -63.4602     6.7156     7.1740     7.8027   118.0803     2.4736     0.1226     0.0226
  222.0000   -63.5198     6.3929     6.9846     7.8141   114.1483     2.4683     0.1258     0.0240
  222.5000   -63.5477     6.1304     6.7887     7.8209   110.2511     2.4619     0.1345     0.0250
  223.0000   -63.6772     5.9080     6.5979     7.8276   108.0816     2.4499     0.1447     0.0250
  223.5000   -63.8056     5.9452     6.4798     7.8344   111.5439     2.4380     0.1479     0.0250
  224.0000   -63.8983     5.9944     6.4798     7.8411   117.4211     2.4315     0.1407     0.0250
  224.5000   -63.4984     6.0439     6.4798     7.8478   123.3122     2.4423     0.1306     0.0250
  225.0000   -62.9463     6.0740     6.6858     7.8546   127.1407     2.4604     0.1205     0.0250
  225.5000   -62.4151     6.0740     6.9004     7.8613   127.2984     2.4785     0.1104     0.0250
  226.0000   -61.8944     6.1873     7.1220     7.8681   127.4482     2.4966     0.1073     0.0250
  226.5000   -61.5244     6.6046     7.3506     7.8748   125.6803     2.4958     0.1096     0.0249
  227.0000   -61.5318     7.0707     7.5867     7.8816   123.3932     2.4918     0.1119     0.0290
  227.5000   -61.5312     7.5120     7.8303     7.8883   121.1873     2.4878     0.1126     0.0346
  228.0000   -61.5288     7.5824     7.9206     7.8951   122.0213     2.4864     0.1126     0.0405
  228.5000   -61.4126     7.6500     8.0031     7.9018   124.5186     2.4902     0.1093     0.0350
  229.0000   -61.2867     7.7181     8.0865     7.9088   127.0388     2.4956     0.1032     0.0280
