~VERSION INFORMATION
 VERS.                2.0:   CWLS LOG ASCII STANDARD - VERSION 2.0
 WRAP.                 NO:   ONE LINE PER DEPTH STEP
~WELL INFORMATION
#MNEM.UNIT      DATA TYPE    INFORMATION
#----------   ------------   ------------------------------
 STRT.F            0.0000:   START DEPTH
 STOP.F          523.0000:   STOP DEPTH
 STEP.F            0.1000:   STEP LENGTH
 NULL.          -999.2500:   NO VALUE
 COMP.       F D SERV INC:   COMPANY
 WELL. NAVAL PETROLEUM RESERVE 3 SX-3 #87-3:   WELL
 FLD .             TEAPOT:   FIELD
 LOC .       S3 T38N R78W:   LOCATION
 CNTY.            NATRONA:   COUNTY
 STAT.            WYOMING:   STATE
 CTRY. UNITED STATES OF AMERICA:   COUNTRY
 SRVC.      Western Atlas:   SERVICE COMPANY
 DATE.        22-NOV-1992:   LOGDATE
 API .       490252254300:   API NUMBER
~CURVE INFORMATION
#MNEM.UNIT       API CODE    CURVE DESCRIPTION
#----------   ------------   ------------------------------
 DEPT.F                  :   
 GRR .GAPI   07 310 01 00:   GAMMA RAY
 RILD.OHMM   07 120 46 00:   INDUCTION LOG DEEP RESISTIVITY
 RILM.OHMM   07 120 44 00:   INDUCTION LOG MEDIUM RESISTIVITY
~PARAMETER INFORMATION
#MNEM.UNIT          VALUE    DESCRIPTION
#----------   ------------   ------------------------------
 PD  .                 GL:   PERMANENT DATUM
 EPD .F              5129:   ELEVATION PERMANENT DATUM
 LMF .                 KB:   LOG MEASURED FROM
 DAPD.F                10:   FEET ABOVE PERMANENT DATUM
 DMF .                 KB:   DRILLING MEASURED FROM
 EKB .F              5139:   KELLING BUSHING
 EDF .F              5138:   DRILLING FLOOR
 EGL .F              5129:   GROUND LEVEL
 DATE.        22-NOV-1992:   RUN DATE
 RUN .                  1:   RUN NUMBER
 DD  .F               530:   DEPTH DRILLER
 DL  .F               531:   DEPTH LOGGER
 BLI .F               530:   BOTTOM LOG INTERVAL
 TLI .F                58:   TOP LOG INTERVAL
 CS  .IN            8.625:   CASING SIZE
 CBD .F                58:   CASING BOTTOM DRILLER
 CBL .F                58:   CASING BOTTOM LOGGER
 BS  .IN            7.875:   BIT SIZE
 BSD .F               530:   BIT SIZE AT DEPTH
 DFT .           AIR FOAM:   DRILLING FLUID TYPE
 MRT .F                73:   MAXIMUM RECORDED TEMPERATURE
 LUN .            HL-6274:   LOGGING UNIT NUMBER
 LUL .             CASPER:   LOGGING UNIT LOCATION
 ENGI.       P. RASMUSSEN:   RECORDING ENGINEER
 WITN.          G. STRONG:   WITNESSED BY
 CLNT.            A2DTECH:   CLIENT CODE
 ORIG.           5" PRINT:   ORIGIN OF DATA
 UWI .       490252254300:   UNIQUE WELL ID
 DICO. A2D Technologies, Inc.:   DIGITIZING COMPANY
~OTHER INFORMATION
~A    DEPT      GRR      RILD       RILM   
# ...
  455.0000   115.4917    11.1787    11.2046
  455.1000   115.4899    11.0843    11.2038
  455.2000   115.6147    11.0810    11.2029
  455.3000   115.9269    11.0050    11.1760
  455.4000   116.4373    10.9038    11.1232
  455.5000   117.6003    10.8151    11.1222
  455.6000   118.1945    10.7744    11.0031
  455.7000   118.7862    10.7734    10.9222
  455.8000   119.1910    10.7722    10.8893
  455.9000   119.4343    10.8264    10.8731
  456.0000   119.7093    10.8870    10.8118
  456.1000   119.7078    10.9479    10.8109
  456.2000   119.8609    10.9956    10.8581
  456.3000   120.1038    10.9945    10.8847
  456.4000   120.3077    11.0553    10.9433
  456.5000   120.3055    11.0692    11.1238
  456.6000   120.5305    11.0681    11.2679
  456.7000   120.7736    11.0671    11.3217
  456.8000   120.9053    11.0709    11.3450
  456.9000   120.9571    11.1421    11.3691
  457.0000   121.2042    11.1952    11.4226
  457.1000   121.2025    11.2179    11.4214
  457.2000   121.2006    11.2168    11.4206
  457.3000   121.1988    11.2293    11.4196
  457.4000   121.1970    11.3078    11.4484
  457.5000   121.1851    11.3826    11.4976
  457.6000   120.8904    11.3819    11.4966
  457.7000   120.8890    11.3809    11.4956
  457.8000   120.7477    11.3800    11.4947
  457.9000   120.5010    11.3790    11.4937
  458.0000   120.2783    11.3779    11.4927
  458.1000   120.2763    11.3771    11.4918
  458.2000   119.8517    11.3762    11.4907
  458.3000   119.2067    11.3752    11.4899
  458.4000   118.3742    11.3742    11.4889
  458.5000   117.3925    11.3733    11.4879
  458.6000   116.3339    11.3724    11.4870
  458.7000   115.6559    11.3714    11.4859
  458.8000   115.4227    11.3704    11.4851
  458.9000   115.3108    11.3695    11.4841
  459.0000   115.0641    11.3686    11.4832
  459.1000   114.8121    11.3676    11.4822
  459.2000   114.8103    11.3666    11.4812
  459.3000   114.6266    11.3657    11.4175
  459.4000   114.6283    11.3648    11.3996
  459.5000   115.1376    11.3638    11.3986
  459.6000   116.3335    11.3627    11.3976
  459.7000   116.9188    11.3619    11.3941
  459.8000   117.1135    11.3207    11.3164
  459.9000   117.3566    11.2811    11.2641
  460.0000   117.5997    11.2697    11.1996
  460.1000   117.8198    11.2009    11.1571
  460.2000   117.5150    11.1413    11.1561
  460.3000   117.0930    11.1213    11.1551
  460.4000   116.4490    11.1204    11.2099
  460.5000   115.7126    11.1195    11.2725
  460.6000   114.8271    11.1185    11.3090
  460.7000   112.9675    11.1176    11.3080
  460.8000   112.2931    11.1651    11.3070
  460.9000   112.0563    11.1934    11.3062
  461.0000   112.0545    11.1925    11.3052
  461.1000   112.1038    11.1870    11.3042
  461.2000   112.3534    11.1128    11.2873
  461.3000   112.5900    11.1120    11.2227
  461.4000   113.3755    11.1111    11.1585
  461.5000   114.3533    11.1102    11.1440
  461.6000   115.3307    11.1093    11.1431
  461.7000   116.3005    11.1082    11.1421
  461.8000   117.0337    11.1074    11.1412
  461.9000   117.9613    11.1064    11.1401
  462.0000   119.0762    11.1055    11.1393
  462.1000   120.2195    11.1046    11.1384
  462.2000   121.1534    11.1036    11.1375
  462.3000   121.7129    11.1027    11.1365
  462.4000   122.1293    11.1018    11.1355
  462.5000   122.3147    11.1008    11.0766
  462.6000   122.5001    11.0824    11.0564
  462.7000   122.9522    11.0220    11.0555
  462.8000   123.2168    11.0209    11.0545
  462.9000   123.2151    11.0201    11.0536
  463.0000   123.3788    11.0192    11.0527
  463.1000   123.5141    10.9965    11.0518
  463.2000   123.5122    10.9336    11.0508
  463.3000   123.5104    10.8639    11.0499
  463.4000   123.5086    10.8631    11.0489
  463.5000   123.5068    10.8622    11.0479
  463.6000   123.3831    10.8355    11.0472
  463.7000   123.2006    10.7849    11.0462
  463.8000   123.1924    10.7840    11.0453
  463.9000   122.9456    10.7831    11.0444
  464.0000   122.5053    10.7823    11.0433
  464.1000   121.8780    10.7814    10.9864
  464.2000   121.2198    10.7805    10.9649
  464.3000   120.7280    10.7796    10.9640
  464.4000   120.1619    10.7787    10.9504
  464.5000   119.3290    10.7777    10.8859
  464.6000   118.4980    10.7428    10.8254
  464.7000   117.9463    10.7011    10.8085
  464.8000   117.5605    10.6945    10.7768
  464.9000   116.2195    10.6249    10.7151
  465.0000   115.9961    10.5212    10.6537
  465.1000   115.9135    10.4762    10.5811
  465.2000   115.9116    10.4754    10.5322
  465.3000   115.9098    10.4746    10.5060
  465.4000   115.9080    10.4736    10.5051
  465.5000   116.1422    10.4728    10.4976
  465.6000   116.3852    10.4719    10.4302
  465.7000   116.9900    10.4710    10.4295
  465.8000   117.8421    10.4702    10.4286
  465.9000   118.3247    10.4693    10.4277
  466.0000   118.5679    10.4684    10.4268
  466.1000   118.6184    10.4221    10.4259
  466.2000   118.6166    10.3940    10.3693
  466.3000   118.6148    10.3753    10.3518
  466.4000   118.6131    10.3159    10.3510
  466.5000   118.6109    10.2474    10.3354
  466.6000   118.4028    10.1983    10.2762
  466.7000   118.4538    10.1748    10.2175
  466.8000   118.6057    10.1524    10.2042
  466.9000   118.6040    10.0943    10.2034
  467.0000   118.6019    10.0314    10.1841
  467.1000   119.0414     9.9281    10.1207
  467.2000   120.0182     9.8910     9.9895
  467.3000   120.9253     9.8901     9.9406
  467.4000   121.3184     9.8893     9.9186
  467.5000   121.3161     9.8885     9.8959
  467.6000   121.3144     9.8331     9.8480
  467.7000   121.1354     9.8182     9.8471
  467.8000   121.0082     9.7889     9.7950
  467.9000   120.9446     9.7175     9.7389
  468.0000   120.7020     9.6127     9.6832
  468.1000   120.7002     9.6118     9.6401
  468.2000   120.6983     9.6111     9.6393
  468.3000   120.5630     9.6103     9.6385
  468.4000   120.3921     9.5905     9.5963
  468.5000   120.3903     9.5420     9.5700
  468.6000   120.3882     9.5411     9.5531
  468.7000   120.5921     9.5404     9.4984
  468.8000   120.6874     9.5044     9.4349
  468.9000   120.6856     9.4501     9.3900
  469.0000   120.7162     9.3960     9.3679
  469.1000   120.9844     9.3399     9.3671
  469.2000   120.9827     9.3391     9.3664
  469.3000   121.1427     9.3384     9.3655
  469.4000   121.2817     9.3118     9.3172
  469.5000   121.2799     9.2720     9.2990
  469.6000   121.2780     9.2685     9.2981
  469.7000   121.5098     9.1636     9.2866
  469.8000   121.7529     9.1005     9.2320
  469.9000   121.9960     9.0771     9.1806
  470.0000   122.3600     9.0764     9.1281
  470.1000   123.0873     9.0756     9.1019
  470.2000   123.3303     9.0748     9.1011
  470.3000   123.5735     9.0300     9.1004
  470.4000   123.8165     9.0103     9.0995
  470.5000   124.0595     8.9894     9.0573
  470.6000   124.2858     8.9379     9.0055
  470.7000   124.2835     8.8834     8.9539
  470.8000   124.2820     8.8360     8.9026
  470.9000   124.1337     8.8203     8.8455
  471.0000   123.8869     8.7963     8.8449
  471.1000   123.6092     8.7344     8.7799
  471.2000   123.0642     8.6356     8.6804
  471.3000   122.6261     8.5862     8.5995
  471.4000   122.2951     8.5371     8.5987
  471.5000   121.8429     8.4372     8.5064
  471.6000   121.1967     8.2804     8.4101
  471.7000   120.9373     8.0975     8.3373
  471.8000   120.9355     7.9390     8.2779
  471.9000   120.9337     7.7896     8.1839
  472.0000   121.0489     7.5892     8.0914
  472.1000   121.2919     7.3922     7.9645
  472.2000   121.5351     7.2261     7.7342
  472.3000   121.7781     7.0494     7.4591
  472.4000   122.5873     6.9057     7.2533
  472.5000   123.5651     6.7509     7.0672
  472.6000   124.6899     6.6158     6.9316
  472.7000   126.1412     6.5116     6.7526
  472.8000   127.5737     6.4363     6.5922
  472.9000   128.3839     6.3299     6.4748
  473.0000   129.6516     6.1971     6.3186
  473.1000   131.1190     6.1106     6.2851
