~VERSION INFORMATION
 VERS.                2.0:   CWLS LOG ASCII STANDARD - VERSION 2.0
 WRAP.                 NO:   ONE LINE PER DEPTH STEP
~WELL INFORMATION
#MNEM.UNIT      DATA TYPE    INFORMATION
#----------   ------------   ------------------------------
 STRT.F           25.0000:   START DEPTH
 STOP.F          681.0000:   STOP DEPTH
 STEP.F            0.5000:   STEP LENGTH
 NULL.          -999.2500:   NO VALUE
 COMP. FENIX & SCISSON INC:   COMPANY
 WELL.    56-SX-34 #56-34:   WELL
 FLD .             TEAPOT:   FIELD
 LOC .      S34 T39N R78W:   LOCATION
 CNTY.            NATRONA:   COUNTY
 STAT.            WYOMING:   STATE
 CTRY. UNITED STATES OF AMERICA:   COUNTRY
 SRVC.            Unknown:   SERVICE COMPANY
 DATE.        28-JAN-1979:   LOGDATE
 API .       490251077200:   API NUMBER
~CURVE INFORMATION
#MNEM.UNIT       API CODE    CURVE DESCRIPTION
#----------   ------------   ------------------------------
 DEPT.F                  :   
 SPR .MV     05 010 01 00:   SPONTANEOUS POTENTIAL FROM RES.
 DRHO.G/C3   45 356 01 00:   DENSITY CORRECTION
 RHOB.G/C3   45 350 01 00:   BULK DENSITY
 DPHI.DEC    45 890 12 00:   DENSITY POROSITY SANDSTONE
 CALD.IN     45 280 60 00:   CALIPER
 GRD .GAPI   45 310 01 00:   GAMMA RAY FROM DENSITY LOG
 SN  .OHMM   05 040 16 00:   SHORT NORMAL 16'
 ILD .OHMM   05 120 46 00:   INDUCTION LOG DEEP RESISTIVITY
~PARAMETER INFORMATION
#MNEM.UNIT          VALUE    DESCRIPTION
#----------   ------------   ------------------------------
 PD  .                 GL:   PERMANENT DATUM
 EPD .F              5088:   ELEVATION PERMANENT DATUM
 LMF .                 KB:   LOG MEASURED FROM
 DAPD.F                 4:   FEET ABOVE PERMANENT DATUM
 DMF .                 KB:   DRILLING MEASURED FROM
 EKB .F              5092:   KELLING BUSHING
 EGL .F              5088:   GROUND LEVEL
 DATE.            1-28-79:   RUN DATE
 RUN .                  1:   RUN NUMBER
 DD  .F               680:   DEPTH DRILLER
 DL  .F               681:   DEPTH LOGGER
 BLI .F               679:   BOTTOM LOG INTERVAL
 TLI .F                40:   TOP LOG INTERVAL
 CS  .IN            8.625:   CASING SIZE
 CBD .F                40:   CASING BOTTOM DRILLER
 CBL .F                40:   CASING BOTTOM LOGGER
 BS  .IN            7.875:   BIT SIZE
 BSD .F               680:   BIT SIZE AT DEPTH
 DFT .                KCL:   DRILLING FLUID TYPE
 DFD .                8.9:   DRILLING FLUID DENSITY
 DFV .                 43:   DRILLING FLUID VISCOSITY
 DFPH.                8.5:   DRILLING FLUID PH
 DFL .                9.8:   DRILLING FLUID LOSS
 MSS .           FLOWLINE:   MUD SAMPLE SOURCE
 RMS .OHMM            1.5:   RESISTIVITY MUD SAMPLE
 MST .F                66:   MUD SAMPLE TEMPERATURE
 RMF .OHMM            1.3:   RESISTIVITY MUD FILTRATE SAMPLE
 MFST.F                76:   MUD FILTRATE SAMPLE TEMPERATURE
 RMC .OHMM            1.3:   RESISTIVITY MUD CAKE
 MCST.F                78:   MUD CAKE SAMPLE TEMPERATURE
 MFSS.           MEASURED:   MUD FILTRATE SAMPLE SOURCE
 MCSS.           MEASURED:   MUD CAKE SAMPLE SOURCE
 RMB .OHMM            1.3:   RESISTIVITY MUD AT BHT
 BHT .F                76:   BOTTOM HOLE TEMPERATURE
 TCS .HRS               3:   TIME CURCULATED STOPPED
 MRT .F                76:   MAXIMUM RECORDED TEMPERATURE
 LUN .               3006:   LOGGING UNIT NUMBER
 LUL .             CASPER:   LOGGING UNIT LOCATION
 ENGI.            ROLLINS:   RECORDING ENGINEER
 WITN.              AMEND:   WITNESSED BY
 CLNT.            A2DTECH:   CLIENT CODE
 ORIG.       2", 5" PRINT:   ORIGIN OF DATA
 UWI .       490251077200:   UNIQUE WELL ID
 DICO. A2D Technologies, Inc.:   DIGITIZING COMPANY
~OTHER INFORMATION
~A   DEPT      SPR       DRHO       RHOB       DPHI       CALD         GRD        SN        ILD   
# ...
  389.5000   -43.3859     0.0572     2.4655     0.1293     7.7610    92.6003     7.0286     8.3593
  390.0000   -43.4073     0.0575     2.4618     0.1293     7.7739    93.6737     7.1423     8.3996
  390.5000   -43.4286     0.0586     2.4619     0.1293     7.8523   100.0946     7.2581     8.4402
  391.0000   -43.4495     0.0607     2.4619     0.1291     7.9181    99.2077     7.3757     8.4810
  391.5000   -43.4556     0.0625     2.4619     0.1286     7.9154    98.1583     7.4953     8.6036
  392.0000   -43.4133     0.0631     2.4618     0.1272     7.8965    98.1553     7.6094     8.6855
  392.5000   -43.3724     0.0608     2.4672     0.1230     7.8833    96.6271     7.6584     8.7682
  393.0000   -43.3320     0.0565     2.4753     0.1188     7.8700    94.6223     7.7158     8.8516
  393.5000   -43.2918     0.0504     2.4834     0.1146     7.8569    93.4396     7.7737     8.9358
  394.0000   -43.3034     0.0496     2.4916     0.1119     7.8438    92.9807     7.8320     9.0208
  394.5000   -43.3891     0.0496     2.4998     0.1107     7.8497    94.6760     7.8908     9.0710
  395.0000   -43.4738     0.0497     2.5013     0.1104     7.8756    95.5373     7.9500     9.0710
  395.5000   -43.5592     0.0493     2.5016     0.1101     7.8847    93.3543     8.0096     9.0710
  396.0000   -43.6470     0.0384     2.5017     0.1108     7.8300    93.7593     8.0697     9.0710
  396.5000   -43.6215     0.0317     2.5018     0.1125     7.8438    92.8760     8.1302     9.0710
  397.0000   -43.5694     0.0353     2.4902     0.1173     7.9398    89.5132     8.1937     9.0710
  397.5000   -43.5163     0.0550     2.4818     0.1241     7.9134    89.5024     8.1757     9.0710
  398.0000   -43.4632     0.0558     2.4591     0.1302     7.8850    96.1282     8.1570     9.0710
  398.5000   -43.4102     0.0556     2.4530     0.1333     7.8599    96.2854     8.1384     9.0710
  399.0000   -43.3573     0.0779     2.4655     0.1185     7.9393    96.1911     8.1183     9.0710
  399.5000   -43.3041     0.1000     2.4887     0.1092     8.0126    98.4842     8.0820     9.0545
  400.0000   -43.2531     0.0841     2.5046     0.1125     7.9449    97.9420     7.9634     8.9068
  400.5000   -43.2029     0.0621     2.4926     0.1232     7.7999    96.9501     7.8464     8.7615
  401.0000   -43.1534     0.0448     2.4749     0.1279     8.0472    98.6953     7.7314     8.6186
  401.5000   -43.1040     0.0448     2.4654     0.1289     8.0602   100.7049     7.6183     8.4780
  402.0000   -43.0546     0.0463     2.4659     0.1304     8.0390   101.6313     7.5069     8.3398
  402.5000   -43.0051     0.0477     2.4618     0.1321     8.0599    99.0897     7.3971     8.2037
  403.0000   -42.9557     0.0470     2.4577     0.1363     8.1213    97.5669     7.2656     8.0699
  403.5000   -42.9062     0.0462     2.4434     0.1427     8.1751    99.7382     7.1315     7.8505
  404.0000   -42.8568     0.0460     2.4282     0.1508     8.1738   101.6548     6.7895     7.6160
  404.5000   -42.8068     0.0655     2.4102     0.1624     8.1738   100.5622     6.4640     7.3885
  405.0000   -42.7565     0.0998     2.3853     0.1739     8.2486   101.0064     6.1540     7.1677
  405.5000   -42.7136     0.1392     2.3605     0.1881     8.3952   101.8280     5.8589     6.9536
  406.0000   -42.8555     0.1995     2.3342     0.2009     8.5171    99.4729     5.5404     6.7497
  406.5000   -43.5681     0.2634     2.3261     0.2027     8.2515    98.8370     4.9598     6.2230
  407.0000   -43.6641     0.2857     2.3274     0.2154     8.7506    98.5467     4.4400     5.7374
  407.5000   -43.6643     0.2933     2.2938     0.2345     9.1605    96.8642     3.9747     5.2181
  408.0000   -43.6635     0.3092     2.2589     0.2472     9.1381    94.8515     3.5581     4.5689
  408.5000   -43.6634     0.2767     2.2260     0.2533     8.7835    92.3734     3.1852     4.0005
  409.0000   -43.6634     0.1700     2.1637     0.2576     9.6060    89.4922     2.8553     3.5029
  409.5000   -43.6634     0.1365     2.0930     0.2603     9.2767    85.1298     2.5179     3.0671
  410.0000   -43.6634     0.1280     2.0905     0.2586     8.8972    84.0313     2.2242     2.7203
  410.5000   -43.6634     0.1311     2.1080     0.2576     9.7572    87.3951     1.9653     2.5553
  411.0000   -43.6634     0.1322     2.1575     0.2569     9.8931    84.5748     1.6394     2.4855
  411.5000   -43.6634     0.1171     2.2479     0.2179     8.8416    87.7883     1.7333     2.5869
  412.0000   -43.6634     0.1015     2.3371     0.1729     8.4942    92.0701     1.9212     2.7383
  412.5000   -43.6634     0.1059     2.3695     0.1548     8.0196    96.0916     2.1296     2.8818
  413.0000   -43.6634     0.1021     2.4411     0.1430     8.6948    98.3333     2.3606     3.3077
  413.5000   -43.6634     0.0842     2.4508     0.1353     8.5537    99.2583     2.7012     3.8236
  414.0000   -43.6634     0.0980     2.4478     0.1353     8.2684    97.8016     3.2626     4.5177
  414.5000   -43.6634     0.1460     2.4496     0.1282     8.4192    96.2052     3.8929     5.3385
  415.0000   -43.6634     0.2082     2.4571     0.1253     8.2974    96.5456     4.6465     6.3077
  415.5000   -43.6634     0.2394     2.4689     0.1268     8.3332   100.8531     5.1989     6.7841
  416.0000   -43.6634     0.2617     2.4653     0.1236     8.4239   102.9678     5.5946     7.0668
  416.5000   -43.6634     0.2741     2.4803     0.1156     8.4399   101.7801     5.9784     7.0381
  417.0000   -43.6634     0.2664     2.4908     0.1218     8.4194   101.9085     6.1009     6.9890
  417.5000   -43.6634     0.2362     2.4834     0.1296     8.4235   103.5257     6.0910     6.9373
  418.0000   -43.6634     0.1808     2.4620     0.1354     8.4888   103.5613     6.0427     6.8734
  418.5000   -43.6634     0.1255     2.4516     0.1412     8.5291   104.0503     5.9884     7.0193
  419.0000   -43.6634     0.0701     2.4288     0.1458     8.4174   105.5712     5.9341     7.1808
  419.5000   -43.6634     0.0661     2.4255     0.1517     8.2944   107.5725     5.8804     7.2656
  420.0000   -43.6627     0.0697     2.4221     0.1614     8.1683   106.5577     5.8275     7.2656
  420.5000   -43.6623     0.0782     2.4011     0.1706     8.0967   105.8482     5.7752     6.7537
  421.0000   -43.6711     0.1038     2.3802     0.1808     8.0528   107.3888     5.7305     6.2663
  421.5000   -43.8293     0.1285     2.3596     0.1910     8.1400   107.7120     5.5221     5.9489
  422.0000   -44.0488     0.1487     2.3400     0.1911     8.5902   109.6566     5.0078     5.6546
  422.5000   -44.6488     0.1456     2.3411     0.1879     9.0858   110.1146     4.4162     5.3766
  423.0000   -44.6424     0.1397     2.3721     0.1670     9.4597   106.3109     3.9855     5.1457
  423.5000   -44.6257     0.1425     2.3921     0.1666     8.2775   104.2427     4.4148     4.9815
  424.0000   -44.6122     0.1450     2.3844     0.1750     9.2858   102.6391     3.6556     4.8222
  424.5000   -44.5990     0.1762     2.3744     0.1735     8.4409   100.7238     3.7861     4.6612
  425.0000   -44.5857     0.2170     2.3811     0.1669     8.6971    97.7304     4.0098     4.7045
  425.5000   -44.5723     0.2374     2.4232     0.1582     8.9680    96.6089     4.2534     5.0716
  426.0000   -44.5590     0.2032     2.4377     0.1502     8.3009    96.8611     4.5118     5.5759
  426.5000   -44.5457     0.1578     2.4207     0.1487     8.5436   101.0395     4.7860     6.0459
  427.0000   -44.5324     0.1263     2.4322     0.1386     8.2776   105.1316     5.0670     6.2971
  427.5000   -44.5191     0.0974     2.4704     0.1249     8.5470   107.4350     5.4869     6.5587
  428.0000   -44.5057     0.0791     2.4831     0.1138     8.7813   107.0156     5.9255     6.8312
  428.5000   -44.4924     0.0599     2.4938     0.1108     8.1967   107.4214     6.3998     7.0937
  429.0000   -44.4791     0.0558     2.4971     0.1108     8.2543   106.8943     6.6532     7.3323
  429.5000   -44.4659     0.0556     2.5008     0.1112     8.1429   106.2968     6.9208     7.5790
