~VERSION INFORMATION
 VERS.                2.0:   CWLS LOG ASCII STANDARD - VERSION 2.0
 WRAP.                 NO:   ONE LINE PER DEPTH STEP
~WELL INFORMATION
#MNEM.UNIT      DATA TYPE    INFORMATION
#----------   ------------   ------------------------------
 STRT.F           17.0000:   START DEPTH
 STOP.F          634.0000:   STOP DEPTH
 STEP.F            0.5000:   STEP LENGTH
 NULL.          -999.2500:   NO VALUE
 COMP. FENIX & SCISSON INC:   COMPANY
 WELL.        NPR 3 #72-3:   WELL
 FLD .             TEAPOT:   FIELD
 LOC .       S3 T38N R78W:   LOCATION
 CNTY.            NATRONA:   COUNTY
 STAT.            WYOMING:   STATE
 CTRY. UNITED STATES OF AMERICA:   COUNTRY
 SRVC.           BIRDWELL:   SERVICE COMPANY
 DATE.        24-SEP-1978:   LOGDATE
 API .       490251069100:   API NUMBER
~CURVE INFORMATION
#MNEM.UNIT       API CODE    CURVE DESCRIPTION
#----------   ------------   ------------------------------
 DEPT.F                  :   
 SPR .MV     05 010 01 00:   SPONTANEOUS POTENTIAL FROM RES.
 SN  .OHMM   05 040 16 00:   SHORT NORMAL 16"
 ILD .OHMM   05 120 46 00:   INDUCTION LOG DEEP
 GRD .GAPI   45 310 01 00:   GAMMA RAY FROM DENSITY LOG
 CALD.IN     45 280 60 00:   CALIPER
 DEN .G/C3   45 350 01 00:   COMPENSATED BULK DENSTIY
 DPHI.DEC    45 890 12 00:   DENSITY POROSITY SANDSTONE
 CORR.G/C3   45 356 01 00:   DENSITY CORRECTION
~PARAMETER INFORMATION
#MNEM.UNIT          VALUE    DESCRIPTION
#----------   ------------   ------------------------------
 PD  .                 GL:   PERMANENT DATUM
 EPD .F              5155:   ELEVATION PERMANENT DATUM
 LMF .                 KB:   LOG MEASURED FROM
 DAPD.F                 4:   FEET ABOVE PERMANENT DATUM
 DMF .                 KB:   DRILLING MEASURED FROM
 EKB .F              5159:   KELLING BUSHING
 EGL .F              5155:   GROUND LEVEL
 DATE.            9-24-78:   RUN DATE
 RUN .                  1:   RUN NUMBER
 DD  .F               635:   DEPTH DRILLER
 DL  .F               634:   DEPTH LOGGER
 BLI .F               627:   BOTTOM LOG INTERVAL
 TLI .F                30:   TOP LOG INTERVAL
 CS  .IN            8.625:   CASING SIZE
 CBD .F                34:   CASING BOTTOM DRILLER
 CBL .F                34:   CASING BOTTOM LOGGER
 BS  .IN            7.875:   BIT SIZE
 BSD .F               635:   BIT SIZE AT DEPTH
 DFT .                KCL:   DRILLING FLUID TYPE
 DFD .                8.7:   DRILLING FLUID DENSITY
 DFV .                 36:   DRILLING FLUID VISCOSITY
 DFPH.                9.5:   DRILLING FLUID PH
 DFL .                8.2:   DRILLING FLUID LOSS
 MSS .          FLOW LINE:   MUD SAMPLE SOURCE
 RMS .OHMM             .2:   RESISTIVITY MUD SAMPLE
 MST .F                68:   MUD SAMPLE TEMPERATURE
 RMF .OHMM            .18:   RESISTIVITY MUD FILTRATE SAMPLE
 MFST.F                76:   MUD FILTRATE SAMPLE TEMPERATURE
 RMC .OHMM            .32:   RESISTIVITY MUD CAKE
 MCST.F                76:   MUD CAKE SAMPLE TEMPERATURE
 MFSS.               MEAS:   MUD FILTRATE SAMPLE SOURCE
 RMB .OHMM             .2:   RESISTIVITY MUD AT BHT
 BHT .F                70:   BOTTOM HOLE TEMPERATURE
 TCS .HRS               3:   TIME CURCULATED STOPPED
 MRT .F                70:   MAXIMUM RECORDED TEMPERATURE
 LUN .               2958:   LOGGING UNIT NUMBER
 LUL .               CASP:   LOGGING UNIT LOCATION
 ENGI.           REYNOLDS:   RECORDING ENGINEER
 WITN.              AMEND:   WITNESSED BY
 CLNT.            A2DTECH:   CLIENT CODE
 ORIG.           5" PRINT:   ORIGIN OF DATA
 UWI .       490251069100:   UNIQUE WELL ID
 DICO. A2D Technologies, Inc.:   DIGITIZING COMPANY
~OTHER INFORMATION
~A   DEPT      SPR         SN        ILD         GRD      CALD        DEN       DPHI       CORR   
# ...
  300.5000   -59.9436     6.3917     6.2116   121.9956     7.8435     2.4604     0.1318     0.0599
  301.0000   -59.9725     6.4880     6.3711   121.8081     7.8384     2.4696     0.1252     0.0612
  301.5000   -60.0013     6.5318     6.4330   121.1499     7.8333     2.4757     0.1231     0.0628
  302.0000   -60.0302     6.7492     6.5406   124.3002     7.8282     2.4862     0.1144     0.0474
  302.5000   -60.0591     6.9028     6.7130   129.5351     7.8232     2.4994     0.1040     0.0257
  303.0000   -60.0881     6.8846     6.6881   124.3268     7.8195     2.4999     0.1081     0.0220
  303.5000   -60.1169     6.8702     6.6657   119.0860     7.8272     2.4839     0.1165     0.0211
  304.0000   -60.1346     6.8561     6.6428   121.3564     7.8349     2.4659     0.1281     0.0222
  304.5000   -60.0930     6.8422     6.6202   121.3880     7.8426     2.4648     0.1310     0.0233
  305.0000   -60.0522     6.8284     6.5977   121.1111     7.8503     2.4675     0.1290     0.0245
  305.5000   -60.0111     6.8145     6.5752   121.1303     7.8580     2.4734     0.1248     0.0224
  306.0000   -59.9712     6.8007     6.5528   121.3546     7.8657     2.4835     0.1172     0.0201
  306.5000   -59.9711     6.7872     6.5318   118.7346     7.8732     2.4826     0.1178     0.0184
  307.0000   -60.1360     6.7599     6.5139   115.1145     7.8764     2.4808     0.1196     0.0181
  307.5000   -60.2965     6.6932     6.4971   114.4213     7.8694     2.4791     0.1214     0.0178
  308.0000   -60.4563     6.6280     6.4805   121.0085     7.8627     2.4780     0.1231     0.0175
  308.5000   -60.5426     6.5632     6.4719   125.1003     7.8558     2.4782     0.1235     0.0172
  309.0000   -60.5421     6.4700     6.2294   122.2075     7.8490     2.4797     0.1195     0.0170
  309.5000   -60.5423     6.3505     5.9022   122.2491     7.8422     2.4813     0.1176     0.0167
  310.0000   -60.5422     6.2332     5.5921   124.8064     7.8354     2.4810     0.1208     0.0171
  310.5000   -60.5433     6.1181     5.2848   122.3048     7.8286     2.4700     0.1251     0.0188
  311.0000   -60.5481     6.0051     5.2848   117.3735     7.8218     2.4593     0.1292     0.0204
  311.5000   -60.5236     5.8942     5.3215   115.8653     7.8188     2.4563     0.1312     0.0221
  312.0000   -59.3913     5.7853     5.3918   115.3047     7.8187     2.4490     0.1353     0.0238
  312.5000   -58.3063     5.7416     5.4147   111.7075     7.8187     2.4340     0.1435     0.0239
  313.0000   -58.3566     5.7775     5.4518   109.3751     7.8195     2.4307     0.1496     0.0220
  313.5000   -58.3896     5.7947     5.5434   105.9396     7.8248     2.4397     0.1457     0.0201
  314.0000   -58.4188     5.9430     5.6364   103.8947     7.8300     2.4513     0.1384     0.0186
  314.5000   -58.4478     6.1688     5.8005   107.7327     7.8353     2.4629     0.1312     0.0198
  315.0000   -58.4770     6.4031     6.0606   115.7820     7.8405     2.4746     0.1240     0.0209
  315.5000   -58.5067     6.6463     6.3323   122.8679     7.8458     2.4866     0.1182     0.0220
  316.0000   -58.5294     6.8988     6.5922   123.9788     7.8510     2.4888     0.1135     0.0232
  316.5000   -58.4134     7.0464     6.7363   124.1860     7.8563     2.4878     0.1120     0.0244
  317.0000   -58.2933     7.0984     6.8323   121.9711     7.8586     2.4870     0.1196     0.0207
  317.5000   -58.1730     7.1508     6.9124   119.0506     7.8582     2.4898     0.1184     0.0155
  318.0000   -58.1090     7.2036     6.9934   120.5172     7.8434     2.4976     0.1055     0.0142
  318.5000   -58.0725     7.2568     7.0419   122.9840     7.8275     2.5050     0.0972     0.0139
  319.0000   -58.0364     7.3104     7.0618   125.2140     7.8117     2.5014     0.1030     0.0135
  319.5000   -58.0002     7.3644     7.0818   123.9944     7.7997     2.4950     0.1089     0.0132
  320.0000   -57.9640     7.4188     7.1018   123.6957     7.8074     2.4886     0.1148     0.0128
  320.5000   -57.9278     7.4516     7.1219   124.3615     7.8149     2.4860     0.1197     0.0124
  321.0000   -57.8916     7.4783     7.1420   122.9475     7.8223     2.4864     0.1186     0.0113
  321.5000   -57.8554     7.5119     7.1619   121.0002     7.8297     2.4873     0.1153     0.0098
  322.0000   -57.8189     7.5705     7.2529   120.9107     7.8374     2.4912     0.1120     0.0056
  322.5000   -57.7832     7.6295     7.3436   121.6921     7.8315     2.5103     0.1056     0.0015
  323.0000   -57.7447     7.7096     7.4307   124.1462     7.8224     2.5296     0.0910    -0.0027
  323.5000   -57.9532     7.6915     7.4149   126.6753     7.8133     2.5466     0.0638    -0.0039
  324.0000   -58.3432     7.6639     7.3999   126.9626     7.8045     2.5722     0.0537     0.0104
  324.5000   -58.7201     7.6365     7.3849   122.5103     7.8065     2.5818     0.0641     0.0201
  325.0000   -58.8220     7.6092     7.3699   118.0556     7.8266     2.5611     0.0798     0.0189
  325.5000   -58.9263     7.5820     7.2895   117.7985     7.8411     2.5341     0.0954     0.0175
  326.0000   -59.0319     7.5548     7.1472   121.4360     7.8469     2.4900     0.1060     0.0161
  326.5000   -59.1434     7.5278     7.0076   123.3796     7.8530     2.5027     0.1045     0.0147
  327.0000   -59.3957     7.4995     6.8708   127.3907     7.8575     2.5146     0.1019     0.0150
  327.5000   -59.5527     7.3625     6.7367   128.0898     7.8292     2.5143     0.1001     0.0155
  328.0000   -59.6158     7.2215     6.6462   128.1387     7.7997     2.5135     0.0992     0.0161
  328.5000   -59.6750     7.1428     6.6050   129.1435     7.7700     2.5141     0.0983     0.0166
  329.0000   -59.7754     7.1120     6.5641   131.9065     7.7592     2.5123     0.1003     0.0176
  329.5000   -60.5536     7.0806     6.5155   134.8658     7.7587     2.5101     0.1042     0.0188
  330.0000   -61.3532     7.0486     6.4367   130.3798     7.7746     2.5080     0.1064     0.0199
  330.5000   -61.5473     6.9952     6.3591   125.8118     7.7993     2.5059     0.1072     0.0202
  331.0000   -61.7269     6.8325     6.2826   126.3362     7.8243     2.5039     0.1072     0.0185
  331.5000   -62.1551     6.6754     6.2051   128.6051     7.8494     2.5061     0.1053     0.0168
  332.0000   -62.1390     6.5215     6.0345   129.8438     7.8749     2.5117     0.1006     0.0151
  332.5000   -62.5263     6.3713     5.8197   126.9166     7.8633     2.5169     0.0960     0.0148
  333.0000   -63.0325     6.1377     5.5047   126.5499     7.8450     2.5173     0.0968     0.0153
  333.5000   -63.5397     5.9015     5.1931   126.1515     7.8265     2.5062     0.1100     0.0158
  334.0000   -63.9670     5.6744     4.8993   124.4782     7.8081     2.4883     0.1222     0.0164
  334.5000   -63.9370     5.4287     4.4234   124.8979     7.7897     2.4707     0.1288     0.0169
  335.0000   -63.8146     5.0170     3.9259   125.8210     7.7713     2.4652     0.1296     0.0175
  335.5000   -63.6970     4.6365     3.4844   126.7457     7.7530     2.4616     0.1353     0.0180
  336.0000   -63.5921     4.3107     3.0925   126.8775     7.7403     2.4456     0.1404     0.0185
  336.5000   -62.8483     4.0272     2.7432   125.9203     7.7485     2.4125     0.1639     0.0193
  337.0000   -61.9950     3.7588     2.5110   125.8260     7.7563     2.3782     0.1864     0.0202
  337.5000   -61.3253     3.4279     2.3918   125.7367     7.7640     2.3350     0.2077     0.0210
  338.0000   -61.1940     3.1228     2.4204   123.4242     7.7718     2.2926     0.2414     0.0218
  338.5000   -61.1293     2.8449     2.4624   120.0167     7.7778     2.2503     0.2685     0.0224
  339.0000   -60.7855     2.7992     2.5614   116.5736     7.7557     2.2169     0.2818     0.0198
  339.5000   -60.4455     2.8226     2.8237   114.4118     7.7334     2.2172     0.2641     0.0171
  340.0000   -60.1057     2.9392     3.1130   114.1782     7.7112     2.2966     0.2371     0.0145
  340.5000   -59.9840     3.1680     3.4840   114.2227     7.6991     2.3575     0.2101     0.0125
