~VERSION INFORMATION
 VERS.                2.0:   CWLS LOG ASCII STANDARD - VERSION 2.0
 WRAP.                 NO:   ONE LINE PER DEPTH STEP
~WELL INFORMATION
#MNEM.UNIT      DATA TYPE    INFORMATION
#----------   ------------   ------------------------------
 STRT.F           29.0000:   START DEPTH
 STOP.F          539.0000:   STOP DEPTH
 STEP.F            0.1000:   STEP LENGTH
 NULL.          -999.2500:   NO VALUE
 COMP. LAWRENCE/ALLISON INC:   COMPANY
 WELL. NPR 3 81-11 STX #10-10:   WELL
 FLD .             TEAPOT:   FIELD
 LOC .      S10 T38N R78W:   LOCATION
 CNTY.            NATRONA:   COUNTY
 STAT.            WYOMING:   STATE
 CTRY. UNITED STATES OF AMERICA:   COUNTRY
 SRVC.           Gearhart:   SERVICE COMPANY
 DATE.        01-JUN-1987:   LOGDATE
 API .       490251113000:   API NUMBER
~CURVE INFORMATION
#MNEM.UNIT       API CODE    CURVE DESCRIPTION
#----------   ------------   ------------------------------
 DEPT.F                  :   
 GRR .GAPI   07 310 01 00:   GAMMA RAY FROM RES. LOG.
 ILD .OHMM   07 120 46 00:   INDUCTION LOG DEEP RESISTIVITY
 RILM.OHMM   07 120 44 00:   INDUCTION LOG MEDIUM RESISTIVITY
~PARAMETER INFORMATION
#MNEM.UNIT          VALUE    DESCRIPTION
#----------   ------------   ------------------------------
 PD  .                 GL:   PERMANENT DATUM
 EPD .F              5156:   ELEVATION PERMANENT DATUM
 LMF .                 KB:   LOG MEASURED FROM
 DAPD.F                 8:   FEET ABOVE PERMANENT DATUM
 DMF .                 KB:   DRILLING MEASURED FROM
 EKB .F              5164:   KELLING BUSHING
 EDF .F              5162:   DRILLING FLOOR
 EGL .F              5156:   GROUND LEVEL
 DATE.             6-1-87:   RUN DATE
 RUN .                  1:   RUN NUMBER
 DD  .F               550:   DEPTH DRILLER
 DL  .F               546:   DEPTH LOGGER
 BLI .F               540:   BOTTOM LOG INTERVAL
 TLI .F                30:   TOP LOG INTERVAL
 CS  .IN            8.625:   CASING SIZE
 CBD .F                50:   CASING BOTTOM DRILLER
 CBL .F                49:   CASING BOTTOM LOGGER
 BS  .IN            7.875:   BIT SIZE
 BSD .F               550:   BIT SIZE AT DEPTH
 DFT .                AIR:   DRILLING FLUID TYPE
 TLAB.HRS            0634:   TIME LOGGER AT BOTTOM
 MRT .F                80:   MAXIMUM RECORDED TEMPERATURE
 LUN .               7597:   LOGGING UNIT NUMBER
 LUL .           GILLETTE:   LOGGING UNIT LOCATION
 ENGI. WEATHERMON/JOHNSTON:   RECORDING ENGINEER
 WITN.             STRONG:   WITNESSED BY
 CLNT.            A2DTECH:   CLIENT CODE
 ORIG.       2", 5" PRINT:   ORIGIN OF DATA
 UWI .       490251113000:   UNIQUE WELL ID
 DICO. A2D Technologies, Inc.:   DIGITIZING COMPANY
~OTHER INFORMATION
~A   DEPT       GRR       ILD       RILM   
# ...
  138.2000   113.1234    12.9708    12.6418
  138.3000   112.5432    12.9866    12.6718
  138.4000   111.9630    13.0024    12.7018
  138.5000   111.3827    13.0182    12.7318
  138.6000   110.6541    13.0341    12.7622
  138.7000   109.9254    13.0500    12.7926
  138.8000   109.1968    13.0659    12.8229
  138.9000   108.4682    13.0819    12.8533
  139.0000   107.7395    13.0978    12.8837
  139.1000   107.0916    13.1138    12.9144
  139.2000   106.4436    13.1298    12.9451
  139.3000   105.7957    13.1458    12.9757
  139.4000   105.1477    13.1618    13.0064
  139.5000   104.4998    13.1778    13.0371
  139.6000   104.6173    13.1939    13.0765
  139.7000   104.7349    13.2100    13.1159
  139.8000   104.8525    13.2261    13.1553
  139.9000   104.9700    13.2422    13.1947
  140.0000   105.0876    13.2583    13.2341
  140.1000   105.4873    13.2745    13.2241
  140.2000   105.8870    13.2907    13.2141
  140.3000   106.2867    13.3069    13.2041
  140.4000   106.6864    13.3231    13.1940
  140.5000   107.0861    13.3393    13.1840
  140.6000   107.4820    13.3428    13.1579
  140.7000   107.8779    13.3463    13.1319
  140.8000   108.2738    13.3497    13.1058
  140.9000   108.6697    13.3532    13.0797
  141.0000   109.0656    13.3567    13.0536
  141.1000   109.1663    13.3217    13.0277
  141.2000   109.2670    13.2867    13.0019
  141.3000   109.3677    13.2516    12.9761
  141.4000   109.4685    13.2166    12.9503
  141.5000   109.5692    13.1816    12.9244
  141.6000   109.3799    13.1476    12.8988
  141.7000   109.1906    13.1135    12.8733
  141.8000   109.0013    13.0795    12.8477
  141.9000   108.8120    13.0455    12.8221
  142.0000   108.6227    13.0114    12.7965
  142.1000   108.4358    12.9789    12.7712
  142.2000   108.2490    12.9463    12.7459
  142.3000   108.0622    12.9138    12.7206
  142.4000   107.8753    12.8812    12.6952
  142.5000   107.6885    12.8487    12.6699
  142.6000   107.5014    12.8238    12.6448
  142.7000   107.3143    12.7988    12.6198
  142.8000   107.1272    12.7739    12.5947
  142.9000   106.9401    12.7490    12.5696
  143.0000   106.7530    12.7241    12.5445
  143.1000   106.5687    12.6994    12.5197
  143.2000   106.3844    12.6747    12.4949
  143.3000   106.2000    12.6500    12.4701
  143.4000   106.0157    12.6254    12.4452
  143.5000   105.8314    12.6007    12.4204
  143.6000   105.7720    12.5777    12.3958
  143.7000   105.7125    12.5547    12.3712
  143.8000   105.6530    12.5316    12.3466
  143.9000   105.5935    12.5086    12.3220
  144.0000   105.5341    12.4856    12.2974
  144.1000   105.7764    12.4674    12.2730
  144.2000   106.0187    12.4493    12.2485
  144.3000   106.2610    12.4311    12.2240
  144.4000   106.5033    12.4129    12.1996
  144.5000   106.7456    12.3947    12.1751
  144.6000   106.7719    12.3766    12.1493
  144.7000   106.7981    12.3586    12.1235
  144.8000   106.8243    12.3405    12.0977
  144.9000   106.8506    12.3225    12.0719
  145.0000   106.8768    12.3044    12.0461
  145.1000   106.6952    12.2865    12.0425
  145.2000   106.5135    12.2686    12.0389
  145.3000   106.3319    12.2507    12.0353
  145.4000   106.1503    12.2327    12.0317
  145.5000   105.9686    12.2148    12.0281
  145.6000   105.7848    12.2018    12.0242
  145.7000   105.6010    12.1888    12.0203
  145.8000   105.4171    12.1757    12.0163
  145.9000   105.2333    12.1627    12.0124
  146.0000   105.0495    12.1497    12.0085
  146.1000   105.0591    12.1444    12.0046
  146.2000   105.0687    12.1392    12.0007
  146.3000   105.0783    12.1339    11.9968
  146.4000   105.0879    12.1287    11.9929
  146.5000   105.0975    12.1234    11.9890
  146.6000   105.3148    12.1181    11.9851
  146.7000   105.5322    12.1129    11.9812
  146.8000   105.7495    12.1076    11.9773
  146.9000   105.9668    12.1024    11.9734
  147.0000   106.1841    12.0971    11.9695
  147.1000   106.1559    12.0919    11.9656
  147.2000   106.1276    12.0867    11.9617
  147.3000   106.0993    12.0815    11.9578
  147.4000   106.0710    12.0762    11.9539
  147.5000   106.0428    12.0710    11.9500
  147.6000   105.8520    12.0658    11.9437
  147.7000   105.6613    12.0606    11.9374
  147.8000   105.4706    12.0553    11.9310
  147.9000   105.2798    12.0501    11.9247
  148.0000   105.0891    12.0449    11.9184
  148.1000   104.9808    12.0397    11.8974
  148.2000   104.8724    12.0345    11.8764
  148.3000   104.7641    12.0293    11.8554
  148.4000   104.6558    12.0240    11.8345
  148.5000   104.5475    12.0188    11.8135
  148.6000   105.2512    12.0136    11.7926
  148.7000   105.9549    12.0084    11.7718
  148.8000   106.6586    12.0032    11.7509
  148.9000   107.3623    11.9980    11.7301
  149.0000   108.0660    11.9928    11.7092
  149.1000   108.5558    11.9876    11.6884
  149.2000   109.0457    11.9825    11.6676
  149.3000   109.5356    11.9773    11.6468
  149.4000   110.0254    11.9721    11.6261
  149.5000   110.5153    11.9669    11.6053
  149.6000   110.6426    11.9617    11.5830
  149.7000   110.7699    11.9565    11.5606
  149.8000   110.8972    11.9513    11.5383
  149.9000   111.0244    11.9462    11.5160
  150.0000   111.1517    11.9410    11.4937
  150.1000   110.5533    11.9148    11.4778
  150.2000   109.9548    11.8885    11.4618
  150.3000   109.3564    11.8623    11.4459
  150.4000   108.7579    11.8360    11.4300
  150.5000   108.1594    11.8098    11.4141
  150.6000   107.7938    11.7755    11.3919
  150.7000   107.4282    11.7411    11.3697
  150.8000   107.0626    11.7068    11.3476
  150.9000   106.6970    11.6724    11.3254
  151.0000   106.3314    11.6381    11.3032
  151.1000   105.9782    11.6173    11.2812
  151.2000   105.6251    11.5965    11.2593
  151.3000   105.2719    11.5758    11.2373
  151.4000   104.9187    11.5550    11.2153
  151.5000   104.5656    11.5342    11.1934
  151.6000   104.2233    11.5111    11.1716
  151.7000   103.8810    11.4879    11.1499
  151.8000   103.5388    11.4648    11.1281
  151.9000   103.1965    11.4416    11.1064
  152.0000   102.8543    11.4185    11.0846
  152.1000   102.5495    11.3958    11.0631
  152.2000   102.2447    11.3731    11.0415
  152.3000   101.9399    11.3505    11.0200
  152.4000   101.6351    11.3278    10.9984
  152.5000   101.3303    11.3052    10.9769
  152.6000   101.9635    11.2827    10.9556
  152.7000   102.5968    11.2602    10.9342
  152.8000   103.2300    11.2378    10.9129
  152.9000   103.8633    11.2153    10.8916
  153.0000   104.4966    11.1928    10.8702
  153.1000   105.1690    11.1706    10.8491
  153.2000   105.8414    11.1484    10.8280
  153.3000   106.5138    11.1261    10.8069
  153.4000   107.1862    11.1039    10.7857
  153.5000   107.8587    11.0816    10.7646
  153.6000   108.3605    11.0596    10.7441
  153.7000   108.8624    11.0376    10.7236
  153.8000   109.3643    11.0156    10.7031
  153.9000   109.8661    10.9935    10.6825
  154.0000   110.3680    10.9715    10.6620
  154.1000   110.8026    10.9497    10.6485
  154.2000   111.2373    10.9279    10.6349
  154.3000   111.6719    10.9061    10.6213
  154.4000   112.1066    10.8843    10.6078
  154.5000   112.5412    10.8625    10.5942
  154.6000   112.7961    10.8409    10.5810
  154.7000   113.0510    10.8193    10.5678
  154.8000   113.3059    10.7977    10.5546
  154.9000   113.5608    10.7761    10.5413
  155.0000   113.8157    10.7546    10.5281
  155.1000   114.0696    10.7355    10.5150
  155.2000   114.3234    10.7164    10.5018
  155.3000   114.5773    10.6973    10.4887
  155.4000   114.8312    10.6782    10.4756
  155.5000   115.0850    10.6591    10.4624
  155.6000   115.2368    10.6548    10.4494
  155.7000   115.3885    10.6504    10.4363
  155.8000   115.5403    10.6461    10.4233
  155.9000   115.6920    10.6418    10.4102
  156.0000   115.8438    10.6374    10.3971
  156.1000   115.3997    10.6331    10.3842
  156.2000   114.9556    10.6288    10.3712
  156.3000   114.5115    10.6245    10.3582
