~VERSION INFORMATION
 VERS.                2.0:   CWLS LOG ASCII STANDARD - VERSION 2.0
 WRAP.                 NO:   ONE LINE PER DEPTH STEP
~WELL INFORMATION
#MNEM.UNIT      DATA TYPE    INFORMATION
#----------   ------------   ------------------------------
 STRT.F           20.0000:   START DEPTH
 STOP.F         2420.0000:   STOP DEPTH
 STEP.F            0.5000:   STEP LENGTH
 NULL.          -999.2500:   NO VALUE
 COMP. FENIX & SCISSON INC:   COMPANY
 WELL.    SHX 15 #71-1-15:   WELL
 FLD .             TEAPOT:   FIELD
 LOC .      S15 T38N R78W:   LOCATION
 CNTY.            NATRONA:   COUNTY
 STAT.            WYOMING:   STATE
 CTRY. UNITED STATES OF AMERICA:   COUNTRY
 SRVC.           BIRDWELL:   SERVICE COMPANY
 DATE.        03-SEP-1978:   LOGDATE
 API .       490251081800:   API NUMBER
~CURVE INFORMATION
#MNEM.UNIT       API CODE    CURVE DESCRIPTION
#----------   ------------   ------------------------------
 DEPT.F                  :   
 CALD.IN     45 280 60 00:   CALIPER
 GRD .GAPI   45 310 01 00:   GAMMA RAY FROM DENSITY LOG
 RHOB.G/C3   45 350 01 00:   BULK DENSITY
 DPHI.DEC    45 890 12 00:   DENSITY POROSITY SANDSTONE
 CORR.G/C3   45 356 01 00:   DENSITY CORRECTION
 NPHI.DEC    42 890 03 00:   NEUTRON POROSITY
~PARAMETER INFORMATION
#MNEM.UNIT          VALUE    DESCRIPTION
#----------   ------------   ------------------------------
 PD  .                 GL:   PERMANENT DATUM
 EPD .F              5249:   ELEVATION PERMANENT DATUM
 LMF .                 KB:   LOG MEASURED FROM
 DAPD.F                10:   FEET ABOVE PERMANENT DATUM
 DMF .                 KB:   DRILLING MEASURED FROM
 EKB .F              5259:   KELLING BUSHING
 EGL .F              5249:   GROUND LEVEL
 DATE.             9-3-78:   RUN DATE
 RUN .                  1:   RUN NUMBER
 DD  .F              2450:   DEPTH DRILLER
 DL  .F              2422:   DEPTH LOGGER
 BLI .F              2420:   BOTTOM LOG INTERVAL
 TLI .F                50:   TOP LOG INTERVAL
 CS  .IN            9.625:   CASING SIZE
 CBD .F               650:   CASING BOTTOM DRILLER
 CBL .F               676:   CASING BOTTOM LOGGER
 BS  .IN             8.75:   BIT SIZE
 BSD .F              2450:   BIT SIZE AT DEPTH
 DFT .           AIR MIST:   DRILLING FLUID TYPE
 LUN .               2958:   LOGGING UNIT NUMBER
 LUL .               CASP:   LOGGING UNIT LOCATION
 ENGI.             MILLER:   RECORDING ENGINEER
 WITN.           MCGINLEY:   WITNESSED BY
 CLNT.            A2DTECH:   CLIENT CODE
 ORIG.         2.5" PRINT:   ORIGIN OF DATA
 UWI .       490251081800:   UNIQUE WELL ID
 DICO. A2D Technologies, Inc.:   DIGITIZING COMPANY
~OTHER INFORMATION
~A   DEPT     CALD        GRD       RHOB       DPHI       CORR         NPHI 
# ...
  904.0000    13.1801   132.9467     2.4949     0.0939     0.0736  -999.2500
  904.5000    13.1800   133.0347     2.4947     0.0972     0.0795  -999.2500
  905.0000    13.1800   132.6566     2.4801     0.1027     0.0985  -999.2500
  905.5000    13.1799   132.3977     2.4764     0.1042     0.1176  -999.2500
  906.0000    13.1799   132.5008     2.4790     0.1062     0.1357  -999.2500
  906.5000    13.1800   132.7493     2.4820     0.1106     0.1564  -999.2500
  907.0000    13.1795   132.3444     2.4832     0.1185     0.1579  -999.2500
  907.5000    13.1804   130.4593     2.4706     0.1177     0.1564  -999.2500
  908.0000    13.1814   123.0602     2.4547     0.1216     0.1446  -999.2500
  908.5000    13.2244   119.9036     2.4584     0.1347     0.1497  -999.2500
  909.0000    13.2750   120.6486     2.4486     0.1307     0.1645  -999.2500
  909.5000    13.3263   125.6433     2.4610     0.1084     0.1680  -999.2500
  910.0000    13.3768   133.2536     2.5176     0.0741     0.1339  -999.2500
  910.5000    13.4277   132.0075     2.5365     0.0869     0.1104  -999.2500
  911.0000    13.4786   126.2204     2.5236     0.0813     0.0974  -999.2500
  911.5000    13.5294   123.6366     2.5082     0.0845     0.0865  -999.2500
  912.0000    13.5802   124.6491     2.4919     0.0907     0.0758  -999.2500
  912.5000    13.6311   136.4605     2.4878     0.0968     0.0661  -999.2500
  913.0000    13.6818   135.5552     2.4970     0.1012     0.0629  -999.2500
  913.5000    13.7387   134.2399     2.4990     0.0996     0.0600  -999.2500
  914.0000    13.8313   131.1914     2.4948     0.1028     0.0582  -999.2500
  914.5000    13.9411   128.6530     2.4890     0.1057     0.0628  -999.2500
  915.0000    14.0471   126.1621     2.4778     0.1092     0.0684  -999.2500
  915.5000    14.1547   124.1962     2.4754     0.1100     0.0744  -999.2500
  916.0000    14.1816   125.8168     2.4746     0.1094     0.0788  -999.2500
  916.5000    14.1805   127.1855     2.4725     0.1090     0.0802  -999.2500
  917.0000    14.1799   127.5028     2.4702     0.1085     0.0824  -999.2500
  917.5000    14.1805   126.7283     2.4683     0.1110     0.0847  -999.2500
  918.0000    14.1801   125.8214     2.4620     0.1214     0.0855  -999.2500
  918.5000    14.1801   122.4706     2.4498     0.1379     0.0993  -999.2500
  919.0000    14.1804   114.9949     2.4400     0.1387     0.1133  -999.2500
  919.5000    14.1797   114.6617     2.4325     0.0908     0.1702  -999.2500
  920.0000    14.1793   116.7103     2.4277     0.0749     0.2342  -999.2500
  920.5000    14.1417   119.1671     2.5078     0.0815     0.1579  -999.2500
  921.0000    14.0926   119.3226     2.4832     0.1028     0.0469  -999.2500
  921.5000    14.0423   116.6380     2.4599     0.1193     0.0511  -999.2500
  922.0000    14.0122   116.4591     2.4564     0.1243     0.0404  -999.2500
  922.5000    14.0017   116.3637     2.4548     0.1316     0.0366  -999.2500
  923.0000    13.9915   115.0174     2.4462     0.1349     0.0525  -999.2500
  923.5000    13.9704   113.3597     2.4377     0.1320     0.0662  -999.2500
  924.0000    13.9246   111.7091     2.4463     0.1291     0.0759  -999.2500
  924.5000    13.7344   110.5245     2.4399     0.1387     0.0776  -999.2500
  925.0000    13.5423   110.3622     2.4271     0.1485     0.0812  -999.2500
  925.5000    13.3437   111.9922     2.4161     0.1570     0.0832  -999.2500
  926.0000    13.1445   114.7633     2.4070     0.1558     0.1014  -999.2500
  926.5000    13.0259   115.3194     2.4060     0.1546     0.1246  -999.2500
  927.0000    12.9749   115.8278     2.4048     0.1276     0.1100  -999.2500
  927.5000    12.9224   116.2625     2.4617     0.1176     0.0587  -999.2500
  928.0000    12.8637   117.0564     2.4434     0.1183     0.0441  -999.2500
  928.5000    12.8740   117.9868     2.4515     0.1164     0.0423  -999.2500
  929.0000    12.8877   117.4654     2.4650     0.1120     0.0417  -999.2500
  929.5000    12.9048   116.9628     2.4749     0.1076     0.0451  -999.2500
  930.0000    12.9198   116.4256     2.4817     0.1044     0.0460  -999.2500
  930.5000    12.9353   115.8449     2.4822     0.1044     0.0462  -999.2500
  931.0000    12.9510   115.9293     2.4832     0.1044     0.0488  -999.2500
  931.5000    12.9665   116.5408     2.4831     0.1044     0.0489  -999.2500
  932.0000    12.9800   117.1135     2.4830     0.1044     0.0460  -999.2500
  932.5000    12.9861   118.2677     2.4832     0.1036     0.0428  -999.2500
  933.0000    12.9915   119.5756     2.4831     0.0940     0.0438  -999.2500
  933.5000    12.9970   119.6974     2.4883     0.0914     0.0474  -999.2500
  934.0000    13.0024   118.9525     2.4943     0.0892     0.0492  -999.2500
  934.5000    13.0075   117.2841     2.5001     0.0892     0.0408  -999.2500
  935.0000    13.0137   115.7640     2.4924     0.0908     0.0386  -999.2500
  935.5000    13.0192   116.0195     2.4839     0.0938     0.0463  -999.2500
  936.0000    13.0648   116.7838     2.4858     0.0964     0.0578  -999.2500
  936.5000    13.1242   117.6311     2.4885     0.0944     0.0746  -999.2500
  937.0000    13.1834   117.6373     2.4910     0.0927     0.0883  -999.2500
  937.5000    13.2418   117.6732     2.4935     0.0909     0.1033  -999.2500
  938.0000    13.3010   117.6010     2.4970     0.0926     0.1108  -999.2500
  938.5000    13.3598   118.2180     2.5009     0.0932     0.1081  -999.2500
  939.0000    13.4180   119.7664     2.4994     0.0932     0.1020  -999.2500
  939.5000    13.4783   120.4064     2.4959     0.0935     0.0961  -999.2500
  940.0000    13.5045   119.3576     2.4921     0.0940     0.0902  -999.2500
  940.5000    13.5076   116.5131     2.4936     0.0957     0.0914  -999.2500
  941.0000    13.5125   113.6409     2.4984     0.0984     0.0965  -999.2500
  941.5000    13.5175   112.5040     2.4881     0.1012     0.1018  -999.2500
  942.0000    13.5220   112.9484     2.4822     0.1028     0.1073  -999.2500
  942.5000    13.5269   114.6570     2.4821     0.1012     0.1124  -999.2500
  943.0000    13.5316   117.6552     2.4943     0.0947     0.1177  -999.2500
  943.5000    13.5364   120.8754     2.5028     0.0900     0.1179  -999.2500
  944.0000    13.5412   122.5687     2.5073     0.0855     0.1181  -999.2500
  944.5000    13.5460   122.4437     2.5111     0.0821     0.1182  -999.2500
  945.0000    13.5507   122.3213     2.5152     0.0821     0.1155  -999.2500
  945.5000    13.5555   123.5366     2.5192     0.0821     0.1072  -999.2500
  946.0000    13.5603   126.5149     2.5234     0.0838     0.0992  -999.2500
  946.5000    13.5651   125.5000     2.5267     0.0862     0.0912  -999.2500
  947.0000    13.5700   122.4731     2.5284     0.0886     0.0821  -999.2500
  947.5000    13.5745   120.1299     2.5171     0.0908     0.0751  -999.2500
  948.0000    13.5796   119.7571     2.5033     0.0960     0.0690  -999.2500
  948.5000    13.5788   120.1771     2.4890     0.1009     0.0660  -999.2500
  949.0000    13.5775   121.7321     2.4707     0.1059     0.0703  -999.2500
  949.5000    13.5760   122.5888     2.4682     0.1107     0.0742  -999.2500
  950.0000    13.5747   121.3283     2.4759     0.0976     0.0880  -999.2500
  950.5000    13.5733   119.2539     2.5048     0.0845     0.0880  -999.2500
  951.0000    13.5719   117.1460     2.5145     0.0911     0.0678  -999.2500
  951.5000    13.5705   116.0059     2.5069     0.0968     0.0551  -999.2500
  952.0000    13.5692   116.2712     2.4944     0.1024     0.0506  -999.2500
  952.5000    13.5678   116.4025     2.4902     0.1041     0.0449  -999.2500
  953.0000    13.5664   116.3196     2.4764     0.1052     0.0394  -999.2500
  953.5000    13.5650   116.0791     2.4820     0.1068     0.0400  -999.2500
  954.0000    13.5637   116.0532     2.4956     0.1083     0.0427  -999.2500
  954.5000    13.5623   116.7924     2.4979     0.1100     0.0454  -999.2500
  955.0000    13.5609   117.8494     2.4920     0.1099     0.0483  -999.2500
  955.5000    13.5595   118.8885     2.4849     0.1084     0.0501  -999.2500
