~VERSION INFORMATION
 VERS.                2.0:   CWLS LOG ASCII STANDARD - VERSION 2.0
 WRAP.                 NO:   ONE LINE PER DEPTH STEP
~WELL INFORMATION
#MNEM.UNIT      DATA TYPE    INFORMATION
#----------   ------------   ------------------------------
 STRT.F            8.0000:   START DEPTH
 STOP.F          598.0000:   STOP DEPTH
 STEP.F            0.5000:   STEP LENGTH
 NULL.          -999.2500:   NO VALUE
 COMP. FENIX & SCISSON INC:   COMPANY
 WELL.    16-SX-11 #16-11:   WELL
 FLD .             TEAPOT:   FIELD
 LOC .      S11 T38N R78W:   LOCATION
 CNTY.            NATRONA:   COUNTY
 STAT.            WYOMING:   STATE
 CTRY. UNITED STATES OF AMERICA:   COUNTRY
 SRVC.            Unknown:   SERVICE COMPANY
 DATE.        13-DEC-1978:   LOGDATE
 API .       490251078400:   API NUMBER
~CURVE INFORMATION
#MNEM.UNIT       API CODE    CURVE DESCRIPTION
#----------   ------------   ------------------------------
 DEPT.F                  :   
 RHOB.G/C3   45 350 01 00:   BULK DENSITY
 CORR.G/C3   45 356 01 00:   DENSITY CORRECTION
 SN  .OHMM   05 040 16 00:   SHORT NORMAL 16"
 ILD .OHMM   05 120 46 00:   INDUCTION LOG DEEP
 SPR .MV     05 010 01 00:   SPONTANEOUS POTENTIAL FROM RES.
 DPHI.DEC    45 890 12 00:   DENSITY POROSITY SANDSTONE
 CALD.IN     45 280 60 00:   CALIPER
 GRD .GAPI   45 310 01 00:   GAMMA RAY FROM DENSITY LOG
~PARAMETER INFORMATION
#MNEM.UNIT          VALUE    DESCRIPTION
#----------   ------------   ------------------------------
 PD  .                 GL:   PERMANENT DATUM
 EPD .F              5209:   ELEVATION PERMANENT DATUM
 LMF .                 KB:   LOG MEASURED FROM
 DAPD.F                 4:   FEET ABOVE PERMANENT DATUM
 DMF .                 KB:   DRILLING MEASURED FROM
 EKB .F              5213:   KELLING BUSHING
 EGL .F              5209:   GROUND LEVEL
 DATE.           12-13-78:   RUN DATE
 RUN .                  1:   RUN NUMBER
 DD  .F               590:   DEPTH DRILLER
 DL  .F               598:   DEPTH LOGGER
 BLI .F               591:   BOTTOM LOG INTERVAL
 TLI .F                40:   TOP LOG INTERVAL
 CS  .IN            8.625:   CASING SIZE
 CBD .F                40:   CASING BOTTOM DRILLER
 CBL .F                25:   CASING BOTTOM LOGGER
 BS  .IN            7.875:   BIT SIZE
 BSD .F               590:   BIT SIZE AT DEPTH
 DFT .                KCL:   DRILLING FLUID TYPE
 DFD .                8.8:   DRILLING FLUID DENSITY
 DFV .                 37:   DRILLING FLUID VISCOSITY
 DFPH.                8.9:   DRILLING FLUID PH
 MSS .           FLOWLINE:   MUD SAMPLE SOURCE
 RMS .OHMM             .3:   RESISTIVITY MUD SAMPLE
 MST .F                56:   MUD SAMPLE TEMPERATURE
 RMF .OHMM            .26:   RESISTIVITY MUD FILTRATE SAMPLE
 MFST.F                66:   MUD FILTRATE SAMPLE TEMPERATURE
 RMC .OHMM            .24:   RESISTIVITY MUD CAKE
 MCST.F                66:   MUD CAKE SAMPLE TEMPERATURE
 MFSS.           MEASURED:   MUD FILTRATE SAMPLE SOURCE
 MCSS.           MEASURED:   MUD CAKE SAMPLE SOURCE
 RMB .OHMM            .29:   RESISTIVITY MUD AT BHT
 BHT .F                58:   BOTTOM HOLE TEMPERATURE
 TCS .HRS               3:   TIME CURCULATED STOPPED
 MRT .F                58:   MAXIMUM RECORDED TEMPERATURE
 LUN .               2958:   LOGGING UNIT NUMBER
 LUL .             CASPER:   LOGGING UNIT LOCATION
 ENGI.            ROLLINS:   RECORDING ENGINEER
 WITN.         RICHARDSON:   WITNESSED BY
 CLNT.            A2DTECH:   CLIENT CODE
 ORIG.       2", 5" PRINT:   ORIGIN OF DATA
 UWI .       490251078400:   UNIQUE WELL ID
 DICO. A2D Technologies, Inc.:   DIGITIZING COMPANY
~OTHER INFORMATION
~A    DEPT    RHOB       CORR         SN        ILD        SPR       DPHI       CALD         GRD  
# ...
  291.5000     2.4353     0.0158     6.7444     6.3246    -6.2737     0.1555     7.9322   104.8218
  292.0000     2.4314     0.0153     6.7445     6.3246    -6.2593     0.1590     7.9317   104.5037
  292.5000     2.4347     0.0148     6.8804     6.4904    -6.2448     0.1603     7.9313   103.6733
  293.0000     2.4389     0.0143     7.1176     6.6656    -6.2304     0.1570     7.9309   103.0100
  293.5000     2.4431     0.0125     7.3630     6.8455    -6.2160     0.1514     7.9305   103.0285
  294.0000     2.4414     0.0088     7.6168     7.0303    -6.2016     0.1507     7.9301   102.7680
  294.5000     2.4369     0.0060     7.8235     7.2200    -6.1871     0.1555     7.9297   102.3902
  295.0000     2.4390     0.0060     7.8315     7.3331    -6.1727     0.1563     7.9293   100.6715
  295.5000     2.4461     0.0060     7.8394     7.4700    -6.1583     0.1541     7.9288    98.2836
  296.0000     2.4492     0.0059     7.8474     7.4700    -6.1438     0.1513     7.9284    96.0823
  296.5000     2.4570     0.0109     7.8553     7.4342    -6.1292     0.1485     7.9280    96.1296
  297.0000     2.4670     0.0141     7.8633     7.4012    -6.1246     0.1384     7.9276    97.3365
  297.5000     2.4722     0.0145     7.8713     7.4011    -6.1245     0.1311     7.9272    96.6606
  298.0000     2.4650     0.0149     7.8793     7.4011    -6.1245     0.1354     7.9268    96.8360
  298.5000     2.4546     0.0153     7.8875     7.4018    -6.1245     0.1423     7.9264   101.4735
  299.0000     2.4554     0.0156     7.8970     7.3674    -6.1238     0.1435     7.9259   103.9874
  299.5000     2.4585     0.0160     7.8093     7.3364    -6.1203     0.1435     7.9255   102.3837
  300.0000     2.4592     0.0164     7.7123     7.3331    -6.2646     0.1435     7.9251   100.8870
  300.5000     2.4588     0.0168     7.6165     7.2954    -6.4217     0.1429     7.9247   100.9665
  301.0000     2.4585     0.0172     7.5219     7.2206    -6.5793     0.1423     7.9243   100.7453
  301.5000     2.4590     0.0175     7.4284     7.0103    -6.7364     0.1417     7.9238   100.3603
  302.0000     2.4603     0.0180     7.3517     6.7513    -6.8935     0.1411     7.9236   100.1168
  302.5000     2.4596     0.0152     7.2656     6.5019    -7.0506     0.1405     7.9152   101.7934
  303.0000     2.4589     0.0113     7.0307     6.1850    -7.2079     0.1403     7.9034   103.4759
  303.5000     2.4450     0.0073     6.7804     5.8145    -7.3662     0.1468     7.8916   105.0233
  304.0000     2.4357     0.0082     6.5392     5.4662    -7.5233     0.1528     7.8797   105.2196
  304.5000     2.4343     0.0127     6.3068     5.2566    -7.5220     0.1551     7.8678   104.2607
  305.0000     2.4348     0.0130     6.0826     5.2083    -7.5113     0.1556     7.8559   104.4692
  305.5000     2.4343     0.0116     5.7663     5.2065    -7.5012     0.1558     7.8440   103.9393
  306.0000     2.4303     0.0101     5.8123     5.2039    -7.4914     0.1627     7.8321   102.4985
  306.5000     2.4072     0.0129     5.9300     5.3080    -7.4816     0.1768     7.8203   101.3768
  307.0000     2.3844     0.0193     5.9249     5.3022    -7.4718     0.1900     7.8082    95.0885
  307.5000     2.3824     0.0269     6.4342     5.7715    -7.4620     0.1896     7.8128    90.7968
  308.0000     2.4014     0.0340     6.7887     6.2445    -7.4522     0.1814     7.8271    94.5633
  308.5000     2.4225     0.0341     7.1629     6.7080    -7.4424     0.1698     7.8416    99.5034
  309.0000     2.4423     0.0341     7.3237     6.8797    -7.4326     0.1585     7.8561   100.5707
  309.5000     2.4505     0.0341     7.4336     7.0668    -7.4228     0.1473     7.8706   100.2549
  310.0000     2.4582     0.0324     7.5451     7.1666    -7.4130     0.1422     7.8851   101.4055
  310.5000     2.4653     0.0299     7.6583     7.2745    -7.4032     0.1401     7.8996   102.0969
  311.0000     2.4669     0.0240     7.7732     7.3840    -7.3933     0.1383     7.9140   102.1644
  311.5000     2.4666     0.0183     7.8962     7.4952    -7.3835     0.1392     7.9236    99.8988
  312.0000     2.4655     0.0126     7.9675     7.6079    -7.3737     0.1403     7.9240    97.5627
  312.5000     2.4666     0.0068     8.0435     7.7235    -7.3639     0.1391     7.9246    99.6858
  313.0000     2.4680     0.0065     8.1203     7.7927    -7.3541     0.1376     7.9251   102.4513
  313.5000     2.4693     0.0070     8.1979     7.8488    -7.3443     0.1362     7.9257   104.9008
  314.0000     2.4677     0.0075     8.2762     7.9049    -7.3345     0.1350     7.9262   103.8992
  314.5000     2.4666     0.0080     8.3553     7.9615    -7.3293     0.1349     7.9268   102.1511
  315.0000     2.4678     0.0075     8.4348     8.0184    -7.3293     0.1347     7.9273   100.5219
  315.5000     2.4683     0.0070     8.5073     8.0758    -7.3293     0.1350     7.9278   100.1015
  316.0000     2.4610     0.0066     8.5329     8.1335    -7.3290     0.1386     7.9284    99.6506
  316.5000     2.4526     0.0061     8.5594     8.1917    -7.3288     0.1483     7.9289   100.1985
  317.0000     2.4522     0.0060     8.5859     8.2503    -7.3457     0.1479     7.9295   102.1833
  317.5000     2.4560     0.0060     8.6124     8.3093    -7.4975     0.1457     7.9300   103.3273
  318.0000     2.4599     0.0060     8.6391     8.3466    -7.6511     0.1435     7.9305   104.1588
  318.5000     2.4662     0.0060     8.6658     8.2753    -7.8042     0.1393     7.9311   103.7945
  319.0000     2.4724     0.0060     8.6927     8.2236    -7.9574     0.1338     7.9316   103.2651
  319.5000     2.4737     0.0060     8.7194     8.1723    -8.1100     0.1301     7.9322   104.8535
  320.0000     2.4741     0.0053     8.7414     8.1213    -8.2640     0.1299     7.9327   107.2332
  320.5000     2.4743     0.0045     8.6673     8.0706    -8.3059     0.1301     7.9332   108.4091
  321.0000     2.4730     0.0037     8.6048     8.0203    -8.2589     0.1302     7.9338   109.0053
  321.5000     2.4696     0.0029     8.5427     7.9695    -8.2107     0.1325     7.9343   109.6858
  322.0000     2.4651     0.0021     8.4811     7.8585    -8.1653     0.1352     7.9349   107.2659
  322.5000     2.4620     0.0012     8.4199     7.7471    -8.2715     0.1379     7.9354   103.5611
  323.0000     2.4613     0.0004     8.3592     7.6374    -8.6652     0.1387     7.9359   104.7840
  323.5000     2.4606    -0.0004     8.2422     7.5293    -9.0631     0.1389     7.9365   106.5657
  324.0000     2.4570    -0.0012     8.1124     7.4227    -9.0793     0.1406     7.9370   107.6886
  324.5000     2.4516    -0.0019     7.9845     7.3055    -9.0061     0.1480     7.9376   105.9140
  325.0000     2.4481    -0.0011     7.8587     7.1871    -8.9504     0.1503     7.9381   104.5147
  325.5000     2.4517    -0.0002     7.7348     7.0715    -9.3379     0.1489     7.9387   104.2409
  326.0000     2.4561     0.0015     7.6129     6.8905    -9.7179     0.1471     7.9392   104.6638
  326.5000     2.4662     0.0082     7.4930     6.6223   -10.1144     0.1419     7.9397   107.2355
  327.0000     2.4732     0.0158     7.2636     6.3644   -10.5707     0.1359     7.9403   109.1317
  327.5000     2.4739     0.0157     7.0166     6.0230   -11.0303     0.1299     7.9408   109.2001
  328.0000     2.4727     0.0152     6.7748     5.6409   -11.4898     0.1299     7.9414   108.1687
  328.5000     2.4673     0.0148     6.3635     5.2826   -11.9496     0.1323     7.9419   105.0692
  329.0000     2.4609     0.0143     5.8661     4.8992   -12.4072     0.1376     7.9424   104.9765
  329.5000     2.4545     0.0139     5.4094     4.3669   -12.7587     0.1414     7.9431   105.3781
  330.0000     2.4481     0.0135     4.9871     3.8948   -12.7517     0.1439     7.9278   104.5759
  330.5000     2.4418     0.0131     4.5929     3.4736   -12.7512     0.1487     7.8995   105.3462
  331.0000     2.4297     0.0126     4.2254     3.1792   -12.7539     0.1572     7.8702   106.5737
  331.5000     2.4164     0.0122     3.8873     2.8811   -12.7706     0.1659     7.8662   106.4023
