~VERSION INFORMATION
 VERS.                2.0:   CWLS LOG ASCII STANDARD - VERSION 2.0
 WRAP.                 NO:   ONE LINE PER DEPTH STEP
~WELL INFORMATION
#MNEM.UNIT      DATA TYPE    INFORMATION
#----------   ------------   ------------------------------
 STRT.F           30.0000:   START DEPTH
 STOP.F          515.0000:   STOP DEPTH
 STEP.F            0.5000:   STEP LENGTH
 NULL.          -999.2500:   NO VALUE
 COMP. FENIX & SCISSON INC:   COMPANY
 WELL.      FP SX-3 #63-3:   WELL
 FLD .              NPR 3:   FIELD
 LOC .       S3 T38N R78W:   LOCATION
 CNTY.            NATRONA:   COUNTY
 STAT.            WYOMING:   STATE
 CTRY. UNITED STATES OF AMERICA:   COUNTRY
 SRVC.              Welex:   SERVICE COMPANY
 DATE.        21-JUN-1980:   LOGDATE
 API .       490251082100:   API NUMBER
~CURVE INFORMATION
#MNEM.UNIT       API CODE    CURVE DESCRIPTION
#----------   ------------   ------------------------------
 DEPT.F                  :   
 SPR .MV     07 010 01 00:   SPONTANEOUS POTENTIAL
 SGRD.OHMM   07 220 05 00:   SHALLOW GUARD RESISTIVITY
 ILD .OHMM   07 120 46 00:   INDUCTION LOG DEEP RESISTIVITY
 ILM .OHMM   07 120 44 00:   INDUCTION LOG MEDIUM
 CALD.IN     45 280 60 00:   CALIPER
 GRD .GAPI   45 310 01 00:   GAMMA RAY FROM DENSITY LOG
 CORR.G/C3   45 356 01 00:   DENSITY CORRECTION
 RHOB.G/C3   45 350 01 00:   BULK DENSITY
 DPHI.DEC    45 890 12 00:   DENSITY POROSITY SANDSTONE
 NPHI.DEC    42 890 03 00:   NEUTRON POROSITY SANDSTONE
~PARAMETER INFORMATION
#MNEM.UNIT          VALUE    DESCRIPTION
#----------   ------------   ------------------------------
 PD  .                 GL:   PERMANENT DATUM
 EPD .F              5160:   ELEVATION PERMANENT DATUM
 LMF .                 KB:   LOG MEASURED FROM
 DAPD.F                 5:   FEET ABOVE PERMANENT DATUM
 DMF .                 KB:   DRILLING MEASURED FROM
 EKB .F              5165:   KELLING BUSHING
 EGL .F              5160:   GROUND LEVEL
 DATE.            6-21-80:   RUN DATE
 RUN .                  1:   RUN NUMBER
 DD  .F               508:   DEPTH DRILLER
 DL  .F               517:   DEPTH LOGGER
 BLI .F               515:   BOTTOM LOG INTERVAL
 TLI .F                35:   TOP LOG INTERVAL
 BS  .IN            9.875:   BIT SIZE
 BSD .F               508:   BIT SIZE AT DEPTH
 DFT .            KCL MUD:   DRILLING FLUID TYPE
 DFD .                9.2:   DRILLING FLUID DENSITY
 DFV .                 50:   DRILLING FLUID VISCOSITY
 DFPH.                8.5:   DRILLING FLUID PH
 DFL .                  8:   DRILLING FLUID LOSS
 MSS .           FLOWLINE:   MUD SAMPLE SOURCE
 RMS .OHMM            .42:   RESISTIVITY MUD SAMPLE
 MST .F                63:   MUD SAMPLE TEMPERATURE
 RMF .OHMM            .34:   RESISTIVITY MUD FILTRATE SAMPLE
 MFST.F                63:   MUD FILTRATE SAMPLE TEMPERATURE
 RMC .OHMM             .5:   RESISTIVITY MUD CAKE
 MCST.F                63:   MUD CAKE SAMPLE TEMPERATURE
 MFSS.           MEASURED:   MUD FILTRATE SAMPLE SOURCE
 MCSS.           MEASURED:   MUD CAKE SAMPLE SOURCE
 RMB .OHMM            .35:   RESISTIVITY MUD AT BHT
 BHT .F                75:   BOTTOM HOLE TEMPERATURE
 TCS .HRS             1.5:   TIME CURCULATED STOPPED
 MRT .F                75:   MAXIMUM RECORDED TEMPERATURE
 LUN .               9685:   LOGGING UNIT NUMBER
 LUL .             CASPER:   LOGGING UNIT LOCATION
 ENGI.            TOTHILL:   RECORDING ENGINEER
 WITN.           DINSMORE:   WITNESSED BY
 CLNT.            A2DTECH:   CLIENT CODE
 ORIG.           5" PRINT:   ORIGIN OF DATA
 UWI .       490251082100:   UNIQUE WELL ID
 DICO. A2D Technologies, Inc.:   DIGITIZING COMPANY
~OTHER INFORMATION
~A   DEPT      SPR       SGRD        ILD        ILM        CALD       GRD         CORR       RHOB       DPHI       NPHI 
# ...
  130.5000   -41.3470     6.9906     6.0735     6.4599    10.1181    91.4458     0.0813     2.4457     0.1356     0.2869
  131.0000   -42.1044     7.0477     6.0359     6.6647    10.1114    92.0589     0.0913     2.4580     0.1379     0.2858
  131.5000   -41.6141     6.9532     5.9559     6.5560    10.1047    92.6682     0.0842     2.4526     0.1390     0.2855
  132.0000   -40.7664     6.8876     5.8760     6.3917    10.0983    93.2848     0.0727     2.4414     0.1400     0.2869
  132.5000   -42.3311     6.8229     5.7973     6.2441    10.1017    93.3905     0.0613     2.4382     0.1368     0.2899
  133.0000   -44.3077     6.7590     5.7198     6.1774    10.1073    93.0144     0.0608     2.4402     0.1365     0.2929
  133.5000   -46.3520     6.7270     5.6433     6.0424    10.1129    92.5711     0.0663     2.4443     0.1404     0.2945
  134.0000   -46.3798     6.7261     5.5678     5.9104    10.1184    92.1210     0.0718     2.4454     0.1432     0.2958
  134.5000   -46.2658     6.7307     5.4710     5.7813    10.1240    91.6287     0.0698     2.4390     0.1418     0.2994
  135.0000   -46.4442     6.4988     5.3558     5.6550    10.1296    91.5825     0.0663     2.4329     0.1413     0.2993
  135.5000   -46.6518     6.1726     5.2431     5.5315    10.1351    91.7887     0.0627     2.4328     0.1434     0.2993
  136.0000   -46.8522     5.8652     5.1326     5.4290    10.1370    93.0969     0.0584     2.4349     0.1421     0.2992
  136.5000   -46.6879     5.7958     5.0244     5.4292    10.1309    94.3568     0.0582     2.4322     0.1384     0.2992
  137.0000   -46.1965     6.0721     4.9192     5.4298    10.1250    95.6266     0.0583     2.4331     0.1298     0.2991
  137.5000   -45.7127     5.1830     4.8109     5.3797    10.1191    97.6454     0.0637     2.4445     0.1212     0.2991
  138.0000   -45.2192     5.0873     4.7663     5.2958    10.1132    99.6483     0.0781     2.4591     0.1159     0.2990
  138.5000   -45.3301     6.2408     4.7663     5.2133    10.1073   101.6400     0.0938     2.4737     0.1169     0.2945
  139.0000   -45.7924     6.3615     4.7663     5.1343    10.1013   103.6120     0.0982     2.4801     0.1133     0.2857
  139.5000   -45.4197     6.2371     4.7985     5.1351    10.0988   104.3552     0.0968     2.4783     0.1078     0.2798
  140.0000   -44.9065     6.0919     4.8373     5.1343    10.1135   102.1618     0.0952     2.4802     0.1078     0.2807
  140.5000   -44.4336     6.0165     4.8763     5.2088    10.1173   100.5497     0.0936     2.4845     0.1094     0.2816
  141.0000   -44.4389     6.1961     4.9157     5.2602    10.1397   101.4023     0.0922     2.4888     0.1075     0.2845
  141.5000   -45.3134     6.3566     4.9554     5.3121    10.1381   102.6992     0.0931     2.4930     0.1090     0.2879
  142.0000   -46.0665     6.3243     4.9955     5.3803    10.1382   102.8506     0.0922     2.4962     0.1119     0.2894
  142.5000   -44.9832     6.2658     5.0358     5.3798    10.1384   101.6688     0.0855     2.4887     0.1182     0.2859
  143.0000   -43.8120     6.1243     5.0873     5.3861    10.1326   100.4959     0.0760     2.4783     0.1267     0.2783
  143.5000   -42.9946     6.1320     5.0852     5.3901    10.1243    99.9908     0.0665     2.4678     0.1310     0.2751
  144.0000   -44.0477     6.2868     5.0823     5.3943    10.1159    99.9365     0.0570     2.4574     0.1342     0.2741
  144.5000   -44.8085     6.3615     5.0794     5.3985    10.1075   100.1754     0.0502     2.4491     0.1326     0.2688
  145.0000   -44.1806     6.3615     5.0766     5.4026    10.0992   101.2117     0.0531     2.4497     0.1288     0.2643
  145.5000   -43.4931     6.4210     5.0737     5.4068    10.0982   102.2089     0.0571     2.4573     0.1284     0.2648
  146.0000   -43.2127     6.5915     5.0708     5.4110    10.0999   103.2070     0.0612     2.4585     0.1276     0.2729
  146.5000   -44.0339     6.8535     5.0679     5.4152    10.1074   104.2148     0.0623     2.4581     0.1265     0.2835
  147.0000   -45.3519     6.7475     5.0651     5.4194    10.1146   105.1882     0.0623     2.4602     0.1255     0.2856
  147.5000   -46.6737     6.5800     5.0622     5.4236    10.1217   104.5239     0.0623     2.4624     0.1237     0.2873
  148.0000   -47.6947     6.4167     5.0593     5.4278    10.1289   101.2149     0.0655     2.4673     0.1191     0.2903
  148.5000   -47.6819     6.3615     5.0564     5.4298    10.1362    98.3212     0.0719     2.4732     0.1157     0.2942
  149.0000   -48.0171     6.7900     5.0536     5.4224    10.1383    98.4402     0.0784     2.4791     0.1153     0.2948
  149.5000   -48.6860     6.5923     5.0507     5.4163    10.1383    99.6853     0.0803     2.4820     0.1143     0.2953
  150.0000   -48.3608     6.3119     5.0478     5.4102    10.1383   100.8769     0.0767     2.4815     0.1146     0.2985
  150.5000   -47.8965     6.0721     5.0449     5.4042    10.1383   101.9636     0.0743     2.4810     0.1155     0.2999
  151.0000   -47.6823     6.1237     5.0422     5.3981    10.1383   101.8054     0.0761     2.4826     0.1129     0.3000
  151.5000   -48.0905     6.2252     5.0404     5.3920    10.1383   100.7054     0.0821     2.4846     0.1124     0.3001
  152.0000   -48.5020     6.3291     5.0542     5.3859    10.1383    99.5915     0.0880     2.4862     0.1146     0.3002
  152.5000   -47.9093     6.4811     5.0647     5.3801    10.1383   100.0747     0.0864     2.4813     0.1184     0.2979
  153.0000   -47.2587     6.4390     5.0753     5.3919    10.1383   101.0700     0.0830     2.4749     0.1191     0.2947
  153.5000   -47.6410     6.3637     5.0860     5.4048    10.1383   101.7425     0.0821     2.4721     0.1173     0.2926
  154.0000   -48.0342     6.2893     5.0966     5.4178    10.1383   101.2848     0.0869     2.4738     0.1159     0.2906
  154.5000   -48.2840     6.2441     5.1073     5.4307    10.1383   100.4989     0.0931     2.4769     0.1150     0.2895
  155.0000   -48.3381     6.3990     5.1179     5.4437    10.1383    99.7055     0.0942     2.4787     0.1151     0.2898
  155.5000   -48.3992     6.5594     5.1287     5.4568    10.1383    99.3079     0.0942     2.4804     0.1133     0.2877
  156.0000   -48.4592     6.7238     5.1385     5.4699    10.1383   100.2668     0.0942     2.4821     0.1128     0.2846
  156.5000   -48.5193     6.8535     5.1472     5.4830    10.1383   101.4349     0.0941     2.4837     0.1087     0.2839
  157.0000   -48.5792     6.6472     5.1558     5.4961    10.1383   102.6123     0.0969     2.4889     0.1045     0.2866
  157.5000   -48.6396     6.4838     5.1644     5.5093    10.1383   103.6781     0.1000     2.4964     0.1022     0.2867
  158.0000   -48.7152     6.3028     5.1731     5.5223    10.1383   103.9358     0.1032     2.5040     0.1059     0.2888
  158.5000   -48.8532     6.3394     5.1826     5.5319    10.1383   103.9158     0.1062     2.5048     0.1130     0.2912
  159.0000   -48.9879     6.3818     5.1477     5.4758    10.1383   103.9156     0.1034     2.4939     0.1201     0.2928
  159.5000   -49.1224     6.4210     5.1075     5.4319    10.1383   103.9031     0.0996     2.4830     0.1271     0.2924
  160.0000   -49.2569     6.2218     5.0873     5.3883    10.1383   104.3154     0.0876     2.4671     0.1342     0.2927
  160.5000   -49.3913     6.0449     5.0499     5.3450    10.1383   105.2079     0.0725     2.4526     0.1356     0.2943
  161.0000   -49.5261     5.9580     4.9777     5.3021    10.1383   106.0562     0.0570     2.4453     0.1324     0.2946
  161.5000   -49.6651     6.2445     4.8586     5.2595    10.1383   106.4902     0.0567     2.4458     0.1308     0.2946
  162.0000   -49.7539     6.4811     4.7422     5.2160    10.1383   106.6964     0.0587     2.4495     0.1301     0.2950
  162.5000   -49.8619     6.2168     4.6287     5.1057    10.1380   106.6933     0.0623     2.4539     0.1270     0.2958
  163.0000   -49.9692     5.8777     4.5180     4.9977    10.1376   106.1512     0.0658     2.4584     0.1244     0.2998
  163.5000   -50.0803     5.5572     4.4098     4.8920    10.1372   104.2452     0.0693     2.4631     0.1206     0.2999
