~VERSION INFORMATION
 VERS.                2.0:   CWLS LOG ASCII STANDARD - VERSION 2.0
 WRAP.                 NO:   ONE LINE PER DEPTH STEP
~WELL INFORMATION
#MNEM.UNIT      DATA TYPE    INFORMATION
#----------   ------------   ------------------------------
 STRT.F            0.0000:   START DEPTH
 STOP.F          453.5000:   STOP DEPTH
 STEP.F            0.5000:   STEP LENGTH
 NULL.          -999.2500:   NO VALUE
 COMP. BROWN JOHN E&C INC:   COMPANY
 WELL. NAVAL PETROLEUM RESERVE 3 SX-1 #54-1-10:   WELL
 FLD .             TEAPOT:   FIELD
 LOC .      S10 T38N R78W:   LOCATION
 CNTY.            NATRONA:   COUNTY
 STAT.            WYOMING:   STATE
 CTRY. UNITED STATES OF AMERICA:   COUNTRY
 SRVC.     Atlas Wireline:   SERVICE COMPANY
 DATE.        22-APR-1991:   LOGDATE
 API .       490251133200:   API NUMBER
~CURVE INFORMATION
#MNEM.UNIT       API CODE    CURVE DESCRIPTION
#----------   ------------   ------------------------------
 DEPT.F                  :   
 GRR .GAPI   07 310 01 00:   GAMMA RAY
 RILD.OHMM   07 120 46 00:   INDUCTION LOG DEEP RESISTIVITY
 RILM.OHMM   07 120 44 00:   INDUCTION LOG MEDIUM RESISTIVITY
~PARAMETER INFORMATION
#MNEM.UNIT          VALUE    DESCRIPTION
#----------   ------------   ------------------------------
 PD  .                 GL:   PERMANENT DATUM
 EPD .F              5199:   ELEVATION PERMANENT DATUM
 LMF .                 KB:   LOG MEASURED FROM
 DAPD.F                 5:   FEET ABOVE PERMANENT DATUM
 DMF .                 KB:   DRILLING MEASURED FROM
 EKB .F              5204:   KELLING BUSHING
 EGL .F              5199:   GROUND LEVEL
 DATE.        22-APR-1991:   RUN DATE
 RUN .                  1:   RUN NUMBER
 DD  .F               460:   DEPTH DRILLER
 DL  .F               461:   DEPTH LOGGER
 BLI .F               459:   BOTTOM LOG INTERVAL
 TLI .F                 0:   TOP LOG INTERVAL
 CS  .IN            8.625:   CASING SIZE
 CBD .F                45:   CASING BOTTOM DRILLER
 CBL .F                44:   CASING BOTTOM LOGGER
 BS  .IN            7.875:   BIT SIZE
 BSD .F               460:   BIT SIZE AT DEPTH
 DFT .                AIR:   DRILLING FLUID TYPE
 LUN .           HL- 6307:   LOGGING UNIT NUMBER
 LUL .             CASPER:   LOGGING UNIT LOCATION
 ENGI.          OTTERHOLT:   RECORDING ENGINEER
 WITN.   HERRMANN/ STRONG:   WITNESSED BY
 CLNT.            A2DTECH:   CLIENT CODE
 ORIG.           5" PRINT:   ORIGIN OF DATA
 UWI .       490251133200:   UNIQUE WELL ID
 DICO. A2D Technologies, Inc.:   DIGITIZING COMPANY
~OTHER INFORMATION
~A    DEPT      GRR      RILD       RILM   
# ...
  364.0000   106.8480    17.2374    17.7035
  364.5000   104.4088    17.1123    17.8244
  365.0000   102.5757    16.9879    17.9462
  365.5000   101.9548    16.8633    18.0683
  366.0000   103.4950    16.7409    18.1917
  366.5000   105.5576    16.7353    18.1892
  367.0000   104.3305    16.7296    18.0609
  367.5000   100.3763    16.7239    17.8093
  368.0000    98.5432    16.6026    17.5612
  368.5000    98.8313    16.5969    17.3166
  369.0000   103.9680    16.3624    17.1944
  369.5000   112.1349    16.2437    16.9549
  370.0000   114.8509    16.1256    16.8352
  370.5000   113.0141    15.8966    16.4858
  371.0000   107.8477    15.7812    16.3693
  371.5000   102.3783    15.5582    16.1409
  372.0000    98.7271    15.4453    16.0270
  372.5000    99.6212    15.3332    15.8037
  373.0000   102.0910    15.1165    15.5836
  373.5000   103.8339    14.9029    15.4736
  374.0000   103.5121    14.4897    15.3644
  374.5000   103.4972    14.3844    15.1504
  375.0000   104.0921    14.1811    15.0434
  375.5000   104.6796    14.0771    14.8339
  376.0000   104.9677    14.0724    14.7014
  376.5000   106.1649    14.0676    14.6615
  377.0000   108.2712    14.0629    14.6232
  377.5000   109.1692    14.0581    14.6208
  378.0000   107.0293    13.9561    14.5176
  378.5000   103.0751    13.9513    14.5156
  379.0000    99.7268    13.9466    14.5137
  379.5000    96.0755    13.9418    14.5117
  380.0000    97.2727    13.8395    14.5097
  380.5000    99.3990    13.8348    14.6093
  381.0000    99.3636    13.8302    14.6069
  381.5000   100.2545    13.7298    14.6049
  382.0000   106.6033    13.7251    14.6029
  382.5000   113.8612    13.7205    14.4998
  383.0000   111.1189    13.7155    14.3974
  383.5000   104.1344    13.6163    14.2954
  384.0000   100.7899    13.6117    14.1945
  384.5000   106.8319    13.5127    14.0944
  385.0000   116.8169    13.3208    13.8980
  385.5000   113.7717    13.2241    13.8000
  386.0000   108.9084    13.1282    13.7026
  386.5000   110.4085    13.0329    13.5117
  387.0000   113.7271    13.0285    13.3235
  387.5000   115.8333    12.9339    13.2294
  388.0000   118.6062    12.9295    13.2276
  388.5000   123.7625    13.0337    13.3180
  389.0000   121.2395    13.0272    13.4245
  389.5000   118.4972    13.0220    13.6891
  390.0000   118.1831    13.0168    13.8791
  390.5000   120.8955    13.0115    13.8768
  391.0000   119.9677    13.0052    13.8749
  391.5000   116.3164    13.0001    13.7770
  392.0000   113.5743    12.9949    13.4910
  392.5000   112.6540    12.9898    13.3958
  393.0000   114.4536    12.9846    13.2092
  393.5000   117.1659    12.9794    13.1160
  394.0000   118.3637    12.9743    13.1142
  394.5000   116.2271    12.9691    13.2114
  395.0000   115.9091    12.8742    13.2019
  395.5000   117.4495    12.8691    13.0177
  396.0000   118.0404    12.8640    12.9258
  396.5000   118.8909    12.6723    12.7457
  397.0000   120.6943    12.5014    12.6335
  397.5000   123.4067    12.2377    12.5400
  398.0000   126.7251    12.1482    12.2753
  398.5000   125.8011    12.1434    12.1844
  399.0000   120.9376    12.0545    12.0942
  399.5000   118.1955    11.8835    11.9215
  400.0000   120.6031    11.7965    11.8333
  400.5000   121.4943    11.7102    11.8275
  401.0000   121.7196    11.4642    11.7296
  401.5000   120.4888    11.2233    11.4909
  402.0000   119.8667    11.0641    11.3268
  402.5000   119.5468    10.8315    11.1651
  403.0000   121.3554    10.6039    10.8537
  403.5000   124.1417    10.4525    10.6246
  404.0000   126.5980    10.2329    10.3283
  404.5000   128.8365     9.6090     9.9708
  405.0000   129.7295     8.7151     9.4927
  405.5000   127.5923     7.5293     8.9127
  406.0000   126.3705     6.6880     7.8607
  406.5000   130.5777     6.1936     6.7428
  407.0000   136.9044     6.0215     5.7838
  407.5000   144.4393     6.0611     5.3929
  408.0000   153.4849     6.1434     5.5044
  408.5000   161.3221     6.3156     6.2915
  409.0000   159.7937     6.5345     7.0060
  409.5000   145.8785     6.8567     7.9431
  410.0000   139.2143     7.3469     8.8119
  410.5000   127.1117     8.2645     9.3762
  411.0000   121.9034     9.0419    10.2581
  411.5000   121.3359     9.9614    10.6898
  412.0000   123.9028    10.4535    10.7605
  412.5000   127.0359    10.7448    10.7541
  413.0000   129.7371    10.7395    10.8239
  413.5000   132.7404    10.7352    10.9702
  414.0000   134.2332    11.0333    11.1198
  414.5000   134.2153    11.3399    11.3475
  415.0000   134.1975    11.6612    11.6618
  415.5000   133.5753    11.9781    11.9847
  416.0000   130.8385    12.3107    12.2336
  416.5000   129.0080    12.4767    12.4122
  417.0000   128.9901    12.6474    12.7401
  417.5000   129.2749    12.7305    13.0915
  418.0000   130.1632    12.9022    13.4542
  418.5000   129.5378    13.0775    13.7327
  419.0000   127.0395    13.2552    13.9183
  419.5000   124.2447    13.3436    14.1064
  420.0000   123.1429    13.4301    14.1980
  420.5000   124.3335    13.6124    14.1895
  421.0000   120.9880    13.7018    14.1827
  421.5000   121.8764    13.6962    14.1759
  422.0000   124.2755    13.6896    14.1691
  422.5000   125.4661    13.6842    14.2614
  423.0000   126.9588    13.6787    14.4540
  423.5000   127.8519    13.6733    14.5477
  424.0000   126.3189    13.6679    14.7443
  424.5000   121.7693    13.6624    14.5336
  425.0000   119.3347    13.6570    14.4259
  425.5000   120.2231    13.6516    14.3177
  426.0000   120.5075    13.6462    14.1133
  426.5000   118.6625    13.6407    14.0088
  427.0000   115.9133    13.6353    14.0021
  427.5000   115.3179    13.6298    13.9954
  428.0000   123.1505    13.6243    13.9887
  428.5000   128.5708    13.6177    13.9820
  429.0000   127.6467    13.3316    13.9753
  429.5000   124.3055    13.2341    13.9686
  430.0000   123.0792    13.1373    13.7691
  430.5000   123.6656    12.8612    13.5725
  431.0000   124.2520    12.6788    13.2861
  431.5000   125.1404    12.4989    13.1877
  432.0000   125.4248    12.2363    12.9045
  432.5000   125.4069    12.1467    12.8033
  433.0000   125.9939    11.9744    12.5274
  433.5000   126.5796    11.8044    12.1921
  434.0000   129.2808    11.7063    12.1018
  434.5000   131.0757    11.4708    12.0122
  435.0000   130.1208    11.3869    11.8407
  435.5000   129.8309    11.2253    11.7531
  436.0000   130.1159    11.1432    11.6661
  436.5000   132.2083    10.9851    11.4198
  437.0000   133.7055    10.9047    11.3353
  437.5000   134.8961    10.8250    11.0960
  438.0000   131.8527    10.7458    11.0139
  438.5000   128.8137    10.5933    10.8566
  439.0000   129.4000    10.5891    10.7763
  439.5000   130.5907    10.5849    10.7711
  440.0000   131.1815    10.5806    10.7658
  440.5000   130.8571    10.5754    10.7606
  441.0000   132.0477    10.5712    10.7544
  441.5000   134.1447    10.5670    10.6747
  442.0000   135.3353    10.4897    10.5223
  442.5000   135.2868    10.4856    10.4444
  443.0000     0.1324    10.4088    10.3671
  443.5000  -999.2500    10.2612    10.1483
  444.0000  -999.2500    10.1861    10.0732
  444.5000  -999.2500     9.9721     9.9293
  445.0000  -999.2500     9.8991     9.8558
  445.5000  -999.2500     9.6911     9.7829
  446.0000  -999.2500     9.6201     9.6432
  446.5000  -999.2500     9.4180     9.5055
  447.0000  -999.2500     9.1555     9.2404
  447.5000  -999.2500     9.0885     9.1074
  448.0000  -999.2500     9.0220     9.0410
  448.5000  -999.2500     8.9560     9.0365
  449.0000  -999.2500     8.8289     8.9688
  449.5000  -999.2500     8.6434     8.7795
  450.0000  -999.2500     8.2873     8.4755
  450.5000  -999.2500     7.6747     7.9026
  451.0000  -999.2500     7.2569     7.2163
  451.5000  -999.2500     7.2523     7.0151
  452.0000  -999.2500     7.4624     7.2094
  452.5000  -999.2500     7.8783     7.4091
  453.0000  -999.2500     7.9301     7.7210
  453.5000  -999.2500     7.8713     7.8262
