~VERSION INFORMATION
 VERS.                2.0:   CWLS LOG ASCII STANDARD - VERSION 2.0
 WRAP.                 NO:   ONE LINE PER DEPTH STEP
~WELL INFORMATION
#MNEM.UNIT      DATA TYPE    INFORMATION
#----------   ------------   ------------------------------
 STRT.F           10.0000:   START DEPTH
 STOP.F          833.5000:   STOP DEPTH
 STEP.F            0.5000:   STEP LENGTH
 NULL.          -999.2500:   NO VALUE
 COMP. FENIX & SCISSON INC:   COMPANY
 WELL.       NPR 3 #46-11:   WELL
 FLD .             TEAPOT:   FIELD
 LOC .      S11 T38N R78W:   LOCATION
 CNTY.            NATRONA:   COUNTY
 STAT.            WYOMING:   STATE
 CTRY. UNITED STATES OF AMERICA:   COUNTRY
 SRVC.           BIRDWELL:   SERVICE COMPANY
 DATE.        17-DEC-1978:   LOGDATE
 API .       490251075600:   API NUMBER
~CURVE INFORMATION
#MNEM.UNIT       API CODE    CURVE DESCRIPTION
#----------   ------------   ------------------------------
 DEPT.F                  :   
 GRD .GAPI   45 310 01 00:   GAMMA RAY FROM DENSITY LOG
 CALD.IN     45 280 60 00:   CALIPER
 CORR.G/C3   45 356 01 00:   DENSITY CORRECTION
 DPHI.DEC    45 890 12 00:   DENSITY POROSITY SANDSTONE
 RHOB.G/C3   45 350 01 00:   BULK DENSITY
 SPR .MV     05 010 01 00:   SPONTANEOUS POTENTIAL FROM RES.
 SN  .OHMM   05 040 16 00:   SHORT NORMAL 16"
 IL  .OHMM   05 120 00 00:   INDUCTION LOG
~PARAMETER INFORMATION
#MNEM.UNIT          VALUE    DESCRIPTION
#----------   ------------   ------------------------------
 PD  .                 GL:   PERMANENT DATUM
 EPD .F              5193:   ELEVATION PERMANENT DATUM
 LMF .                 KB:   LOG MEASURED FROM
 DAPD.F                 4:   FEET ABOVE PERMANENT DATUM
 DMF .                 KB:   DRILLING MEASURED FROM
 EKB .F              5197:   KELLING BUSHING
 EGL .F              5193:   GROUND LEVEL
 DATE.           12-17-78:   RUN DATE
 RUN .                  1:   RUN NUMBER
 DD  .F               845:   DEPTH DRILLER
 DL  .F               834:   DEPTH LOGGER
 BLI .F               827:   BOTTOM LOG INTERVAL
 TLI .F                60:   TOP LOG INTERVAL
 CS  .IN            8.625:   CASING SIZE
 CBD .F                40:   CASING BOTTOM DRILLER
 CBL .F                42:   CASING BOTTOM LOGGER
 BS  .IN            7.875:   BIT SIZE
 BSD .F               845:   BIT SIZE AT DEPTH
 DFT .                KCL:   DRILLING FLUID TYPE
 DFD .                8.8:   DRILLING FLUID DENSITY
 DFV .                 36:   DRILLING FLUID VISCOSITY
 DFPH.               10.5:   DRILLING FLUID PH
 MSS .          FLOW LINE:   MUD SAMPLE SOURCE
 RMS .OHMM            .34:   RESISTIVITY MUD SAMPLE
 MST .F                62:   MUD SAMPLE TEMPERATURE
 RMF .OHMM            .26:   RESISTIVITY MUD FILTRATE SAMPLE
 MFST.F                66:   MUD FILTRATE SAMPLE TEMPERATURE
 RMC .OHMM            .42:   RESISTIVITY MUD CAKE
 MCST.F                68:   MUD CAKE SAMPLE TEMPERATURE
 MFSS.           MEASURED:   MUD FILTRATE SAMPLE SOURCE
 MCSS.           MEASURED:   MUD CAKE SAMPLE SOURCE
 RMB .OHMM           .288:   RESISTIVITY MUD AT BHT
 BHT .F                73:   BOTTOM HOLE TEMPERATURE
 TCS .HRS               4:   TIME CURCULATED STOPPED
 MRT .F                73:   MAXIMUM RECORDED TEMPERATURE
 LUN .               3006:   LOGGING UNIT NUMBER
 LUL .             CASPER:   LOGGING UNIT LOCATION
 ENGI.         B. ROLLINS:   RECORDING ENGINEER
 WITN.         RICHARDSON:   WITNESSED BY
 CLNT.            A2DTECH:   CLIENT CODE
 ORIG.           5" PRINT:   ORIGIN OF DATA
 UWI .       490251075600:   UNIQUE WELL ID
 DICO. A2D Technologies, Inc.:   DIGITIZING COMPANY
~OTHER INFORMATION
~A   DEPT      GRD       CALD       CORR       DPHI       RHOB        SPR         SN         IL   
# ...
  779.5000    88.0320     8.0940     0.0040     0.1140     2.4780   -26.6140    10.0590     9.9610
  780.0000    88.3610     8.0920     0.0040     0.1150     2.4770   -26.6690    10.0520     9.9250
  780.5000    88.7020     8.1030     0.0070     0.1170     2.4760   -26.7240    10.0440     9.8880
  781.0000    89.0660     8.1150     0.0110     0.1170     2.4750   -26.7800    10.0360     9.8520
  781.5000    89.4670     8.1260     0.0140     0.1160     2.4740   -26.8340    10.0280     9.8150
  782.0000    89.8670     8.1020     0.0170     0.1160     2.4720   -26.8890    10.0210     9.7790
  782.5000    90.1390     8.0570     0.0200     0.1190     2.4720   -26.9470    10.0130     9.7430
  783.0000    90.2330     8.0130     0.0200     0.1190     2.4720   -26.9960    10.0050     9.7060
  783.5000    90.3280     7.9780     0.0200     0.1150     2.4720   -27.0600     9.9980     9.6700
  784.0000    90.4120     8.1250     0.0200     0.1120     2.4740   -27.1270     9.9900     9.6330
  784.5000    90.1900     8.1160     0.0200     0.1110     2.4780   -27.5140     9.9820     9.5970
  785.0000    88.7550     8.0990     0.0200     0.1090     2.4820   -27.8640     9.9740     9.5600
  785.5000    87.3280     8.0830     0.0220     0.1070     2.4840   -28.2880     9.9660     9.5240
  786.0000    86.2020     8.0660     0.0240     0.1070     2.4870   -28.5470     9.9590     9.4870
  786.5000    87.1490     8.0460     0.0260     0.1070     2.4870   -28.8360     9.9510     9.4510
  787.0000    88.8030     8.0740     0.0290     0.1080     2.4870   -29.1010     9.9420     9.4140
  787.5000    90.0570     8.1390     0.0310     0.1080     2.4870   -29.1140     9.9290     9.3800
  788.0000    87.6080     8.1740     0.0330     0.1090     2.4870   -29.1210     9.9320     9.3510
  788.5000    83.8430     8.1390     0.0360     0.1100     2.4870   -29.1150     9.8650     9.3230
  789.0000    81.7200     8.1090     0.0330     0.1110     2.4850   -29.1170     9.7500     9.2940
  789.5000    85.8120     8.0790     0.0290     0.1130     2.4840   -29.1170     9.6400     9.2650
  790.0000    89.0540     8.0500     0.0250     0.1140     2.4820   -29.1170     9.5300     9.2360
  790.5000    92.0850     8.0190     0.0210     0.1150     2.4810   -29.1170     9.4200     9.2120
  791.0000    93.3140     8.0280     0.0200     0.1150     2.4800   -29.1160     9.3100     9.0650
  791.5000    94.4680     8.0550     0.0220     0.1130     2.4790   -29.1160     9.2000     8.9380
  792.0000    94.5740     8.0470     0.0240     0.1120     2.4790   -29.1160     9.0900     8.8110
  792.5000    93.4180     7.9970     0.0270     0.1130     2.4780   -29.1160     8.9800     8.6840
  793.0000    93.4810     7.9870     0.0300     0.1160     2.4780   -29.1160     8.8700     8.5570
  793.5000    94.2730     8.0230     0.0280     0.1190     2.4740   -29.1160     8.7600     8.4300
  794.0000    94.2230     8.0590     0.0260     0.1220     2.4690   -29.1160     8.6500     8.3030
  794.5000    93.2160     8.0940     0.0240     0.1190     2.4660   -29.1160     8.5500     8.1760
  795.0000    92.1820     8.1300     0.0210     0.1150     2.4730   -29.1160     8.4610     8.0580
  795.5000    91.9360     8.1650     0.0190     0.1120     2.4800   -29.1160     8.3320     7.9620
  796.0000    94.0320     8.1550     0.0170     0.1090     2.4860   -29.1160     8.2020     7.8660
  796.5000    96.4300     8.1390     0.0140     0.1070     2.4900   -29.1160     8.0720     7.7700
  797.0000    98.8160     8.1310     0.0150     0.1050     2.4930   -29.1160     7.9430     7.6740
  797.5000    99.8680     8.1450     0.0150     0.1040     2.4920   -29.1160     7.8130     7.5780
  798.0000   100.7430     8.1580     0.0160     0.1070     2.4910   -29.1160     7.6830     7.4560
  798.5000   101.6690     8.1680     0.0160     0.1160     2.4890   -29.1160     7.5540     7.2500
  799.0000   103.1000     8.1340     0.0170     0.1280     2.4740   -29.1160     7.3470     7.0440
  799.5000   104.6520     8.1000     0.0170     0.1400     2.4570   -29.1160     7.0930     6.8390
  800.0000   106.2080     8.0660     0.0180     0.1520     2.4400   -29.1160     6.8380     6.6330
  800.5000   107.8670     8.0330     0.0190     0.1620     2.4240   -29.1160     6.5840     6.3460
  801.0000   111.1660     7.9990     0.0190     0.1350     2.4070   -29.1160     6.3300     6.4030
  801.5000   114.7190     7.9660     0.0200     0.1090     2.4370   -29.1160     6.0760     6.4980
  802.0000   117.2130     7.9330     0.0190     0.0990     2.4720   -29.1160     5.8220     6.5930
  802.5000   115.7220     7.9970     0.0160     0.0980     2.4970   -29.1160     5.6740     6.6870
  803.0000   110.0790     8.0680     0.0120     0.0980     2.4940   -29.1160     5.8340     6.7820
  803.5000   102.8790     8.1320     0.0090     0.0980     2.4920   -29.1160     6.5510     7.1290
  804.0000    95.4630     8.1300     0.0050     0.0970     2.4960   -29.1160     7.2670     7.8140
  804.5000    92.8430     8.1300     0.0020     0.0950     2.5010   -29.1160     7.9840     8.4990
  805.0000    94.7060     8.1300     0.0000     0.0930     2.5060   -29.1160     8.7000     9.1840
  805.5000    96.4510     8.1300     0.0050     0.0910     2.5110   -29.1160     9.3850     9.8690
  806.0000    98.2060     8.1300     0.0100     0.0890     2.5150   -29.1160     9.6230    10.1900
  806.5000    99.3570     8.1300     0.0150     0.0880     2.5200   -29.1170     9.8510    10.3120
  807.0000    97.7050     8.1300     0.0210     0.0890     2.5190   -29.1160    10.1120    10.4340
  807.5000    95.7210     8.1300     0.0180     0.0900     2.5160   -29.1120    10.1590    10.5560
  808.0000    94.6140     8.1170     0.0140     0.0910     2.5120   -29.1690    10.2620    10.6780
  808.5000    96.0780     8.0960     0.0100     0.0900     2.5100   -29.3380    10.3660    10.8000
  809.0000    98.0050     8.0740     0.0060     0.0860     2.5120   -29.5010    10.4690    10.9220
  809.5000    98.1150     8.0520     0.0020     0.0820     2.5250   -29.6680    10.5720    11.0440
  810.0000    96.0400     8.0770     0.0050     0.0780     2.5310   -29.8340    10.6750    11.1660
  810.5000    95.2530     8.0920     0.0070     0.0730     2.5380   -30.0000    10.7790    11.2880
  811.0000    95.9380     8.1080     0.0090     0.0750     2.5450   -30.1660    10.8820    11.4100
  811.5000    96.6010     8.1250     0.0120     0.0770     2.5440   -30.3320    10.9850    11.5210
  812.0000    97.2940     8.1160     0.0140     0.0780     2.5400   -30.4980    11.1010    11.5070
  812.5000    97.5240     8.0870     0.0170     0.0800     2.5360   -30.6640    11.0960    11.4950
  813.0000    95.7810     8.0570     0.0190     0.0850     2.5320   -30.8300    11.0980    11.4820
  813.5000    93.2290     8.0340     0.0210     0.0900     2.5260   -30.9950    11.0990    11.4700
  814.0000    91.9560     8.1040     0.0240     0.0950     2.5180   -31.1610    11.0990    11.4580
  814.5000    95.7880     8.1740     0.0260     0.0970     2.5100   -31.3270    11.0990    11.4450
  815.0000    99.6600     8.2480     0.0260     0.0990     2.5060   -31.4930    11.0990    11.4330
  815.5000    99.9390     8.1620     0.0260     0.1000     2.5030   -31.6590    11.0990    11.4200
  816.0000   100.1230     8.0370     0.0260     0.1010     2.5010   -31.8250    11.0990    11.4080
  816.5000    99.8060     8.0650     0.0260     0.1020     2.4980   -31.9910    11.0990    11.3950
  817.0000    98.0230     8.2020     0.0280     0.1030     2.4960   -32.1570    11.0990    11.3830
  817.5000    96.2950     8.1250     0.0340     0.1020     2.4990   -32.3230    11.0990    11.3710
  818.0000    94.5920     8.0460     0.0400     0.1010     2.5020   -32.4890    11.0990    11.3580
  818.5000    92.9770     8.1100     0.0450     0.1010     2.5040   -32.6540    11.0990    11.3460
  819.0000    92.5190     8.1400     0.0510     0.1020     2.4990   -32.8210    11.0990    11.3330
  819.5000    92.1400     8.1020     0.0520     0.1040     2.4950   -32.9880    11.0990    11.3210
