~VERSION INFORMATION
 VERS.                2.0:   CWLS LOG ASCII STANDARD - VERSION 2.0
 WRAP.                 NO:   ONE LINE PER DEPTH STEP
~WELL INFORMATION
#MNEM.UNIT      DATA TYPE    INFORMATION
#----------   ------------   ------------------------------
 STRT.F            3.0000:   START DEPTH
 STOP.F         3449.0000:   STOP DEPTH
 STEP.F            0.5000:   STEP LENGTH
 NULL.          -999.2500:   NO VALUE
 COMP. LAWRENCE/ALLISON INC:   COMPANY
 WELL.       NPR 3 #24-10:   WELL
 FLD .             TEAPOT:   FIELD
 LOC .      S10 T38N R78W:   LOCATION
 CNTY.            NATRONA:   COUNTY
 STAT.            WYOMING:   STATE
 CTRY. UNITED STATES OF AMERICA:   COUNTRY
 SRVC.      Dresser Atlas:   SERVICE COMPANY
 DATE.        28-JUL-1985:   LOGDATE
 API .       490251104400:   API NUMBER
~CURVE INFORMATION
#MNEM.UNIT       API CODE    CURVE DESCRIPTION
#----------   ------------   ------------------------------
 DEPT.F                  :   
 PORD.DEC    45 890 12 00:   POROSITY DENSITY SANDSTONE
 CNC .DEC    42 890 03 00:   NEUTRON POROSITY SANDSTONE
 CORR.G/C3   45 356 01 00:   DENSITY CORRECTION
 DEN .G/C3   45 350 01 00:   COMPENSATED BULK DENSTIY
 AC  .US/F   60 520 00 00:   ACCOUSTIC
 CALR.IN     07 280 01 00:   CALIPER FROM RESISTIVITY
 GRR .GAPI   07 310 01 00:   GAMMA RAY
 RFOC.OHMM   07 220 04 00:   RESISTIVITY FOCUSED LOG
 RILD.OHMM   07 120 46 00:   INDUCTION LOG DEEP RESISTIVITY
 RILM.OHMM   07 120 44 00:   INDUCTION LOG MEDIUM RESISTIVITY
 SPR .MV     07 010 01 00:   SPONTANEOUS POTENTIAL
~PARAMETER INFORMATION
#MNEM.UNIT          VALUE    DESCRIPTION
#----------   ------------   ------------------------------
 PD  .                 GL:   PERMANENT DATUM
 EPD .F              5242:   ELEVATION PERMANENT DATUM
 LMF .                 KB:   LOG MEASURED FROM
 DAPD.F                13:   FEET ABOVE PERMANENT DATUM
 DMF .                 KB:   DRILLING MEASURED FROM
 EKB .F              5255:   KELLING BUSHING
 EGL .F              5242:   GROUND LEVEL
 DATE.        28-JUL-1985:   RUN DATE
 RUN .                  1:   RUN NUMBER
 DD  .F              3451:   DEPTH DRILLER
 DL  .F              3451:   DEPTH LOGGER
 BLI .F              3449:   BOTTOM LOG INTERVAL
 CS  .IN            8.625:   CASING SIZE
 CBD .F               688:   CASING BOTTOM DRILLER
 CBL .F               686:   CASING BOTTOM LOGGER
 BS  .IN            7.875:   BIT SIZE
 BSD .F              3451:   BIT SIZE AT DEPTH
 DFT .            KCL GEL:   DRILLING FLUID TYPE
 DFD .                8.9:   DRILLING FLUID DENSITY
 DFV .                 40:   DRILLING FLUID VISCOSITY
 DFPH.                8.0:   DRILLING FLUID PH
 DFL .                 10:   DRILLING FLUID LOSS
 MSS .           FLOWLINE:   MUD SAMPLE SOURCE
 RMS .OHMM           0.87:   RESISTIVITY MUD SAMPLE
 MST .F                92:   MUD SAMPLE TEMPERATURE
 RMF .OHMM             65:   RESISTIVITY MUD FILTRATE SAMPLE
 MFST.F                92:   MUD FILTRATE SAMPLE TEMPERATURE
 RMC .OHMM           1.09:   RESISTIVITY MUD CAKE
 MCST.F                92:   MUD CAKE SAMPLE TEMPERATURE
 MFSS.               CALC:   MUD FILTRATE SAMPLE SOURCE
 MCSS.               CALC:   MUD CAKE SAMPLE SOURCE
 RMB .OHMM            .66:   RESISTIVITY MUD AT BHT
 BHT .F               121:   BOTTOM HOLE TEMPERATURE
 TCS .HRS               4:   TIME CURCULATED STOPPED
 MRT .F               121:   MAXIMUM RECORDED TEMPERATURE
 LUN .               6264:   LOGGING UNIT NUMBER
 LUL .               GLTE:   LOGGING UNIT LOCATION
 ENGI.           FAHLSING:   RECORDING ENGINEER
 WITN.             STRONG:   WITNESSED BY
 CLNT.            A2DTECH:   CLIENT CODE
 ORIG.        2" 5" PRINT:   ORIGIN OF DATA
 UWI .       490251104400:   UNIQUE WELL ID
 DICO. A2D Technologies, Inc.:   DIGITIZING COMPANY
 R1  . POROSITY WITH SANDSTONE:   REMARKS 1
~OTHER INFORMATION
~A    DEPT    PORD        CNC       CORR        DEN         AC       CALR         GRR      RFOC       RILD       RILM        SPR   
# ...
 1436.5000  -999.2500  -999.2500  -999.2500  -999.2500  -999.2500    10.3137    87.6672     7.6336     7.5743     7.2792   -46.7676
 1437.0000  -999.2500  -999.2500  -999.2500  -999.2500  -999.2500    10.2986    90.4977     7.5814     7.4700     7.1288   -47.0666
 1437.5000  -999.2500  -999.2500  -999.2500  -999.2500  -999.2500    10.2836    89.3665     7.5294     7.4183     7.0301   -47.5146
 1438.0000  -999.2500  -999.2500  -999.2500  -999.2500  -999.2500    10.2534    91.1765     7.4263     7.3671     6.9810   -47.8136
 1438.5000  -999.2500  -999.2500  -999.2500  -999.2500  -999.2500    10.2232    93.8914     7.3244     7.3671     6.9805   -47.9612
 1439.0000  -999.2500  -999.2500  -999.2500  -999.2500  -999.2500    10.1931    96.6063     7.2741     7.3671     7.0288   -47.9575
 1439.5000  -999.2500  -999.2500  -999.2500  -999.2500  -999.2500    10.1931    97.9638     7.3254     7.4183     7.0771   -47.9545
 1440.0000  -999.2500  -999.2500  -999.2500  -999.2500  -999.2500    10.1931    95.4751     7.3769     7.4700     7.1258   -47.8009
 1440.5000  -999.2500  -999.2500  -999.2500  -999.2500  -999.2500    10.2081    91.4027     7.4806     7.5743     7.1749   -47.4967
 1441.0000  -999.2500  -999.2500  -999.2500  -999.2500  -999.2500    10.2081    90.0452     7.5857     7.6270     7.2244   -47.1925
 1441.5000  -999.2500  -999.2500  -999.2500  -999.2500  -999.2500    10.2081    89.5928     7.6922     7.6801     7.2239   -46.8883
 1442.0000  -999.2500  -999.2500  -999.2500  -999.2500  -999.2500    10.2232    93.4389     7.7463     7.6801     7.2234   -46.5841
 1442.5000  -999.2500  -999.2500  -999.2500  -999.2500  -999.2500    10.2383    97.7376     7.8007     7.6801     7.1730   -46.5812
 1443.0000  -999.2500  -999.2500  -999.2500  -999.2500  -999.2500    10.2383   100.6787     7.6938     7.6801     7.1229   -46.5782
 1443.5000  -999.2500  -999.2500  -999.2500  -999.2500  -999.2500    10.2534    99.5475     7.6410     7.6270     7.1224   -46.7259
 1444.0000  -999.2500  -999.2500  -999.2500  -999.2500  -999.2500    10.2685    97.2851     7.5888     7.6270     7.1219   -46.8734
 1444.5000  -999.2500  -999.2500  -999.2500  -999.2500  -999.2500    10.2986    95.0226     7.5893     7.6270     7.1710   -47.1717
 1445.0000  -999.2500  -999.2500  -999.2500  -999.2500  -999.2500    10.3288    92.3077     7.6427     7.6270     7.2204   -47.3193
 1445.5000  -999.2500  -999.2500  -999.2500  -999.2500  -999.2500    10.3590    90.2715     7.6964     7.6270     7.2702   -47.6175
 1446.0000  -999.2500  -999.2500  -999.2500  -999.2500  -999.2500    10.3891    93.8914     7.6970     7.5743     7.2695   -47.7651
 1446.5000  -999.2500  -999.2500  -999.2500  -999.2500  -999.2500    10.4042    97.9846     7.6975     7.5743     7.2188   -47.7620
 1447.0000  -999.2500  -999.2500  -999.2500  -999.2500  -999.2500    10.4344    99.3213     7.6980     7.5743     7.2183   -47.6084
 1447.5000  -999.2500  -999.2500  -999.2500  -999.2500  -999.2500    10.4495    95.3433     7.6986     7.5743     7.2178   -47.4548
 1448.0000  -999.2500  -999.2500  -999.2500  -999.2500  -999.2500    10.4646    88.6958     7.6458     7.5743     7.2173   -47.2731
 1448.5000  -999.2500  -999.2500  -999.2500  -999.2500  -999.2500    10.4796    83.2579     7.6465     7.5743     7.2670   -46.9964
 1449.0000  -999.2500  -999.2500  -999.2500  -999.2500  -999.2500    10.4947    83.9367     7.6470     7.5743     7.2665   -46.9934
 1449.5000  -999.2500  -999.2500  -999.2500  -999.2500  -999.2500    10.5249    86.1991     7.6475     7.5743     7.3167   -47.1418
 1450.0000  -999.2500  -999.2500  -999.2500  -999.2500  -999.2500    10.5414    88.1786     7.6512     7.5787     7.3722   -47.3187
 1450.5000  -999.2500  -999.2500  -999.2500  -999.2500  -999.2500    10.5579    88.6878     7.6916     7.6054     7.4025   -47.6736
 1451.0000  -999.2500  -999.2500  -999.2500  -999.2500  -999.2500    10.5744    86.6516     7.7319     7.6322     7.4327   -48.0285
 1451.5000  -999.2500  -999.2500  -999.2500  -999.2500  -999.2500    10.5910    88.6878     7.7583     7.6589     7.4630   -48.1928
 1452.0000  -999.2500  -999.2500  -999.2500  -999.2500  -999.2500    10.6148    90.2715     7.7593     7.6801     7.4932   -48.0422
 1452.5000  -999.2500  -999.2500  -999.2500  -999.2500  -999.2500    10.6448    87.5566     7.7604     7.6801     7.5167   -48.0422
 1453.0000  -999.2500  -999.2500  -999.2500  -999.2500  -999.2500    10.6748    84.8416     7.7615     7.7336     7.5157   -47.8916
 1453.5000  -999.2500  -999.2500  -999.2500  -999.2500  -999.2500    10.6907    82.8054     7.8166     7.7874     7.5669   -47.5904
 1454.0000  -999.2500  -999.2500  -999.2500  -999.2500  -999.2500    10.7216    85.1135     7.9269     7.8416     7.5659   -47.4398
 1454.5000  -999.2500  -999.2500  -999.2500  -999.2500  -999.2500    10.7498    88.0882     7.9832     7.8962     7.6189   -47.1386
 1455.0000  -999.2500  -999.2500  -999.2500  -999.2500  -999.2500    10.7647    90.0452     8.0400     7.9511     7.6695   -46.8373
 1455.5000  -999.2500  -999.2500  -999.2500  -999.2500  -999.2500    10.7947    85.7466     8.0971     8.0064     7.7218   -46.5361
 1456.0000  -999.2500  -999.2500  -999.2500  -999.2500  -999.2500    10.8097    84.6154     8.1546     8.0622     7.7207   -46.5361
 1456.5000  -999.2500  -999.2500  -999.2500  -999.2500  -999.2500    10.8547    86.6516     8.2125     8.0622     7.7196   -46.5361
 1457.0000  -999.2500  -999.2500  -999.2500  -999.2500  -999.2500    10.8848    89.3665     8.2136     8.0622     7.6650   -46.6867
 1457.5000  -999.2500  -999.2500  -999.2500  -999.2500  -999.2500    10.9449    85.7466     8.2148     8.1183     7.6110   -47.1386
 1458.0000  -999.2500  -999.2500  -999.2500  -999.2500  -999.2500    11.0051    83.4842     8.2159     8.1183     7.5573   -47.4398
 1458.5000  -999.2500  -999.2500  -999.2500  -999.2500  -999.2500    11.0804    85.7466     8.2170     8.1183     7.4522   -47.8946
 1459.0000  -999.2500  -999.2500  -999.2500  -999.2500  -999.2500    11.1707    88.4615     8.2117     8.1183     7.3997   -48.2048
 1459.5000  -999.2500  -999.2500  -999.2500  -999.2500  -999.2500    11.2611    89.1403     8.1624     8.0622     7.2968   -48.4940
 1460.0000  -999.2500  -999.2500  -999.2500  -999.2500  -999.2500    11.3665    87.5566     8.1071     8.0622     7.2453   -48.6446
 1460.5000  -999.2500  -999.2500  -999.2500  -999.2500  -999.2500    11.4719    87.3303     8.0521     8.0064     7.2443   -48.4940
 1461.0000  -999.2500  -999.2500  -999.2500  -999.2500  -999.2500    11.5774    87.3303     7.9425     8.0064     7.2433   -48.3434
 1461.5000  -999.2500  -999.2500  -999.2500  -999.2500  -999.2500    11.6828    88.9140     7.8341     7.9511     7.1923   -48.0422
 1462.0000  -999.2500  -999.2500  -999.2500  -999.2500  -999.2500    11.7434    90.7240     7.6737     7.8416     7.1416   -47.5904
 1462.5000  -999.2500  -999.2500  -999.2500  -999.2500  -999.2500    11.7730    91.4215     7.5689     7.7336     7.0913   -47.1386
 1463.0000  -999.2500  -999.2500  -999.2500  -999.2500  -999.2500    11.7729    85.7466     7.5173     7.6801     7.0903   -46.9880
 1463.5000  -999.2500  -999.2500  -999.2500  -999.2500  -999.2500    11.7727    82.3491     7.4664     7.6270     7.0893   -46.8373
 1464.0000  -999.2500  -999.2500  -999.2500  -999.2500  -999.2500    11.7574    82.3833     7.4677     7.6270     7.0394   -46.9880
 1464.5000  -999.2500  -999.2500  -999.2500  -999.2500  -999.2500    11.7271    84.0159     7.5207     7.6270     6.9897   -47.4398
 1465.0000  -999.2500  -999.2500  -999.2500  -999.2500  -999.2500    11.6817    86.0484     7.5741     7.6270     6.9888   -47.7410
 1465.5000  -999.2500  -999.2500  -999.2500  -999.2500  -999.2500    11.5911    87.3303     7.6279     7.6801     6.9878   -48.0422
 1466.0000  -999.2500  -999.2500  -999.2500  -999.2500  -999.2500    11.4703    83.9367     7.6821     7.7336     7.0845   -48.3434
 1466.5000  -999.2500  -999.2500  -999.2500  -999.2500  -999.2500    11.3193    81.9005     7.7906     7.7874     7.2324   -48.1928
