~VERSION INFORMATION
 VERS.                2.0:   CWLS LOG ASCII STANDARD - VERSION 2.0
 WRAP.                 NO:   ONE LINE PER DEPTH STEP
~WELL INFORMATION
#MNEM.UNIT      DATA TYPE    INFORMATION
#----------   ------------   ------------------------------
 STRT.F           32.0000:   START DEPTH
 STOP.F         1006.0000:   STOP DEPTH
 STEP.F            0.5000:   STEP LENGTH
 NULL.          -999.2500:   NO VALUE
 COMP. FENIX & SCISSON INC:   COMPANY
 WELL.        NPR-3 #54-2:   WELL
 FLD .             TEAPOT:   FIELD
 LOC .       S2 T38N R78W:   LOCATION
 CNTY.            NATRONA:   COUNTY
 STAT.            WYOMING:   STATE
 CTRY. UNITED STATES OF AMERICA:   COUNTRY
 SRVC.              Welex:   SERVICE COMPANY
 DATE.        08-SEP-1977:   LOGDATE
 API .       490251041600:   API NUMBER
~CURVE INFORMATION
#MNEM.UNIT       API CODE    CURVE DESCRIPTION
#----------   ------------   ------------------------------
 DEPT.F                  :   
 CALD.IN     45 280 60 00:   CALIPER FROM DENSITY LOG
 GRD .GAPI   45 310 01 00:   GAMMA RAY FROM DENSITY LOG
 CORR.G/C3   45 356 01 00:   DENSITY CORRECTION
 DPHI.DEC    45 890 12 00:   DENSITY POROSITY SANDSTONE
 RHOB.G/C3   45 350 01 00:   BULK DENSITY
 SPR .MV     07 010 01 00:   SPONTANEOUS POTENTIAL
 ILD .OHMM   07 120 46 00:   INDUCTION LOG DEEP
 ILM .OHMM   07 120 44 00:   INDUCTION LOG MEDIUM
 SGRD.OHMM   07 221 05 00:   SHALLOW SHORT GUARD RESISTIVITY
~PARAMETER INFORMATION
#MNEM.UNIT          VALUE    DESCRIPTION
#----------   ------------   ------------------------------
 PD  .                 GL:   PERMANENT DATUM
 EPD .F              5160:   ELEVATION PERMANENT DATUM
 LMF .                 KB:   LOG MEASURED FROM
 DAPD.F                10:   FEET ABOVE PERMANENT DATUM
 DMF .                 KB:   DRILLING MEASURED FROM
 EKB .F              5170:   KELLING BUSHING
 EGL .F              5160:   GROUND LEVEL
 DATE.        08-SEP-1977:   RUN DATE
 RUN .                  1:   RUN NUMBER
 DD  .F              1000:   DEPTH DRILLER
 DL  .F              1008:   DEPTH LOGGER
 BLI .F              1006:   BOTTOM LOG INTERVAL
 TLI .F                47:   TOP LOG INTERVAL
 CS  .IN            8.625:   CASING SIZE
 BS  .IN             6.75:   BIT SIZE
 BSD .F              1000:   BIT SIZE AT DEPTH
 DFT .            KCL MUD:   DRILLING FLUID TYPE
 DFD .                9.1:   DRILLING FLUID DENSITY
 BHT .F               100:   BOTTOM HOLE TEMPERATURE
 TCS .HRS            0230:   TIME CURCULATED STOPPED
 MRT .F               100:   MAXIMUM RECORDED TEMPERATURE
 ENGI.          D. LAWSON:   RECORDING ENGINEER
 WITN.         HARRINGTON:   WITNESSED BY
 CLNT.            A2DTECH:   CLIENT CODE
 ORIG.           5" PRINT:   ORIGIN OF DATA
 UWI .       490251041600:   UNIQUE WELL ID
 DICO. A2D Technologies, Inc.:   DIGITIZING COMPANY
~OTHER INFORMATION
~A   DEPT     CALD         GRD       CORR      DPHI         RHOB      SPR        ILD        ILM       SGRD   
# ...
  981.0000     6.6472    77.4742    -0.0105     0.1042     2.4984   -41.7309    10.9783    12.9753    16.1175
  981.5000     6.6487    78.0947    -0.0075     0.1013     2.5016   -41.7145    11.0634    12.8022    15.5779
  982.0000     6.6502    76.0247    -0.0044     0.0992     2.5054   -41.6981    11.0713    12.5479    15.2788
  982.5000     6.6517    75.8468    -0.0029     0.0970     2.5093   -41.6816    11.0798    12.4665    15.9491
  983.0000     6.6532    78.7605     0.0002     0.0955     2.5131   -41.6652    11.0882    12.3037    16.6477
  983.5000     6.6547    82.2211     0.0033     0.0943     2.5162   -41.6487    11.1737    12.1396    17.3629
  984.0000     6.6413    84.7848     0.0078     0.0936     2.5178   -41.6328    11.1822    11.9810    17.4661
  984.5000     6.6428    84.0600     0.0079     0.0936     2.5171   -41.7658    11.1119    11.9033    16.7410
  985.0000     6.6293    81.6910     0.0065     0.0935     2.5157   -41.5994    11.1220    11.6668    15.9694
  985.5000     6.6158    78.1261     0.0050     0.0947     2.5128   -41.5830    11.1303    11.5912    15.3181
  986.0000     6.6174    74.7108     0.0021     0.0962     2.5077   -41.5665    10.9788    11.4382    14.9275
  986.5000     6.6189    71.8877    -0.0024     0.0991     2.4988   -41.5501    10.7617    11.2109    15.4718
  987.0000     6.6204    75.3539    -0.0068     0.1041     2.4900   -41.6838    10.6283    10.9109    16.0352
  987.5000     6.6219    74.3302    -0.0113     0.1101     2.4781   -41.6667    10.6365    10.9927    16.5989
  988.0000     6.6235    69.1211    -0.0142     0.1142     2.4647   -41.8004    10.6446    11.3075    16.8298
  988.5000     6.6250    48.8149    -0.0202     0.1184     2.4573   -41.9335    10.6526    11.7120    16.0423
  989.0000     6.6265  -999.2500    -0.0246     0.1192     2.4552   -42.0665    10.5872    12.0474    16.0513
  989.5000     6.6280  -999.2500    -0.0276     0.1195     2.4568   -42.0493    10.5222    12.3069    16.0601
  990.0000     6.6295  -999.2500    -0.0230     0.1171     2.4674   -42.0296    10.3808    12.6593    15.9581
  990.5000     6.6308  -999.2500    -0.0184     0.1128     2.4855   -42.0132    10.1010    12.8428    15.6319
  991.0000     6.6325  -999.2500    -0.0139     0.1089     2.4946   -42.1504     9.6980    13.0290    15.2137
  991.5000     6.6340  -999.2500    -0.0123     0.1026     2.4985   -42.1298     9.3794    13.2179    14.8066
  992.0000     6.6353  -999.2500    -0.0092     0.1017     2.4978   -42.1134     9.0675    13.4095    14.4051
  992.5000     6.6370  -999.2500    -0.0077     0.1043     2.4957   -42.0970     8.8269    13.5101    13.1774
  993.0000     6.6386  -999.2500    -0.0061     0.1079     2.4898   -42.0806     8.5334    13.2398    13.4749
  993.5000     6.6398  -999.2500    -0.0060     0.1099     2.4832   -42.0642     8.3070    13.0651    14.0537
  994.0000     6.6413  -999.2500    -0.0075     0.1123     2.4766   -42.0478     8.0887    12.8908    14.4476
  994.5000     6.6428  -999.2500    -0.0119     0.1137     2.4699   -41.8819     7.8739    12.7207    14.3558
  995.0000     6.6442  -999.2500    -0.0164     0.1143     2.4633   -41.4170     7.7163    12.5528    14.3638
  995.5000     6.6459  -999.2500    -0.0223     0.1142     2.4626   -40.8027     7.5637    12.3034    14.3717
  996.0000     6.6472  -999.2500    -0.0253     0.1139     2.4650   -40.1884     7.4141    12.2236    13.2210
  996.5000     6.6487  -999.2500    -0.0222     0.1130     2.4674   -39.2751     7.2686    12.0623    12.2653
  997.0000     6.6505  -999.2500    -0.0161     0.1114     2.4713   -38.3618     7.2741    11.9030    11.9407
  997.5000     6.6518  -999.2500    -0.0106     0.1102     2.4751   -36.4022     7.2805    11.8275    11.9473
  998.0000     6.6682  -999.2500    -0.0047     0.1090     2.4782   -33.4460     7.4387    11.9031    11.9550
  998.5000     6.6697  -999.2500     0.0006     0.1074     2.4821   -28.5714     7.7080    11.9845    12.1274
  999.0000     6.6712  -999.2500     0.0006     0.1059     2.4859   -22.0869     8.6373    12.0729    12.3033
  999.5000     6.7027  -999.2500     0.0007     0.1050     2.4898   -13.6939     9.5666    12.3259    12.4821
 1000.0000     6.7341  -999.2500     0.0008     0.1043     2.4929    -4.3348    10.7661    13.2084    12.8125
 1000.5000     6.7655  -999.2500     0.0008     0.1043     2.4945     0.0000    18.9885    17.6594    13.4171
 1001.0000     6.7670  -999.2500     0.0024     0.1045     2.4946     0.0000    82.9107    39.3844    13.9152
 1001.5000     6.7834  -999.2500     0.0055     0.1048     2.4947     0.0000   284.1495  1614.1240    13.7243
 1002.0000     6.7849  -999.2500     0.0100     0.1057     2.4934     0.0000  2000.0000  2000.0000    13.1669
 1002.5000     6.7864  -999.2500     0.0146     0.1071     2.4905     0.0000  2000.0000  -999.2500    12.4589
 1003.0000     6.7832  -999.2500     0.0207     0.1092     2.4865    -0.0510  -999.2500  -999.2500    12.0358
 1003.5000     6.7722  -999.2500     0.0252     0.1107     2.4799    -0.0344  -999.2500  -999.2500    12.0358
 1004.0000     6.7612  -999.2500     0.0283     0.1146     2.4739    -0.0179  -999.2500  -999.2500    12.1192
 1004.5000     6.7489  -999.2500     0.0299     0.1172     2.4572     0.0000  -999.2500  -999.2500    12.1192
 1005.0000     6.7339  -999.2500     0.0314     0.1234     2.4368     0.0000  -999.2500  -999.2500    12.2033
 1005.5000     6.7190  -999.2500     0.0315     0.1330     2.3957     0.0000  -999.2500  -999.2500    12.1192
 1006.0000     6.6808  -999.2500     0.0330     0.1470     2.3841    -0.1136  -999.2500  -999.2500    12.0358
