~VERSION INFORMATION
 VERS.                2.0:   CWLS LOG ASCII STANDARD - VERSION 2.0
 WRAP.                 NO:   ONE LINE PER DEPTH STEP
~WELL INFORMATION
#MNEM.UNIT      DATA TYPE    INFORMATION
#----------   ------------   ------------------------------
 STRT.F          432.0000:   START DEPTH
 STOP.F         1258.0000:   STOP DEPTH
 STEP.F            0.5000:   STEP LENGTH
 NULL.          -999.2500:   NO VALUE
 COMP. FENIX & SCISSON INC:   COMPANY
 WELL.   12 SHX 34 #12-34:   WELL
 FLD .            WILDCAT:   FIELD
 LOC .      S34 T39N R78W:   LOCATION
 CNTY.            NATRONA:   COUNTY
 STAT.            WYOMING:   STATE
 CTRY. UNITED STATES OF AMERICA:   COUNTRY
 SRVC.              Welex:   SERVICE COMPANY
 DATE.        23-APR-1979:   LOGDATE
 API .       490251078200:   API NUMBER
~CURVE INFORMATION
#MNEM.UNIT       API CODE    CURVE DESCRIPTION
#----------   ------------   ------------------------------
 DEPT.F                  :   
 CALD.IN     45 280 60 00:   CALIPER
 GRD .GAPI   45 310 01 00:   GAMMA RAY FROM DENSITY LOG
 RHOB.G/C3   45 350 01 00:   BULK DENSITY
 DPHI.DEC    45 890 12 00:   DENSITY POROSITY SANDSTONE
 CORR.G/C3   45 356 01 00:   DENSITY CORRECTION
~PARAMETER INFORMATION
#MNEM.UNIT          VALUE    DESCRIPTION
#----------   ------------   ------------------------------
 PD  .                 GL:   PERMANENT DATUM
 EPD .F              5092:   ELEVATION PERMANENT DATUM
 LMF .                 KB:   LOG MEASURED FROM
 DAPD.F                10:   FEET ABOVE PERMANENT DATUM
 DMF .                 KB:   DRILLING MEASURED FROM
 EKB .F              5102:   KELLING BUSHING
 EGL .F              5092:   GROUND LEVEL
 DATE.            4-23-79:   RUN DATE
 RUN .                  1:   RUN NUMBER
 DD  .F              1260:   DEPTH DRILLER
 DL  .F              1260:   DEPTH LOGGER
 BLI .F              1258:   BOTTOM LOG INTERVAL
 TLI .F               446:   TOP LOG INTERVAL
 CS  .IN            9.625:   CASING SIZE
 CBD .F               440:   CASING BOTTOM DRILLER
 BS  .IN            8.375:   BIT SIZE
 BSD .F              1260:   BIT SIZE AT DEPTH
 DFT .                OIL:   DRILLING FLUID TYPE
 DFD .                8.7:   DRILLING FLUID DENSITY
 TCS .HRS               1:   TIME CURCULATED STOPPED
 ENGI.               REIN:   RECORDING ENGINEER
 WITN.              AMEND:   WITNESSED BY
 CLNT.            A2DTECH:   CLIENT CODE
 ORIG.           5" PRINT:   ORIGIN OF DATA
 UWI .       490251078200:   UNIQUE WELL ID
 DICO. A2D Technologies, Inc.:   DIGITIZING COMPANY
~OTHER INFORMATION
~A   DEPT     CALD         GRD      RHOB       DPHI       CORR   
# ...
 1042.0000     8.4854    83.7924     2.5014     0.0290     0.0345
 1042.5000     8.4854    84.3775     2.4806     0.0418     0.0186
 1043.0000     8.4924    86.6945     2.4880     0.0411     0.0171
 1043.5000     8.5048    89.0302     2.5008     0.0369     0.0301
 1044.0000     8.4947    90.7483     2.5128     0.0302     0.0430
 1044.5000     8.4819    88.4915     2.5124     0.0237     0.0557
 1045.0000     8.4688    86.1837     2.4945     0.0356     0.0587
 1045.5000     8.4688    87.4011     2.4712     0.0490     0.0552
 1046.0000     8.4891    86.9904     2.4476     0.0625     0.0508
 1046.5000     8.5096    85.0353     2.4239     0.0759     0.0489
 1047.0000     8.5304    83.1564     2.4003     0.0893     0.0474
 1047.5000     8.5659    82.4172     2.3964     0.0944     0.0495
 1048.0000     8.5230    81.3280     2.4063     0.0940     0.0494
 1048.5000     8.4664    78.5162     2.4173     0.0843     0.0453
 1049.0000     8.4104    75.7786     2.4281     0.0741     0.0382
 1049.5000     8.3823    73.0467     2.4390     0.0677     0.0310
 1050.0000     8.4532    70.4001     2.4499     0.0649     0.0232
 1050.5000     8.5203    70.4988     2.4608     0.0620     0.0150
 1051.0000     8.5636    71.5355     2.4717     0.0559     0.0235
 1051.5000     8.5645    74.6797     2.4761     0.0499     0.0323
 1052.0000     8.5424    79.3581     2.4678     0.0491     0.0358
 1052.5000     8.5726    81.9032     2.4647     0.0549     0.0351
 1053.0000     8.6125    79.9194     2.4730     0.0580     0.0355
 1053.5000     8.6533    77.3859     2.4844     0.0421     0.0491
 1054.0000     8.6943    79.5509     2.4958     0.0370     0.0638
 1054.5000     8.7348    80.2334     2.5034     0.0347     0.0785
 1055.0000     8.7387    79.6269     2.5041     0.0325     0.0931
 1055.5000     8.7121    78.9995     2.4907     0.0301     0.1065
 1056.0000     8.6371    78.8261     2.4602     0.0447     0.0871
 1056.5000     8.5627    80.5444     2.4299     0.0640     0.0603
 1057.0000     8.4882    81.5525     2.4244     0.0743     0.0329
 1057.5000     8.4144    80.8345     2.4427     0.0649     0.0254
 1058.0000     8.3673    82.2195     2.4765     0.0443     0.0358
 1058.5000     8.3921    84.3729     2.5101     0.0181     0.0475
 1059.0000     8.4209    83.6560     2.5300     0.0160     0.0494
 1059.5000     8.4457    84.1504     2.5319     0.0137     0.0494
 1060.0000     8.4652    86.2983     2.5332     0.0120     0.0479
 1060.5000     8.4658    87.9077     2.5331     0.0112     0.0432
 1061.0000     8.4659    86.5982     2.5287     0.0141     0.0385
 1061.5000     8.4659    85.1816     2.5242     0.0171     0.0339
 1062.0000     8.4659    86.7623     2.5196     0.0201     0.0292
 1062.5000     8.4659    88.8648     2.5151     0.0221     0.0247
 1063.0000     8.4659    90.9762     2.5105     0.0226     0.0190
 1063.5000     8.4659    93.0857     2.5071     0.0253     0.0151
 1064.0000     8.4659    93.4916     2.5113     0.0267     0.0131
 1064.5000     8.4659    91.8596     2.5156     0.0244     0.0131
 1065.0000     8.4659    90.2266     2.5198     0.0220     0.0149
 1065.5000     8.4659    88.5919     2.5229     0.0201     0.0174
 1066.0000     8.4659    86.9621     2.5137     0.0212     0.0198
 1066.5000     8.4659    85.2930     2.5047     0.0235     0.0216
 1067.0000     8.4659    84.3421     2.5087     0.0259     0.0252
 1067.5000     8.4658    84.1852     2.5139     0.0269     0.0223
 1068.0000     8.4654    84.0652     2.5168     0.0247     0.0192
 1068.5000     8.4809    84.4725     2.5066     0.0221     0.0170
 1069.0000     8.4979    85.8461     2.4956     0.0314     0.0171
 1069.5000     8.5153    87.2118     2.4930     0.0346     0.0172
 1070.0000     8.5199    88.5409     2.4964     0.0333     0.0193
 1070.5000     8.4999    89.9805     2.5001     0.0322     0.0217
 1071.0000     8.4931    90.7819     2.5039     0.0319     0.0240
 1071.5000     8.4870    93.2534     2.5057     0.0315     0.0251
 1072.0000     8.4808    96.2087     2.5022     0.0311     0.0225
 1072.5000     8.4746    94.5421     2.5009     0.0302     0.0187
 1073.0000     8.4683    93.6143     2.5063     0.0288     0.0149
 1073.5000     8.4621    92.7407     2.5140     0.0275     0.0113
 1074.0000     8.4559    91.5404     2.5124     0.0269     0.0075
 1074.5000     8.4496    89.4090     2.4966     0.0286     0.0037
 1075.0000     8.4467    87.2906     2.4808     0.0358     0.0000
 1075.5000     8.4538    85.1203     2.4663     0.0449    -0.0039
 1076.0000     8.4606    84.3776     2.4745     0.0515    -0.0047
 1076.5000     8.4674    85.1551     2.4862     0.0483    -0.0011
 1077.0000     8.4742    87.1314     2.4825     0.0419     0.0026
 1077.5000     8.4810    89.1664     2.4724     0.0472     0.0031
 1078.0000     8.4878    89.3141     2.4624     0.0541     0.0025
 1078.5000     8.4945    88.6922     2.4523     0.0592     0.0013
 1079.0000     8.5013    88.4252     2.4434     0.0634     0.0001
 1079.5000     8.5081    89.5824     2.4450     0.0653    -0.0016
 1080.0000     8.5149    89.2995     2.4531     0.0643    -0.0052
 1080.5000     8.5217    87.3509     2.4611     0.0597    -0.0051
 1081.0000     8.5242    85.4129     2.4676     0.0551    -0.0050
 1081.5000     8.5236    84.2565     2.4688     0.0513    -0.0050
 1082.0000     8.5229    87.9427     2.4688     0.0524    -0.0050
 1082.5000     8.5222    90.8814     2.4691     0.0513    -0.0050
 1083.0000     8.5215    88.0350     2.4726     0.0500    -0.0050
 1083.5000     8.5208    84.5068     2.4755     0.0487    -0.0050
 1084.0000     8.5202    80.8396     2.4782     0.0473    -0.0050
 1084.5000     8.5195    80.3677     2.4776     0.0460    -0.0050
 1085.0000     8.5188    83.5113     2.4759     0.0463    -0.0050
 1085.5000     8.5181    86.6944     2.4767     0.0476    -0.0050
 1086.0000     8.5174    89.6217     2.4863     0.0432    -0.0050
 1086.5000     8.5168    88.1386     2.4967     0.0364    -0.0050
 1087.0000     8.5161    86.7199     2.5048     0.0318    -0.0050
 1087.5000     8.5154    89.5921     2.4906     0.0346    -0.0050
 1088.0000     8.5147    93.1641     2.4851     0.0386    -0.0050
 1088.5000     8.5140    89.6256     2.4958     0.0340    -0.0050
 1089.0000     8.5134    88.7526     2.5090     0.0296    -0.0050
 1089.5000     8.5127    89.9921     2.5174     0.0253    -0.0050
 1090.0000     8.5120    93.1968     2.5079     0.0230    -0.0050
 1090.5000     8.5113    93.1995     2.4998     0.0318    -0.0051
 1091.0000     8.5106    91.0079     2.5001     0.0318    -0.0050
 1091.5000     8.5100    93.6151     2.5088     0.0306    -0.0015
 1092.0000     8.5093    95.5277     2.5183     0.0266     0.0022
 1092.5000     8.5086    93.1608     2.5277     0.0209     0.0059
 1093.0000     8.5079    90.2082     2.5371     0.0152     0.0097
 1093.5000     8.5073    89.6128     2.5464     0.0094     0.0134
 1094.0000     8.5066    91.4672     2.5531     0.0037     0.0171
 1094.5000     8.5059    93.3578     2.5530     0.0011     0.0161
 1095.0000     8.5052    93.8687     2.5405     0.0071     0.0148
 1095.5000     8.5049    90.9066     2.5282     0.0141     0.0133
 1096.0000     8.5049    90.4302     2.5191     0.0202     0.0109
 1096.5000     8.5049    91.1542     2.5244     0.0185     0.0111
 1097.0000     8.5049    91.8495     2.5313     0.0145     0.0116
 1097.5000     8.5049    92.3022     2.5383     0.0120     0.0140
 1098.0000     8.5049    89.2203     2.5452     0.0084     0.0163
 1098.5000     8.5049    87.6818     2.5521     0.0039     0.0187
 1099.0000     8.5049    90.0875     2.5522    -0.0005     0.0170
 1099.5000     8.5049    86.0323     2.5473    -0.0005     0.0135
 1100.0000     8.5049    84.8191     2.5359     0.0047     0.0099
 1100.5000     8.5049    91.4319     2.5245     0.0115     0.0063
 1101.0000     8.5049    93.3975     2.5131     0.0181     0.0027
 1101.5000     8.5049    92.2929     2.5018     0.0246    -0.0009
 1102.0000     8.5049    89.4487     2.4904     0.0312    -0.0045
 1102.5000     8.5049    86.9195     2.4787     0.0377    -0.0082
