~VERSION INFORMATION
 VERS.                2.0:   CWLS LOG ASCII STANDARD - VERSION 2.0
 WRAP.                 NO:   ONE LINE PER DEPTH STEP
~WELL INFORMATION
#MNEM.UNIT      DATA TYPE    INFORMATION
#----------   ------------   ------------------------------
 STRT.F            0.0000:   START DEPTH
 STOP.F          547.0000:   STOP DEPTH
 STEP.F            0.1000:   STEP LENGTH
 NULL.          -999.2500:   NO VALUE
 COMP.     BROWN JOHN E&C:   COMPANY
 WELL.    NPR 3 #86-1-X-3:   WELL
 FLD .             TEAPOT:   FIELD
 LOC .       S3 T38N R78W:   LOCATION
 CNTY.            NATRONA:   COUNTY
 STAT.            WYOMING:   STATE
 CTRY. UNITED STATES OF AMERICA:   COUNTRY
 SRVC.     Atlas Wireline:   SERVICE COMPANY
 DATE.        09-FEB-1992:   LOGDATE
 API .       490252249800:   API NUMBER
~CURVE INFORMATION
#MNEM.UNIT       API CODE    CURVE DESCRIPTION
#----------   ------------   ------------------------------
 DEPT.F                  :   
 GRR .GAPI   07 310 01 00:   GAMMA RAY
 RFOC.OHMM   07 220 04 00:   RESISTIVITY FOCUSED LOG
 RILD.OHMM   07 120 46 00:   INDUCTION LOG DEEP RESISTIVITY
 RILM.OHMM   07 120 44 00:   INDUCTION LOG MEDIUM RESISTIVITY
 SPR .MV     07 010 01 00:   SPONTANEOUS POTENTIAL
~PARAMETER INFORMATION
#MNEM.UNIT          VALUE    DESCRIPTION
#----------   ------------   ------------------------------
 PD  .                 GL:   PERMANENT DATUM
 EPD .F              5145:   ELEVATION PERMANENT DATUM
 LMF .                 KB:   LOG MEASURED FROM
 DAPD.F                10:   FEET ABOVE PERMANENT DATUM
 DMF .                 KB:   DRILLING MEASURED FROM
 EKB .F              5155:   KELLING BUSHING
 EDF .F              5154:   DRILLING FLOOR
 EGL .F              5145:   GROUND LEVEL
 DATE.        09-FEB-1992:   RUN DATE
 RUN .                  1:   RUN NUMBER
 DD  .F               562:   DEPTH DRILLER
 DL  .F               550:   DEPTH LOGGER
 BLI .F               547:   BOTTOM LOG INTERVAL
 CS  .IN            8.625:   CASING SIZE
 CBD .F               183:   CASING BOTTOM DRILLER
 CBL .F               181:   CASING BOTTOM LOGGER
 BS  .IN            7.875:   BIT SIZE
 BSD .F               562:   BIT SIZE AT DEPTH
 DFT .            GEL BAR:   DRILLING FLUID TYPE
 DFD .               17.8:   DRILLING FLUID DENSITY
 DFV .                 52:   DRILLING FLUID VISCOSITY
 DFPH.                  9:   DRILLING FLUID PH
 DFL .                5.2:   DRILLING FLUID LOSS
 MSS .           FLOWLINE:   MUD SAMPLE SOURCE
 RMS .OHMM           1.78:   RESISTIVITY MUD SAMPLE
 MST .F                68:   MUD SAMPLE TEMPERATURE
 RMF .OHMM          1.335:   RESISTIVITY MUD FILTRATE SAMPLE
 MFST.F                68:   MUD FILTRATE SAMPLE TEMPERATURE
 RMC .OHMM          2.225:   RESISTIVITY MUD CAKE
 MCST.F                68:   MUD CAKE SAMPLE TEMPERATURE
 MFSS.               MEAS:   MUD FILTRATE SAMPLE SOURCE
 MCSS.               MEAS:   MUD CAKE SAMPLE SOURCE
 TCS .HRS               3:   TIME CURCULATED STOPPED
 LUN .            HL 6274:   LOGGING UNIT NUMBER
 LUL .             CASPER:   LOGGING UNIT LOCATION
 ENGI.       P. RASMUSSEN:   RECORDING ENGINEER
 WITN.          G. STRONG:   WITNESSED BY
 CLNT.            A2DTECH:   CLIENT CODE
 ORIG.           5" PRINT:   ORIGIN OF DATA
 UWI .       490252249800:   UNIQUE WELL ID
 DICO. A2D Technologies, Inc.:   DIGITIZING COMPANY
~OTHER INFORMATION
~A    DEPT      GRR      RFOC       RILD       RILM        SPR   
# ...
  305.0000   105.8055     7.7212     7.7157     6.9292   -25.6383
  305.1000   104.4041     7.7559     7.7153     6.9289   -25.7738
  305.2000   102.0203     7.7758     7.7150     6.9286   -25.8898
  305.3000    99.7222     7.7928     7.7147     6.9244   -26.0155
  305.4000    98.7514     7.8307     7.7143     6.8798   -26.1412
  305.5000    97.9727     7.8309     7.7140     6.8795   -26.2249
  305.6000    97.7265     7.7867     7.7137     6.8792   -26.2237
  305.7000    97.2760     7.7769     7.7134     6.8998   -26.2224
  305.8000    97.0663     7.7771     7.7131     6.9268   -26.2213
  305.9000    97.0681     7.7598     7.7127     6.9266   -26.2201
  306.0000    97.2158     7.7233     7.7124     6.9262   -26.2188
  306.1000    97.9836     7.7236     7.7121     6.9260   -26.2176
  306.2000    98.7441     7.7238     7.7118     6.9257   -26.2164
  306.3000    99.5082     7.7240     7.7115     6.9254   -26.2151
  306.4000   100.2722     7.6972     7.6997     6.9251   -26.2140
  306.5000   101.1397     7.6707     7.6571     6.9248   -26.2128
  306.6000   102.0510     7.6615     7.6567     6.9245   -26.2116
  306.7000   102.5719     7.6178     7.6565     6.9242   -26.2103
  306.8000   104.0757     7.6180     7.6263     6.9239   -26.2091
  306.9000   105.3246     7.5819     7.5815     6.9237   -26.2079
  307.0000   106.2189     7.5654     7.5370     6.9076   -26.3293
  307.1000   106.9454     7.5469     7.4927     6.8749   -26.3574
  307.2000   107.8468     7.5132     7.4438     6.8746   -26.4288
  307.3000   108.3483     7.5134     7.4435     6.8743   -26.5070
  307.4000   108.6459     7.5136     7.3833     6.8416   -26.5283
  307.5000   108.6474     7.5138     7.2972     6.8014   -26.6565
  307.6000   108.6492     7.5140     7.2247     6.7614   -26.9042
  307.7000   108.5380     7.5142     7.1733     6.7307   -27.0574
  307.8000   108.2857     7.5144     7.0373     6.7276   -27.2575
  307.9000   108.0201     7.5146     6.9256     6.6367   -27.4609
  308.0000   107.4410     7.5149     6.8620     6.5715   -27.5866
  308.1000   106.7896     7.5151     6.8011     6.4948   -27.7131
  308.2000   105.8615     7.5153     6.7344     6.3852   -27.9643
  308.3000   105.0828     7.5155     6.6948     6.2370   -28.1158
  308.4000   104.7125     7.5157     6.6530     6.0922   -28.2415
  308.5000   104.7325     7.5128     6.5804     5.9337   -28.3161
  308.6000   105.0203     7.4638     6.5318     5.8730   -28.3410
  308.7000   105.2444     7.4640     6.4935     5.7587   -28.4657
  308.8000   105.5003     7.4054     6.4422     5.6411   -28.4642
  308.9000   105.8790     7.3402     6.3728     5.5426   -28.4632
  309.0000   106.3161     7.2856     6.3338     5.4523   -28.5400
  309.1000   106.5720     7.1974     6.3336     5.4174   -28.6128
  309.2000   106.8549     7.0595     6.3051     5.3599   -28.6115
  309.3000   106.8565     6.8785     6.2889     5.3195   -28.6103
  309.4000   107.2133     6.7080     6.2750     5.2883   -28.6089
  309.5000   107.4681     6.5158     6.2446     5.2673   -28.6079
  309.6000   107.5477     6.3356     6.2444     5.2671   -28.6865
  309.7000   107.7757     6.2661     6.2083     5.2669   -28.7574
  309.8000   107.7777     6.2267     6.1719     5.2667   -28.7562
  309.9000   108.0116     6.1938     6.1569     5.2897   -28.7502
  310.0000   108.0851     6.1579     6.1567     5.3031   -28.6016
  310.1000   108.2195     6.1222     6.1564     5.3256   -28.6006
  310.2000   108.3927     6.0983     6.1559     5.3773   -28.5994
  310.3000   108.3945     6.0939     6.1130     5.3770   -28.5982
  310.4000   108.3965     6.0562     6.1128     5.4077   -28.5970
  310.5000   108.3982     6.0564     6.0905     5.4392   -28.5957
  310.6000   108.5872     6.0827     6.0548     5.4899   -28.5944
  310.7000   108.7058     6.0992     6.0192     5.5543   -28.5933
  310.8000   108.7076     6.1116     5.9849     5.6194   -28.5921
  310.9000   108.7094     6.1529     5.9847     5.6852   -28.6493
  311.0000   108.7113     6.2288     5.9844     5.7642   -28.7416
  311.1000   108.7131     6.2987     5.9618     5.7917   -28.7404
  311.2000   108.7149     6.5461     5.9423     5.8254   -28.7390
  311.3000   108.7167     6.7238     5.9333     5.8593   -28.7380
  311.4000   108.6262     6.7884     5.9004     5.8853   -28.7368
  311.5000   108.4161     6.8283     5.9001     5.8850   -28.7356
  311.6000   108.4183     6.8696     5.8703     5.8847   -28.7343
  311.7000   108.0499     6.9089     5.8359     5.8845   -28.7434
  311.8000   107.6705     6.9496     5.8175     5.8843   -28.8837
  311.9000   107.0704     6.9904     5.8080     5.8681   -28.8827
  312.0000   106.3099     7.0316     5.7739     5.8336   -29.1428
  312.1000   105.5969     7.0652     5.7360     5.7993   -29.6467
  312.2000   105.0857     7.0654     5.7358     5.7613   -30.0948
  312.3000   104.3326     7.1066     5.7125     5.7314   -30.0936
  312.4000   104.1775     7.1153     5.6954     5.7208   -30.0923
  312.5000   104.1793     7.1155     5.6853     5.6875   -30.0912
  312.6000   104.2833     7.1324     5.6553     5.6210   -30.0900
  312.7000   104.5915     7.1658     5.6550     5.5589   -30.0888
  312.8000   105.1040     7.1660     5.6249     5.5235   -30.0875
  312.9000   106.0107     7.1662     5.6152     5.4645   -30.0863
  313.0000   106.6323     7.1664     5.6149     5.4007   -30.0850
  313.1000   107.5532     7.1666     5.6042     5.3212   -30.0839
  313.2000   108.4644     7.1668     5.5754     5.2182   -30.0827
  313.3000   109.2285     7.1576     5.5751     5.1013   -30.0157
  313.4000   110.0000     7.1161     5.5749     5.0079   -29.9283
  313.5000   111.1888     7.0680     5.5747     4.8978   -29.9114
  313.6000   111.4018     6.9999     5.5744     4.7635   -29.7738
  313.7000   111.9812     6.9189     5.5742     4.6714   -29.6550
  313.8000   112.5216     6.7532     5.5740     4.6169   -29.6195
  313.9000   112.7775     6.4736     5.5737     4.5723   -29.6182
  314.0000   113.0213     6.1772     5.6048     4.5721   -29.5745
  314.1000   113.0234     5.8545     5.6124     4.5720   -29.4638
  314.2000   113.0249     5.7116     5.6121     4.5930   -29.4625
  314.3000   113.0268     5.4048     5.6241     4.6198   -29.4614
  314.4000   113.0286     5.1177     5.6510     4.6578   -29.4602
  314.5000   113.0304     4.9562     5.6508     4.7065   -29.4590
  314.6000   113.0322     4.8417     5.6505     4.7344   -29.4578
  314.7000   113.0343     4.7157     5.6763     4.7997   -29.4372
  314.8000   112.8146     4.7159     5.7094     4.8228   -29.3033
  314.9000   112.5623     4.7160     5.7293     4.8871   -29.3021
  315.0000   112.1885     4.7293     5.7358     4.9478   -29.3009
  315.1000   111.6104     4.7651     5.7690     4.9910   -29.2285
  315.2000   110.8500     4.8261     5.7687     5.0760   -29.1465
  315.3000   110.0057     4.9528     5.7645     5.1098   -29.1241
  315.4000   109.5551     5.1106     5.7592     5.1873   -28.9921
  315.5000   108.6961     5.3151     5.7539     5.2584   -28.9909
  315.6000   107.6814     5.5535     5.7486     5.3201   -28.9897
  315.7000   106.3605     5.8081     5.7433     5.3736   -28.9154
  315.8000   104.3828     6.0576     5.7381     5.4076   -28.8353
  315.9000   102.7217     6.4140     5.7328     5.4780   -28.8570
  316.0000   101.7995     6.6942     5.7267     5.5353   -28.9848
  316.1000   101.3283     6.8974     5.7265     5.6003   -28.9836
  316.2000   101.3386     7.1041     5.7262     5.6491   -29.0823
  316.3000   101.5945     7.3013     5.7411     5.6820   -29.2829
  316.4000   101.8820     7.3871     5.7659     5.7112   -29.4857
  316.5000   102.4287     7.4803     5.7677     5.7109   -29.6363
  316.6000   102.6663     7.4805     5.8058     5.7729   -29.8894
  316.7000   102.9222     7.4807     5.8647     5.8156   -29.8879
  316.8000   103.4505     7.4576     5.9334     5.8681   -29.8869
  316.9000   104.1283     7.4144     6.0030     5.9490   -29.8857
  317.0000   104.7479     7.3714     6.0833     6.0485   -29.8845
  317.1000   106.0870     7.3265     6.1906     6.1224   -29.9099
