~VERSION INFORMATION
 VERS.                2.0:   CWLS LOG ASCII STANDARD - VERSION 2.0
 WRAP.                 NO:   ONE LINE PER DEPTH STEP
~WELL INFORMATION
#MNEM.UNIT      DATA TYPE    INFORMATION
#----------   ------------   ------------------------------
 STRT.F            7.0000:   START DEPTH
 STOP.F          549.0000:   STOP DEPTH
 STEP.F            0.5000:   STEP LENGTH
 NULL.          -999.2500:   NO VALUE
 COMP. LAWRENCE-ALLISON &AS:   COMPANY
 WELL. NPR 3 #51-62-SX-10-LP3:   WELL
 FLD .             TEAPOT:   FIELD
 LOC .      S10 T38N R78W:   LOCATION
 CNTY.            NATRONA:   COUNTY
 STAT.            WYOMING:   STATE
 CTRY. UNITED STATES OF AMERICA:   COUNTRY
 SRVC.      Dresser Atlas:   SERVICE COMPANY
 DATE.        10-DEC-1984:   LOGDATE
 API .       490251099500:   API NUMBER
~CURVE INFORMATION
#MNEM.UNIT       API CODE    CURVE DESCRIPTION
#----------   ------------   ------------------------------
 DEPT.F                  :   
 SPR .MV     07 010 01 00:   SPONTANEOUS POTENTIAL
 RILD.OHMM   07 120 46 00:   INDUCTION LOG DEEP RESISTIVITY
 RILM.OHMM   07 120 44 00:   INDUCTION LOG MEDIUM RESISTIVITY
 RFOC.OHMM   07 220 04 00:   RESISTIVITY FOCUSED LOG
 DT  .US/F   60 520 00 00:   INTERVAL TRANSIT TIME
 PORD.DEC    45 890 12 00:   POROSITY DENSITY SANDSTONE
 CNCF.DEC    42 890 03 00:   NEUTRON POROSITY SANDSTONE
 CALD.IN     45 280 60 00:   CALIPER FROM DENSITY LOG
 GRD .GAPI   45 310 01 00:   GAMMA RAY FROM DENSITY LOG
 CORR.G/C3   45 356 01 00:   DENSITY CORRECTION
 DEN .G/C3   45 350 01 00:   COMPENSATED BULK DENSTIY
~PARAMETER INFORMATION
#MNEM.UNIT          VALUE    DESCRIPTION
#----------   ------------   ------------------------------
 PD  .                 GL:   PERMANENT DATUM
 EPD .F              5179:   ELEVATION PERMANENT DATUM
 LMF .                 GL:   LOG MEASURED FROM
 DMF .                 GL:   DRILLING MEASURED FROM
 EGL .F              5179:   GROUND LEVEL
 DATE.        10-DEC-1984:   RUN DATE
 RUN .                  1:   RUN NUMBER
 DD  .F               554:   DEPTH DRILLER
 DL  .F               551:   DEPTH LOGGER
 BLI .F               549:   BOTTOM LOG INTERVAL
 TLI .F                20:   TOP LOG INTERVAL
 CS  .IN            8.625:   CASING SIZE
 CBD .F                20:   CASING BOTTOM DRILLER
 CBL .F                20:   CASING BOTTOM LOGGER
 BS  .IN            7.875:   BIT SIZE
 BSD .F               554:   BIT SIZE AT DEPTH
 DFT .         KCL- WATER:   DRILLING FLUID TYPE
 MSS .           MUD TANK:   MUD SAMPLE SOURCE
 RMS .OHMM           .168:   RESISTIVITY MUD SAMPLE
 MST .F                77:   MUD SAMPLE TEMPERATURE
 RMF .OHMM           .126:   RESISTIVITY MUD FILTRATE SAMPLE
 MFST.F                77:   MUD FILTRATE SAMPLE TEMPERATURE
 RMC .OHMM            .21:   RESISTIVITY MUD CAKE
 MCST.F                77:   MUD CAKE SAMPLE TEMPERATURE
 MFSS.               CALC:   MUD FILTRATE SAMPLE SOURCE
 MCSS.               CALC:   MUD CAKE SAMPLE SOURCE
 RMB .OHMM            .15:   RESISTIVITY MUD AT BHT
 BHT .F                85:   BOTTOM HOLE TEMPERATURE
 TCS .HRS             3.5:   TIME CURCULATED STOPPED
 MRT .F               100:   MAXIMUM RECORDED TEMPERATURE
 LUN .               6270:   LOGGING UNIT NUMBER
 LUL .                 FM:   LOGGING UNIT LOCATION
 ENGI.          E. GOVETT:   RECORDING ENGINEER
 WITN.             GROOMS:   WITNESSED BY
 CLNT.            A2DTECH:   CLIENT CODE
 ORIG.           5" PRINT:   ORIGIN OF DATA
 UWI .       490251099500:   UNIQUE WELL ID
 DICO. A2D Technologies, Inc.:   DIGITIZING COMPANY
~OTHER INFORMATION
~A    DEPT     SPR       RILD       RILM       RFOC         DT       PORD         CNCF     CALD        GRD       CORR        DEN   
# ...
  159.5000   -60.5415     8.5545     7.0567     8.9776   101.2579     0.1109     0.2719     7.6709    99.3480     0.0063     2.4913
  160.0000   -60.4142     8.5574     6.9614     9.0444   101.9349     0.1225     0.2732     7.6696    98.1346     0.0002     2.4838
  160.5000   -60.4083     8.6199     6.9145     9.1117   102.4536     0.1319     0.2711     7.6683    96.9213    -0.0028     2.4612
  161.0000   -60.4024     8.6829     6.8682     9.1794   102.8270     0.1352     0.2702     7.6669    98.4147     0.0048     2.4514
  161.5000   -60.3965     8.6859     6.8222     9.2477   102.8867     0.1328     0.2699     7.6656   100.5096    -0.0014     2.4506
  162.0000   -60.5404     8.6889     6.7298     9.2522   102.8050     0.1292     0.2711     7.6957    98.6948    -0.0015     2.4613
  162.5000   -61.1265     8.5723     6.5476     9.1917   102.7246     0.1247     0.2751     7.7080    98.6842     0.0000     2.4696
  163.0000   -61.5672     8.3408     6.3701     9.0071   102.5690     0.1211     0.2829     7.7064   100.0731     0.0165     2.4755
  163.5000   -61.8580     8.0039     6.1973     8.7653   102.4886     0.1220     0.2893     7.7050   100.3179     0.0587     2.4732
  164.0000   -62.1473     7.6805     6.0712     8.4721   102.7089     0.1199     0.2990     7.7037    96.2448     0.0692     2.4763
  164.5000   -62.2912     7.3703     5.9065     7.9641   103.3052     0.1184     0.2984     7.7024    95.7833     0.0435     2.4793
  165.0000   -62.4337     6.8792     5.5894     7.6437   103.9767     0.1196     0.2924     7.7010    96.2241     0.0224     2.4823
  165.5000   -62.4263     6.3765     5.2527     7.2855   104.7986     0.1221     0.2915     7.6997    97.4168     0.0088     2.4755
  166.0000   -62.4204     5.9105     5.0052     7.0410   105.6204     0.1257     0.3009     7.6984    99.9628     0.0238     2.4710
  166.5000   -62.5643     5.3658     4.7694     6.8047   106.3671     0.1269     0.3039     7.7124    98.5991     0.0418     2.4672
  167.0000   -62.7067     4.7054     4.4821     6.4411   107.1889     0.1290     0.3103     7.7108    97.3857     0.0297     2.4635
  167.5000   -62.9961     4.5154     4.1369     6.1819   108.2363     0.1321     0.3194     7.7094    93.7664     0.0222     2.4582
  168.0000   -62.9902     3.9872     3.4051     5.9332   109.5845     0.1355     0.3267     7.7081    95.4101     0.0010     2.4484
  168.5000   -63.1341     3.2175     3.0710     5.2768   111.4590     0.1414     0.3227     7.7225   100.8133     0.0115     2.4401
  169.0000   -63.2765     2.8609     2.5870     4.5966   113.5590     0.1544     0.3212     7.7505   104.1113     0.0235     2.4273
  169.5000   -63.4190     2.5793     2.4200     4.0882   115.6591     0.1667     0.3433     7.7488   103.2725     0.0295     2.4092
  170.0000   -63.7083     2.5094     2.3731     3.1006   118.5862     0.1896     0.3905     7.7629    96.7919     0.0295     2.3647
  170.5000   -64.0006     2.4757     2.3736     3.0379   124.7464     0.2083     0.4111     7.7912    95.9573     0.0294     2.3376
  171.0000   -64.1431     2.4595     2.4275     2.9976   129.9292     0.2306     0.4374     7.8199    95.0447     0.0340     2.2829
  171.5000   -64.1357     2.5297     2.7363     3.1051   134.3600     0.2587     0.4571     7.8186    93.0795     0.0401     2.2339
  172.0000   -63.6846     2.8078     3.1857     4.3617   136.1593     0.2876     0.4356     7.8173    86.3022     0.0474     2.1972
  172.5000   -63.2336     3.3171     3.6346     5.1887   133.7481     0.2873     0.3924     7.8009    85.9937     0.0368     2.2005
  173.0000   -62.7826     3.8381     4.3484     5.4869   128.1577     0.2753     0.3586     7.7546    88.2364     0.0201     2.2404
  173.5000   -62.3316     4.7596     4.9572     5.8580   123.2540     0.2247     0.3320     7.7532    92.2862     0.0156     2.3105
  174.0000   -61.8805     5.3565     5.4588     7.0347   117.4158     0.1909     0.3036     7.7369    95.2834     0.0216     2.3708
  174.5000   -61.4295     5.7828     5.6900     7.5034   112.5234     0.1687     0.2997     7.7205    95.4260     0.0291     2.3919
  175.0000   -60.9785     6.1146     5.8505     7.5070   109.8866     0.1551     0.2918     7.6892    95.8642     0.0260     2.4213
  175.5000   -60.5275     6.5557     5.8924     7.5106   108.4528     0.1413     0.2934     7.6879    97.3576     0.0229     2.4401
  176.0000   -60.5215     6.9318     5.8936     7.3596   107.3949     0.1320     0.3215     7.6865   102.0089     0.0229     2.4574
  176.5000   -60.6640     7.1291     5.8949     7.3124   107.8408     0.1320     0.3273     7.6849   106.5682     0.0274     2.4612
  177.0000   -60.8079     7.1812     5.9371     7.3669   108.4371     0.1335     0.3200     7.6835   111.0616     0.0349     2.4582
  177.5000   -61.0987     7.0359     5.9796     7.4794   108.7327     0.1404     0.3076     7.6822   111.4516     0.0454     2.4484
  178.0000   -61.2412     6.7516     6.0224     7.6926   108.6523     0.1416     0.3019     7.6809   108.5815     0.0287     2.4401
  178.5000   -61.0854     6.1295     5.9821     7.8031   108.2711     0.1404     0.3004     7.6646   102.5561     0.0240     2.4431
  179.0000   -61.2293     5.5646     5.5830     7.9153   107.8148     0.1332     0.3051     7.6632   101.9443     0.0332     2.4521
  179.5000   -61.2219     5.2663     5.2467     7.9693   107.5088     0.1260     0.3236     7.6619   102.6858     0.0452     2.4612
  180.0000   -61.3659     5.2682     4.8967     7.8526   107.2028     0.1254     0.3618     7.6606   109.1416     0.0542     2.4681
  180.5000   -61.6567     5.1975     4.6338     5.8705   108.7014     0.1294     0.3821     7.6592   107.7779     0.0540     2.4695
  181.0000   -61.7991     5.0571     4.5710     5.4154   109.8992     0.1357     0.4054     7.6729   107.7676     0.0464     2.4575
  181.5000   -61.9416     4.9201     4.5720     5.6900   112.7511     0.1456     0.3982     7.6716   107.9076     0.0390     2.4348
  182.0000   -62.2309     4.8878     4.6047     5.9736   114.1774     0.1622     0.3565     7.6703   112.1078     0.0389     2.4069
  182.5000   -62.2250     4.9240     4.6376     5.9754   115.1467     0.1622     0.3390     7.6690   112.7065     0.0359     2.4099
  183.0000   -62.3689     4.9944     4.7033     5.8554   114.2196     0.1541     0.3296     7.6675   107.1247     0.0313     2.4220
  183.5000   -62.3615     5.1011     4.8364     5.9812   113.5293     0.1517     0.3324     7.6660   101.3681     0.0222     2.4303
  184.0000   -62.3556     5.3565     4.9733     6.5933   112.5263     0.1574     0.3366     7.6646    98.8331     0.0387     2.4160
  184.5000   -62.3497     5.8231     5.2214     6.9723   111.5155     0.1575     0.3306     7.6633    99.0467     0.0492     2.4152
  185.0000   -62.3438     6.0305     5.4819     7.0730   110.8336     0.1527     0.3230     7.6620   102.2687     0.0356     2.4220
  185.5000   -62.3378     6.2452     5.9170     6.8831   110.0765     0.1469     0.3052     7.6607   105.2659     0.0281     2.4310
  186.0000   -62.1836     6.7892     6.3426     7.2787   108.9435     0.1409     0.2934     7.6593   108.4134     0.0220     2.4371
  186.5000   -61.8809     7.1291     6.7519     8.0794   107.3593     0.1358     0.2852     7.6734   106.4482     0.0159     2.4431
  187.0000   -61.5783     7.3831     6.8951     8.3104   106.0759     0.1288     0.2810     7.6717   104.7837     0.0113     2.4635
  187.5000   -61.5723     7.5932     6.8965     8.3722   104.5669     0.1283     0.2808     7.6855   104.0215     0.0038     2.4642
  188.0000   -61.4180     7.7554     6.8980     8.4345   103.9602     0.1283     0.2829     7.6991   102.9585     0.0007     2.4642
  188.5000   -61.4121     7.9211     6.8518     8.5563   103.7294     0.1274     0.2827     7.7128   101.7451     0.0037     2.4672
  189.0000   -61.2578     7.9789     6.8056     8.6199   103.6490     0.1232     0.2860     7.7264   101.5844     0.0217     2.4735
  189.5000   -61.2519     7.9817     6.7600     8.6241   103.6438     0.1217     0.2939     7.7401   102.9275     0.0367     2.4763
