~VERSION INFORMATION
 VERS.                2.0:   CWLS LOG ASCII STANDARD - VERSION 2.0
 WRAP.                 NO:   ONE LINE PER DEPTH STEP
~WELL INFORMATION
#MNEM.UNIT      DATA TYPE    INFORMATION
#----------   ------------   ------------------------------
 STRT.F          436.0000:   START DEPTH
 STOP.F         2160.0000:   STOP DEPTH
 STEP.F            0.5000:   STEP LENGTH
 NULL.          -999.2500:   NO VALUE
 COMP.   FLUOR DANIEL INC:   COMPANY
 WELL. NAVAL PETROLEUM RESERVE 3 X-29 #31-29:   WELL
 FLD .            WILDCAT:   FIELD
 LOC .      S29 T39N R78W:   LOCATION
 CNTY.            NATRONA:   COUNTY
 STAT.            WYOMING:   STATE
 CTRY. UNITED STATES OF AMERICA:   COUNTRY
 SRVC.            Unknown:   SERVICE COMPANY
 DATE.        25-JUN-1995:   LOGDATE
 API .       490252272300:   API NUMBER
~CURVE INFORMATION
#MNEM.UNIT       API CODE    CURVE DESCRIPTION
#----------   ------------   ------------------------------
 DEPT.F                  :   
 ROP .FT/HR  91 810 01 00:   RAT OF DRILLING PENETRATION
 TGAS.TC/CC  91 830 01 00:   TOTAL GAS UNIT
~PARAMETER INFORMATION
#MNEM.UNIT          VALUE    DESCRIPTION
#----------   ------------   ------------------------------
 EPD .F              5058:   ELEVATION PERMANENT DATUM
 EKB .F              5068:   KELLING BUSHING
 EGL .F              5058:   GROUND LEVEL
 DATE.        25-JUN-1995:   RUN DATE
 RUN .                  1:   RUN NUMBER
 ENGI.     C.TOWER/R.HUSK:   RECORDING ENGINEER
 CLNT.            A2DTECH:   CLIENT CODE
 ORIG.           5" PRINT:   ORIGIN OF DATA
 UWI .       490252272300:   UNIQUE WELL ID
 DICO. A2D Technologies, Inc.:   DIGITIZING COMPANY
~OTHER INFORMATION
~A   DEPT        ROP     TGAS   
# ...
  922.0000     0.5263     1.2981
  922.5000     0.5263     1.3023
  923.0000     0.5357     1.3060
  923.5000     0.5357     1.2807
  924.0000     0.5357     1.1245
  924.5000     0.5357     1.1284
  925.0000     0.5263     0.9434
  925.5000     0.5357     0.9472
  926.0000     0.5545     0.9509
  926.5000     0.5639     0.9547
  927.0000     0.5639     0.9585
  927.5000     0.5733     0.9628
  928.0000     0.5827     0.9660
  928.5000     0.5827     0.9698
  929.0000     0.5733     0.9739
  929.5000     0.5639     0.9776
  930.0000     0.5639     0.9811
  930.5000     0.5639     0.9849
  931.0000     0.5639     0.9887
  931.5000     0.5639     0.9925
  932.0000     0.5733     0.9962
  932.5000     0.5733     1.0000
  933.0000     0.5827     1.0038
  933.5000     0.5827     1.0075
  934.0000     0.8110     1.0117
  934.5000     0.8365     1.0154
  935.0000     0.8177     1.0189
  935.5000     0.7895     1.0226
  936.0000     0.7895     1.0264
  936.5000     0.7895     1.0302
  937.0000     0.7895     0.8453
  937.5000     0.7895     0.6604
  938.0000     0.7981     0.6642
  938.5000     0.7950     0.6685
  939.0000     0.7920     0.6722
  939.5000     0.7889     0.6759
  940.0000     0.7858     0.6796
  940.5000     0.7827     0.6830
  941.0000     0.7796     0.6868
  941.5000     0.7766     0.6907
  942.0000     0.7735     0.6943
  942.5000     0.7707     0.6981
  943.0000     0.7707     0.7019
  943.5000     0.7801     0.7057
  944.0000     0.7801     0.7101
  944.5000     0.7801     0.7132
  945.0000     0.7707     0.7170
  945.5000     0.7801     0.7212
  946.0000     0.7801     0.7249
  946.5000     0.7801     0.7286
  947.0000     0.7801     0.7322
  947.5000     0.7707     0.7359
  948.0000     0.7801     0.7396
  948.5000     0.7801     0.7434
  949.0000     0.7801     0.9358
  949.5000     0.7895     0.9403
  950.0000     0.7895     0.9440
  950.5000     0.7870     0.9472
  951.0000     0.7845     1.1396
  951.5000     0.7820     1.1438
  952.0000     0.7795     1.1472
  952.5000     0.7777     1.1512
  953.0000     0.7772     1.1547
  953.5000     0.7768     1.1585
  954.0000     0.7858     1.1623
  954.5000     0.7946     1.1660
  955.0000     0.7942     1.1698
  955.5000     0.7937     1.1742
  956.0000     0.7837     1.1779
  956.5000     0.7833     1.1811
  957.0000     0.7828     1.1849
  957.5000     0.7824     1.1890
  958.0000     0.7914     1.1927
  958.5000     0.7815     1.1964
  959.0000     0.7716     1.5775
  959.5000     0.7711     1.3925
  960.0000     0.7801     1.0188
  960.5000     0.7796     0.8338
  961.0000     0.7886     0.6488
  961.5000     0.7880     0.6535
  962.0000     0.7875     0.6571
  962.5000     0.7965     0.8495
  963.0000     0.8055     1.2306
  963.5000     0.8049     1.4229
  964.0000     0.8045     1.6153
  964.5000     0.8228     1.8077
  965.0000     0.8224     1.8114
  965.5000     0.8210     2.0038
  966.0000     0.6898     2.0075
  966.5000     0.6329     1.8225
  967.0000     0.6325     1.8264
  967.5000     0.6320     1.8308
  968.0000     0.6410     1.8345
  968.5000     0.6405     1.8382
  969.0000     0.6495     2.0305
  969.5000     0.6865     2.0342
  970.0000     0.7049     2.0379
  970.5000     0.7044     1.8528
  971.0000     0.7039     1.8566
  971.5000     0.7034     1.8491
  972.0000     0.7029     0.9206
  972.5000     0.7025     0.9252
  973.0000     0.7020     0.9289
  973.5000     0.7016     1.3100
  974.0000     0.7011     1.5024
  974.5000     0.7006     1.5060
  975.0000     0.7002     1.5097
  975.5000     0.6997     1.5134
  976.0000     0.6616     1.3283
  976.5000     0.6329     1.3321
  977.0000     0.6325     1.3358
  977.5000     0.6320     1.3396
  978.0000     0.6315     1.3441
  978.5000     0.6406     1.3478
  979.0000     0.6400     1.3515
  979.5000     0.6396     1.3552
  980.0000     0.6485     1.3589
  980.5000     0.6574     1.5513
  981.0000     0.6757     1.5550
  981.5000     0.6752     1.5587
  982.0000     0.6935     1.7511
  982.5000     0.6743     1.7547
  983.0000     0.6644     1.7585
  983.5000     0.6546     1.7886
  984.0000     0.6447     1.9554
  984.5000     0.6349     1.9591
  985.0000     0.6344     1.7732
  985.5000     0.6339     1.7778
  986.0000     0.6334     1.7815
  986.5000     0.6235     1.7852
  987.0000     0.6231     1.7889
  987.5000     0.6321     1.6038
  988.0000     0.6315     1.6076
  988.5000     0.6406     1.6113
  989.0000     0.6495     1.4263
  989.5000     0.6490     1.2413
  990.0000     0.6579     1.0564
  990.5000     0.6574     1.0610
  991.0000     0.6569     1.0647
  991.5000     0.6564     1.0684
  992.0000     0.6655     1.2607
  992.5000     0.6649     1.4531
  993.0000     0.6832     1.4568
  993.5000     0.6828     1.4605
  994.0000     0.6823     1.4642
  994.5000     0.6725     1.4679
  995.0000     0.6720     1.4717
  995.5000     0.6621     1.4762
  996.0000     0.6711     1.4799
  996.5000     0.6611     1.4836
  997.0000     0.6606     1.4873
  997.5000     0.6602     1.4910
  998.0000     0.6597     1.4947
  998.5000     0.6500     1.4984
  999.0000     0.6494     1.5020
  999.5000     0.6396     1.5057
 1000.0000     0.6391     1.6981
 1000.5000     0.6295     1.5104
 1001.0000     0.6293     1.3227
 1001.5000     0.6103     1.1350
 1002.0000     0.5443     0.9509
 1002.5000     0.5442     0.7641
 1003.0000     0.5440     0.7664
 1003.5000     0.5438     0.7682
 1004.0000     0.5436     0.7698
 1004.5000     0.5434     0.7719
 1005.0000     0.5432     0.7737
 1005.5000     0.5430     0.7755
 1006.0000     0.5556     0.7774
 1006.5000     0.5615     0.7792
 1007.0000     0.5613     0.7811
 1007.5000     0.5611     0.9717
 1008.0000     0.5609     0.9739
 1008.5000     0.5513     0.9757
 1009.0000     0.5511     0.9774
 1009.5000     0.5509     0.9794
 1010.0000     0.5507     0.9813
 1010.5000     0.5411     0.9830
 1011.0000     0.5316     0.9849
 1011.5000     0.5220     0.7981
 1012.0000     0.5218     0.6113
 1012.5000     0.5216     0.6289
 1013.0000     0.5308     0.8041
 1013.5000     0.5306     0.8057
 1014.0000     0.5305     0.8604
 1014.5000     0.5397     0.9983
 1015.0000     0.5395     1.0001
 1015.5000     0.5393     1.0019
 1016.0000     0.5391     0.8151
 1016.5000     0.5389     0.8170
 1017.0000     0.5362     0.8189
 1017.5000     0.5291     0.8211
 1018.0000     0.5289     0.8229
 1018.5000     0.5287     0.8248
 1019.0000     0.5286     0.8266
 1019.5000     0.5284     0.8283
 1020.0000     0.5376     0.8302
 1020.5000     0.5374     0.8321
 1021.0000     0.5372     0.8340
 1021.5000     0.5370     0.8358
 1022.0000     0.5368     1.0264
 1022.5000     0.5366     1.0283
 1023.0000     0.5364     1.0305
 1023.5000     0.5363     1.0321
 1024.0000     0.5361     1.0341
 1024.5000     0.5359     1.0361
 1025.0000     0.5357     1.2264
 1025.5000     0.5355     1.2283
 1026.0000     0.5353     1.2302
 1026.5000     0.5352     1.2321
 1027.0000     0.5349     1.2340
 1027.5000     0.5348     1.2358
 1028.0000     0.5346     1.2380
 1028.5000     0.5344     1.2398
 1029.0000     0.5342     1.0525
 1029.5000     0.5340     1.0548
 1030.0000     0.4022     1.0567
 1030.5000     0.4020     1.0585
 1031.0000     0.4019     1.0604
 1031.5000     0.4017     1.0623
 1032.0000     0.4015     1.0645
 1032.5000     0.4013     1.0663
 1033.0000     0.4011     1.0679
 1033.5000     0.4107     1.0700
 1034.0000     0.4196     1.0717
 1034.5000     0.4287     1.0736
 1035.0000     0.4285     1.2642
 1035.5000     0.4284     1.2660
 1036.0000     0.4282     1.2679
 1036.5000     0.4280     1.0811
 1037.0000     0.4278     1.0833
 1037.5000     0.4276     1.0852
 1038.0000     0.4274     1.0868
 1038.5000     0.4272     1.0887
 1039.0000     0.4270     1.0907
 1039.5000     0.4269     0.9038
 1040.0000     0.4267     0.9057
 1040.5000     0.4265     0.9075
 1041.0000     0.4263     0.9094
 1041.5000     0.4261     0.9113
 1042.0000     0.4259     0.9132
 1042.5000     0.4257     0.9151
 1043.0000     0.4255     0.9172
