~VERSION INFORMATION
 VERS.                2.0:   CWLS LOG ASCII STANDARD - VERSION 2.0
 WRAP.                 NO:   ONE LINE PER DEPTH STEP
~WELL INFORMATION
#MNEM.UNIT      DATA TYPE    INFORMATION
#----------   ------------   ------------------------------
 STRT.F            0.0000:   START DEPTH
 STOP.F          596.0000:   STOP DEPTH
 STEP.F            0.1000:   STEP LENGTH
 NULL.          -999.2500:   NO VALUE
 COMP. BROWN JOHN E&C INC:   COMPANY
 WELL.    72-5 SX-3 #72-3:   WELL
 FLD .             TEAPOT:   FIELD
 LOC .       S3 T38N R78W:   LOCATION
 CNTY.            NATRONA:   COUNTY
 STAT.            WYOMING:   STATE
 CTRY. UNITED STATES OF AMERICA:   COUNTRY
 SRVC.      Western Atlas:   SERVICE COMPANY
 DATE.        15-APR-1992:   LOGDATE
 API .       490252250900:   API NUMBER
~CURVE INFORMATION
#MNEM.UNIT       API CODE    CURVE DESCRIPTION
#----------   ------------   ------------------------------
 DEPT.F                  :   
 GRR .GAPI   07 310 01 00:   GAMMA RAY
 RILD.OHMM   07 120 46 00:   INDUCTION LOG DEEP RESISTIVITY
 RILM.OHMM   07 120 44 00:   INDUCTION LOG MEDIUM RESISTIVITY
~PARAMETER INFORMATION
#MNEM.UNIT          VALUE    DESCRIPTION
#----------   ------------   ------------------------------
 PD  .                 GL:   PERMANENT DATUM
 EPD .F              5132:   ELEVATION PERMANENT DATUM
 LMF .                 KB:   LOG MEASURED FROM
 DAPD.F                 5:   FEET ABOVE PERMANENT DATUM
 DMF .                 KB:   DRILLING MEASURED FROM
 EKB .F              5137:   KELLING BUSHING
 EDF .F              5136:   DRILLING FLOOR
 EGL .F              5132:   GROUND LEVEL
 DATE.        15-APR-1992:   RUN DATE
 RUN .                  1:   RUN NUMBER
 DD  .F               605:   DEPTH DRILLER
 DL  .F               599:   DEPTH LOGGER
 BLI .F               596:   BOTTOM LOG INTERVAL
 TLI .F                46:   TOP LOG INTERVAL
 CS  .IN            8.625:   CASING SIZE
 CBD .F                48:   CASING BOTTOM DRILLER
 CBL .F                46:   CASING BOTTOM LOGGER
 BS  .IN            7.875:   BIT SIZE
 BSD .F               605:   BIT SIZE AT DEPTH
 DFT .                AIR:   DRILLING FLUID TYPE
 LUN .            HL-6321:   LOGGING UNIT NUMBER
 LUL .        RK. SPRINGS:   LOGGING UNIT LOCATION
 ENGI.            TRIBBLE:   RECORDING ENGINEER
 WITN.             STRONG:   WITNESSED BY
 CLNT.            A2DTECH:   CLIENT CODE
 ORIG.           5" PRINT:   ORIGIN OF DATA
 UWI .       490252250900:   UNIQUE WELL ID
 DICO. A2D Technologies, Inc.:   DIGITIZING COMPANY
~OTHER INFORMATION
~A    DEPT     GRR       RILD       RILM   
# ...
  400.4000    62.7577    22.0544    21.5203
  400.5000    63.5891    22.0644    21.4087
  400.6000    64.5306    22.2083    21.2868
  400.7000    65.8145    22.2081    21.1657
  400.8000    66.9777    22.2078    21.0452
  400.9000    67.9636    22.2075    20.9254
  401.0000    68.9495    22.2071    20.8063
  401.1000    69.9732    22.2068    20.7799
  401.2000    70.9212    22.3249    20.7796
  401.3000    71.9070    22.3619    20.7793
  401.4000    72.7672    22.4222    20.7790
  401.5000    73.5757    22.5497    20.7787
  401.6000    74.5480    22.6778    20.7784
  401.7000    75.4129    22.8069    20.7781
  401.8000    76.0254    22.9366    20.8779
  401.9000    77.2111    23.0670    21.1402
  402.0000    77.5273    23.1981    21.5155
  402.1000    77.5248    23.3431    21.8744
  402.2000    77.4404    23.6447    22.2513
  402.3000    77.1909    23.7616    22.5674
  402.4000    76.9112    23.8967    22.8633
  402.5000    76.2576    24.0890    23.2645
  402.6000    75.6752    24.3137    23.8893
  402.7000    75.0733    24.3133    24.3496
  402.8000    74.3296    24.5775    24.9104
  402.9000    73.5660    24.7562    25.4835
  403.0000    72.8425    24.8970    26.0691
  403.1000    72.0989    25.0762    26.7113
  403.2000    71.4836    25.3573    27.2839
  403.3000    70.8419    25.5300    27.8001
  403.4000    69.8844    25.7644    28.1245
  403.5000    69.3087    26.0587    28.3252
  403.6000    68.6836    26.3561    28.6488
  403.7000    67.9399    26.6568    28.9768
  403.8000    67.1006    26.9960    29.0431
  403.9000    66.1498    27.2693    29.1373
  404.0000    65.3574    27.6845    29.2458
  404.1000    64.6624    28.0227    29.2260
  404.2000    64.0937    28.2138    29.0415
  404.3000    63.3592    28.5462    29.0411
  404.4000    62.4316    28.8619    29.0407
  404.5000    61.6807    29.0690    29.0403
  404.6000    60.4941    29.2343    29.0399
  404.7000    60.4921    29.4004    29.0395
  404.8000    60.7741    29.5675    29.2024
  404.9000    61.3520    29.7660    29.3688
  405.0000    62.0606    29.7657    29.4467
  405.1000    62.6034    29.8655    29.4976
  405.2000    63.2655    29.9736    29.6522
  405.3000    64.0042    29.9732    29.6517
  405.4000    64.8525    29.9727    29.7957
  405.5000    65.8384    29.9723    29.8587
  405.6000    66.8339    29.9719    29.8583
  405.7000    67.8101    29.9715    29.8873
  405.8000    68.6072    29.9711    30.0666
  405.9000    69.3460    29.9706    30.0662
  406.0000    69.9313    29.9702    30.1894
  406.1000    70.1554    29.9698    30.2761
  406.2000    69.8493    29.9694    30.2757
  406.3000    69.6353    29.9690    30.2752
  406.4000    69.0740    29.9686    30.2747
  406.5000    68.4303    29.9681    30.1347
  406.6000    67.8895    29.9677    30.0633
  406.7000    67.1102    29.9673    30.0629
  406.8000    66.6376    29.9669    30.0625
  406.9000    65.9619    29.9665    30.0620
  407.0000    65.2182    29.9660    30.0616
  407.1000    64.4745    29.9656    30.0612
  407.2000    63.6972    29.9652    30.0608
  407.3000    61.9438    29.9648    30.0604
  407.4000    61.1321    29.9644    30.0600
  407.5000    60.4343    29.9639    30.0595
  407.6000    60.2998    29.9635    30.0591
  407.7000    60.7914    30.0948    30.1529
  407.8000    61.3259    30.1728    30.2689
  407.9000    62.0006    30.1724    30.2685
  408.0000    62.7395    30.1861    30.2680
  408.1000    63.3644    30.3831    30.2676
  408.2000    63.9138    30.3827    30.2672
  408.3000    64.6491    30.3823    30.3388
  408.4000    64.8938    30.3818    30.4785
  408.5000    65.3314    30.3814    30.4780
  408.6000    65.8230    30.3810    30.6453
  408.7000    66.2337    30.5425    30.6907
  408.8000    66.4784    30.5932    30.6903
  408.9000    66.7536    30.6757    30.6899
  409.0000    66.7515    30.8069    30.6995
  409.1000    66.4287    30.8093    30.9040
  409.2000    65.8279    30.9846    31.0503
  409.3000    65.0842    31.0216    31.1197
  409.4000    64.3175    31.1198    31.1864
  409.5000    63.5970    31.2383    31.3370
  409.6000    62.8533    31.2378    31.3365
  409.7000    62.3647    31.2373    31.3361
  409.8000    62.1867    31.2370    31.3356
  409.9000    62.1998    31.2365    31.3352
  410.0000    62.4845    31.2361    31.3347
  410.1000    62.6891    31.2357    31.3343
  410.2000    63.0844    31.2352    31.3339
  410.3000    63.4814    31.2348    31.3334
  410.4000    63.8036    31.1068    31.3330
  410.5000    64.5938    31.0164    31.3326
  410.6000    65.2812    30.9699    31.3121
  410.7000    66.0199    30.7938    31.1136
  410.8000    66.7588    30.5846    30.9568
  410.9000    67.3115    30.4451    30.8963
  411.0000    67.3091    30.2721    30.8199
  411.1000    67.3067    30.1001    30.6804
  411.2000    67.3042    29.9096    30.6800
  411.3000    67.1606    29.5323    30.5090
  411.4000    66.9111    29.5320    30.2059
  411.5000    66.6617    29.4219    29.9528
  411.6000    66.3852    29.2547    29.7317
  411.7000    66.3830    29.0562    29.3943
  411.8000    66.3806    28.7163    29.0107
  411.9000    66.3782    28.7159    28.7322
  412.0000    66.4282    28.5955    28.4066
  412.1000    66.6763    28.4331    28.1472
  412.2000    67.1612    28.2715    27.9604
  412.3000    67.8407    28.1108    27.6248
  412.4000    68.4477    27.9223    27.4769
  412.5000    68.9393    27.9220    27.2100
  412.6000    69.4113    27.8283    26.9015
  412.7000    69.6918    27.7268    26.5964
  412.8000    69.9006    27.7264    26.2998
  412.9000    69.9903    27.7260    26.1217
  413.0000    70.0869    27.7256    26.0014
  413.1000    70.2889    27.7252    25.8535
  413.2000    70.2859    27.7248    25.7063
  413.3000    70.2836    27.7245    25.5788
  413.4000    70.2812    27.7241    25.5784
  413.5000    70.2788    27.7237    25.5781
  413.6000    70.2764    27.7233    25.4795
  413.7000    70.2842    27.7229    25.3994
  413.8000    70.5741    27.7225    25.4316
  413.9000    70.7736    27.7221    25.5767
  414.0000    71.3091    27.7217    25.5763
  414.1000    72.1373    27.7214    25.5760
  414.2000    73.1232    27.7210    25.6552
  414.3000    74.1986    27.7206    25.8013
  414.4000    75.0949    27.6970    25.9346
  414.5000    76.2494    27.5267    25.9342
  414.6000    77.4825    27.5264    26.0620
  414.7000    78.6019    27.5260    26.3064
  414.8000    79.3405    27.5256    26.5445
  414.9000    80.0793    27.5252    26.6674
  415.0000    80.4343    27.5249    26.6669
  415.1000    80.5430    27.3686    26.6666
  415.2000    80.5406    27.3324    26.6662
  415.3000    80.4421    27.2483    26.7429
  415.4000    79.3233    27.1413    26.8952
  415.5000    78.4605    27.1409    27.0401
  415.6000    76.8328    27.1405    27.0396
  415.7000    75.1638    27.0091    27.0393
  415.8000    73.9735    26.8557    27.0389
  415.9000    72.9478    26.7031    26.9813
  416.0000    72.2303    26.5513    26.8500
  416.1000    71.6690    26.3905    26.8496
  416.2000    71.4255    26.3902    26.7091
  416.3000    71.5640    26.2845    26.6621
  416.4000    72.0558    26.1351    26.5909
  416.5000    72.6299    25.9506    26.4396
  416.6000    73.0392    25.6589    26.2890
  416.7000    73.6805    25.5132    26.1395
  416.8000    74.1382    25.2555    25.9908
  416.9000    74.1358    25.0485    25.8429
  417.0000    74.1332    24.8602    25.6471
  417.1000    74.3598    24.5785    25.3561
  417.2000    74.4315    24.2640    25.0349
  417.3000    74.4291    24.1443    24.6613
  417.4000    74.4267    24.0072    24.3335
  417.5000    74.4242    23.8156    24.0576
  417.6000    74.4218    23.5698    23.7577
  417.7000    74.4194    23.4292    23.3448
  417.8000    74.4170    23.1775    22.8327
  417.9000    74.4988    23.0091    22.3189
  418.0000    74.7434    22.7519    21.7523
  418.1000    75.0155    22.4326    21.1407
  418.2000    75.4521    22.3009    20.5535
  418.3000    75.9438    21.9992    20.0187
  418.4000    76.4356    21.7995    19.7329
  418.5000    76.8758    21.6228    19.4663
