~VERSION INFORMATION
 VERS.                2.0:   CWLS LOG ASCII STANDARD - VERSION 2.0
 WRAP.                 NO:   ONE LINE PER DEPTH STEP
~WELL INFORMATION
#MNEM.UNIT      DATA TYPE    INFORMATION
#----------   ------------   ------------------------------
 STRT.F          458.0000:   START DEPTH
 STOP.F         2155.0000:   STOP DEPTH
 STEP.F            0.5000:   STEP LENGTH
 NULL.          -999.2500:   NO VALUE
 COMP.   FLUOR DANIEL INC:   COMPANY
 WELL. NAVAL PETROLEUM RESERVE 3 SHX- 1 #33-29:   WELL
 FLD .             TEAPOT:   FIELD
 LOC .      S29 T39N R78W:   LOCATION
 CNTY.            NATRONA:   COUNTY
 STAT.            WYOMING:   STATE
 CTRY. UNITED STATES OF AMERICA:   COUNTRY
 SRVC.            Unknown:   SERVICE COMPANY
 DATE.        29-JUN-1995:   LOGDATE
 API .       490252272500:   API NUMBER
~CURVE INFORMATION
#MNEM.UNIT       API CODE    CURVE DESCRIPTION
#----------   ------------   ------------------------------
 DEPT.F                  :   
 C1  .VF     91 831 01 00:   METHANE
 C2  .VF     91 832 01 00:   ETHANE
 C3  .VF     91 833 01 00:   PROPANE
 C4  .VF     91 834 01 00:   BUTANE
 ROP .FT/HR  91 810 01 00:   RAT OF DRILLING PENETRATION
 TGAS.TC/CC  91 830 01 00:   TOTAL GAS UNIT
~PARAMETER INFORMATION
#MNEM.UNIT          VALUE    DESCRIPTION
#----------   ------------   ------------------------------
 EKB .F              5020:   KELLING BUSHING
 EGL .F              5010:   GROUND LEVEL
 DATE.        29-JUN-1995:   RUN DATE
 RUN .                  1:   RUN NUMBER
 BLI .F              2155:   BOTTOM LOG INTERVAL
 TLI .F               460:   TOP LOG INTERVAL
 ENGI.     C.TOWER/R.HUSK:   RECORDING ENGINEER
 CLNT.            A2DTECH:   CLIENT CODE
 ORIG.           5" PRINT:   ORIGIN OF DATA
 UWI .       490252272500:   UNIQUE WELL ID
 DICO. A2D Technologies, Inc.:   DIGITIZING COMPANY
~OTHER INFORMATION
~A   DEPT       C1         C2         C3         C4          ROP       TGAS 
# ...
 1914.0000    14.8180     7.2644     6.7202     7.9245     0.7329   318.6133
 1914.5000    14.8051     7.2635     6.7182     7.9245     0.7325   318.5949
 1915.0000    14.9830     7.2626     6.7161     7.9245     0.7320   317.6351
 1915.5000    15.1576     7.2752     6.7140     7.9245     0.7317   318.5586
 1916.0000    15.1425     7.3459     6.7115     7.9245     0.7313   319.4811
 1916.5000    15.1294     7.3449     6.7094     7.9245     0.7309   322.2870
 1917.0000    15.1157     7.4288     6.7073     7.9245     0.7305   322.2678
 1917.5000    15.1031     7.4280     6.6205     7.9245     0.7301   322.2455
 1918.0000    15.0899     7.5119     6.6184     7.9245     0.7298   323.1732
 1918.5000    15.0769     7.5110     6.6164     7.9245     0.7199   324.0916
 1919.0000    15.0638     7.5949     6.6143     7.9245     0.7006   324.0732
 1919.5000    15.0506     7.5941     6.6122     7.9245     0.6626   323.1134
 1920.0000    15.0351     7.5931     6.6102     7.9245     0.6057   323.0950
 1920.5000    14.8347     7.5922     6.6081     7.9245     0.5866   323.0766
 1921.0000    14.6344     7.5914     6.6055     8.0189     0.6051   323.0582
 1921.5000    14.6215     7.5907     6.6035     8.0189     0.6046   323.0398
 1922.0000    14.6100     7.5898     6.6014     8.0189     0.6984   322.0795
 1922.5000    14.5969     7.5889     6.6846     8.0189     0.7356   322.0570
 1923.0000    14.5828     7.5880     6.6820     8.0189     0.7352   322.0386
 1923.5000    14.5699     7.5873     6.6799     8.0189     0.7348   322.0202
 1924.0000    14.5575     7.5864     6.6779     8.0189     0.7344   322.0018
 1924.5000    14.5441     7.5855     6.6758     8.0189     0.7340   321.0419
 1925.0000    14.5312     7.5706     6.6737     8.0189     0.7432   321.0236
 1925.5000    14.6187     7.5839     6.6716     8.0189     0.7427   321.0052
 1926.0000    14.6930     7.5830     6.6691     8.1132     0.7423   321.9288
 1926.5000    14.6794     7.5802     6.6670     8.1132     0.7419   321.9098
 1927.0000    14.8515     7.4966     6.6649     8.1132     0.7415   321.8912
 1927.5000    14.8406     7.4894     6.6629     8.1132     0.7411   321.8724
 1928.0000    14.8275     7.4102     6.7461     8.1132     0.7407   321.8500
 1928.5000    14.8128     7.4092     6.7435     8.1132     0.7403   321.8316
 1929.0000    14.8012     7.4085     6.8267     8.1132     0.7399   321.8132
 1929.5000    14.7881     7.4076     6.8241     8.1132     0.7490   322.7408
 1930.0000    14.7741     7.4067     6.9068     8.1132     0.8616   323.6639
 1930.5000    14.7613     7.4059     6.9047     8.2075     0.8706   324.5869
 1931.0000    14.7484     7.4051     6.9021     8.2075     0.8702   324.5639
 1931.5000    14.9230     7.4890     6.9001     8.2075     0.7473   324.5455
 1932.0000    15.0976     7.4881     6.8980     8.2075     0.7470   321.7028
 1932.5000    15.4597     7.4873     6.8959     8.3019     0.7372   320.6184
 1933.0000    15.6343     7.4864     6.8939     8.3019     0.7274   317.8996
 1933.5000    15.8089     7.5703     6.8918     8.3019     0.7176   317.8773
 1934.0000    15.7928     7.5695     6.8897     8.3019     0.7078   317.8589
 1934.5000    15.9674     7.5686     6.8877     8.3962     0.7074   317.8405
 1935.0000    15.9545     7.5678     6.8856     8.3962     0.7070   318.7682
 1935.5000    15.9416     7.4822     6.8835     8.3962     0.7066   319.6912
 1936.0000    15.9288     7.4812     6.8809     8.4906     0.7061   320.6142
 1936.5000    15.7284     7.4805     6.8789     8.4906     0.7153   320.5912
 1937.0000    15.9062     7.3949     6.8771     8.4906     0.7148   320.5728
 1937.5000    15.8901     7.3941     6.8747     8.4906     0.7144   320.5544
 1938.0000    15.8772     7.4350     6.8727     8.4906     0.7140   320.5355
 1938.5000    15.8643     7.4772     6.7859     8.4906     0.7231   321.4590
 1939.0000    16.0389     7.4762     6.7838     8.3844     0.7227   321.4360
 1939.5000    16.0256     7.4754     6.7817     8.2075     0.7317   321.4176
 1940.0000    16.0099     7.4746     6.6949     8.1131     0.7595   322.3452
 1940.5000    15.8095     7.5586     6.6942     8.1116     0.7780   323.2683
 1941.0000    15.7988     7.5576     6.6935     8.1100     0.7776   323.2453
 1941.5000    15.5963     7.5568     6.6928     8.1083     0.7867   322.2855
 1942.0000    15.5850     7.5559     6.6921     8.1068     0.7862   322.2670
 1942.5000    15.5705     7.5551     6.6914     8.1996     0.7858   322.2487
 1943.0000    15.5576     7.5542     6.6907     8.1980     0.7949   322.2301
 1943.5000    15.5456     7.4687     6.6900     8.2909     0.7945   321.2699
 1944.0000    15.5325     7.4676     6.6892     8.2893     0.7940   318.4232
 1944.5000    15.5189     7.3821     6.7734     8.2877     0.7936   317.4633
 1945.0000    15.5060     7.3812     6.8573     8.2862     0.7933   316.5035
 1945.5000    15.4931     7.3804     6.8566     8.2843     0.7929   317.4312
 1946.0000    15.4800     7.3796     6.8559     8.1884     0.7925   317.4081
 1946.5000    15.4669     7.4637     6.8552     8.1869     0.7921   316.4483
 1947.0000    15.4513     7.4626     6.8544     8.0910     0.7917   317.3759
 1947.5000    15.4384     7.4618     6.7690     8.0896     0.7914   317.3529
 1948.0000    15.4255     7.4610     6.7683     8.0879     0.7910   318.2760
 1948.5000    15.4126     7.4601     6.7676     8.0864     0.7905   318.2573
 1949.0000    15.2122     7.4593     6.7669     8.1792     0.7901   319.1806
 1949.5000    15.1993     7.4188     6.7662     8.0833     0.7803   319.1576
 1950.0000    15.1864     7.3729     6.8504     8.1761     0.7799   319.1392
 1950.5000    15.1735     7.4568     6.8496     8.0802     0.7796   319.1208
 1951.0000    15.1606     7.4452     6.8489     8.0943     0.7792   318.1610
 1951.5000    15.1478     7.3702     6.8482     8.1715     0.7882   318.1426
 1952.0000    15.3269     7.4543     6.8475     8.1696     0.7878   318.1242
 1952.5000    15.3228     7.4532     6.8466     8.1680     0.7874   319.9932
 1953.0000    15.3187     7.5420     6.8459     8.1665     0.7870   320.9121
 1953.5000    15.3146     7.5492     6.8452     8.1649     0.7866   320.8932
 1954.0000    15.3105     7.5565     6.8445     8.1634     0.7862   321.8163
 1954.5000    15.3065     7.5637     6.8439     8.1619     0.7764   323.6807
 1955.0000    15.2997     7.5678     6.8432     8.1603     0.7760   323.6577
 1955.5000    15.2923     7.5619     6.8425     8.1588     0.7757   324.5853
 1956.0000    15.4725     7.5559     6.8418     8.1572     0.7753   324.5623
 1956.5000    15.4650     7.5489     6.8411     8.1557     0.7749   324.5439
 1957.0000    15.4263     7.5431     6.8404     8.1541     0.7839   323.5841
 1957.5000    15.2611     7.5254     6.9245     8.1522     0.7834   321.6829
 1958.0000    15.2538     7.4468     6.9236     8.1507     0.7831   320.7230
 1958.5000    15.2464     7.4415     7.0076     8.1491     0.7921   320.7047
 1959.0000    15.2391     7.4356     7.0070     8.2419     0.7917   320.6862
 1959.5000    15.2317     7.4294     7.0063     8.2404     0.7913   319.7259
 1960.0000    15.2250     7.4236     7.0056     8.2389     0.7910   320.6494
 1960.5000    15.2175     7.4178     7.0898     8.2373     0.7906   320.6265
 1961.0000    15.2100     7.4119     7.1739     8.2358     0.7903   320.6081
 1961.5000    15.2023     7.4048     7.1730     8.2342     0.7899   321.5357
 1962.0000    15.1950     7.3990     7.1723     8.2327     0.7895   321.5127
 1962.5000    15.1875     7.3941     7.1716     8.2311     0.7892   321.4943
 1963.0000    15.1800     7.3881     7.1709     8.2296     0.7888   321.4759
 1963.5000    15.3600     7.3951     7.1702     8.2277     0.7885   321.4575
 1964.0000    15.3513     7.4620     7.1694     8.2262     0.7222   321.4391
 1964.5000    15.3439     7.4551     7.1687     8.2246     0.7219   321.4205
 1965.0000    15.3366     7.4490     7.1680     8.2231     0.7215   321.4017
 1965.5000    15.5186     7.4432     7.1673     8.2215     0.7117   321.3793
