~VERSION INFORMATION
 VERS.                2.0:   CWLS LOG ASCII STANDARD - VERSION 2.0
 WRAP.                 NO:   ONE LINE PER DEPTH STEP
~WELL INFORMATION
#MNEM.UNIT      DATA TYPE    INFORMATION
#----------   ------------   ------------------------------
 STRT.F           32.0000:   START DEPTH
 STOP.F          688.5000:   STOP DEPTH
 STEP.F            0.5000:   STEP LENGTH
 NULL.          -999.2500:   NO VALUE
 COMP. FENIX & SCISSON INC:   COMPANY
 WELL.       NPR 3 #78-34:   WELL
 FLD .  TEAPOT DOME NPR-3:   FIELD
 LOC .      S34 T39N R78W:   LOCATION
 CNTY.            NATRONA:   COUNTY
 STAT.            WYOMING:   STATE
 CTRY. UNITED STATES OF AMERICA:   COUNTRY
 SRVC.           BIRDWELL:   SERVICE COMPANY
 DATE.        16-AUG-1978:   LOGDATE
 API .       490251070700:   API NUMBER
~CURVE INFORMATION
#MNEM.UNIT       API CODE    CURVE DESCRIPTION
#----------   ------------   ------------------------------
 DEPT.F                  :   
 SPR .MV     05 010 01 00:   SPONTANEOUS POTENTIAL
 SN  .OHMM   05 040 16 00:   SHORT NORMAL 16'
 ILD .OHMM   05 120 46 00:   INDUCTION LOG DEEP RESISTIVITY
 CALD.IN     45 280 60 00:   CALIPER
 GRD .GAPI   45 310 01 00:   GAMMA RAY FROM DENSITY LOG
 RHOB.G/C3   45 350 01 00:   BULK DENSITY
 DPHI.DEC    45 890 12 00:   DENSITY POROSITY SANDSTONE
 CORR.G/C3   45 356 01 00:   DENSITY CORRECTION
~PARAMETER INFORMATION
#MNEM.UNIT          VALUE    DESCRIPTION
#----------   ------------   ------------------------------
 PD  .                 GL:   PERMANENT DATUM
 EPD .F              5085:   ELEVATION PERMANENT DATUM
 LMF .                 KB:   LOG MEASURED FROM
 DAPD.F                 4:   FEET ABOVE PERMANENT DATUM
 DMF .                 KB:   DRILLING MEASURED FROM
 EKB .F              5089:   KELLING BUSHING
 EGL .F              5085:   GROUND LEVEL
 DATE.          8-16-1978:   RUN DATE
 RUN .                  1:   RUN NUMBER
 DD  .F               680:   DEPTH DRILLER
 DL  .F               688:   DEPTH LOGGER
 BLI .F               682:   BOTTOM LOG INTERVAL
 TLI .F                50:   TOP LOG INTERVAL
 CS  .IN            8.625:   CASING SIZE
 CBD .F                40:   CASING BOTTOM DRILLER
 BS  .IN            7.875:   BIT SIZE
 BSD .F               680:   BIT SIZE AT DEPTH
 DFT .                KCL:   DRILLING FLUID TYPE
 RMS .OHMM            .32:   RESISTIVITY MUD SAMPLE
 MST .F                64:   MUD SAMPLE TEMPERATURE
 RMF .OHMM             .3:   RESISTIVITY MUD FILTRATE SAMPLE
 MFST.F                76:   MUD FILTRATE SAMPLE TEMPERATURE
 RMC .OHMM            .16:   RESISTIVITY MUD CAKE
 MCST.F                64:   MUD CAKE SAMPLE TEMPERATURE
 MFSS.               MEAS:   MUD FILTRATE SAMPLE SOURCE
 MCSS.               MEAS:   MUD CAKE SAMPLE SOURCE
 TCS .HRS               1:   TIME CURCULATED STOPPED
 LUN .               3006:   LOGGING UNIT NUMBER
 LUL .               CASP:   LOGGING UNIT LOCATION
 ENGI.             MILLER:   RECORDING ENGINEER
 WITN.           MCGINLEY:   WITNESSED BY
 CLNT.            A2DTECH:   CLIENT CODE
 ORIG.           5" PRINT:   ORIGIN OF DATA
 UWI .       490251070700:   UNIQUE WELL ID
 DICO. A2D Technologies, Inc.:   DIGITIZING COMPANY
~OTHER INFORMATION
~A   DEPT      SPR         SN        ILD       CALD         GRD      RHOB       DPHI       CORR   
# ...
  153.5000   -33.4076     6.9767     6.2806     7.7741    90.6922     2.4882     0.1190     0.0454
  154.0000   -33.4636     7.0059     6.3197     7.7819    92.0272     2.4882     0.1170     0.0461
  154.5000   -33.5197     7.0459     6.3590     7.7896    91.3287     2.4897     0.1194     0.0496
  155.0000   -33.5759     7.0388     6.3987     7.7974    90.5732     2.4910     0.1163     0.0531
  155.5000   -33.6320     7.0276     6.4271     7.8051    91.2829     2.4993     0.1106     0.0566
  156.0000   -33.6880     7.0165     6.4003     7.8129    91.9636     2.5094     0.1050     0.0572
  156.5000   -33.7447     7.0053     6.3796     7.8206    91.0587     2.5195     0.0998     0.0562
  157.0000   -33.7342     6.9942     6.3589     7.8284    86.9934     2.5185     0.0998     0.0551
  157.5000   -33.6789     6.9831     6.3383     7.8361    85.5341     2.5157     0.1025     0.0540
  158.0000   -33.6227     6.9721     6.3178     7.8439    89.4849     2.5129     0.1052     0.0529
  158.5000   -33.5665     6.9610     6.2973     7.8484    90.7831     2.5125     0.1062     0.0519
  159.0000   -33.5103     6.9500     6.2769     7.8515    86.4257     2.5180     0.1011     0.0508
  159.5000   -33.4541     6.9390     6.2524     7.8546    88.4862     2.5287     0.0942     0.0487
  160.0000   -33.3985     6.9284     6.2688     7.8576    92.0837     2.5346     0.1002     0.0408
  160.5000   -33.3790     6.9181     6.2896     7.8607    92.0665     2.5141     0.1025     0.0329
  161.0000   -33.4077     6.9862     6.3106     7.8638    89.3737     2.5125     0.1014     0.0322
  161.5000   -33.4361     7.0519     6.3316     7.8669    87.2107     2.5088     0.1068     0.0325
  162.0000   -33.4646     7.1183     6.3526     7.8699    85.1544     2.4973     0.1148     0.0329
  162.5000   -33.4930     7.1853     6.3737     7.8730    84.5603     2.4876     0.1202     0.0332
  163.0000   -33.5215     7.2529     6.3950     7.8761    85.9468     2.4865     0.1174     0.0336
  163.5000   -33.5499     7.3212     6.4162     7.8792    88.4983     2.4828     0.1265     0.0340
  164.0000   -33.5783     7.3900     6.4615     7.8823    88.6726     2.4807     0.1224     0.0367
  164.5000   -33.6068     7.4596     6.5322     7.8857    86.3648     2.4948     0.1147     0.0396
  165.0000   -33.6352     7.5298     6.6037     7.8735    85.8368     2.5016     0.1078     0.0425
  165.5000   -33.6637     7.6007     6.6760     7.8556    85.3521     2.4978     0.1080     0.0439
  166.0000   -33.6921     7.6722     6.7491     7.8376    85.1548     2.4927     0.1162     0.0439
  166.5000   -33.7210     7.7242     6.8229     7.8196    85.2790     2.4905     0.1202     0.0440
  167.0000   -33.7514     7.7242     6.9176     7.8016    87.5219     2.4977     0.1151     0.0466
  167.5000   -33.7594     7.6982     6.8627     7.7836    88.9435     2.5087     0.1070     0.0527
  168.0000   -33.3210     7.6238     6.7623     7.7657    87.2804     2.5201     0.0998     0.0580
  168.5000   -32.8506     7.5501     6.6633     7.7477    84.8699     2.5235     0.0967     0.0581
  169.0000   -32.3846     7.4770     6.5658     7.7297    85.0848     2.5253     0.0935     0.0512
  169.5000   -31.9803     7.4047     6.4698     7.7118    85.3512     2.5261     0.0974     0.0430
  170.0000   -31.7692     7.3331     6.3751     7.6938    82.5559     2.5173     0.1025     0.0347
  170.5000   -31.7640     7.2622     6.2819     7.6754    79.9632     2.5142     0.1046     0.0277
  171.0000   -31.7630     7.1920     6.1900     7.6454    78.9386     2.5187     0.0983     0.0269
  171.5000   -31.7626     7.1224     6.1384     7.6022    76.3113     2.5238     0.0954     0.0258
  172.0000   -31.7579     7.0533     6.1384     7.5594    71.7227     2.5141     0.1082     0.0247
  172.5000   -31.7534     7.0457     6.1893     7.5249    71.2332     2.4970     0.1170     0.0246
  173.0000   -31.7489     7.0458     6.2470     7.5195    76.5018     2.4824     0.1209     0.0267
  173.5000   -31.7444     7.0747     6.3053     7.5136    80.5252     2.4787     0.1236     0.0287
  174.0000   -31.7399     7.1051     6.3642     7.5077    83.5819     2.4753     0.1262     0.0307
  174.5000   -31.7354     7.1355     6.4236     7.5018    85.8789     2.4664     0.1288     0.0327
  175.0000   -31.7309     7.1661     6.4836     7.4959    85.3439     2.4626     0.1315     0.0348
  175.5000   -31.7263     7.1968     6.5443     7.4900    84.5355     2.4613     0.1341     0.0372
  176.0000   -31.7218     7.2276     6.6068     7.4840    84.4229     2.4561     0.1387     0.0395
  176.5000   -31.7173     7.2585     6.6229     7.4781    84.3052     2.4459     0.1436     0.0419
  177.0000   -31.7128     7.2896     6.6396     7.4722    84.0755     2.4416     0.1485     0.0472
  177.5000   -31.7083     7.3208     6.6562     7.4663    82.0454     2.4636     0.1315     0.0671
  178.0000   -31.7038     7.3522     6.6729     7.4604    81.4920     2.4945     0.1143     0.0619
  178.5000   -31.6993     7.3836     6.6897     7.4544    83.3547     2.5075     0.1062     0.0523
  179.0000   -31.6947     7.4153     6.7064     7.4485    83.9167     2.5176     0.1022     0.0470
  179.5000   -31.6902     7.4470     6.7233     7.4426    82.9599     2.5278     0.0983     0.0452
  180.0000   -31.6857     7.4789     6.7401     7.4367    82.1561     2.5313     0.0943     0.0435
  180.5000   -31.6812     7.5109     6.7571     7.4307    82.3338     2.5314     0.0948     0.0414
  181.0000   -31.6767     7.5141     6.7740     7.4248    84.6350     2.5243     0.1001     0.0362
  181.5000   -31.6722     7.5125     6.7911     7.4189    87.4785     2.5165     0.1054     0.0309
  182.0000   -31.6677     7.5017     6.7610     7.4132    90.4274     2.5102     0.1074     0.0261
  182.5000   -31.6632     7.4910     6.7297     7.4061    90.8842     2.5190     0.1001     0.0270
  183.0000   -31.6586     7.4803     6.6985     7.4283    88.2826     2.5316     0.0932     0.0280
  183.5000   -31.6541     7.4696     6.6675     7.4331    84.9001     2.5444     0.0862     0.0290
  184.0000   -31.6496     7.4590     6.6366     7.4552    80.7061     2.5556     0.0794     0.0300
  184.5000   -31.6451     7.4483     6.6058     7.4767    76.5450     2.5565     0.0790     0.0310
  185.0000   -31.6406     7.4377     6.5751     7.4982    74.2252     2.5484     0.0838     0.0333
  185.5000   -31.6361     7.4271     6.5464     7.5198    75.4673     2.5370     0.0915     0.0445
  186.0000   -31.6316     7.4165     6.5464     7.5414    77.3101     2.5255     0.0999     0.0559
  186.5000   -31.6271     7.4059     6.5464     7.5631    79.1412     2.5140     0.1026     0.0598
  187.0000   -31.6225     7.3953     6.5464     7.5748    80.9831     2.5104     0.1038     0.0603
  187.5000   -31.6180     7.3847     6.5464     7.5873    81.7492     2.5109     0.1041     0.0609
  188.0000   -31.6135     7.3742     6.5464     7.5999    81.0570     2.5115     0.1054     0.0615
  188.5000   -31.6090     7.3637     6.5463     7.6125    80.7935     2.5081     0.1069     0.0622
  189.0000   -31.6045     7.3532     6.5464     7.6251    82.4246     2.5039     0.1092     0.0628
  189.5000   -31.6000     7.3427     6.5457     7.6377    84.3027     2.5044     0.1119     0.0634
  190.0000   -31.5954     7.3322     6.5666     7.6503    84.9896     2.5116     0.1058     0.0641
  190.5000   -31.5909     7.3217     6.6031     7.6629    85.0483     2.5189     0.0954     0.0647
  191.0000   -31.5864     7.3112     6.6398     7.6755    85.1146     2.5206     0.0988     0.0653
  191.5000   -31.5819     7.3091     6.6767     7.6881    85.1461     2.5169     0.1028     0.0663
  192.0000   -31.5774     7.3441     6.7137     7.7007    84.6538     2.5137     0.1062     0.0700
  192.5000   -31.5729     7.3938     6.7510     7.7133    84.1734     2.5147     0.0999     0.0738
  193.0000   -31.5683     7.4439     6.7885     7.7259    84.7889     2.5211     0.0934     0.0776
  193.5000   -31.5636     7.4942     6.8262     7.7385    86.8899     2.5277     0.0871     0.0813
