~VERSION INFORMATION
 VERS.                2.0:   CWLS LOG ASCII STANDARD - VERSION 2.0
 WRAP.                 NO:   ONE LINE PER DEPTH STEP
~WELL INFORMATION
#MNEM.UNIT      DATA TYPE    INFORMATION
#----------   ------------   ------------------------------
 STRT.F          717.0000:   START DEPTH
 STOP.F         2448.0000:   STOP DEPTH
 STEP.F            0.5000:   STEP LENGTH
 NULL.          -999.2500:   NO VALUE
 COMP.   FLUOR DANIEL INC:   COMPANY
 WELL. NAVAL PETROLEUM RESERVE 3X27 #34-27:   WELL
 FLD .             TEAPOT:   FIELD
 LOC .      S27 T39N R78W:   LOCATION
 CNTY.            NATRONA:   COUNTY
 STAT.            WYOMING:   STATE
 CTRY. UNITED STATES OF AMERICA:   COUNTRY
 SRVC.            Unknown:   SERVICE COMPANY
 DATE.        17-MAY-1996:   LOGDATE
 API .       490252279300:   API NUMBER
~CURVE INFORMATION
#MNEM.UNIT       API CODE    CURVE DESCRIPTION
#----------   ------------   ------------------------------
 DEPT.F                  :   
 TGAS.TC/CC  91 830 01 00:   TOTAL GAS UNIT
 ROP .FT/HR  91 810 01 00:   RAT OF DRILLING PENETRATION
~PARAMETER INFORMATION
#MNEM.UNIT          VALUE    DESCRIPTION
#----------   ------------   ------------------------------
 EPD .F              5039:   ELEVATION PERMANENT DATUM
 EKB .F              5049:   KELLING BUSHING
 EGL .F              5039:   GROUND LEVEL
 DATE.        17-MAY-1996:   RUN DATE
 RUN .                  1:   RUN NUMBER
 ENGI.     R.HUSK/C.TOWER:   RECORDING ENGINEER
 CLNT.            A2DTECH:   CLIENT CODE
 ORIG.           5" PRINT:   ORIGIN OF DATA
 UWI .       490252279300:   UNIQUE WELL ID
 DICO. A2D Technologies, Inc.:   DIGITIZING COMPANY
~OTHER INFORMATION
~A   DEPT       TGAS        ROP 
# ...
 1810.5000     0.5311     0.6431
 1811.0000     0.5385     0.6432
 1811.5000     0.5458     0.6434
 1812.0000     0.5531     0.6436
 1812.5000     0.5605     0.7754
 1813.0000     0.5678     0.7756
 1813.5000     0.5751     0.7758
 1814.0000     0.7693     0.7759
 1814.5000     0.7768     0.5318
 1815.0000     0.7857     0.5320
 1815.5000     0.7930     0.5322
 1816.0000     0.8004     0.5324
 1816.5000     0.8077     0.5325
 1817.0000     0.8150     0.5327
 1817.5000     0.8224     0.5329
 1818.0000     0.8297     0.5331
 1818.5000     0.8370     0.5333
 1819.0000     1.0311     0.5335
 1819.5000     1.0384     0.5336
 1820.0000     1.0458     0.5338
 1820.5000     1.0531     0.5340
 1821.0000     1.0606     0.5436
 1821.5000     0.8810     0.5438
 1822.0000     1.0769     0.5440
 1822.5000     0.8975     0.5536
 1823.0000     1.0916     0.5538
 1823.5000     1.0989     0.5540
 1824.0000     1.1063     0.5542
 1824.5000     1.1136     0.5543
 1825.0000     0.9342     0.5545
 1825.5000     0.9416     0.5547
 1826.0000     0.9489     0.5549
 1826.5000     1.1429     0.5551
 1827.0000     1.1503     0.5553
 1827.5000     1.1577     0.5555
 1828.0000     1.1453     0.5557
 1828.5000     0.9856     0.6498
 1829.0000     0.9947     0.6594
 1829.5000     1.0021     0.6596
 1830.0000     1.0094     0.6598
 1830.5000     1.0167     0.8104
 1831.0000     1.0241     0.8105
 1831.5000     1.0314     0.8107
 1832.0000     1.2255     0.8109
 1832.5000     1.2328     0.9897
 1833.0000     1.2401     0.9998
 1833.5000     1.2475     1.0088
 1834.0000     1.2548     1.0185
 1834.5000     1.2622     1.0186
 1835.0000     1.2697     1.0153
 1835.5000     1.0919     1.0051
 1836.0000     1.0992     0.9950
 1836.5000     1.2933     0.9848
 1837.0000     1.3006     0.9753
 1837.5000     1.4947     0.9751
 1838.0000     1.6887     1.5199
 1838.5000     1.8828     1.5008
 1839.0000     1.8901     1.5005
 1839.5000     2.0842     1.5097
 1840.0000     2.0915     0.9818
 1840.5000     2.0989     0.9922
 1841.0000     2.1062     0.9915
 1841.5000     2.1137     0.9728
 1842.0000     1.9341     0.6060
 1842.5000     1.7566     0.6152
 1843.0000     1.7639     0.6148
 1843.5000     1.5827     0.6145
 1844.0000     1.5919     0.6143
 1844.5000     1.5992     0.6140
 1845.0000     1.7933     0.6137
 1845.5000     1.8006     0.6134
 1846.0000     1.9947     0.5286
 1846.5000     2.1887     0.5001
 1847.0000     2.1960     0.4998
 1847.5000     2.2034     0.4995
 1848.0000     2.2108     0.4992
 1848.5000     2.2183     0.4989
 1849.0000     2.2272     0.4986
 1849.5000     2.2346     0.4984
 1850.0000     2.2419     0.4981
 1850.5000     2.4359     0.4978
 1851.0000     2.6300     0.4975
 1851.5000     2.5679     0.4973
 1852.0000     2.3955     0.4970
 1852.5000     2.2407     0.4967
 1853.0000     2.2407     0.4964
 1853.5000     2.4274     0.4961
 1854.0000     2.4274     0.4958
 1854.5000     2.4274     0.4955
 1855.0000     2.6141     0.4953
 1855.5000     2.6141     0.4950
 1856.0000     2.6141     0.4947
 1856.5000     2.6141     0.4944
 1857.0000     2.4274     0.4942
 1857.5000     2.2407     0.4939
 1858.0000     2.2407     0.4936
 1858.5000     2.2407     0.4933
 1859.0000     2.0539     0.4930
 1859.5000     1.8672     0.4927
 1860.0000     1.8672     0.7275
 1860.5000     1.6805     0.7366
 1861.0000     1.6805     0.7363
 1861.5000     1.6805     0.7266
 1862.0000     1.6805     0.5665
 1862.5000     1.4938     0.5757
 1863.0000     1.4938     0.5660
 1863.5000     1.4938     0.5657
 1864.0000     1.4938     1.2233
 1864.5000     1.4938     1.2230
 1865.0000     1.4938     1.2227
 1865.5000     1.4938     1.2224
 1866.0000     1.4938     1.2221
 1866.5000     1.4938     0.6016
 1867.0000     1.6805     0.6013
 1867.5000     1.6805     0.5916
 1868.0000     1.8672     0.8639
 1868.5000     1.8672     0.8636
 1869.0000     1.8672     0.8633
 1869.5000     1.8672     0.8631
 1870.0000     1.8672     1.4830
 1870.5000     1.6805     1.5016
 1871.0000     1.6805     1.4919
 1871.5000     1.6805     1.4916
 1872.0000     1.6805     1.4913
 1872.5000     1.6805     0.4666
 1873.0000     1.6805     0.4852
 1873.5000     1.6805     0.4849
 1874.0000     1.6805     0.4846
 1874.5000     1.8672     0.4843
 1875.0000     1.8672     0.4840
 1875.5000     2.0539     0.4837
 1876.0000     2.2407     0.9345
 1876.5000     2.2407     0.9343
 1877.0000     2.2407     0.9340
 1877.5000     2.2407     0.9337
 1878.0000     2.2407     0.9334
 1878.5000     2.0539     0.5948
 1879.0000     1.8672     0.5945
 1879.5000     1.8672     0.5943
 1880.0000     1.8672     0.5940
 1880.5000     1.8672     0.5937
 1881.0000     1.8983     0.5934
 1881.5000     2.0539     0.5931
 1882.0000     2.0539     0.4800
 1882.5000     1.8672     0.4798
 1883.0000     1.8672     0.4795
 1883.5000     1.8672     0.4792
 1884.0000     1.8672     0.4789
 1884.5000     1.8672     0.5820
 1885.0000     1.8672     0.5912
 1885.5000     1.8672     0.5909
 1886.0000     1.8672     0.5906
 1886.5000     1.8672     0.9380
 1887.0000     1.8672     0.9471
 1887.5000     1.8672     0.9375
 1888.0000     1.8672     0.9372
 1888.5000     1.8672     1.2189
 1889.0000     1.8672     1.2186
 1889.5000     1.8672     1.2183
 1890.0000     1.8672     0.9455
 1890.5000     1.8672     0.9546
 1891.0000     1.8672     0.9543
 1891.5000     2.0539     0.9540
 1892.0000     1.8672     0.9444
 1892.5000     2.0539     1.7054
 1893.0000     2.0539     1.7145
 1893.5000     2.0539     1.7048
 1894.0000     2.2407     1.7045
 1894.5000     2.2407     0.6767
 1895.0000     2.2407     0.6579
 1895.5000     2.2407     0.6391
 1896.0000     2.2407     0.5075
 1896.5000     2.2407     0.5075
 1897.0000     2.2407     0.5075
 1897.5000     2.0539     0.5075
 1898.0000     1.8672     0.5075
 1898.5000     1.6805     0.4981
 1899.0000     1.8672     0.4981
 1899.5000     1.6805     0.4981
 1900.0000     1.6805     0.4981
 1900.5000     1.6805     0.4981
 1901.0000     1.6805     0.4981
 1901.5000     1.8672     0.5075
 1902.0000     1.8672     1.2876
 1902.5000     2.0539     1.2782
 1903.0000     2.0539     1.2688
 1903.5000     2.0797     1.2594
 1904.0000     2.1346     0.6673
 1904.5000     2.1735     0.6579
 1905.0000     2.1660     0.6485
 1905.5000     2.3456     0.6485
 1906.0000     2.3365     1.0338
 1906.5000     2.3291     1.0244
 1907.0000     2.3218     1.0244
 1907.5000     2.1278     1.0244
 1908.0000     2.1205     1.0244
 1908.5000     2.1131     1.0244
 1909.0000     2.1058     1.0244
 1909.5000     2.0985     1.0231
 1910.0000     2.0912     0.7989
 1910.5000     2.0838     0.7989
 1911.0000     2.0763     0.7895
 1911.5000     2.0689     0.7895
 1912.0000     2.0600     0.6391
 1912.5000     2.0527     0.6391
 1913.0000     2.0454     0.6391
 1913.5000     2.0381     0.6391
 1914.0000     2.0308     0.6391
 1914.5000     2.2120     0.6391
 1915.0000     2.2028     0.6391
 1915.5000     2.1955     0.6485
 1916.0000     2.1882     1.8045
 1916.5000     2.1809     1.8045
 1917.0000     2.3603     1.8045
 1917.5000     2.3527     1.8045
 1918.0000     2.3438     1.1560
 1918.5000     2.3365     1.1560
 1919.0000     2.3291     1.1560
 1919.5000     2.3218     1.5038
 1920.0000     2.3145     1.8045
 1920.5000     2.3072     1.8045
 1921.0000     2.2999     1.8233
 1921.5000     2.2925     1.8327
 1922.0000     2.2852     2.0301
 1922.5000     2.2779     2.0301
 1923.0000     2.2705     2.0301
 1923.5000     2.2631     1.5789
 1924.0000     2.2556     1.5508
 1924.5000     2.2468     1.5602
 1925.0000     2.2394     1.5508
 1925.5000     2.2321     0.6955
 1926.0000     2.2248     0.7049
 1926.5000     2.2175     0.7049
 1927.0000     2.2102     0.7049
 1927.5000     2.0161     0.5639
 1928.0000     2.0088     0.5639
 1928.5000     2.0015     0.5733
 1929.0000     1.9941     0.5733
 1929.5000     2.1735     0.5733
 1930.0000     2.1660     0.5827
 1930.5000     2.1571     0.5817
 1931.0000     2.1497     0.5748
 1931.5000     2.1424     0.5678
