~VERSION INFORMATION
 VERS.                2.0:   CWLS LOG ASCII STANDARD - VERSION 2.0
 WRAP.                 NO:   ONE LINE PER DEPTH STEP
~WELL INFORMATION
#MNEM.UNIT      DATA TYPE    INFORMATION
#----------   ------------   ------------------------------
 STRT.F           12.0000:   START DEPTH
 STOP.F          551.0000:   STOP DEPTH
 STEP.F            0.5000:   STEP LENGTH
 NULL.          -999.2500:   NO VALUE
 COMP. LAWRENCE-ALLISON &AS:   COMPANY
 WELL. NPR 3 #58-46SX3LP4:   WELL
 FLD .             TEAPOT:   FIELD
 LOC .       S3 T38N R78W:   LOCATION
 CNTY.            NATRONA:   COUNTY
 STAT.            WYOMING:   STATE
 CTRY. UNITED STATES OF AMERICA:   COUNTRY
 SRVC.      Dresser Atlas:   SERVICE COMPANY
 DATE.        14-DEC-1984:   LOGDATE
 API .       490251099900:   API NUMBER
~CURVE INFORMATION
#MNEM.UNIT       API CODE    CURVE DESCRIPTION
#----------   ------------   ------------------------------
 DEPT.F                  :   
 RD  .OHMM   11 220 10 00:   RESISTIVITY DEEP
 RS  .OHMM   11 220 09 00:   RESISTIVITY SHALLOW
 SPR .MV     11 010 01 00:   SPONTANEOUS POTENTIAL FROM RES.
 AC  .US/F   60 520 00 00:   ACOUSTIC SONIC
 CALD.IN     45 280 60 00:   CALIPER FROM DENSITY
 CORR.G/C3   45 356 01 00:   DENSITY CORRECTION
 DEN .G/C3   45 350 01 00:   COMPENSATED BULK DENSTIY
 GRD .GAPI   45 310 01 00:   GAMMA RAY FROM DENSITY LOG
 PORD.DEC    45 890 12 00:   POROSITY DENSITY SANDSTONE
 CNC .DEC    42 890 03 00:   NEUTRON POROSITY SANDSTONE
~PARAMETER INFORMATION
#MNEM.UNIT          VALUE    DESCRIPTION
#----------   ------------   ------------------------------
 PD  .                 GL:   PERMANENT DATUM
 EPD .F              5201:   ELEVATION PERMANENT DATUM
 LMF .                 GL:   LOG MEASURED FROM
 DMF .                 GL:   DRILLING MEASURED FROM
 EGL .F              5201:   GROUND LEVEL
 DATE.        14-DEC-1984:   RUN DATE
 RUN .                  1:   RUN NUMBER
 DD  .F               552:   DEPTH DRILLER
 DL  .F               552:   DEPTH LOGGER
 BLI .F               550:   BOTTOM LOG INTERVAL
 TLI .F                20:   TOP LOG INTERVAL
 CS  .IN            8.625:   CASING SIZE
 CBD .F                20:   CASING BOTTOM DRILLER
 CBL .F                20:   CASING BOTTOM LOGGER
 BS  .IN            7.875:   BIT SIZE
 BSD .F               552:   BIT SIZE AT DEPTH
 DFT .          KCL WATER:   DRILLING FLUID TYPE
 MSS .            MUDTANK:   MUD SAMPLE SOURCE
 RMS .OHMM          0.152:   RESISTIVITY MUD SAMPLE
 MST .F                76:   MUD SAMPLE TEMPERATURE
 RMF .OHMM           0.11:   RESISTIVITY MUD FILTRATE SAMPLE
 MFST.F                76:   MUD FILTRATE SAMPLE TEMPERATURE
 RMC .OHMM           0.19:   RESISTIVITY MUD CAKE
 MCST.F                76:   MUD CAKE SAMPLE TEMPERATURE
 MFSS.               CALC:   MUD FILTRATE SAMPLE SOURCE
 MCSS.               CALC:   MUD CAKE SAMPLE SOURCE
 TCS .HRS               5:   TIME CURCULATED STOPPED
 MRT .F               100:   MAXIMUM RECORDED TEMPERATURE
 LUN .               6270:   LOGGING UNIT NUMBER
 ENGI.            LEBSOCK:   RECORDING ENGINEER
 WITN.        GREG GROOMS:   WITNESSED BY
 CLNT.            A2DTECH:   CLIENT CODE
 ORIG.           5" PRINT:   ORIGIN OF DATA
 UWI .       490251099900:   UNIQUE WELL ID
 DICO. A2D Technologies, Inc.:   DIGITIZING COMPANY
~OTHER INFORMATION
~A   DEPT       RD         RS        SPR         AC       CALD       CORR        DEN        GRD       PORD          CNC 
# ...
  514.5000    10.4129    10.8539   -67.7186   101.6964     7.7550     0.0236     2.4864    97.7880     0.1073     0.2892
  515.0000    10.3449    10.5525   -67.8520   101.5415     7.7549     0.0342     2.4743    98.9925     0.1170     0.2916
  515.5000    10.2091    10.0463   -67.6889   101.6119     7.7397     0.0432     2.4743   102.9038     0.1203     0.2913
  516.0000     9.7992     9.2766   -67.6741   101.7587     7.7395     0.0402     2.4834   110.2737     0.1200     0.2734
  516.5000     9.0238     8.6622   -67.6593   102.4290     7.7545     0.0371     2.4932   117.1925     0.1164     0.2559
  517.0000     8.3098     8.0328   -67.6444   104.5280     7.7543     0.0295     2.4924   122.1564     0.1112     0.2553
  517.5000     7.5996     7.8173   -67.6296   106.3265     7.7541     0.0203     2.4872   130.8797     0.1109     0.2819
  518.0000     7.0459     7.7147   -67.6148   107.4488     7.7389    -0.0009     2.4653   146.3701     0.1161     0.2951
  518.5000     6.9526     7.8282   -67.5970   106.6928     7.7388    -0.0053     2.4418   147.8753     0.1328     0.2927
  519.0000     7.8781     8.3360   -67.5823   105.1104     7.7537     0.0102     2.4381   147.4257     0.1398     0.2876
  519.5000     8.7426     9.1890   -67.5676   103.2274     7.7535     0.0237     2.4396   144.5701     0.1430     0.2857
  520.0000     9.3080     9.8530   -67.5529   102.0958     7.7534     0.0311     2.4517   140.6155     0.1424     0.2848
  520.5000     9.6398    10.2767   -67.5381   101.1895     7.7532     0.0354     2.4653   135.7010     0.1368     0.2851
  521.0000     9.9148    10.4263   -67.5234   100.3584     7.7380     0.0336     2.4721   132.3942     0.1267     0.2878
  521.5000    10.1975    10.7253   -67.5087    99.6024     7.7228     0.0229     2.4789   130.5912     0.1218     0.2863
  522.0000    10.4161    11.0330   -67.6458    98.9967     7.7227     0.0156     2.4834   130.2916     0.1185     0.2769
  522.5000    10.7132    11.5873   -67.4792    98.6163     7.7376     0.0156     2.4781   136.9100     0.1176     0.2697
  523.0000    10.8675    11.9196   -67.4645    98.0857     7.7374     0.0262     2.4789   146.3852     0.1188     0.2752
  523.5000    11.1004    12.0098   -67.4498    97.7805     7.7222     0.0231     2.4834   144.8829     0.1191     0.2781
  524.0000    11.3384    11.9326   -67.4350    97.8522     7.7371     0.0185     2.4841   141.9329     0.1179     0.2775
  524.5000    11.4225    11.8577   -67.4203    98.0719     7.7344     0.0200     2.4849   133.3069     0.1164     0.2576
  525.0000    11.4280    11.7021   -67.5537    98.3676     7.7218     0.0230     2.4849   124.8873     0.1155     0.2598
  525.5000    11.4335    11.6287   -67.5390    98.6636     7.7042     0.0245     2.4841   118.8738     0.1152     0.2638
  526.0000    11.4390    11.6377   -67.5243    98.9594     7.6914     0.0290     2.4834   115.8678     0.1155     0.2699
  526.5000    11.3657    11.6449   -67.5095    99.2551     7.6913     0.0395     2.4834   112.5610     0.1158     0.2750
  527.0000    11.3713    11.6527   -67.4948    99.2505     7.6911     0.0531     2.4955   109.1039     0.1152     0.2772
  527.5000    11.3768    11.6593   -67.4801    99.1706     7.6910     0.0712     2.5076   106.2482     0.1094     0.2732
  528.0000    11.3823    11.7475   -67.4653    98.7152     7.7059     0.0727     2.5128   105.4979     0.1036     0.2705
  528.5000    11.4667    11.9185   -67.4506    98.0343     7.7208     0.0590     2.5091   108.9580     0.1000     0.2693
  529.0000    11.6319    12.0919   -67.5877    97.7291     7.7206     0.0364     2.5015   109.2603     0.1003     0.2693
  529.5000    11.6375    12.0994   -67.5693    98.1752     7.7225     0.0409     2.5076   108.6603     0.1036     0.2702
  530.0000    11.6443    12.1891   -67.5546    98.8467     7.7203     0.0484     2.5136   108.0603     0.1042     0.2777
  530.5000    11.4886    12.1126   -67.5398    99.3705     7.7202     0.0423     2.5121   107.9114     0.1006     0.2786
  531.0000    11.3364    12.0384   -67.5251    99.9693     7.7050     0.0317     2.5091   108.2137     0.0988     0.2641
  531.5000    11.1092    11.9610   -67.5104   100.5682     7.7048     0.0347     2.5060   109.5686     0.0997     0.2583
  532.0000    10.8129    11.5635   -67.4957   101.0118     7.7047     0.0498     2.5053   110.4723     0.1018     0.2571
  532.5000    10.5961    11.1775   -67.6291   101.3089     7.7196     0.0497     2.5015   110.7746     0.1037     0.2565
  533.0000    10.3123    10.8793   -67.6143   101.5308     7.7194     0.0467     2.4985   111.9791     0.1061     0.2574
  533.5000    10.1756    10.8094   -67.5996   101.5939     7.7343     0.0391     2.4909   113.7851     0.1114     0.2740
  534.0000     9.9717    10.6675   -67.5849   101.8244     7.7492     0.0225     2.4743   114.6888     0.1175     0.2942
  534.5000     9.9765    10.6019   -67.5702   102.1856     7.7340     0.0224     2.4668   113.7881     0.1252     0.3016
  535.0000     9.9813    10.5354   -67.7037   102.2560     7.7188     0.0269     2.4705   107.9244     0.1258     0.3057
  535.5000     9.9861    10.5422   -67.6889   101.9982     7.7186     0.0299     2.4773   101.0093     0.1239     0.3114
  536.0000     9.9909    10.5488   -67.8223   101.3439     7.7185     0.0329     2.4789    99.8078     0.1212     0.3129
  536.5000    10.1348    10.6285   -67.8074   101.1138     7.7183     0.0374     2.4781   100.5611     0.1194     0.2906
  537.0000    10.2808    10.8580   -67.7926   101.0340     7.7182     0.0404     2.4758   103.4198     0.1197     0.2894
  537.5000    10.3570    11.1695   -67.7778   100.9542     7.7180     0.0434     2.4743   105.6769     0.1209     0.2884
  538.0000    10.5790    11.4898   -67.7630   100.5739     7.7029     0.0479     2.4728   107.4830     0.1221     0.2871
  538.5000    10.7314    11.7379   -67.7481    99.8179     7.7027     0.0509     2.4721   109.4394     0.1227     0.2672
  539.0000    10.8860    11.9914   -67.7333    98.7614     7.7026     0.0493     2.4796   113.9521     0.1215     0.2542
  539.5000    10.9667    12.1659   -67.7185    97.7800     7.7024     0.0282     2.4902   117.4123     0.1179     0.2474
  540.0000    10.9720    12.1735   -67.7008    97.8505     7.7173     0.0070     2.4970   119.0175     0.1112     0.2410
  540.5000    10.9773    11.9296   -67.6860    98.2966     7.7171     0.0068     2.5015  -999.2500     0.1076     0.2376
  541.0000    10.9056    11.7744   -67.6713    98.8178     7.7020     0.0190     2.5053  -999.2500     0.1048     0.2485
  541.5000    10.8371    11.8635   -67.6566    99.3391     7.7018     0.0250     2.5083  -999.2500     0.1027     0.2754
  542.0000    10.7663    11.9588   -67.6418    99.8603     7.7008     0.0250     2.5083  -999.2500     0.1021     0.2899
  542.5000    10.7728    12.0435   -67.6271   100.3064     7.6865     0.0265     2.4970  -999.2500     0.1039     0.2645
  543.0000    10.7780    11.9599   -67.6124   100.6355     7.6863     0.0388     2.4909  -999.2500     0.1109     0.2569
  543.5000    10.7832    11.8929   -67.5977  -999.2500     7.6862     0.0521     2.4924  -999.2500     0.1103     0.2581
  544.0000    10.8632    11.9005   -67.5829  -999.2500     7.6860     0.0501     2.4970  -999.2500     0.1088     0.2666
  544.5000    10.8684    11.9079   -67.5682  -999.2500     7.6859     0.0337     2.5015  -999.2500     0.1076     0.2629
  545.0000    10.8736    11.9980   -67.5535  -999.2500     7.6857     0.0373     2.5030  -999.2500     0.1061     0.2581
  545.5000    10.8789    12.0207   -67.5387  -999.2500     7.6856     0.0429     2.5076  -999.2500     0.1042     0.2545
  546.0000    10.8841    12.0978   -67.5240  -999.2500     7.6854     0.0429     2.5106  -999.2500     0.1015     0.2608
  546.5000    10.9648    12.1893   -67.5093  -999.2500     7.6702     0.0528     2.5076  -999.2500     0.1003     0.2650
  547.0000    10.9701    12.1968   -67.6427  -999.2500     7.6550     0.0685     2.5091  -999.2500     0.0999     0.2653
  547.5000    10.9754    12.2044   -67.6280  -999.2500     7.6549     0.0609     2.5196  -999.2500     0.0974     0.2650
