~VERSION INFORMATION
 VERS.                2.0:   CWLS LOG ASCII STANDARD - VERSION 2.0
 WRAP.                 NO:   ONE LINE PER DEPTH STEP
~WELL INFORMATION
#MNEM.UNIT      DATA TYPE    INFORMATION
#----------   ------------   ------------------------------
 STRT.F            7.0000:   START DEPTH
 STOP.F          480.0000:   STOP DEPTH
 STEP.F            0.1000:   STEP LENGTH
 NULL.          -999.2500:   NO VALUE
 COMP.       F D SERV INC:   COMPANY
 WELL.    67-2 SX-3 #67-3:   WELL
 FLD .          N.P.R. #3:   FIELD
 LOC .       S3 T38N R78W:   LOCATION
 CNTY.            NATRONA:   COUNTY
 STAT.            WYOMING:   STATE
 CTRY. UNITED STATES OF AMERICA:   COUNTRY
 SRVC.     Atlas Wireline:   SERVICE COMPANY
 DATE.        12-FEB-1992:   LOGDATE
 API .       490252250400:   API NUMBER
~CURVE INFORMATION
#MNEM.UNIT       API CODE    CURVE DESCRIPTION
#----------   ------------   ------------------------------
 DEPT.F                  :   
 SPR .MV     07 010 01 00:   SPONTANEOUS POTENTIAL
 GRR .GAPI   07 310 01 00:   GAMMA RAY
 RILD.OHMM   07 120 46 00:   INDUCTION LOG DEEP RESISTIVITY
 RILM.OHMM   07 120 44 00:   INDUCTION LOG MEDIUM RESISTIVITY
 RFOC.OHMM   07 220 04 00:   RESISTIVITY FOCUSED LOG
~PARAMETER INFORMATION
#MNEM.UNIT          VALUE    DESCRIPTION
#----------   ------------   ------------------------------
 PD  .                 GL:   PERMANENT DATUM
 EPD .F              5165:   ELEVATION PERMANENT DATUM
 LMF .                 KB:   LOG MEASURED FROM
 DAPD.F                10:   FEET ABOVE PERMANENT DATUM
 DMF .                 KB:   DRILLING MEASURED FROM
 EKB .F              5175:   KELLING BUSHING
 EDF .F              5174:   DRILLING FLOOR
 EGL .F              5165:   GROUND LEVEL
 DATE.        12-FEB-1992:   RUN DATE
 RUN .                  1:   RUN NUMBER
 DD  .F               487:   DEPTH DRILLER
 DL  .F               485:   DEPTH LOGGER
 BLI .F               482:   BOTTOM LOG INTERVAL
 CS  .IN            8.625:   CASING SIZE
 CBD .F               183:   CASING BOTTOM DRILLER
 CBL .F               186:   CASING BOTTOM LOGGER
 BS  .IN            7.875:   BIT SIZE
 BSD .F               487:   BIT SIZE AT DEPTH
 DFT .           CHEM GEL:   DRILLING FLUID TYPE
 DFD .               16.1:   DRILLING FLUID DENSITY
 DFV .                 43:   DRILLING FLUID VISCOSITY
 DFPH.                9.5:   DRILLING FLUID PH
 DFL .               11.8:   DRILLING FLUID LOSS
 MSS .           MUD TANK:   MUD SAMPLE SOURCE
 RMS .OHMM           2.36:   RESISTIVITY MUD SAMPLE
 MST .F                65:   MUD SAMPLE TEMPERATURE
 RMF .OHMM           1.17:   RESISTIVITY MUD FILTRATE SAMPLE
 MFST.F                65:   MUD FILTRATE SAMPLE TEMPERATURE
 RMC .OHMM           5.18:   RESISTIVITY MUD CAKE
 MCST.F                65:   MUD CAKE SAMPLE TEMPERATURE
 MFSS.               MEAS:   MUD FILTRATE SAMPLE SOURCE
 MCSS.               CALC:   MUD CAKE SAMPLE SOURCE
 RMB .OHMM           1.67:   RESISTIVITY MUD AT BHT
 BHT .F                92:   BOTTOM HOLE TEMPERATURE
 TCS .HRS               2:   TIME CURCULATED STOPPED
 MRT .F                92:   MAXIMUM RECORDED TEMPERATURE
 LUN .           HL- 6224:   LOGGING UNIT NUMBER
 LUL .             CASPER:   LOGGING UNIT LOCATION
 ENGI.        VERN RAUTIO:   RECORDING ENGINEER
 WITN.        GARY STRONG:   WITNESSED BY
 CLNT.            A2DTECH:   CLIENT CODE
 ORIG.           5" PRINT:   ORIGIN OF DATA
 UWI .       490252250400:   UNIQUE WELL ID
 DICO. A2D Technologies, Inc.:   DIGITIZING COMPANY
~OTHER INFORMATION
~A    DEPT     SPR        GRR       RILD       RILM       RFOC   
# ...
  385.2000   -38.5001    77.4764    19.5050    19.5765    19.0059
  385.3000   -38.3783    76.7712    19.4565    19.5293    19.0061
  385.4000   -38.2565    76.5345    19.3704    19.4213    19.0064
  385.5000   -38.1381    76.2979    19.3710    19.3113    19.0066
  385.6000   -38.1381    76.1979    19.3715    19.2073    19.0069
  385.7000   -38.1381    76.2835    19.3720    19.1809    18.9973
  385.8000   -38.1381    76.5097    19.3176    19.1285    18.8751
  385.9000   -38.1381    76.5166    19.2093    19.0515    18.8753
  386.0000   -38.1501    76.7296    19.1052    19.0533    18.8756
  386.1000   -38.2883    76.8276    19.1057    18.9446    18.8759
  386.2000   -38.2883    76.8336    19.0205    18.9247    18.8761
  386.3000   -38.4427    76.8396    18.9739    18.9266    18.8764
  386.4000   -38.6863    76.8461    18.9396    18.8938    18.7782
  386.5000   -38.9299    76.8516    18.8430    18.7987    18.7455
  386.6000   -39.1892    76.6928    18.8437    18.8010    18.7457
  386.7000   -39.3031    76.5637    18.7534    18.7122    18.7460
  386.8000   -39.5106    76.5193    18.6483    18.6738    18.7463
  386.9000   -39.6970    76.2760    18.5438    18.6353    18.6417
  387.0000   -39.7608    75.8101    18.4552    18.5323    18.6162
  387.1000   -39.6396    75.5094    18.4559    18.4210    18.5615
  387.2000   -39.6396    75.1512    18.3616    18.4226    18.4569
  387.3000   -39.4511    74.7362    18.1893    18.3543    18.3586
  387.4000   -39.2734    74.4995    18.0301    18.2078    18.3589
  387.5000   -39.1141    74.2629    17.9290    18.0260    18.1893
  387.6000   -38.8612    74.2189    17.8255    17.9233    18.0444
  387.7000   -38.4384    74.3605    17.6320    17.8273    17.9427
  387.8000   -38.2329    74.5307    17.4346    17.6558    17.8172
  387.9000   -37.9149    74.5579    17.2876    17.5084    17.4837
  388.0000   -37.6416    74.8435    17.1907    17.3860    17.3092
  388.1000   -37.5019    75.2620    17.0943    17.1925    17.1145
  388.2000   -37.2372    75.6038    16.9986    17.0015    16.9219
  388.3000   -37.0147    75.9449    16.9034    16.8877    16.7489
  388.4000   -36.8540    76.4362    16.8087    16.7944    16.6502
  388.5000   -36.7322    76.9721    16.7145    16.7015    16.5607
  388.6000   -36.6104    77.5772    16.6287    16.6092    16.4674
  388.7000   -36.4865    77.4196    16.6293    16.5037    16.3747
  388.8000   -36.3668    77.1830    16.5502    16.4262    16.2823
  388.9000   -36.2449    76.9955    16.5145    16.3355    16.1905
  389.0000   -36.1231    77.0017    16.5150    16.2452    16.0993
  389.1000   -36.0013    76.7728    16.5022    16.1682    16.0800
  389.2000   -35.8859    76.5361    16.4011    16.1701    16.0802
  389.3000   -35.8859    76.2994    16.4015    16.1715    16.0805
  389.4000   -35.7860    76.1259    16.4020    16.1121    16.0729
  389.5000   -35.7357    76.1318    16.3622    16.0624    15.9690
  389.6000   -35.6925    75.8893    16.2889    16.0640    15.9692
  389.7000   -35.5706    75.8441    16.2893    16.0656    15.9694
  389.8000   -35.4354    75.8501    16.2898    16.0671    15.9696
  389.9000   -35.3271    75.8561    16.2233    16.0028    15.9698
  390.0000   -35.2853    75.8421    16.1774    15.9587    15.9701
  390.1000   -35.2853    75.5691    16.1778    15.9602    15.8875
  390.2000   -35.2853    75.5742    16.1762    15.9618    15.8593
  390.3000   -35.2853    75.5802    16.0857    15.9633    15.8595
  390.4000   -35.1684    75.5862    16.0667    15.8942    15.8403
  390.5000   -35.1351    75.5582    16.0172    15.8556    15.7495
  390.6000   -35.1351    75.2989    15.9559    15.8149    15.7497
  390.7000   -35.1032    75.3044    15.9491    15.7486    15.7499
  390.8000   -34.9815    75.1481    15.8459    15.7501    15.7502
  390.9000   -34.8595    75.0165    15.8462    15.7517    15.7252
  391.0000   -34.8348    75.1185    15.7923    15.7532    15.6409
  391.1000   -34.7660    75.6284    15.7370    15.7547    15.6412
  391.2000   -34.6443    76.5680    15.7251    15.7563    15.6414
  391.3000   -34.5345    77.7210    15.6285    15.7299    15.6416
  391.4000   -34.5345    78.9405    15.6289    15.6430    15.6418
  391.5000   -34.4289    80.0360    15.6293    15.5430    15.6318
  391.6000   -34.3071    80.7748    15.5917    15.3975    15.5333
  391.7000   -34.1853    81.7515    15.5214    15.3307    15.5335
  391.8000   -34.0841    82.5378    15.5219    15.3001    15.4769
  391.9000   -34.0841    83.4051    15.5224    15.2039    15.3897
  392.0000   -33.9700    84.3819    15.4595    15.0182    15.3029
  392.1000   -33.9339    85.3021    15.4153    14.9434    15.2121
  392.2000   -33.8764    85.5902    15.4157    14.9167    15.2123
  392.3000   -33.7547    85.5952    15.4145    14.8821    15.1512
  392.4000   -33.6329    85.6012    15.3283    14.7998    15.1068
  392.5000   -33.5111    85.6072    15.3098    14.7146    15.0860
  392.6000   -33.4835    85.6132    15.2631    14.6367    15.0009
  392.7000   -33.4175    85.6198    15.2042    14.6152    14.9164
  392.8000   -33.2957    84.7521    15.2046    14.5766    14.8980
  392.9000   -33.1832    83.4650    15.2051    14.5166    14.8522
  393.0000   -33.1832    82.0148    15.1336    14.5180    14.7946
  393.1000   -33.1832    80.5648    15.1001    14.4365    14.7882
  393.2000   -33.1087    79.0527    15.0692    14.4200    14.6921
  393.3000   -33.0330    77.8971    14.9847    14.4214    14.6922
  393.4000   -33.0330    77.2150    14.8922    14.3977    14.6417
  393.5000   -33.0330    76.7356    14.8173    14.3181    14.5903
  393.6000   -32.9217    76.3778    14.7343    14.2263    14.5786
  393.7000   -32.8829    76.3837    14.6870    14.2274    14.4891
  393.8000   -32.8829    76.1435    14.6716    14.1806    14.4893
  393.9000   -32.8566    76.0960    14.5857    14.1314    14.4341
  394.0000   -32.7327    76.1020    14.5077    14.1328    14.3888
  394.1000   -32.7327    76.1079    14.4264    14.1343    14.3890
  394.2000   -32.7327    76.1139    14.3456    14.0644    14.3892
  394.3000   -32.6696    76.1209    14.2851    14.0388    14.3101
  394.4000   -32.5826    75.9228    14.2845    14.0402    14.2894
  394.5000   -32.5826    75.8321    14.2045    14.0415    14.2485
  394.6000   -32.5826    75.8381    14.1249    14.0430    14.1903
  394.7000   -32.7460    75.8441    14.0458    13.9690    14.1871
  394.8000   -32.6359    75.8507    13.9912    13.8918    14.0919
  394.9000   -32.5946    75.8561    13.9860    13.8526    14.0921
  395.0000   -32.5943    75.7021    13.8947    13.8348    14.0465
  395.1000   -32.5939    75.4655    13.8950    13.7582    13.9943
  395.2000   -32.5937    75.2732    13.8486    13.6823    13.9945
  395.3000   -32.5934    75.2806    13.7710    13.6663    13.9948
  395.4000   -32.5930    75.2864    13.7036    13.6676    13.9949
  395.5000   -32.5928    75.4663    13.7041    13.6455    13.9444
  395.6000   -32.5925    75.7149    13.7044    13.5753    13.8979
  395.7000   -32.6076    76.0232    13.6541    13.5769    13.8981
  395.8000   -32.7427    76.5145    13.6099    13.5780    13.8983
  395.9000   -32.7424    77.0060    13.6103    13.5793    13.8246
  396.0000   -32.7421    77.3093    13.6107    13.5807    13.8019
  396.1000   -32.7418    77.8195    13.6110    13.5723    13.7651
  396.2000   -32.7415    78.4800    13.6114    13.4892    13.7061
  396.3000   -32.7412    78.9713    13.6118    13.4903    13.7063
  396.4000   -32.7408    79.5452    13.6122    13.4916    13.7065
  396.5000   -32.7405    79.9540    13.6125    13.4930    13.7067
  396.6000   -32.7403    80.4454    13.6129    13.4943    13.7069
  396.7000   -32.7400    80.7616    13.6133    13.4957    13.7071
  396.8000   -32.7397    80.7980    13.6137    13.4969    13.7073
  396.9000   -32.7393    81.0741    13.6140    13.4982    13.7075
  397.0000   -32.7391    81.0795    13.6144    13.4995    13.7077
  397.1000   -32.7388    80.9267    13.6149    13.5009    13.7078
  397.2000   -32.7384    80.5885    13.6152    13.5022    13.7080
  397.3000   -32.7381    80.1091    13.6156    13.5035    13.7082
