~VERSION INFORMATION
 VERS.                2.0:   CWLS LOG ASCII STANDARD - VERSION 2.0
 WRAP.                 NO:   ONE LINE PER DEPTH STEP
~WELL INFORMATION
#MNEM.UNIT      DATA TYPE    INFORMATION
#----------   ------------   ------------------------------
 STRT.F           19.5000:   START DEPTH
 STOP.F          690.5000:   STOP DEPTH
 STEP.F            0.5000:   STEP LENGTH
 NULL.          -999.2500:   NO VALUE
 COMP. FENIX & SCISSON INC:   COMPANY
 WELL. 37-22 SX 11 WI #3-11:   WELL
 FLD .             TEAPOT:   FIELD
 LOC .      S11 T38N R78W:   LOCATION
 CNTY.            NATRONA:   COUNTY
 STAT.            WYOMING:   STATE
 CTRY. UNITED STATES OF AMERICA:   COUNTRY
 SRVC.      Dresser Atlas:   SERVICE COMPANY
 DATE.        11-AUG-1980:   LOGDATE
 API .       490251084400:   API NUMBER
~CURVE INFORMATION
#MNEM.UNIT       API CODE    CURVE DESCRIPTION
#----------   ------------   ------------------------------
 DEPT.F                  :   
 SPR .MV     07 010 01 00:   SPONTANEOUS POTENTIAL
 SFL .OHMM   07 220 01 00:   SHALLOW FOCUSED LOG RESISTIVITY
 ILD .OHMM   07 120 46 00:   INDUCTION LOG DEEP
 ILM .OHMM   07 120 44 00:   INDUCTION LOG MEDIUM
 GRD .GAPI   45 310 01 00:   GAMMA RAY FROM DENSITY LOG
 CALD.IN     45 280 60 00:   CALIPER
 CORR.G/C3   45 356 01 00:   DENSITY CORRECTION
 RHOB.G/C3   45 350 01 00:   BULK DENSITY
 NPHI.DEC    42 890 12 00:   NEUTRON POROSITY SANDSTONE
 DPHI.DEC    45 890 12 00:   DENSITY POROSITY SANDSTONE
~PARAMETER INFORMATION
#MNEM.UNIT          VALUE    DESCRIPTION
#----------   ------------   ------------------------------
 PD  .                 GL:   PERMANENT DATUM
 EPD .F              5191:   ELEVATION PERMANENT DATUM
 LMF .                 KB:   LOG MEASURED FROM
 DAPD.F                 5:   FEET ABOVE PERMANENT DATUM
 DMF .                 KB:   DRILLING MEASURED FROM
 EKB .F              5196:   KELLING BUSHING
 EGL .F              5191:   GROUND LEVEL
 DATE.            8-11-80:   RUN DATE
 RUN .                  1:   RUN NUMBER
 DD  .F               680:   DEPTH DRILLER
 DL  .F               689:   DEPTH LOGGER
 BLI .F               687:   BOTTOM LOG INTERVAL
 TLI .F                20:   TOP LOG INTERVAL
 CS  .IN            8.625:   CASING SIZE
 BS  .IN            7.875:   BIT SIZE
 BSD .F               680:   BIT SIZE AT DEPTH
 DFT .           CHEM GEL:   DRILLING FLUID TYPE
 DFD .                9.9:   DRILLING FLUID DENSITY
 DFV .                 52:   DRILLING FLUID VISCOSITY
 DFPH.               11.5:   DRILLING FLUID PH
 DFL .                104:   DRILLING FLUID LOSS
 MSS .           FLOWLINE:   MUD SAMPLE SOURCE
 RMS .OHMM             .2:   RESISTIVITY MUD SAMPLE
 MST .F                74:   MUD SAMPLE TEMPERATURE
 RMF .OHMM            .15:   RESISTIVITY MUD FILTRATE SAMPLE
 MFST.F                74:   MUD FILTRATE SAMPLE TEMPERATURE
 RMC .OHMM            .25:   RESISTIVITY MUD CAKE
 MCST.F                74:   MUD CAKE SAMPLE TEMPERATURE
 MFSS.               CALC:   MUD FILTRATE SAMPLE SOURCE
 MCSS.               CALC:   MUD CAKE SAMPLE SOURCE
 TCS .HRS               3:   TIME CURCULATED STOPPED
 LUN .             HL6150:   LOGGING UNIT NUMBER
 LUL .                 FM:   LOGGING UNIT LOCATION
 ENGI.            BRANNEY:   RECORDING ENGINEER
 WITN.           MCINTYRE:   WITNESSED BY
 CLNT.            A2DTECH:   CLIENT CODE
 ORIG.           5" PRINT:   ORIGIN OF DATA
 UWI .       490251084400:   UNIQUE WELL ID
 DICO. A2D Technologies, Inc.:   DIGITIZING COMPANY
~OTHER INFORMATION
~A   DEPT      SPR        SFL        ILD        ILM        GRD       CALD       CORR       RHOB       NPHI       DPHI   
# ...
   53.0000   -36.6850     6.5790     4.5430     4.4090    84.2770     9.7680     0.0530  -999.2500  -999.2500  -999.2500
   53.5000   -37.1280     6.2920     4.4500     4.2460    81.8320     9.8020     0.0750  -999.2500  -999.2500  -999.2500
   54.0000   -37.6770     6.0060     4.8730     4.0350    79.5850    10.5890     0.0820  -999.2500  -999.2500  -999.2500
   54.5000   -38.2250     5.7190     5.3030     3.8240    81.2160    11.8080     0.0880  -999.2500  -999.2500  -999.2500
   55.0000   -38.7740     5.4320     5.8090     3.6130    81.9430    10.8790     0.1000  -999.2500  -999.2500  -999.2500
   55.5000   -39.3210     5.1550     4.7310     3.4090    80.5490     9.7730     0.0930  -999.2500  -999.2500  -999.2500
   56.0000   -39.8690     7.3770     3.7370     3.3770    79.3960     9.5780     0.0760  -999.2500  -999.2500  -999.2500
   56.5000   -40.0810     5.8850     4.2370     3.5660    80.5280     9.4260     0.0600  -999.2500  -999.2500  -999.2500
   57.0000   -39.8720     3.7370     4.6830     3.7460    81.8460     9.7240     0.0400  -999.2500  -999.2500  -999.2500
   57.5000   -39.6670     5.6070     5.1300     3.9120    81.6370    10.5680     0.0680  -999.2500  -999.2500  -999.2500
   58.0000   -39.4580     6.8540     5.4470     3.2700    81.6790    10.9390     0.1370  -999.2500  -999.2500  -999.2500
   58.5000   -39.2280     5.5800     4.4370     2.2750    78.3930     9.7300     0.0890  -999.2500  -999.2500  -999.2500
   59.0000   -39.9330     3.4720     3.6540     2.4900    80.6960     9.0720     0.0010     2.0030  -999.2500  -999.2500
   59.5000   -40.9590     3.7290     2.9700     2.7930    83.8320     9.4340    -0.0780     2.0020  -999.2500  -999.2500
   60.0000   -41.9930     4.2210     3.3350     3.0970    84.8270     9.3630    -0.0460     2.0020  -999.2500  -999.2500
   60.5000   -43.0300     4.7130     3.7280     3.4010    83.0850    11.9320     0.0040     2.0020  -999.2500  -999.2500
   61.0000   -44.0690     5.2050     4.1210     3.7040    83.6100    12.2530     0.0550     2.0020  -999.2500  -999.2500
   61.5000   -45.1080     5.6970     4.5140     4.0080    80.5360    11.4360     0.1060     2.0030  -999.2500  -999.2500
   62.0000   -46.2220     6.1890     4.9070     4.3120    82.8790    10.4810     0.1570     2.0250  -999.2500  -999.2500
   62.5000   -47.3840     6.6810     5.3000     4.6150    84.9350    10.2200     0.1800     2.0890  -999.2500  -999.2500
   63.0000   -48.5480     7.1730     5.6930     4.9190    86.5220     9.9600     0.1680     2.1130  -999.2500  -999.2500
   63.5000   -49.7140     7.6540     6.0860     5.2230    90.4350     9.8780     0.1730     2.1280  -999.2500  -999.2500
   64.0000   -50.8800     7.4890     6.3100     5.5270    94.0460    10.0500     0.2000     2.2000  -999.2500     0.2720
   64.5000   -52.0460     7.3280     6.2610     5.7560    97.5810     9.3010     0.2330     2.2770  -999.2500     0.1870
   65.0000   -53.2080     7.1670     6.2210     5.6910    98.6630     8.6860     0.1770     2.4070  -999.2500     0.1640
   65.5000   -54.2100     7.0060     6.1820     5.6390   100.2000     8.5740     0.0830     2.3820  -999.2500     0.1920
   66.0000   -54.7040     6.8450     6.1420     5.5880   103.1760     8.6080     0.0510     2.3560  -999.2500     0.1950
   66.5000   -55.2050     6.6680     6.1020     5.5360   106.1700     8.4990     0.0380     2.3520  -999.2500     0.1980
   67.0000   -55.7080     6.6680     6.0640     5.4840   105.5300     8.4400     0.0340     2.3570  -999.2500     0.1930
   67.5000   -56.2100     6.6340     6.0270     5.4320   104.8230     8.4680     0.0360     2.3670     0.2990     0.1870
   68.0000   -56.7120     6.5970     5.9910     5.3970   106.5590     8.4960     0.0440     2.3700     0.2990     0.1950
   68.5000   -57.2130     6.5610     5.9550     5.3690   107.5970     8.5240     0.0550     2.3560     0.3000     0.1910
   69.0000   -57.7130     6.5240     5.9180     5.3390   106.4780     8.5070     0.0650     2.3670     0.3000     0.1830
   69.5000   -58.0670     6.4870     5.8820     5.3100   106.9560     8.4710     0.0750     2.3820     0.3000     0.1750
   70.0000   -58.1400     6.4500     5.8450     5.2800   106.2970     8.4350     0.0860     2.3970     0.3000     0.1640
   70.5000   -58.2180     6.4130     5.8090     5.2500   106.3130     8.3840     0.0840     2.4060     0.3000     0.1690
   71.0000   -58.2960     6.3760     5.7720     5.2200   103.6320     8.3570     0.0800     2.3910     0.2980     0.1740
   71.5000   -58.3750     6.3390     5.7360     5.1900   106.4030     8.3280     0.0750     2.4090     0.2990     0.1650
   72.0000   -58.5110     6.3020     5.6990     5.1600   108.7990     8.2990     0.0700     2.3920     0.2910     0.1740
   72.5000   -58.8770     6.2520     5.6630     5.1300   109.1080     8.2690     0.0660     2.4020     0.2940     0.1700
   73.0000   -59.2400     6.2730     5.6260     5.1010   108.4390     8.2400     0.0640     2.4150     0.2990     0.1640
   73.5000   -59.6020     6.3040     5.5990     5.0710   109.6440     8.2110     0.0530     2.4090     0.2950     0.1600
   74.0000   -59.9640     6.3350     5.6380     5.0610   106.8660     8.1820     0.0410     2.3980     0.2600     0.1740
   74.5000   -60.3270     6.3670     5.6690     5.0810   108.2420     8.1530     0.0310     2.3950     0.2600     0.1700
   75.0000   -60.6890     6.3980     5.7000     5.1000   106.1360     8.1350     0.0340     2.4050     0.2630     0.1650
   75.5000   -61.0210     6.4290     5.7310     5.1190   106.9160     8.1270     0.0420     2.4140     0.2650     0.1620
   76.0000   -61.1360     6.4610     5.7620     5.1380   107.8270     8.1170     0.0400     2.4090     0.2600     0.1670
   76.5000   -61.2470     6.4920     5.7930     5.1570   108.2250     8.1060     0.0380     2.3970     0.2650     0.1740
   77.0000   -61.3590     6.5240     5.8240     5.1750   107.3180     8.0960     0.0430     2.3880     0.2700     0.1720
   77.5000   -61.4700     6.5550     5.8550     5.1940   108.3380     8.0860     0.0480     2.4030     0.2740     0.1660
   78.0000   -61.5820     6.5860     5.8860     5.2130   110.5160     8.0760     0.0540     2.4140     0.2710     0.1600
   78.5000   -61.6930     6.6180     5.9170     5.2320   111.1180     8.0820     0.0590     2.4260     0.2710     0.1540
   79.0000   -61.8050     6.6680     5.9480     5.2510   107.5880     8.0910     0.0530     2.4320     0.2710     0.1510
   79.5000   -61.9150     6.6600     5.9790     5.2700   105.6130     8.1010     0.0450     2.4210     0.2640     0.1560
   80.0000   -61.9940     6.6420     6.0100     5.2890   109.0780     8.1100     0.0400     2.4190     0.2550     0.1580
   80.5000   -61.9320     6.6230     6.0400     5.3070   105.8430     8.1200     0.0450     2.4360     0.2590     0.1530
   81.0000   -61.8730     6.6040     6.0710     5.3260   104.5110     8.1290     0.0500     2.4250     0.2550     0.1490
   81.5000   -61.8140     6.5850     6.0820     5.3450   106.2120     8.1350     0.0470     2.4370     0.2590     0.1460
   82.0000   -61.7550     6.5670     5.9790     5.3050   107.2670     8.1370     0.0420     2.4460     0.2560     0.1430
   82.5000   -61.6960     6.5480     5.8970     5.2550   107.6470     8.1390     0.0370     2.4430     0.2560     0.1440
   83.0000   -61.6360     6.5290     5.8150     5.2050   106.8060     8.1400     0.0330     2.4390     0.2560     0.1480
   83.5000   -61.6240     6.5100     5.7330     5.1550   105.9710     8.1420     0.0280     2.4300     0.2520     0.1530
   84.0000   -61.9220     6.4920     5.6500     5.1050   104.2940     8.1440     0.0210     2.4190     0.2620     0.1600
   84.5000   -62.2110     6.3890     5.5680     5.0610   103.0970     8.1460     0.0120     2.4080     0.2650     0.1680
   85.0000   -62.4980     6.2020     5.4970     4.4940   104.4830     8.1480     0.0160     2.3960     0.2620     0.1720
   85.5000   -62.7970     6.0150     4.9550     3.9470   106.2450     8.1500     0.0150     2.3850     0.2580     0.1760
   86.0000   -63.2770     5.8280     4.3790     3.5160   107.6550     8.1510     0.0060     2.3730     0.2560     0.1840
