~VERSION INFORMATION
 VERS.                2.0:   CWLS LOG ASCII STANDARD - VERSION 2.0
 WRAP.                 NO:   ONE LINE PER DEPTH STEP
~WELL INFORMATION
#MNEM.UNIT      DATA TYPE    INFORMATION
#----------   ------------   ------------------------------
 STRT.F            0.0000:   START DEPTH
 STOP.F         4535.0000:   STOP DEPTH
 STEP.F            0.5000:   STEP LENGTH
 NULL.          -999.2500:   NO VALUE
 COMP. LAWRENCE - ALLISON & ASSOCIATES:   COMPANY
 WELL.    NPR ##3 56-X-15:   WELL
 FLD .   TEAPOT NAVAL RES:   FIELD
 LOC .      S15 T38N R78W:   LOCATION
 CNTY.            NATRONA:   COUNTY
 STAT.            WYOMING:   STATE
 CTRY. UNITED STATES OF AMERICA:   COUNTRY
 SRVC.      Dresser Atlas:   SERVICE COMPANY
 DATE.        03-MAY-1984:   LOGDATE
 API .       490251095900:   API NUMBER
~CURVE INFORMATION
#MNEM.UNIT       API CODE    CURVE DESCRIPTION
#----------   ------------   ------------------------------
 DEPT.F                  :   
 CORR.G/C3   45 356 01 00:   DENSITY CORRECTION
 DEN .G/C3   45 350 01 00:   COMPENSATED BULK DENSTIY
 PORD.DEC    45 890 12 00:   POROSITY DENSITY SANDSTONE
 CNC .DEC    42 890 03 00:   NEUTRON POROSITY SANDSTONE
 GRR .GAPI   07 310 01 00:   GAMMA RAY
 CALR.IN     07 280 01 00:   CALIPER FROM RESISTIVITY
 SPR .MV     07 010 01 00:   SPONTANEOUS POTENTIAL
 RILD.OHMM   07 120 46 00:   INDUCTION LOG DEEP RESISTIVITY
 RILM.OHMM   07 120 44 00:   INDUCTION LOG MEDIUM RESISTIVITY
 RFOC.OHMM   07 220 04 00:   RESISTIVITY FOCUSED LOG
 AC  .US/F   60 520 00 00:   ACCOUSTIC
~PARAMETER INFORMATION
#MNEM.UNIT          VALUE    DESCRIPTION
#----------   ------------   ------------------------------
 PD  .                 GL:   PERMANENT DATUM
 EPD .F              5326:   ELEVATION PERMANENT DATUM
 LMF .                 KB:   LOG MEASURED FROM
 DAPD.F                12:   FEET ABOVE PERMANENT DATUM
 DMF .                 KB:   DRILLING MEASURED FROM
 EKB .F              5338:   KELLING BUSHING
 EDF .F              5337:   DRILLING FLOOR
 EGL .F              5326:   GROUND LEVEL
 DATE.        03-MAY-1984:   RUN DATE
 RUN .                  1:   RUN NUMBER
 DD  .F              4547:   DEPTH DRILLER
 DL  .F              4539:   DEPTH LOGGER
 BLI .F              4536:   BOTTOM LOG INTERVAL
 CS  .IN            8.625:   CASING SIZE
 CBD .F              1027:   CASING BOTTOM DRILLER
 CBL .F              1021:   CASING BOTTOM LOGGER
 BS  .IN            7.875:   BIT SIZE
 BSD .F              4547:   BIT SIZE AT DEPTH
 DFT .            KCL GEL:   DRILLING FLUID TYPE
 DFD .                9.1:   DRILLING FLUID DENSITY
 DFV .                 44:   DRILLING FLUID VISCOSITY
 DFPH.                  8:   DRILLING FLUID PH
 DFL .               14.5:   DRILLING FLUID LOSS
 MSS .           MUD TANK:   MUD SAMPLE SOURCE
 RMS .OHMM           0.56:   RESISTIVITY MUD SAMPLE
 MST .F                73:   MUD SAMPLE TEMPERATURE
 RMF .OHMM           0.42:   RESISTIVITY MUD FILTRATE SAMPLE
 MFST.F                73:   MUD FILTRATE SAMPLE TEMPERATURE
 RMC .OHMM           0.71:   RESISTIVITY MUD CAKE
 MCST.F                73:   MUD CAKE SAMPLE TEMPERATURE
 MFSS.               MEAS:   MUD FILTRATE SAMPLE SOURCE
 MCSS.               CALC:   MUD CAKE SAMPLE SOURCE
 RMB .OHMM           0.29:   RESISTIVITY MUD AT BHT
 BHT .F               141:   BOTTOM HOLE TEMPERATURE
 TCS .HRS             3.5:   TIME CURCULATED STOPPED
 MRT .F               125:   MAXIMUM RECORDED TEMPERATURE
 LUN .               6302:   LOGGING UNIT NUMBER
 LUL .               CODY:   LOGGING UNIT LOCATION
 ENGI.              GETTY:   RECORDING ENGINEER
 WITN.           JENNINGS:   WITNESSED BY
 CLNT.            A2DTECH:   CLIENT CODE
 ORIG.           5" PRINT:   ORIGIN OF DATA
 UWI .       490251095900:   UNIQUE WELL ID
 DICO. A2D Technologies, Inc.:   DIGITIZING COMPANY
~OTHER INFORMATION
~A    DEPT    CORR        DEN       PORD        CNC        GRR       CALR        SPR       RILD       RILM       RFOC         AC   
# ...
 1738.5000  -999.2500  -999.2500  -999.2500  -999.2500    83.3985     8.8456   -22.4068     9.2350     8.7600     8.3577  -999.2500
 1739.0000  -999.2500  -999.2500  -999.2500  -999.2500    82.0390     8.8304   -22.5558     9.1049     8.6362     8.5889  -999.2500
 1739.5000  -999.2500  -999.2500  -999.2500  -999.2500    82.0427     8.8302   -22.7041     9.1022     8.5141     8.7063  -999.2500
 1740.0000  -999.2500  -999.2500  -999.2500  -999.2500    83.8502     8.8150   -23.0029     9.0997     8.5112     8.5818  -999.2500
 1740.5000  -999.2500  -999.2500  -999.2500  -999.2500    85.3569     8.7998   -23.1517     9.0972     8.4464     8.2281  -999.2500
 1741.0000  -999.2500  -999.2500  -999.2500  -999.2500    84.4576     8.8148   -23.1501     9.0947     8.2665     7.9440  -999.2500
 1741.5000  -999.2500  -999.2500  -999.2500  -999.2500    82.0546     8.8146   -22.6982     9.0292     8.2121     7.9961  -999.2500
 1742.0000  -999.2500  -999.2500  -999.2500  -999.2500    79.9523     8.8144   -22.3964     9.0267     8.2087     8.1046  -999.2500
 1742.5000  -999.2500  -999.2500  -999.2500  -999.2500    79.0523     8.8143   -22.2447     9.0242     8.3207     8.2146  -999.2500
 1743.0000  -999.2500  -999.2500  -999.2500  -999.2500    80.8605     8.8141   -22.2432     9.0847     8.3758     8.2112  -999.2500
 1743.5000  -999.2500  -999.2500  -999.2500  -999.2500    83.5703     8.7989   -22.3920     9.0822     8.4313     8.2659  -999.2500
 1744.0000  -999.2500  -999.2500  -999.2500  -999.2500    84.7763     8.7988   -22.3901     9.0864     8.4284     8.4944  -999.2500
 1744.5000  -999.2500  -999.2500  -999.2500  -999.2500    83.5762     8.7986   -22.3886     9.1406     8.4255     8.4321  -999.2500
 1745.0000  -999.2500  -999.2500  -999.2500  -999.2500    84.4815     8.8135   -22.2370     9.2019     8.3643     8.1977  -999.2500
 1745.5000  -999.2500  -999.2500  -999.2500  -999.2500    85.9882     8.8134   -21.9352     9.1987     8.3043     8.0253  -999.2500
 1746.0000  -999.2500  -999.2500  -999.2500  -999.2500    85.9912     8.8283   -21.7836     9.1962     8.5346     8.1910  -999.2500
 1746.5000  -999.2500  -999.2500  -999.2500  -999.2500    85.0919     8.8281   -21.6320     9.1936     8.6517     8.5360  -999.2500
 1747.0000  -999.2500  -999.2500  -999.2500  -999.2500    84.7934     8.8430   -21.4803     9.1911     8.7090     8.7729  -999.2500
 1747.5000  -999.2500  -999.2500  -999.2500  -999.2500    86.0001     8.8419   -21.7792     9.1886     8.5852     8.7035  -999.2500
 1748.0000  -999.2500  -999.2500  -999.2500  -999.2500    87.5069     8.8126   -21.9282     9.1224     8.4053     8.2765  -999.2500
 1748.5000  -999.2500  -999.2500  -999.2500  -999.2500    86.3068     8.7948   -21.9264     9.1199     8.2291     7.9852  -999.2500
 1749.0000  -999.2500  -999.2500  -999.2500  -999.2500    83.3023     8.7822   -21.6246     9.0542     8.1694     7.8364  -999.2500
 1749.5000  -999.2500  -999.2500  -999.2500  -999.2500    84.2076     8.7670   -21.4730     9.0517     8.1666     7.8332  -999.2500
 1750.0000  -999.2500  -999.2500  -999.2500  -999.2500    87.8195     8.7669   -21.4715     9.0492     8.1638     7.8504  -999.2500
 1750.5000  -999.2500  -999.2500  -999.2500  -999.2500    89.3342     8.7669   -21.5728     9.0467     8.2665     8.1060  -999.2500
 1751.0000  -999.2500  -999.2500  -999.2500  -999.2500    88.4438     8.7669   -21.6216     9.0442     8.3324     8.2759  -999.2500
 1751.5000  -999.2500  -999.2500  -999.2500  -999.2500    91.1655     8.7669   -21.7718     9.0417     8.3302     8.4490  -999.2500
 1752.0000  -999.2500  -999.2500  -999.2500  -999.2500    91.4781     8.7669   -21.9219     9.0392     8.3285     8.3890  -999.2500
 1752.5000  -999.2500  -999.2500  -999.2500  -999.2500    90.5877     8.7669   -21.9219     9.0999     8.3853     7.9788  -999.2500
 1753.0000  -999.2500  -999.2500  -999.2500  -999.2500    86.6898     8.7669   -21.4715     9.1609     8.4420     8.3287  -999.2500
 1753.5000  -999.2500  -999.2500  -999.2500  -999.2500    82.4912     8.7669   -21.3213     9.2222     8.5583     8.4440  -999.2500
 1754.0000  -999.2500  -999.2500  -999.2500  -999.2500    76.1873     8.7669   -21.3213     9.2197     8.6162     8.5017  -999.2500
 1754.5000  -999.2500  -999.2500  -999.2500  -999.2500    74.3917     8.7669   -21.3213     9.2171     8.4951     8.4417  -999.2500
 1755.0000  -999.2500  -999.2500  -999.2500  -999.2500    75.6095     8.7669   -21.3213     9.0872     8.3182     8.3164  -999.2500
 1755.5000  -999.2500  -999.2500  -999.2500  -999.2500    78.0274     8.7820   -21.3213     9.0847     8.1450     8.1411  -999.2500
 1756.0000  -999.2500  -999.2500  -999.2500  -999.2500    80.1446     8.7970   -21.3213     9.0817     8.0870     7.9819  -999.2500
 1756.5000  -999.2500  -999.2500  -999.2500  -999.2500    81.3595     8.8120   -21.3213     9.0792     8.0293     8.0364  -999.2500
 1757.0000  -999.2500  -999.2500  -999.2500  -999.2500    82.5946     8.8120   -21.3213     9.0767     8.0277     8.0353  -999.2500
 1757.5000  -999.2500  -999.2500  -999.2500  -999.2500    83.1880     8.8120   -21.1712     9.0742     8.0334     7.8140  -999.2500
 1758.0000  -999.2500  -999.2500  -999.2500  -999.2500    80.8157     8.8120   -21.0210     9.0717     8.0803     7.5989  -999.2500
 1758.5000  -999.2500  -999.2500  -999.2500  -999.2500    76.5949     8.8271   -21.0210     9.0692     8.1913     7.8119  -999.2500
 1759.0000  -999.2500  -999.2500  -999.2500  -999.2500    82.6248     8.8271   -21.0210     9.0667     8.3041     8.0312  -999.2500
 1759.5000  -999.2500  -999.2500  -999.2500  -999.2500    86.2457     8.8271   -21.1712     9.0642     8.3603     8.0860  -999.2500
 1760.0000  -999.2500  -999.2500  -999.2500  -999.2500    87.7614     8.8271   -21.3213     9.0617     8.3586     8.1980  -999.2500
 1760.5000  -999.2500  -999.2500  -999.2500  -999.2500    88.9763     8.8271   -21.6216     9.0592     8.3569     8.2540  -999.2500
 1761.0000  -999.2500  -999.2500  -999.2500  -999.2500    89.8904     8.8271   -21.4715     8.9316     8.2973     8.1955  -999.2500
 1761.5000  -999.2500  -999.2500  -999.2500  -999.2500    90.2030     8.8421   -21.3213     8.8058     8.0683     8.0254  -999.2500
 1762.0000  -999.2500  -999.2500  -999.2500  -999.2500    86.0044     8.8421   -21.3213     8.6216     7.8456     7.8044  -999.2500
 1762.5000  -999.2500  -999.2500  -999.2500  -999.2500    83.3065     8.9098   -21.6216     8.3827     7.6822     7.6424  -999.2500
 1763.0000  -999.2500  -999.2500  -999.2500  -999.2500    83.6221     9.0677   -21.6216     8.1504     7.4702     7.4838  -999.2500
 1763.5000  -999.2500  -999.2500  -999.2500  -999.2500    84.5363     9.1880   -21.4715     7.8696     7.2137     7.3284  -999.2500
 1764.0000  -999.2500  -999.2500  -999.2500  -999.2500    86.0519     9.3083   -21.3213     7.7049     7.0635     7.1266  -999.2500
 1764.5000  -999.2500  -999.2500  -999.2500  -999.2500    87.8683     9.2481   -21.1712     7.6494     7.0621     6.9777  -999.2500
 1765.0000  -999.2500  -999.2500  -999.2500  -999.2500    89.6847     9.0977   -21.0210     7.7042     7.1594     6.9294  -999.2500
 1765.5000  -999.2500  -999.2500  -999.2500  -999.2500    91.2003     8.9925   -21.0210     7.7584     7.3086     6.9878  -999.2500
 1766.0000  -999.2500  -999.2500  -999.2500  -999.2500    91.5330     8.8872   -21.0210     7.8043     7.5130     7.3234  -999.2500
 1766.5000  -999.2500  -999.2500  -999.2500  -999.2500    91.2241     8.8271   -21.0210     7.7475     7.5638     7.3734  -999.2500
 1767.0000  -999.2500  -999.2500  -999.2500  -999.2500    91.2664     8.8120   -21.0210     7.6917     7.5098     7.4238  -999.2500
 1767.5000  -999.2500  -999.2500  -999.2500  -999.2500    96.8132     8.8120   -21.0210     7.6363     7.4560     7.3712  -999.2500
 1768.0000  -999.2500  -999.2500  -999.2500  -999.2500   102.2077     8.7970   -21.1712     7.6880     7.3516     7.2685  -999.2500
 1768.5000  -999.2500  -999.2500  -999.2500  -999.2500   103.9032     8.7970   -20.5706     7.8474     7.2992     7.1672  -999.2500
