~VERSION INFORMATION
 VERS.                2.0:   CWLS LOG ASCII STANDARD - VERSION 2.0
 WRAP.                 NO:   ONE LINE PER DEPTH STEP
~WELL INFORMATION
#MNEM.UNIT      DATA TYPE    INFORMATION
#----------   ------------   ------------------------------
 STRT.F            0.0000:   START DEPTH
 STOP.F          551.0000:   STOP DEPTH
 STEP.F            0.1000:   STEP LENGTH
 NULL.          -999.2500:   NO VALUE
 COMP.       F D SERV INC:   COMPANY
 WELL.    62-2 SX-3 #62-3:   WELL
 FLD .          N.P.R. #3:   FIELD
 LOC .       S3 T38N R78W:   LOCATION
 CNTY.            NATRONA:   COUNTY
 STAT.            WYOMING:   STATE
 CTRY. UNITED STATES OF AMERICA:   COUNTRY
 SRVC.     Atlas Wireline:   SERVICE COMPANY
 DATE.        17-APR-1992:   LOGDATE
 API .       490252250700:   API NUMBER
~CURVE INFORMATION
#MNEM.UNIT       API CODE    CURVE DESCRIPTION
#----------   ------------   ------------------------------
 DEPT.F                  :   
 GRR .GAPI   07 310 01 00:   GAMMA RAY
 RILD.OHMM   07 120 46 00:   INDUCTION LOG DEEP RESISTIVITY
 RILM.OHMM   07 120 44 00:   INDUCTION LOG MEDIUM RESISTIVITY
~PARAMETER INFORMATION
#MNEM.UNIT          VALUE    DESCRIPTION
#----------   ------------   ------------------------------
 PD  .                 GL:   PERMANENT DATUM
 EPD .F              5130:   ELEVATION PERMANENT DATUM
 LMF .                 KB:   LOG MEASURED FROM
 DAPD.F                 5:   FEET ABOVE PERMANENT DATUM
 DMF .                 KB:   DRILLING MEASURED FROM
 EKB .F              5135:   KELLING BUSHING
 EDF .F              5134:   DRILLING FLOOR
 EGL .F              5130:   GROUND LEVEL
 DATE.        17-APR-1992:   RUN DATE
 RUN .                  1:   RUN NUMBER
 DD  .F               560:   DEPTH DRILLER
 DL  .F               560:   DEPTH LOGGER
 BLI .F               558:   BOTTOM LOG INTERVAL
 CS  .IN            8.625:   CASING SIZE
 CBD .F                47:   CASING BOTTOM DRILLER
 CBL .F                50:   CASING BOTTOM LOGGER
 BS  .IN            7.875:   BIT SIZE
 BSD .F               560:   BIT SIZE AT DEPTH
 DFT .                AIR:   DRILLING FLUID TYPE
 TCS .HRS               2:   TIME CURCULATED STOPPED
 MRT .F                83:   MAXIMUM RECORDED TEMPERATURE
 LUN .           HL- 6274:   LOGGING UNIT NUMBER
 LUL .             CASPER:   LOGGING UNIT LOCATION
 ENGI.            LEBSOCK:   RECORDING ENGINEER
 WITN.        GARY STRONG:   WITNESSED BY
 CLNT.            A2DTECH:   CLIENT CODE
 ORIG.           5" PRINT:   ORIGIN OF DATA
 UWI .       490252250700:   UNIQUE WELL ID
 DICO. A2D Technologies, Inc.:   DIGITIZING COMPANY
~OTHER INFORMATION
~A    DEPT      GRR      RILD       RILM   
# ...
  364.0000    95.1286    21.4679    19.7999
  364.1000    95.1316    21.4691    19.8003
  364.2000    95.1346    21.4939    19.8008
  364.3000    95.1379    21.6224    19.8014
  364.4000    95.1407    21.6235    19.8194
  364.5000    95.1438    21.6247    19.9414
  364.6000    95.0342    21.6259    19.9419
  364.7000    94.8472    21.6646    19.9425
  364.8000    94.8502    21.7803    19.9986
  364.9000    94.6058    21.7817    20.1138
  365.0000    94.3621    21.7827    20.2249
  365.1000    94.1184    21.8632    20.2255
  365.2000    93.9546    21.9900    20.2260
  365.3000    93.9576    22.0934    20.2957
  365.4000    93.9611    22.0948    20.3690
  365.5000    93.9637    22.0960    20.3872
  365.6000    93.9667    22.1916    20.5130
  365.7000    93.9698    22.2536    20.6228
  365.8000    93.9728    22.2930    20.6580
  365.9000    93.9759    22.4124    20.7158
  366.0000    93.7409    22.4139    20.8040
  366.1000    93.6792    22.5249    20.8046
  366.2000    93.6823    22.6554    20.8053
  366.3000    93.6854    22.7334    20.8058
  366.4000    93.6884    22.7590    20.8771
  366.5000    93.6919    22.8957    20.9528
  366.6000    93.4891    23.0237    20.9534
  366.7000    93.2454    23.0591    20.9540
  366.8000    93.0018    23.1290    20.9546
  366.9000    92.7580    23.2236    21.0397
  367.0000    92.4964    23.2346    21.1027
  367.1000    92.2707    23.3895    21.1033
  367.2000    92.0271    23.3906    21.1039
  367.3000    91.9001    23.3919    21.1046
  367.4000    91.8423    23.4478    21.1051
  367.5000    91.6036    23.5588    21.1056
  367.6000    91.6067    23.5602    21.1508
  367.7000    91.6097    23.6915    21.2549
  367.8000    91.6127    23.7283    21.2555
  367.9000    91.6157    23.7297    21.2560
  368.0000    91.6469    23.7310    21.3421
  368.1000    91.9247    23.7420    21.4063
  368.2000    92.1464    23.9005    21.4069
  368.3000    92.3961    23.9017    21.4075
  368.4000    92.7533    23.9030    21.4082
  368.5000    93.2498    23.9043    21.5083
  368.6000    93.7550    23.9057    21.6322
  368.7000    94.2423    23.9071    21.7112
  368.8000    94.7388    23.9084    21.7297
  368.9000    95.4961    23.9097    21.8647
  369.0000    96.3367    23.9110    21.9807
  369.1000    96.8706    23.9124    22.0193
  369.2000    98.0095    23.9137    22.0199
  369.3000    98.8502    23.9153    22.0205
  369.4000    99.6863    23.9164    22.0211
  369.5000   100.4294    23.9177    22.0218
  369.6000   101.1308    23.9191    22.0223
  369.7000   101.6552    23.9204    22.0229
  369.8000   102.1236    23.9218    22.0235
  369.9000   102.4432    23.7926    22.0065
  370.0000   102.5719    23.7576    21.8715
  370.1000   102.5098    23.7589    21.8720
  370.2000   102.2659    23.7602    21.7859
  370.3000   101.9764    23.7616    21.7209
  370.4000   101.3784    23.7631    21.6905
  370.5000   100.6414    23.7642    21.5674
  370.6000    99.9047    23.6813    21.4214
  370.7000    99.1677    23.6011    21.4219
  370.8000    98.3604    23.6024    21.2805
  370.9000    97.6930    23.6038    21.1257
  371.0000    96.7887    23.6050    21.1096
  371.1000    96.1396    23.6064    20.9798
  371.2000    95.8401    23.6078    20.8708
  371.3000    95.3495    23.5705    20.8349
  371.4000    95.3525    23.4456    20.8355
  371.5000    95.5462    23.4472    20.8360
  371.6000    95.9306    23.4483    20.8366
  371.7000    96.4271    23.3669    20.8373
  371.8000    96.9233    23.2874    20.8378
  371.9000    97.4860    23.2887    20.7693
  372.0000    98.1300    23.2901    20.6938
  372.1000    98.5573    23.1649    20.6944
  372.2000    98.7050    23.0340    20.6950
  372.3000    98.7081    22.9702    20.6955
  372.4000    98.7112    22.9343    20.6961
  372.5000    98.7141    22.8124    20.6967
  372.6000    98.7171    22.8140    20.6972
  372.7000    98.5949    22.7059    20.6978
  372.8000    98.3512    22.5775    20.6985
  372.9000    98.1209    22.5004    20.6990
  373.0000    98.1246    22.4798    20.6996
  373.1000    98.1271    22.3461    20.7002
  373.2000    97.9817    22.3473    20.6850
  373.3000    97.9231    22.2559    20.5572
  373.4000    98.2096    22.1939    20.5577
  373.5000    98.7446    22.1595    20.4777
  373.6000    98.9749    22.0341    20.4158
  373.7000    99.2245    21.8893    20.3880
  373.8000    99.5900    21.8903    20.2747
  373.9000    99.9667    21.8149    20.2753
  374.0000    99.9619    21.7401    20.2759
  374.1000    99.4713    21.7203    20.2098
  374.2000    98.9811    21.5909    20.0951
  374.3000    98.3517    21.5921    19.9811
  374.4000    97.6146    21.5933    19.8574
  374.5000    96.9049    21.5328    19.7551
  374.6000    96.3574    21.4451    19.7202
  374.7000    95.7062    21.4394    19.6687
  374.8000    94.9690    21.2981    19.5571
  374.9000    94.3382    21.1978    19.4460
  375.0000    93.7976    21.1517    19.3359
  375.1000    93.0439    21.1060    19.2262
  375.2000    92.5646    21.0064    19.1798
  375.3000    92.0741    21.0078    19.1804
  375.4000    91.8427    21.0090    19.1809
  375.5000    91.9927    21.0101    19.1815
  375.6000    92.4716    20.9515    19.1819
  375.7000    92.7599    20.8659    19.1825
  375.8000    93.1795    20.8606    19.1831
  375.9000    93.8286    20.7229    19.1836
  376.0000    94.4749    20.6256    19.1824
  376.1000    94.9715    20.5805    19.0736
  376.2000    95.4979    20.5362    19.0516
  376.3000    96.1961    20.4390    19.0521
  376.4000    96.7632    20.4404    19.0148
  376.5000    97.2596    20.4415    18.9204
  376.6000    97.6920    20.3588    18.9211
  376.7000    97.9416    20.2438    18.8242
  376.8000    98.2396    20.1608    18.7174
  376.9000    98.4411    20.1560    18.6600
  377.0000    98.5476    20.0226    18.6353
  377.1000    98.3761    20.0236    18.5311
  377.2000    97.9172    19.9554    18.5316
  377.3000    97.6493    19.8861    18.4486
  377.4000    97.2073    19.8872    18.4036
  377.5000    96.8835    19.8884    18.3678
  377.6000    96.6398    19.8895    18.2764
  377.7000    96.4509    19.8093    18.2770
  377.8000    96.4539    19.7529    18.2774
  377.9000    96.4569    19.7540    18.2780
  378.0000    96.6496    19.7552    18.2785
  378.1000    96.7655    19.7565    18.2790
  378.2000    96.7686    19.7574    18.2795
  378.3000    96.7935    19.7585    18.2800
  378.4000    97.0776    19.7596    18.2806
  378.5000    97.0802    19.7607    18.2811
  378.6000    97.2402    19.7619    18.2816
  378.7000    97.3888    19.7629    18.2821
  378.8000    97.4370    19.7640    18.2826
  378.9000    97.6976    19.7651    18.2831
  379.0000    97.7005    19.7662    18.3546
  379.1000    97.8837    19.7673    18.4123
  379.2000    98.2577    19.7686    18.4128
  379.3000    98.6856    19.8631    18.4144
  379.4000    98.9229    19.9095    18.5205
  379.5000    98.9264    19.9106    18.5436
  379.6000    99.3356    19.9118    18.6041
  379.7000    99.6845    19.9129    18.6746
  379.8000    99.9342    19.9140    18.6879
  379.9000   100.2198    19.9151    18.8067
  380.0000   100.7567    19.9162    18.9039
  380.1000   101.2125    19.9173    19.0128
  380.2000   101.7089    19.9184    19.0729
  380.3000   102.2053    19.9197    19.0985
  380.4000   102.6429    19.9206    19.2077
  380.5000   102.8895    19.9218    19.0981
  380.6000   102.8926    19.9229    18.9898
  380.7000   102.7018    19.9240    18.8822
  380.8000   102.1823    19.9252    18.8114
  380.9000   101.5272    20.0329    18.7994
  381.0000   101.0108    20.0673    18.6815
  381.1000   100.1849    20.0685    18.5868
  381.2000    99.7532    20.0696    18.4813
  381.3000    99.2629    20.0706    18.3765
  381.4000    98.7726    20.0720    18.2959
  381.5000    98.2820    20.0729    18.2964
  381.6000    97.7792    20.0740    18.2969
  381.7000    97.0617    20.0751    18.2160
  381.8000    96.5088    20.0763    18.1705
  381.9000    96.1469    20.0775    18.1710
  382.0000    95.9758    20.0786    18.1716
  382.1000    95.9620    20.0797    18.1721
