~VERSION INFORMATION
 VERS.                2.0:   CWLS LOG ASCII STANDARD - VERSION 2.0
 WRAP.                 NO:   ONE LINE PER DEPTH STEP
~WELL INFORMATION
#MNEM.UNIT      DATA TYPE    INFORMATION
#----------   ------------   ------------------------------
 STRT.F          598.0000:   START DEPTH
 STOP.F         2552.0000:   STOP DEPTH
 STEP.F            0.5000:   STEP LENGTH
 NULL.          -999.2500:   NO VALUE
 COMP. FENIX & SCISSON INC:   COMPANY
 WELL.     15-SHX-2 #15-2:   WELL
 FLD .             TEAPOT:   FIELD
 LOC .       S2 T38N R78W:   LOCATION
 CNTY.            NATRONA:   COUNTY
 STAT.            WYOMING:   STATE
 CTRY. UNITED STATES OF AMERICA:   COUNTRY
 SRVC.              Welex:   SERVICE COMPANY
 DATE.        03-JUN-1979:   LOGDATE
 API .       490251002100:   API NUMBER
~CURVE INFORMATION
#MNEM.UNIT       API CODE    CURVE DESCRIPTION
#----------   ------------   ------------------------------
 DEPT.F                  :   
 CALD.IN     45 280 60 00:   CALIPER
 GRD .GAPI   45 310 01 00:   GAMMA RAY FROM DENSITY LOG
 RHOB.G/C3   45 350 01 00:   BULK DENSITY
 DPHI.DEC    45 890 12 00:   DENSITY POROSITY SANDSTONE
 CORR.G/C3   45 356 01 00:   DENSITY CORRECTION
~PARAMETER INFORMATION
#MNEM.UNIT          VALUE    DESCRIPTION
#----------   ------------   ------------------------------
 PD  .                 GL:   PERMANENT DATUM
 EPD .F              5118:   ELEVATION PERMANENT DATUM
 LMF .                 KB:   LOG MEASURED FROM
 DAPD.F                10:   FEET ABOVE PERMANENT DATUM
 DMF .                 KB:   DRILLING MEASURED FROM
 EKB .F              5128:   KELLING BUSHING
 EGL .F              5118:   GROUND LEVEL
 DATE.             6-3-79:   RUN DATE
 RUN .                  1:   RUN NUMBER
 DD  .F              2569:   DEPTH DRILLER
 DL  .F              2554:   DEPTH LOGGER
 BLI .F              2552:   BOTTOM LOG INTERVAL
 TLI .F               622:   TOP LOG INTERVAL
 CS  .IN            9.625:   CASING SIZE
 CBD .F               622:   CASING BOTTOM DRILLER
 BS  .IN             8.75:   BIT SIZE
 BSD .F              2569:   BIT SIZE AT DEPTH
 DFT .        AIR DRILLED:   DRILLING FLUID TYPE
 TCS .HRS             2.5:   TIME CURCULATED STOPPED
 MRT .F               124:   MAXIMUM RECORDED TEMPERATURE
 ENGI.               REIN:   RECORDING ENGINEER
 WITN.              AMEND:   WITNESSED BY
 CLNT.            A2DTECH:   CLIENT CODE
 ORIG.           5" PRINT:   ORIGIN OF DATA
 UWI .       490251002100:   UNIQUE WELL ID
 DICO. A2D Technologies, Inc.:   DIGITIZING COMPANY
~OTHER INFORMATION
~A   DEPT     CALD         GRD      RHOB       DPHI       CORR   
# ...
 1635.0000     9.1614    93.1901     2.5211     0.0227     0.0110
 1635.5000     9.1987    91.8636     2.5343     0.0130     0.0123
 1636.0000     9.1720    90.5850     2.5476     0.0046     0.0166
 1636.5000     9.1402    89.9972     2.5599    -0.0019     0.0192
 1637.0000     9.1081    91.2400     2.5612    -0.0081     0.0218
 1637.5000     9.0760    90.7103     2.5589    -0.0086     0.0243
 1638.0000     9.0435    89.7419     2.5537    -0.0041     0.0269
 1638.5000     9.0383    88.7452     2.5535    -0.0013     0.0294
 1639.0000     9.0389    89.2892     2.5554    -0.0013     0.0320
 1639.5000     9.0396    90.1471     2.5437    -0.0012     0.0345
 1640.0000     9.0402    90.9626     2.5303     0.0084     0.0372
 1640.5000     9.0408    91.0042     2.5208     0.0191     0.0405
 1641.0000     9.0414    90.0372     2.5317     0.0143     0.0413
 1641.5000     9.0420    88.5492     2.5361     0.0075     0.0415
 1642.0000     9.0427    87.0462     2.5364     0.0104     0.0417
 1642.5000     9.0433    85.5455     2.5521    -0.0017     0.0420
 1643.0000     9.0439    84.1361     2.5670    -0.0060     0.0423
 1643.5000     9.0445    86.0768     2.5733    -0.0145     0.0426
 1644.0000     9.0451    88.5881     2.5622    -0.0113     0.0428
 1644.5000     9.0457    87.8376     2.5565    -0.0077     0.0430
 1645.0000     9.0464    86.9267     2.5677    -0.0065     0.0419
 1645.5000     9.0470    86.0052     2.5789    -0.0179     0.0408
 1646.0000     9.0476    86.6582     2.5803    -0.0221     0.0397
 1646.5000     9.0482    87.5201     2.5684    -0.0137     0.0387
 1647.0000     9.0488    87.0825     2.5603    -0.0071     0.0376
 1647.5000     9.0494    87.2602     2.5571    -0.0033     0.0366
 1648.0000     9.0501    86.4699     2.5616    -0.0033     0.0355
 1648.5000     9.0507    84.7008     2.5659    -0.0093     0.0345
 1649.0000     9.0513    85.8397     2.5654    -0.0121     0.0334
 1649.5000     9.0519    87.4429     2.5599    -0.0079     0.0324
 1650.0000     9.0525    88.8824     2.5547    -0.0041     0.0314
 1650.5000     9.0531    88.5864     2.5582    -0.0040     0.0289
 1651.0000     9.0538    87.4645     2.5629    -0.0056     0.0287
 1651.5000     9.0544    86.3595     2.5670    -0.0125     0.0283
 1652.0000     9.0550    85.2632     2.5559    -0.0073     0.0280
 1652.5000     9.0556    84.8585     2.5433     0.0030     0.0277
 1653.0000     9.0562    86.5424     2.5305     0.0127     0.0274
 1653.5000     9.0568    89.6200     2.5273     0.0151     0.0271
 1654.0000     9.0575    92.6981     2.5398     0.0123     0.0270
 1654.5000     9.0578    95.7525     2.5526     0.0025     0.0270
 1655.0000     9.0578    96.6707     2.5652    -0.0080     0.0270
 1655.5000     9.0578    95.0758     2.5742    -0.0148     0.0250
 1656.0000     9.0578    94.3133     2.5668    -0.0114     0.0228
 1656.5000     9.0578    94.5402     2.5587    -0.0059     0.0205
 1657.0000     9.0578    93.3799     2.5526    -0.0007     0.0183
 1657.5000     9.0578    91.6940     2.5510    -0.0001     0.0161
 1658.0000     9.0578    89.9784     2.5553     0.0003     0.0159
 1658.5000     9.0578    89.5014     2.5614    -0.0029     0.0191
 1659.0000     9.0578    90.2445     2.5674    -0.0094     0.0222
 1659.5000     9.0578    91.4475     2.5673    -0.0109     0.0259
 1660.0000     9.0578    90.2400     2.5590    -0.0044     0.0293
 1660.5000     9.0578    88.9978     2.5544    -0.0021     0.0297
 1661.0000     9.0578    87.7584     2.5595    -0.0029     0.0302
 1661.5000     9.0578    87.9641     2.5615    -0.0044     0.0308
 1662.0000     9.0578    89.9385     2.5596    -0.0053     0.0328
 1662.5000     9.0578    91.9228     2.5618    -0.0062     0.0361
 1663.0000     9.0578    92.2346     2.5673    -0.0090     0.0404
 1663.5000     9.0578    91.9274     2.5721    -0.0118     0.0447
 1664.0000     9.0567    93.0337     2.5721    -0.0125     0.0491
 1664.5000     9.0545    93.7060     2.5709    -0.0124     0.0530
 1665.0000     9.0522    91.7888     2.5692    -0.0124     0.0530
 1665.5000     9.0500    89.1857     2.5673    -0.0123     0.0530
 1666.0000     9.0478    90.3504     2.5651    -0.0122     0.0530
 1666.5000     9.0456    92.2666     2.5668    -0.0122     0.0530
 1667.0000     9.0434    93.7781     2.5689    -0.0121     0.0530
 1667.5000     9.0412    92.0367     2.5711    -0.0144     0.0532
 1668.0000     9.0389    90.2811     2.5732    -0.0146     0.0549
 1668.5000     9.0379    90.8143     2.5671    -0.0110     0.0523
 1669.0000     9.0379    91.6447     2.5587    -0.0074     0.0492
 1669.5000     9.0379    91.7130     2.5502    -0.0023     0.0461
 1670.0000     9.0379    92.1652     2.5418     0.0064     0.0431
 1670.5000     9.0379    94.1365     2.5333     0.0150     0.0400
 1671.0000     9.0379    93.0499     2.5250     0.0157     0.0370
 1671.5000     9.0379    91.3137     2.5289     0.0139     0.0339
 1672.0000     9.0379    90.0745     2.5270     0.0149     0.0330
 1672.5000     9.0379    91.5285     2.5349     0.0097     0.0334
 1673.0000     9.0379    93.1304     2.5438     0.0047     0.0342
 1673.5000     9.0379    94.5596     2.5533    -0.0018     0.0349
 1674.0000     9.0379    93.0981     2.5604    -0.0082     0.0350
 1674.5000     9.0379    91.1618     2.5750    -0.0145     0.0329
 1675.0000     9.0379    91.9513     2.5767    -0.0181     0.0306
 1675.5000     9.0379    92.3243     2.5699    -0.0142     0.0283
 1676.0000     9.0379    90.8422     2.5626    -0.0085     0.0261
 1676.5000     9.0379    89.3435     2.5554    -0.0029     0.0238
 1677.0000     9.0379    88.9274     2.5481     0.0028     0.0215
 1677.5000     9.0379    89.6048     2.5401     0.0084     0.0192
 1678.0000     9.0379    89.5516     2.5300     0.0137     0.0169
 1678.5000     9.0379    89.2091     2.5200     0.0180     0.0146
 1679.0000     9.0379    90.2441     2.5100     0.0248     0.0116
 1679.5000     9.0379    91.7339     2.5000     0.0316     0.0110
 1680.0000     9.0379    93.2192     2.4909     0.0391     0.0110
 1680.5000     9.0379    94.0320     2.4979     0.0331     0.0118
 1681.0000     9.0379    93.0873     2.5138     0.0242     0.0134
 1681.5000     9.0379    92.1726     2.5297     0.0143     0.0150
 1682.0000     9.0379    91.2395     2.5454     0.0045     0.0166
 1682.5000     9.0379    91.4618     2.5451     0.0055     0.0182
 1683.0000     9.0378    92.1017     2.5381     0.0083     0.0193
 1683.5000     9.0379    91.4316     2.5383     0.0095     0.0200
 1684.0000     9.0408    90.8240     2.5450     0.0069     0.0207
 1684.5000     9.0442    92.0478     2.5401     0.0071     0.0214
 1685.0000     9.0475    93.3018     2.5350     0.0119     0.0221
 1685.5000     9.0507    94.5517     2.5350     0.0113     0.0227
 1686.0000     9.0538    95.7816     2.5416     0.0094     0.0234
 1686.5000     9.0598    96.1587     2.5489     0.0040     0.0241
 1687.0000     9.0952    94.2934     2.5562    -0.0014     0.0248
 1687.5000     9.0947    93.4962     2.5635    -0.0069     0.0271
 1688.0000     9.0879    93.2936     2.5700    -0.0117     0.0270
 1688.5000     9.0813    91.9276     2.5696    -0.0117     0.0265
 1689.0000     9.0747    90.6514     2.5679    -0.0115     0.0259
 1689.5000     9.0682    89.5654     2.5662    -0.0108     0.0254
 1690.0000     9.0617    88.8186     2.5646    -0.0097     0.0254
 1690.5000     9.0552    90.7559     2.5631    -0.0087     0.0291
 1691.0000     9.0486    90.7376     2.5631    -0.0076     0.0310
 1691.5000     9.0421    88.8747     2.5606    -0.0053     0.0284
 1692.0000     9.0356    85.9221     2.5556    -0.0023     0.0254
 1692.5000     9.0290    85.5992     2.5505     0.0006     0.0225
 1693.0000     9.0225    86.4787     2.5455     0.0035     0.0212
 1693.5000     9.0188    88.2323     2.5449     0.0064     0.0235
 1694.0000     9.0221    89.6248     2.5485     0.0059     0.0258
 1694.5000     9.0253    88.1610     2.5522     0.0017     0.0282
 1695.0000     9.0285    86.6529     2.5519    -0.0017     0.0305
 1695.5000     9.0317    85.8675     2.5475     0.0019     0.0328
