~VERSION INFORMATION
 VERS.                2.0:   CWLS LOG ASCII STANDARD - VERSION 2.0
 WRAP.                 NO:   ONE LINE PER DEPTH STEP
~WELL INFORMATION
#MNEM.UNIT      DATA TYPE    INFORMATION
#----------   ------------   ------------------------------
 STRT.F          442.0000:   START DEPTH
 STOP.F         2636.0000:   STOP DEPTH
 STEP.F            0.5000:   STEP LENGTH
 NULL.          -999.2500:   NO VALUE
 COMP. FENIX & SCISSON INC:   COMPANY
 WELL.     25 SHX 2 #25-2:   WELL
 FLD .             TEAPOT:   FIELD
 LOC .       S2 T38N R78W:   LOCATION
 CNTY.            NATRONA:   COUNTY
 STAT.            WYOMING:   STATE
 CTRY. UNITED STATES OF AMERICA:   COUNTRY
 SRVC.              Welex:   SERVICE COMPANY
 DATE.        07-JUN-1980:   LOGDATE
 API .       490251080200:   API NUMBER
~CURVE INFORMATION
#MNEM.UNIT       API CODE    CURVE DESCRIPTION
#----------   ------------   ------------------------------
 DEPT.F                  :   
 CALD.IN     45 280 60 00:   CALIPER
 GRD .GAPI   45 310 01 00:   GAMMA RAY FROM DENSITY LOG
 DPHI.DEC    45 890 12 00:   DENSITY POROSITY SANDSTONE
 CORR.G/C3   45 356 01 00:   DENSITY CORRECTION
 RHOB.G/C3   45 350 01 00:   BULK DENSITY
~PARAMETER INFORMATION
#MNEM.UNIT          VALUE    DESCRIPTION
#----------   ------------   ------------------------------
 PD  .                 GL:   PERMANENT DATUM
 EPD .F              5120:   ELEVATION PERMANENT DATUM
 LMF .                 KB:   LOG MEASURED FROM
 DAPD.F                10:   FEET ABOVE PERMANENT DATUM
 DMF .                 KB:   DRILLING MEASURED FROM
 EKB .F              5130:   KELLING BUSHING
 EGL .F              5120:   GROUND LEVEL
 DATE.             6-7-80:   RUN DATE
 RUN .                  1:   RUN NUMBER
 DD  .F              2652:   DEPTH DRILLER
 DL  .F              2638:   DEPTH LOGGER
 BLI .F              2636:   BOTTOM LOG INTERVAL
 TLI .F              1224:   TOP LOG INTERVAL
 BS  .IN             6.75:   BIT SIZE
 BSD .F              2652:   BIT SIZE AT DEPTH
 DFT .        AIR DRILLED:   DRILLING FLUID TYPE
 TCS .HRS               2:   TIME CURCULATED STOPPED
 MRT .F               125:   MAXIMUM RECORDED TEMPERATURE
 ENGI.               REIN:   RECORDING ENGINEER
 WITN.           DINSMORE:   WITNESSED BY
 CLNT.            A2DTECH:   CLIENT CODE
 ORIG.           5" PRINT:   ORIGIN OF DATA
 UWI .       490251080200:   UNIQUE WELL ID
 DICO. A2D Technologies, Inc.:   DIGITIZING COMPANY
~OTHER INFORMATION
~A   DEPT     CALD         GRD      DPHI       CORR       RHOB   
# ...
 1052.0000     8.8248    68.7517     0.0903     0.0170     2.4915
 1052.5000     8.8248    69.2329     0.0911     0.0213     2.4896
 1053.0000     8.8248    69.6666     0.0851     0.0343     2.5037
 1053.5000     8.8248    69.4845     0.0696     0.0560     2.5321
 1054.0000     8.8248    69.1590     0.0594     0.0696     2.5444
 1054.5000     8.8248    68.8337     0.0665     0.0520     2.5301
 1055.0000     8.8248    68.5032     0.0765     0.0344     2.5124
 1055.5000     8.8248    68.1954     0.0799     0.0273     2.5090
 1056.0000     8.8248    68.9898     0.0755     0.0333     2.5209
 1056.5000     8.8248    69.8686     0.0727     0.0344     2.5155
 1057.0000     8.8248    70.7659     0.0768     0.0434     2.5204
 1057.5000     8.8248    71.3366     0.0732     0.0329     2.5089
 1058.0000     8.8248    71.7589     0.0882     0.0153     2.4899
 1058.5000     8.8248    71.6370     0.1006    -0.0015     2.4727
 1059.0000     8.8248    71.4700     0.1011     0.0044     2.4742
 1059.5000     8.8248    71.5397     0.0943     0.0080     2.4816
 1060.0000     8.8249    71.8258     0.0998     0.0056     2.4753
 1060.5000     8.8282    72.1090     0.0969     0.0070     2.4806
 1061.0000     8.8372    72.3885     0.0950     0.0061     2.4846
 1061.5000     8.8447    72.7042     0.0986    -0.0025     2.4781
 1062.0000     8.8445    72.9202     0.1015    -0.0105     2.4722
 1062.5000     8.8445    72.6378     0.0931     0.0074     2.4994
 1063.0000     8.8445    72.2792     0.0826     0.0253     2.5177
 1063.5000     8.8445    71.9199     0.0726     0.0344     2.5246
 1064.0000     8.8445    71.5604     0.0679     0.0459     2.5319
 1064.5000     8.8445    71.1934     0.0660     0.0512     2.5293
 1065.0000     8.8445    71.3225     0.0768     0.0398     2.5110
 1065.5000     8.8445    71.5476     0.0899     0.0180     2.4922
 1066.0000     8.8445    71.7748     0.0918     0.0181     2.4862
 1066.5000     8.8445    72.0011     0.1006     0.0048     2.4760
 1067.0000     8.8445    72.2281     0.1104    -0.0118     2.4566
 1067.5000     8.8445    72.4524     0.1152    -0.0163     2.4501
 1068.0000     8.8445    72.5728     0.1107    -0.0067     2.4605
 1068.5000     8.8445    72.3023     0.1051     0.0044     2.4707
 1069.0000     8.8445    72.0422     0.1026     0.0110     2.4717
 1069.5000     8.8445    71.7828     0.1017     0.0130     2.4743
 1070.0000     8.8441    71.5235     0.1032     0.0091     2.4689
 1070.5000     8.8433    71.2641     0.1024     0.0052     2.4744
 1071.0000     8.8425    71.0048     0.0978     0.0179     2.4918
 1071.5000     8.8417    70.7450     0.0854     0.0355     2.5098
 1072.0000     8.8408    70.4837     0.0731     0.0533     2.5277
 1072.5000     8.8400    70.2408     0.0617     0.0693     2.5405
 1073.0000     8.8392    70.5540     0.0624     0.0672     2.5360
 1073.5000     8.8384    70.9059     0.0702     0.0577     2.5236
 1074.0000     8.8376    71.2581     0.0759     0.0470     2.5160
 1074.5000     8.8368    71.6094     0.0803     0.0364     2.5071
 1075.0000     8.8359    71.9633     0.0830     0.0353     2.5022
 1075.5000     8.8351    72.3229     0.0869     0.0335     2.4955
 1076.0000     8.8343    72.4143     0.0920     0.0271     2.4862
 1076.5000     8.8335    71.5527     0.0954     0.0238     2.4823
 1077.0000     8.8327    71.8238     0.0971     0.0214     2.4820
 1077.5000     8.8319    72.0317     0.0893     0.0303     2.4962
 1078.0000     8.8310    71.9375     0.0794     0.0470     2.5144
 1078.5000     8.8302    71.7621     0.0673     0.0702     2.5362
 1079.0000     8.8294    71.5871     0.0553     0.0910     2.5601
 1079.5000     8.8286    71.4300     0.0496     0.0900     2.5549
 1080.0000     8.8278    71.6651     0.0507     0.0880     2.5571
 1080.5000     8.8270    72.0922     0.0532     0.0803     2.5495
 1081.0000     8.8262    72.5316     0.0588     0.0702     2.5420
 1081.5000     8.8249    72.5595     0.0608     0.0613     2.5402
 1082.0000     8.8077    72.1113     0.0604     0.0584     2.5345
 1082.5000     8.7698    71.6601     0.0721     0.0341     2.5188
 1083.0000     8.8052    71.2135     0.0756     0.0370     2.5169
 1083.5000     8.7445    70.8607     0.0693     0.0457     2.5263
 1084.0000     8.7426    71.0553     0.0763     0.0301     2.5140
 1084.5000     8.8060    70.9294     0.0849     0.0193     2.5011
 1085.0000     8.8049    70.3576     0.0794     0.0284     2.5138
 1085.5000     8.8052    69.7901     0.0706     0.0363     2.5246
 1086.0000     8.8051    69.2274     0.0765     0.0254     2.5117
 1086.5000     8.8051    68.6746     0.0838     0.0146     2.4997
 1087.0000     8.8051    68.6710     0.0868     0.0167     2.5000
 1087.5000     8.8051    68.9911     0.0840     0.0210     2.5015
 1088.0000     8.8051    69.3241     0.0898     0.0160     2.4905
 1088.5000     8.8051    69.6571     0.0915     0.0173     2.4923
 1089.0000     8.8051    69.9885     0.0867     0.0186     2.4988
 1089.5000     8.8053    70.2489     0.0901     0.0111     2.4922
 1090.0000     8.7939    70.0970     0.0913     0.0051     2.4916
 1090.5000     8.7762    69.9547     0.0883     0.0229     2.4982
 1091.0000     8.7684    69.9494     0.0878     0.0159     2.4954
 1091.5000     8.7752    69.9122     0.0809     0.0274     2.5073
 1092.0000     8.7817    69.7180     0.0733     0.0364     2.5235
 1092.5000     8.7883    69.6630     0.0683     0.0432     2.5264
 1093.0000     8.7949    69.8841     0.0711     0.0399     2.5253
 1093.5000     8.8015    70.1102     0.0737     0.0286     2.5164
 1094.0000     8.8057    70.3368     0.0768     0.0275     2.5146
 1094.5000     8.8084    70.5263     0.0823     0.0203     2.5033
 1095.0000     8.8111    70.1974     0.0877     0.0104     2.4915
 1095.5000     8.8138    69.9340     0.0932     0.0015     2.4832
 1096.0000     8.8165    70.3518     0.0970     0.0026     2.4854
 1096.5000     8.8191    70.8180     0.0904     0.0135     2.4925
 1097.0000     8.8221    71.2909     0.0837     0.0246     2.5025
 1097.5000     8.8260    71.4341     0.0764     0.0356     2.5169
 1098.0000     8.7713    71.4355     0.0702     0.0434     2.5251
 1098.5000     8.7108    71.4303     0.0729     0.0371     2.5206
 1099.0000     8.6670    71.6247     0.0756     0.0303     2.5162
 1099.5000     8.6964    71.8386     0.0783     0.0234     2.5117
 1100.0000     8.7561    72.0278     0.0764     0.0248     2.5157
 1100.5000     8.7811    71.9279     0.0676     0.0403     2.5370
 1101.0000     8.7479    71.5654     0.0608     0.0533     2.5433
 1101.5000     8.7514    71.2075     0.0551     0.0624     2.5562
 1102.0000     8.7629    70.8496     0.0456     0.0698     2.5646
 1102.5000     8.7657    70.4982     0.0531     0.0560     2.5508
 1103.0000     8.7657    70.3030     0.0584     0.0526     2.5443
 1103.5000     8.7915    70.5117     0.0641     0.0456     2.5337
 1104.0000     8.8420    70.7121     0.0712     0.0336     2.5223
 1104.5000     8.8444    70.9134     0.0788     0.0230     2.5111
 1105.0000     8.8405    71.1145     0.0816     0.0219     2.5065
 1105.5000     8.8368    71.3158     0.0810     0.0193     2.5085
 1106.0000     8.8331    71.5186     0.0845     0.0194     2.5017
 1106.5000     8.8295    71.7247     0.0865     0.0209     2.4993
 1107.0000     8.8260    71.6632     0.0787     0.0314     2.5111
 1107.5000     8.8067    71.5647     0.0823     0.0239     2.5021
 1108.0000     8.7824    71.4667     0.0847     0.0295     2.5099
 1108.5000     8.7671    71.3690     0.0738     0.0407     2.5217
 1109.0000     8.7797    71.2714     0.0765     0.0346     2.5150
 1109.5000     8.7922    71.1739     0.0775     0.0371     2.5160
 1110.0000     8.8045    71.0763     0.0699     0.0471     2.5259
 1110.5000     8.7968    70.9787     0.0643     0.0573     2.5385
 1111.0000     8.7878    70.8811     0.0620     0.0614     2.5379
 1111.5000     8.7788    70.7832     0.0596     0.0609     2.5425
 1112.0000     8.7697    70.6832     0.0671     0.0514     2.5285
 1112.5000     8.7597    70.6064     0.0748     0.0415     2.5164
