~VERSION INFORMATION
 VERS.                2.0:   CWLS LOG ASCII STANDARD - VERSION 2.0
 WRAP.                 NO:   ONE LINE PER DEPTH STEP
~WELL INFORMATION
#MNEM.UNIT      DATA TYPE    INFORMATION
#----------   ------------   ------------------------------
 STRT.F           10.0000:   START DEPTH
 STOP.F          485.0000:   STOP DEPTH
 STEP.F            0.5000:   STEP LENGTH
 NULL.          -999.2500:   NO VALUE
 COMP. FENIX & SCISSON INC:   COMPANY
 WELL.    56 S 3 SX #56-3:   WELL
 FLD .             TEAPOT:   FIELD
 LOC .       S3 T38N R78W:   LOCATION
 CNTY.            NATRONA:   COUNTY
 STAT.            WYOMING:   STATE
 CTRY. UNITED STATES OF AMERICA:   COUNTRY
 SRVC.            Unknown:   SERVICE COMPANY
 DATE.        09-OCT-1978:   LOGDATE
 API .       490251071900:   API NUMBER
~CURVE INFORMATION
#MNEM.UNIT       API CODE    CURVE DESCRIPTION
#----------   ------------   ------------------------------
 DEPT.F                  :   
 SPR .MV     05 010 01 00:   SPONTANEOUS POTENTIAL FROM RES.
 SN  .OHMM   05 040 16 00:   SHORT NORMAL 16"
 ILD .OHMM   05 120 46 00:   INDUCTION LOG DEEP
 CALD.IN     45 280 60 00:   CALIPER
 GRD .GAPI   45 310 01 00:   GAMMA RAY FROM DENSITY LOG
 CORR.G/C3   45 356 01 00:   DENSITY CORRECTION
 RHOB.G/C3   45 350 01 00:   BULK DENSITY
 DPHI.DEC    45 890 12 00:   DENSITY POROSITY SANDSTONE
~PARAMETER INFORMATION
#MNEM.UNIT          VALUE    DESCRIPTION
#----------   ------------   ------------------------------
 PD  .                 GL:   PERMANENT DATUM
 EPD .F              5188:   ELEVATION PERMANENT DATUM
 LMF .                 KB:   LOG MEASURED FROM
 DAPD.F                 4:   FEET ABOVE PERMANENT DATUM
 DMF .                 KB:   DRILLING MEASURED FROM
 EKB .F              5192:   KELLING BUSHING
 EGL .F              5188:   GROUND LEVEL
 DATE.            10-9-78:   RUN DATE
 RUN .                  1:   RUN NUMBER
 DD  .F               485:   DEPTH DRILLER
 DL  .F               485:   DEPTH LOGGER
 BLI .F               479:   BOTTOM LOG INTERVAL
 TLI .F                32:   TOP LOG INTERVAL
 CS  .IN            8.625:   CASING SIZE
 BS  .IN            7.875:   BIT SIZE
 BSD .F               485:   BIT SIZE AT DEPTH
 DFT .                KCL:   DRILLING FLUID TYPE
 DFD .                8.8:   DRILLING FLUID DENSITY
 DFV .                 41:   DRILLING FLUID VISCOSITY
 DFPH.                  9:   DRILLING FLUID PH
 DFL .                7.6:   DRILLING FLUID LOSS
 MSS .          FLOW LINE:   MUD SAMPLE SOURCE
 RMS .OHMM            .18:   RESISTIVITY MUD SAMPLE
 MST .F                60:   MUD SAMPLE TEMPERATURE
 RMF .OHMM            .16:   RESISTIVITY MUD FILTRATE SAMPLE
 MFST.F                70:   MUD FILTRATE SAMPLE TEMPERATURE
 RMC .OHMM            .26:   RESISTIVITY MUD CAKE
 MCST.F                70:   MUD CAKE SAMPLE TEMPERATURE
 MFSS.               MEAS:   MUD FILTRATE SAMPLE SOURCE
 MCSS.               MEAS:   MUD CAKE SAMPLE SOURCE
 TCS .HRS             1.5:   TIME CURCULATED STOPPED
 LUN .               2958:   LOGGING UNIT NUMBER
 LUL .               CASP:   LOGGING UNIT LOCATION
 ENGI.             MILLER:   RECORDING ENGINEER
 WITN.              AMEND:   WITNESSED BY
 CLNT.            A2DTECH:   CLIENT CODE
 ORIG.           5" PRINT:   ORIGIN OF DATA
 UWI .       490251071900:   UNIQUE WELL ID
 DICO. A2D Technologies, Inc.:   DIGITIZING COMPANY
~OTHER INFORMATION
~A   DEPT      SPR         SN        ILD       CALD         GRD      CORR       RHOB       DPHI   
# ...
   91.0000   -37.3922     8.2243     8.7844     8.1140   104.7247     0.1496     2.4261     0.1525
   91.5000   -37.1555     8.2241     8.6799     8.1150   105.3692     0.2551     2.4488     0.1517
   92.0000   -36.9188     8.2241     8.4524     8.1160   108.2349     0.3608     2.5263     0.0811
   92.5000   -36.6820     8.2241     8.4551     8.1169   107.1644     0.3974     2.6057     0.0221
   93.0000   -36.4448     8.2241     8.4335     8.1179   104.2804     0.3179     2.6490     0.0221
   93.5000   -36.2103     8.2241     8.4181     8.1189   102.8217     0.2262     2.6112     0.0363
   94.0000   -36.0051     8.2241     8.4025     8.1199   107.6699     0.1270     2.5607     0.0848
   94.5000   -36.0114     8.2240     8.3869     8.1209   111.3547     0.0445     2.5134     0.1198
   95.0000   -36.0121     8.2247     8.3766     8.1219   110.9859     0.0215     2.4736     0.1239
   95.5000   -36.0157     8.2248     8.4956     8.1228   109.1858     0.0185     2.4715     0.1286
   96.0000   -35.8285     8.2206     8.6108     8.1238   106.9039     0.0131     2.4698     0.1283
   96.5000   -35.5674     8.4079     8.9037     8.1248   104.4964     0.0090     2.4747     0.1280
   97.0000   -35.4180     8.5532     9.1801     8.1258   104.5075     0.0094     2.4722     0.1260
   97.5000   -35.4176     8.7006     9.4650     8.1268   105.4848     0.0099     2.4781     0.1227
   98.0000   -35.4167     8.8514     9.7589     8.1278   106.4419     0.0108     2.4829     0.1193
   98.5000   -35.4198     8.9009     9.8915     8.1287   107.6548     0.0115     2.4879     0.1159
   99.0000   -35.3021     8.9331     9.9059     8.1297   106.5173     0.0121     2.4931     0.1135
   99.5000   -35.1540     8.9331     9.9203     8.1307   103.4604     0.0128     2.4980     0.1111
  100.0000   -35.0212     8.9496     9.9347     8.1317   102.5567     0.0135     2.5022     0.1087
  100.5000   -35.0194     9.0036     9.9491     8.1327   103.9506     0.0141     2.4992     0.1064
  101.0000   -35.0200     9.0579     9.9635     8.1336   102.8494     0.0148     2.4922     0.1091
  101.5000   -35.0204     9.1096    10.0730     8.1346   101.6813     0.0154     2.4850     0.1138
  102.0000   -35.0194     9.1530    10.4767     8.1356   100.4542     0.0161     2.4782     0.1185
  102.5000   -34.9465     9.1965    10.8965     8.1366    99.3301     0.0167     2.4727     0.1232
  103.0000   -34.3815     9.2403    11.3332     8.1376    98.1394     0.0178     2.4773     0.1255
  103.5000   -33.8331     9.2654    11.7874     8.1386    98.0475     0.0191     2.4815     0.1215
  104.0000   -33.8200     9.2454    12.2597     8.1396    98.4274     0.0201     2.4859     0.1174
  104.5000   -33.8103     9.2294    12.7827     8.1405    99.4674     0.0237     2.4901     0.1137
  105.0000   -33.8033     9.2133    12.9185     8.1417   100.3935     0.0288     2.4950     0.1109
  105.5000   -33.7962     9.1973    13.1399     8.1425   100.5006     0.0373     2.4919     0.1080
  106.0000   -33.7889     9.1814    13.0752     8.1434   100.6074     0.0528     2.4840     0.1123
  106.5000   -33.7817     9.1655    12.9447     8.1453   100.6738     0.0735     2.4764     0.1171
  107.0000   -33.7744     9.1496    12.8156     8.1358   100.7399     0.0978     2.4703     0.1218
  107.5000   -33.7672     9.1338    12.6878     8.1168   100.8233     0.1221     2.4630     0.1290
  108.0000   -33.7599     9.1182    12.1793     8.0985   100.4243     0.1718     2.4940     0.1270
  108.5000   -33.7527     9.1026    11.6158     8.0803    99.9365     0.2213     2.5429     0.1088
  109.0000   -33.7454     9.0452    11.0784     8.0665    97.0827     0.2720     2.5926     0.0848
  109.5000   -33.7382     8.9771    10.5659     8.0665    95.6500     0.3000     2.5984     0.0607
  110.0000   -33.7309     8.9099    10.2479     8.0663    96.3183     0.2416     2.5804     0.0534
  110.5000   -33.7236     8.8533     9.9744     8.0663    96.8651     0.1566     2.5208     0.0666
  111.0000   -33.7164     8.8690     9.9688     8.0664    97.4433     0.0974     2.4843     0.0908
  111.5000   -33.7091     8.8847     9.9629     8.0663    97.3912     0.0723     2.4754     0.1188
  112.0000   -33.7019     8.9004     9.9565     8.0664    95.2465     0.0478     2.4741     0.1252
  112.5000   -33.6946     8.9162     9.9506     8.0664    92.0074     0.0288     2.4763     0.1245
  113.0000   -33.6874     8.9320     9.9445     8.0664    91.4399     0.0192     2.4804     0.1221
  113.5000   -33.6801     8.9478     9.9384     8.0663    91.3275     0.0175     2.4834     0.1187
  114.0000   -33.6729     8.9637     9.9324     8.0664    91.3845     0.0165     2.4858     0.1159
  114.5000   -33.6656     8.9795     9.9263     8.0664    91.3838     0.0161     2.4837     0.1151
  115.0000   -33.6584     8.9954     9.9203     8.0661    91.3027     0.0158     2.4797     0.1206
  115.5000   -33.6511     9.0155     9.9142     8.0667    91.5336     0.0154     2.4694     0.1259
  116.0000   -33.6439     8.9906     9.9082     8.0659    91.9396     0.0150     2.4594     0.1313
  116.5000   -33.6365     8.9569     9.9021     8.0656    94.4665     0.0146     2.4491     0.1367
  117.0000   -33.6230     8.8902     9.8961     8.0796    95.1182     0.0142     2.4443     0.1393
  117.5000   -33.5852     8.7463     9.8900     8.1145    95.8711     0.0137     2.4423     0.1406
  118.0000   -33.5478     8.6101     9.8836     8.1296    98.5711     0.0133     2.4423     0.1420
  118.5000   -33.5103     8.6110     9.8911     8.1451   101.4644     0.0130     2.4422     0.1432
  119.0000   -33.4726     8.6108     9.9003     8.1612   103.3508     0.0158     2.4423     0.1444
  119.5000   -33.4342     8.6108     9.9096     8.1908   100.9481     0.0186     2.4425     0.1453
  120.0000   -33.4323     8.6038     9.9190     8.1966    97.0358     0.0284     2.4424     0.1437
  120.5000   -33.4325     8.5951     9.9283     8.2146    93.0459     0.0452     2.4543     0.1406
  121.0000   -33.4325     8.5864     9.9376     8.2483    90.7884     0.0610     2.4682     0.1342
  121.5000   -33.4325     8.5777     9.9471     8.2640    91.0226     0.0721     2.4730     0.1275
  122.0000   -33.4325     8.5690     9.9567     8.2613    91.0389     0.0724     2.4763     0.1215
  122.5000   -33.4325     8.5603     9.9696     8.2617    93.2575     0.0727     2.4730     0.1239
  123.0000   -33.4325     8.5517     9.9770     8.2620    96.8142     0.0726     2.4650     0.1267
  123.5000   -33.4325     8.5430     9.7864     8.2617    97.1917     0.0748     2.4568     0.1294
  124.0000   -33.4325     8.5343     9.6145     8.2618    94.5257     0.0803     2.4516     0.1321
  124.5000   -33.4325     8.5257     9.4456     8.2618    92.7639     0.0915     2.4513     0.1347
  125.0000   -33.4326     8.5170     9.2796     8.2617    93.9177     0.1024     2.4505     0.1373
  125.5000   -33.4345     8.5084     9.1166     8.2617    96.5784     0.1133     2.4522     0.1405
  126.0000   -33.4344     8.4998     9.0055     8.2617    99.2147     0.1253     2.4641     0.1344
  126.5000   -33.5559     8.4912     8.9459     8.2617   100.1920     0.1235     2.4792     0.1271
  127.0000   -34.2068     8.4826     8.8868     8.2617    99.1772     0.1147     2.4887     0.1198
  127.5000   -34.6419     8.4740     8.8281     8.2617    98.4550     0.0943     2.4895     0.1150
  128.0000   -34.7023     8.4653     8.7697     8.2617    98.1087     0.0680     2.4871     0.1173
  128.5000   -34.7649     8.4569     8.7117     8.2617    97.7269     0.0435     2.4745     0.1214
  129.0000   -34.8240     8.4237     8.6541     8.2617    96.9002     0.0151     2.4685     0.1256
  129.5000   -34.8826     8.3786     8.5969     8.2617    96.1348     0.0162     2.4720     0.1309
  130.0000   -34.9416     8.3337     8.5401     8.2617    96.0292     0.0192     2.4766     0.1275
  130.5000   -35.0026     8.2891     8.4836     8.2617    96.9169     0.0235     2.4811     0.1220
  131.0000   -35.0260     8.2447     8.4275     8.2617    98.4399     0.0271     2.4857     0.1160
