~VERSION INFORMATION
 VERS.                2.0:   CWLS LOG ASCII STANDARD - VERSION 2.0
 WRAP.                 NO:   ONE LINE PER DEPTH STEP
~WELL INFORMATION
#MNEM.UNIT      DATA TYPE    INFORMATION
#----------   ------------   ------------------------------
 STRT.F           24.5000:   START DEPTH
 STOP.F          506.0000:   STOP DEPTH
 STEP.F            0.5000:   STEP LENGTH
 NULL.          -999.2500:   NO VALUE
 COMP. FENIX & SCISSON INC:   COMPANY
 WELL.    NPR 3 SX #44-10:   WELL
 FLD .        TEAPOT DOME:   FIELD
 LOC .      S10 T38N R78W:   LOCATION
 CNTY.            NATRONA:   COUNTY
 STAT.            WYOMING:   STATE
 CTRY. UNITED STATES OF AMERICA:   COUNTRY
 SRVC.           BIRDWELL:   SERVICE COMPANY
 DATE.        14-NOV-1978:   LOGDATE
 API .       490251074700:   API NUMBER
~CURVE INFORMATION
#MNEM.UNIT       API CODE    CURVE DESCRIPTION
#----------   ------------   ------------------------------
 DEPT.F                  :   
 SPR .MV     05 010 01 00:   SPONTANEOUS POTENTIAL FROM RES.
 IL  .OHMM   05 120 00 00:   INDUCTION LOG
 SN  .OHMM   05 040 16 00:   SHORT NORMAL 16"
 CALD.IN     45 280 60 00:   CALIPER
 GRD .GAPI   45 310 01 00:   GAMMA RAY FROM DENSITY LOG
 RHOB.G/C3   45 350 01 00:   BULK DENSITY
 DPHI.DEC    45 890 12 00:   DENSITY POROSITY SANDSTONE
 DRHO.G/C3   45 356 01 00:   DENSITY CORRECTION
~PARAMETER INFORMATION
#MNEM.UNIT          VALUE    DESCRIPTION
#----------   ------------   ------------------------------
 PD  .                 GL:   PERMANENT DATUM
 EPD .F              5211:   ELEVATION PERMANENT DATUM
 LMF .                 KB:   LOG MEASURED FROM
 DAPD.F                 4:   FEET ABOVE PERMANENT DATUM
 DMF .                 KB:   DRILLING MEASURED FROM
 EKB .F              5215:   KELLING BUSHING
 EGL .F              5211:   GROUND LEVEL
 DATE.           11-14-78:   RUN DATE
 RUN .                  1:   RUN NUMBER
 DD  .F               510:   DEPTH DRILLER
 DL  .F               506:   DEPTH LOGGER
 BLI .F               500:   BOTTOM LOG INTERVAL
 TLI .F                45:   TOP LOG INTERVAL
 CS  .IN            8.625:   CASING SIZE
 CBD .F                40:   CASING BOTTOM DRILLER
 CBL .F                40:   CASING BOTTOM LOGGER
 BS  .IN            7.875:   BIT SIZE
 BSD .F               510:   BIT SIZE AT DEPTH
 DFT .            SEA MUD:   DRILLING FLUID TYPE
 DFD .                8.7:   DRILLING FLUID DENSITY
 DFV .                 35:   DRILLING FLUID VISCOSITY
 DFPH.               10.5:   DRILLING FLUID PH
 MSS .            MUD PIT:   MUD SAMPLE SOURCE
 RMS .OHMM            .51:   RESISTIVITY MUD SAMPLE
 MST .F                54:   MUD SAMPLE TEMPERATURE
 RMF .OHMM            .45:   RESISTIVITY MUD FILTRATE SAMPLE
 MFST.F                54:   MUD FILTRATE SAMPLE TEMPERATURE
 RMC .OHMM             .5:   RESISTIVITY MUD CAKE
 MCST.F                60:   MUD CAKE SAMPLE TEMPERATURE
 MFSS.           MEASURED:   MUD FILTRATE SAMPLE SOURCE
 MCSS.           MEASURED:   MUD CAKE SAMPLE SOURCE
 RMB .OHMM            .49:   RESISTIVITY MUD AT BHT
 BHT .F                56:   BOTTOM HOLE TEMPERATURE
 TCS .HRS               2:   TIME CURCULATED STOPPED
 MRT .F                56:   MAXIMUM RECORDED TEMPERATURE
 LUN .               2958:   LOGGING UNIT NUMBER
 LUL .               CASP:   LOGGING UNIT LOCATION
 ENGI.             MILLER:   RECORDING ENGINEER
 WITN.           DINSMORE:   WITNESSED BY
 CLNT.            A2DTECH:   CLIENT CODE
 ORIG.       2", 5" PRINT:   ORIGIN OF DATA
 UWI .       490251074700:   UNIQUE WELL ID
 DICO. A2D Technologies, Inc.:   DIGITIZING COMPANY
~OTHER INFORMATION
~A   DEPT      SPR         IL         SN       CALD         GRD      RHOB       DPHI       DRHO   
# ...
  470.0000   -61.7300    12.8160    14.8580     8.0100    87.2950     2.5450     0.0780     0.0310
  470.5000   -61.9040    12.7790    14.8710     8.0100    87.4400     2.5420     0.0800     0.0270
  471.0000   -62.0780    12.7420    14.8890     8.0100    88.8390     2.5380     0.0810     0.0220
  471.5000   -62.2520    12.7060    14.8730     8.0100    90.2150     2.5350     0.0830     0.0180
  472.0000   -62.4250    12.6690    14.8440     8.0100    89.5100     2.5310     0.0850     0.0140
  472.5000   -62.5970    12.6320    14.8140     8.0100    86.7530     2.5280     0.0860     0.0120
  473.0000   -62.7340    12.5960    14.7850     8.0100    84.0110     2.5280     0.0880     0.0140
  473.5000   -63.1530    12.5590    14.7550     8.0100    83.2320     2.5280     0.0870     0.0150
  474.0000   -63.6370    12.5220    14.7250     8.0100    83.4900     2.5270     0.0870     0.0160
  474.5000   -64.1230    12.4850    14.6950     8.0100    84.1750     2.5270     0.0870     0.0180
  475.0000   -64.6060    12.4490    14.6660     8.0100    85.3870     2.5270     0.0870     0.0190
  475.5000   -64.9150    12.4120    14.6360     8.0100    86.6280     2.5290     0.0870     0.0200
  476.0000   -64.7440    12.3360    14.5230     8.0100    87.2790     2.5320     0.0860     0.0220
  476.5000   -64.5690    12.1120    14.2890     8.0100    87.8560     2.5350     0.0850     0.0230
  477.0000   -65.0840    11.8890    14.0560     8.0100    88.3670     2.5390     0.0800     0.0250
  477.5000   -65.8190    11.6740    13.8230     8.0100    90.7690     2.5450     0.0760     0.0250
  478.0000   -66.6010    11.4860    13.5890     8.0100    93.3340     2.5510     0.0710     0.0250
  478.5000   -63.5520    11.2980    13.3560     8.0100    94.6270     2.5570     0.0670     0.0240
  479.0000   -62.9410    11.1100    13.1220     8.0100    95.0910     2.5630     0.0640     0.0240
  479.5000   -63.2410    10.9220    12.9870     8.0100    95.4220     2.5680     0.0700     0.0190
  480.0000   -63.5590    10.7340    12.8700     8.0100    95.6850     2.5550     0.0750     0.0120
  480.5000   -63.8810    10.5460    12.7520     8.0100    94.5400     2.5410     0.0800     0.0120
  481.0000   -64.2040    10.3580    12.6350     8.0100    92.7890     2.5270     0.0850     0.0160
  481.5000   -64.5280    10.1700    12.5170     8.0100    93.8900     2.5260     0.0880     0.0200
  482.0000   -64.8520    10.0980    12.4000     8.0100    95.8270     2.5330     0.0830     0.0340
  482.5000   -65.1760    10.0810    12.2820     8.0100    96.6460     2.5390     0.0770     0.0420
  483.0000   -65.5000    10.0630    12.1640     8.0100    96.0090     2.5460     0.0710     0.0390
  483.5000   -65.8240    10.0460    12.0470     8.0100    97.5650     2.5550     0.0740     0.0340
  484.0000   -66.1470    10.0290    11.9290     8.0100    99.9250     2.5500     0.0770     0.0240
  484.5000   -66.4700    10.0170    11.8250     8.0090   101.0260     2.5410     0.0800     0.0110
  485.0000   -66.7960    10.0170    11.8250     8.0000    99.5270     2.5310     0.0840     0.0100
  485.5000   -66.8840    10.0170    11.8250     7.9920    97.4830     2.5230     0.0870     0.0100
  486.0000   -66.7000    10.0170    11.8250     7.9840    95.4500     2.5260     0.0880     0.0160
  486.5000   -67.3010    10.0170    11.8250     7.9760    94.7750     2.5310     0.0820     0.0210
  487.0000   -70.3230    10.0160    11.8240     7.9670    94.5760     2.5370     0.0770     0.0260
  487.5000   -71.7750    10.0170    11.8220     7.9590    94.7000     2.5420     0.0760     0.0300
  488.0000   -71.6890     9.9210    11.8280     7.9500    96.1970     2.5420     0.0780     0.0300
  488.5000   -72.1150     9.8200    11.6130     7.9450    97.3240     2.5380     0.0810     0.0300
  489.0000   -73.9260     9.7190    11.4570     7.9360    97.3060     2.5350     0.0820     0.0300
  489.5000   -71.8270     9.6180    11.3010     7.9270    97.4320     2.5390     0.0820     0.0300
  490.0000   -68.6910     9.5180    11.1450     7.9180    98.1640     2.5390     0.0820     0.0300
  490.5000   -69.6770     9.4170    10.9890     7.9090    98.8920     2.5370     0.0820     0.0310
  491.0000   -70.6710     9.3160    10.8320     7.9000    99.2740     2.5350     0.0820     0.0310
  491.5000   -71.6470     9.2150    10.6760     7.8910    98.7480     2.5370     0.0820     0.0310
  492.0000   -72.6180     9.1250    10.5200     7.8820    96.5660     2.5400     0.0830     0.0310
  492.5000   -73.5900     9.0790    10.4540     7.8730    94.7700     2.5370     0.0850     0.0310
  493.0000   -74.5620     9.0330    10.4110     7.8640    95.1680     2.5300     0.0890     0.0320
  493.5000   -75.5340     8.9870    10.3670     7.8550    95.6120     2.5230     0.0920     0.0350
  494.0000   -76.5070     8.9400    10.3230     7.8400    97.2010     2.5160     0.0930     0.0390
  494.5000   -77.6040     8.8940    10.2800     7.8140  -999.2500     2.5110     0.0930     0.0430
  495.0000   -79.1490     8.8480    10.2360     7.7860  -999.2500     2.5150     0.0920     0.0470
  495.5000   -80.7000     8.8040    10.1960     7.7060  -999.2500     2.5230     0.0880     0.0500
  496.0000   -82.2560     8.9520    10.1690     7.5110  -999.2500     2.5300     0.0850     0.0510
  496.5000   -83.7380     9.1810    10.1410     7.4810  -999.2500     2.5360     0.0820     0.0510
  497.0000   -81.7670     9.4970    10.1130     6.0050  -999.2500     2.5340     0.0780     0.0470
  497.5000   -79.4400     9.9130    10.1100     4.8770  -999.2500     2.5320     0.0750     0.0470
  498.0000   -80.1440    10.3300    10.2980     4.9360  -999.2500     2.5380     0.0720     0.0470
  498.5000   -78.4500    10.7460    10.2980     5.0410  -999.2500     2.5470     0.0730     0.0470
  499.0000   -74.0520    11.1630    10.1100     5.1570  -999.2500     2.5530     0.0740     0.0470
  499.5000   -69.5660    11.5020     9.9250     5.2100  -999.2500     2.5500     0.0740     0.0480
  500.0000   -68.4390    11.9350     9.8340     5.2100  -999.2500     2.5470     0.0710     0.0550
  500.5000  -999.2500  -999.2500  -999.2500  -999.2500  -999.2500     2.5450     0.0660     0.0610
  501.0000  -999.2500  -999.2500  -999.2500  -999.2500  -999.2500     2.5560     0.0620     0.0680
  501.5000  -999.2500  -999.2500  -999.2500  -999.2500  -999.2500     2.5680     0.0570     0.0700
  502.0000  -999.2500  -999.2500  -999.2500  -999.2500  -999.2500     2.5810     0.0500     0.0680
  502.5000  -999.2500  -999.2500  -999.2500  -999.2500  -999.2500     2.5860     0.0540     0.0650
  503.0000  -999.2500  -999.2500  -999.2500  -999.2500  -999.2500     2.5710     0.0610     0.0640
  503.5000  -999.2500  -999.2500  -999.2500  -999.2500  -999.2500     2.5600     0.0680     0.0650
  504.0000  -999.2500  -999.2500  -999.2500  -999.2500  -999.2500     2.5580     0.0690     0.0670
  504.5000  -999.2500  -999.2500  -999.2500  -999.2500  -999.2500     2.5580     0.0700     0.0760
  505.0000  -999.2500  -999.2500  -999.2500  -999.2500  -999.2500     2.5590     0.0690     0.0850
  505.5000  -999.2500  -999.2500  -999.2500  -999.2500  -999.2500     2.5630     0.0660     0.0940
  506.0000  -999.2500  -999.2500  -999.2500  -999.2500  -999.2500     2.5690     0.0630  -999.2500
