~VERSION INFORMATION
 VERS.                2.0:   CWLS LOG ASCII STANDARD - VERSION 2.0
 WRAP.                 NO:   ONE LINE PER DEPTH STEP
~WELL INFORMATION
#MNEM.UNIT      DATA TYPE    INFORMATION
#----------   ------------   ------------------------------
 STRT.F           26.0000:   START DEPTH
 STOP.F         1071.0000:   STOP DEPTH
 STEP.F            0.5000:   STEP LENGTH
 NULL.          -999.2500:   NO VALUE
 COMP. FENIX & SCISSON INC:   COMPANY
 WELL.       NRP 3 #61-14:   WELL
 FLD .        TEAPOT DOME:   FIELD
 LOC .      S14 T38N R78W:   LOCATION
 CNTY.            NATRONA:   COUNTY
 STAT.            WYOMING:   STATE
 CTRY. UNITED STATES OF AMERICA:   COUNTRY
 SRVC.            Unknown:   SERVICE COMPANY
 DATE.        09-JAN-1979:   LOGDATE
 API .       490251076300:   API NUMBER
~CURVE INFORMATION
#MNEM.UNIT       API CODE    CURVE DESCRIPTION
#----------   ------------   ------------------------------
 DEPT.F                  :   
 SPR .MV     05 010 01 00:   SPONTANEOUS POTENTIAL FROM RES.
 SN  .OHMM   05 040 16 00:   SHORT NORMAL 16"
 IL  .OHMM   05 120 00 00:   INDUCTION LOG
 CALD.IN     45 280 60 00:   CALIPER
 GRD .GAPI   45 310 01 00:   GAMMA RAY FROM DENSITY LOG
 RHOB.G/C3   45 350 01 00:   BULK DENSITY
 DPHI.DEC    45 890 12 00:   DENSITY POROSITY SANDSTONE
 CORR.G/C3   45 356 01 00:   DENSITY CORRECTION
~PARAMETER INFORMATION
#MNEM.UNIT          VALUE    DESCRIPTION
#----------   ------------   ------------------------------
 PD  .                 GL:   PERMANENT DATUM
 EPD .F              5240:   ELEVATION PERMANENT DATUM
 LMF .                 KB:   LOG MEASURED FROM
 DAPD.F                 4:   FEET ABOVE PERMANENT DATUM
 DMF .                 KB:   DRILLING MEASURED FROM
 EKB .F              5244:   KELLING BUSHING
 EGL .F              5240:   GROUND LEVEL
 DATE.             1-9-79:   RUN DATE
 RUN .                  1:   RUN NUMBER
 DD  .F              1061:   DEPTH DRILLER
 DL  .F              1071:   DEPTH LOGGER
 BLI .F              1064:   BOTTOM LOG INTERVAL
 TLI .F                50:   TOP LOG INTERVAL
 CS  .IN            8.625:   CASING SIZE
 CBD .F                40:   CASING BOTTOM DRILLER
 CBL .F                38:   CASING BOTTOM LOGGER
 BS  .IN            7.875:   BIT SIZE
 BSD .F              1061:   BIT SIZE AT DEPTH
 DFT .                KCL:   DRILLING FLUID TYPE
 DFD .                8.8:   DRILLING FLUID DENSITY
 DFV .                 36:   DRILLING FLUID VISCOSITY
 DFPH.                9.2:   DRILLING FLUID PH
 MSS .           FLOWLINE:   MUD SAMPLE SOURCE
 RMS .OHMM             .3:   RESISTIVITY MUD SAMPLE
 MST .F                58:   MUD SAMPLE TEMPERATURE
 RMF .OHMM             .3:   RESISTIVITY MUD FILTRATE SAMPLE
 MFST.F                58:   MUD FILTRATE SAMPLE TEMPERATURE
 RMC .OHMM            .34:   RESISTIVITY MUD CAKE
 MCST.F                62:   MUD CAKE SAMPLE TEMPERATURE
 MFSS.           MEASURED:   MUD FILTRATE SAMPLE SOURCE
 MCSS.           MEASURED:   MUD CAKE SAMPLE SOURCE
 RMB .OHMM            .29:   RESISTIVITY MUD AT BHT
 BHT .F                61:   BOTTOM HOLE TEMPERATURE
 TCS .HRS               4:   TIME CURCULATED STOPPED
 MRT .F                61:   MAXIMUM RECORDED TEMPERATURE
 LUN .               3006:   LOGGING UNIT NUMBER
 LUL .             CASPER:   LOGGING UNIT LOCATION
 ENGI.            ROLLINS:   RECORDING ENGINEER
 WITN.           DINSMORE:   WITNESSED BY
 CLNT.            A2DTECH:   CLIENT CODE
 ORIG.           5" PRINT:   ORIGIN OF DATA
 UWI .       490251076300:   UNIQUE WELL ID
 DICO. A2D Technologies, Inc.:   DIGITIZING COMPANY
~OTHER INFORMATION
~A   DEPT      SPR         SN         IL       CALD         GRD      RHOB       DPHI       CORR   
# ...
  309.5000   -47.1480     6.7980     7.1320     7.8390   105.0300     2.4050     0.1660     0.1430
  310.0000   -47.1670     6.8150     7.2150     7.8340   104.0360     2.4110     0.1630     0.1380
  310.5000   -47.3130     6.8440     7.2990     7.8300   103.6810     2.4160     0.1610     0.1310
  311.0000   -47.4590     6.8960     7.3820     7.8250   104.0160     2.4180     0.1590     0.1320
  311.5000   -47.6040     6.9470     7.4650     7.8210   106.7910     2.4200     0.1560     0.1380
  312.0000   -47.7490     6.9990     7.5480     7.8160   109.8040     2.4210     0.1530     0.1450
  312.5000   -47.9050     7.0510     7.6320     7.8120   112.3450     2.4210     0.1600     0.1530
  313.0000   -48.2230     7.1020     7.7150     7.8080   113.7360     2.4140     0.1680     0.1610
  313.5000   -48.5710     7.1540     7.7980     7.8160   115.1010     2.4060     0.1700     0.1660
  314.0000   -48.9200     7.2060     7.8810     7.8230   114.9010     2.4030     0.1700     0.1650
  314.5000   -49.2680     7.2130     7.9350     7.8310   113.3290     2.4030     0.1700     0.1600
  315.0000   -49.6170     7.2130     7.9730     7.8390   111.7850     2.4030     0.1700     0.1490
  315.5000   -49.9660     7.2130     8.0110     7.8470   110.9720     2.4030     0.1680     0.1390
  316.0000   -50.3150     7.2130     8.0480     7.8320   111.0540     2.4030     0.1660     0.1370
  316.5000   -50.6640     7.2130     8.0860     7.8140   111.1470     2.4030     0.1640     0.1370
  317.0000   -51.0120     7.2130     8.1330     7.7960   110.2990     2.4030     0.1710     0.1380
  317.5000   -51.3620     7.2150     8.0260     7.7780   109.3300     2.3970     0.1770     0.1380
  318.0000   -51.7120     7.1600     7.8320     7.7600   108.0820     2.3860     0.1790     0.1390
  318.5000   -52.0730     7.0870     7.6390     7.7420   106.4240     2.3780     0.1800     0.1390
  319.0000   -52.1170     7.0140     7.4450     7.7190   105.7330     2.3780     0.1810     0.1400
  319.5000   -52.1420     6.9420     7.2510     7.6760   105.6420     2.3770     0.1830     0.1410
  320.0000   -52.1680     6.8880     7.1380     7.6320   105.8420     2.3760     0.1850     0.1410
  320.5000   -52.1950     6.8590     7.1180     7.5880   106.5480     2.3750     0.1870     0.1360
  321.0000   -52.2220     6.8310     7.0990     7.5700   107.2510     2.3740     0.1890     0.1300
  321.5000   -52.2490     6.8030     7.0790     7.5740   107.7020     2.3740     0.1890     0.1230
  322.0000   -52.2760     6.7750     7.0600     7.5880   107.7090     2.3730     0.1860     0.1170
  322.5000   -52.3730     6.7470     7.0400     7.5890   105.9920     2.3730     0.1780     0.1110
  323.0000   -52.5890     6.7190     7.0200     7.6130   103.4500     2.3840     0.1720     0.1080
  323.5000   -52.8030     6.6910     7.0010     7.6430   100.7820     2.3960     0.1690     0.1080
  324.0000   -53.0170     6.6630     6.9810     7.6750    98.1300     2.4030     0.1650     0.1080
  324.5000   -53.2310     6.6280     6.9620     7.7070    96.3240     2.4040     0.1620     0.1070
  325.0000   -53.4460     6.5380     6.8560     7.7140   101.2770     2.4050     0.1650     0.1070
  325.5000   -53.6590     6.4480     6.6670     7.7200   104.3280     2.4040     0.1690     0.1070
  326.0000   -53.8230     6.3580     6.4790     7.7260   106.0010     2.3980     0.1720     0.1080
  326.5000   -53.9800     6.2680     6.2900     7.7440   108.4040     2.3930     0.1760     0.1090
  327.0000   -54.1370     6.1770     6.1660     7.7660   110.7650     2.3880     0.1790     0.1100
  327.5000   -54.2940     6.0870     6.1660     7.7880   112.8360     2.3820     0.1830     0.1110
  328.0000   -54.4520     5.9980     6.1660     7.8110   113.0350     2.3770     0.1860     0.1130
  328.5000   -54.4970     5.9810     6.1660     7.8330   112.9410     2.3770     0.1870     0.1140
  329.0000   -54.5180     5.9650     6.1660     7.8550   113.1630     2.3770     0.1840     0.1140
  329.5000   -54.5380     5.9490     6.1660     7.8780   113.5480     2.3770     0.1760     0.1120
  330.0000   -54.5580     5.9330     6.1660     7.9000   113.7800     2.3870     0.1690     0.1110
  330.5000   -54.5780     5.9170     6.1580     7.9230   110.7080     2.3990     0.1620     0.1090
  331.0000   -54.5980     5.9000     6.1430     7.9250   107.5450     2.4070     0.1620     0.1080
  331.5000   -54.6180     5.8840     6.1280     7.9230   104.4110     2.4080     0.1620     0.1060
  332.0000   -54.6390     5.8680     6.1130     7.9200   102.0750     2.4080     0.1600     0.1040
  332.5000   -54.6580     5.8520     6.0980     7.9180   101.4390     2.4070     0.1610     0.1030
  333.0000   -54.6690     5.8360     6.0830     7.9160   101.8820     2.4070     0.1630     0.1040
  333.5000   -54.9800     5.8190     6.0680     7.9140   104.9610     2.4070     0.1680     0.1050
  334.0000   -55.3270     5.8030     6.0530     7.9110   108.2120     2.4040     0.1720     0.1060
  334.5000   -55.6660     5.7870     6.0530     7.9090   111.4770     2.3990     0.1760     0.1070
  335.0000   -55.6950     5.7800     6.0530     7.9070   114.7690     2.3940     0.1760     0.1080
  335.5000   -55.7110     5.7800     6.0530     7.9090   115.4430     2.3940     0.1740     0.1050
  336.0000   -55.7280     5.7800     6.0530     7.9110   116.4780     2.3950     0.1730     0.1030
  336.5000   -55.7450     5.7800     6.0530     7.9130   117.9420     2.3950     0.1710     0.1000
  337.0000   -55.7620     5.7800     6.0530     7.9140   118.6430     2.3950     0.1690     0.0980
  337.5000   -55.7790     5.7800     6.0110     7.9160   118.8700     2.3960     0.1700     0.0990
  338.0000   -55.7960     5.7800     5.9270     7.9180   118.5540     2.3950     0.1700     0.1000
  338.5000   -55.8120     5.7800     5.8430     7.9200   118.1260     2.3950     0.1710     0.1040
  339.0000   -55.8290     5.7070     5.7590     7.9220   117.9390     2.3940     0.1730     0.1080
  339.5000   -55.8460     5.5970     5.6750     7.9240   117.7670     2.3920     0.1760     0.1110
  340.0000   -55.8630     5.4860     5.5910     7.9260   117.0830     2.3860     0.1800     0.1130
  340.5000   -55.8800     5.3760     5.5070     7.8980   114.5730     2.3850     0.1830     0.1130
  341.0000   -55.8970     5.2650     5.4230     7.8660   112.1350     2.3850     0.1840     0.1130
  341.5000   -55.9140     5.1740     5.3200     7.8460   111.1470     2.3850     0.1830     0.1130
  342.0000   -55.9310     5.1820     5.3220     7.8420   110.8060     2.3840     0.1830     0.1130
  342.5000   -55.9480     5.1890     5.3250     7.8390   110.9320     2.3840     0.1820     0.1140
  343.0000   -55.9640     5.1960     5.3280     7.8350   110.9160     2.3840     0.1830     0.1140
  343.5000   -55.9810     5.2030     5.3300     7.8320   109.9200     2.3840     0.1840     0.1140
  344.0000   -55.9980     5.2090     5.3330     7.8290   107.4250     2.3850     0.1800     0.1140
  344.5000   -56.0150     5.2160     5.3360     7.8000   105.3130     2.3900     0.1760     0.1140
  345.0000   -56.0320     5.2230     5.3390     7.7660   105.3750     2.3950     0.1720     0.1150
  345.5000   -56.0500     5.2300     5.3420     7.7310   105.3890     2.4000     0.1680     0.1170
  346.0000   -56.0670     5.2370     5.3450     7.6960   105.5340     2.4000     0.1680     0.1190
  346.5000   -56.1270     5.2430     5.3480     7.6880   106.4220     2.4000     0.1680     0.1220
  347.0000   -56.2410     5.2500     5.3510     7.6860   106.5180     2.4000     0.1680     0.1240
  347.5000   -56.6380     5.2570     5.3540     7.6840   107.3520     2.4000     0.1680     0.1260
  348.0000   -57.0820     5.2640     5.3560     7.6820   108.8050     2.4000     0.1680     0.1320
  348.5000   -57.5130     5.2700     5.3590     7.6810   108.9620     2.4000     0.1670     0.1420
  349.0000   -57.7030     5.2520     5.3620     7.6790   108.7440     2.4000     0.1700     0.1550
  349.5000   -57.9030     5.2320     5.3650     7.6770   108.5170     2.3990     0.1730     0.1770
