~VERSION INFORMATION
 VERS.                2.0:   CWLS LOG ASCII STANDARD - VERSION 2.0
 WRAP.                 NO:   ONE LINE PER DEPTH STEP
~WELL INFORMATION
#MNEM.UNIT      DATA TYPE    INFORMATION
#----------   ------------   ------------------------------
 STRT.F           12.0000:   START DEPTH
 STOP.F          563.5000:   STOP DEPTH
 STEP.F            0.5000:   STEP LENGTH
 NULL.          -999.2500:   NO VALUE
 COMP.       F D SERV INC:   COMPANY
 WELL. N P R 3 SX-3 #52-3:   WELL
 FLD .             TEAPOT:   FIELD
 LOC .       S3 T38N R78W:   LOCATION
 CNTY.            NATRONA:   COUNTY
 STAT.            WYOMING:   STATE
 CTRY. UNITED STATES OF AMERICA:   COUNTRY
 SRVC.     Atlas Wireline:   SERVICE COMPANY
 DATE.        27-APR-1992:   LOGDATE
 API .       490252252000:   API NUMBER
~CURVE INFORMATION
#MNEM.UNIT       API CODE    CURVE DESCRIPTION
#----------   ------------   ------------------------------
 DEPT.F                  :   
 PORZ.DEC    45 890 12 00:   DENSITY POROSITY
 CNC .DEC    42 890 03 00:   NEUTRON POROSITY SANDSTONE
 CALD.IN     45 280 60 00:   CALIPER FROM DENSITY
 GRD .GAPI   45 310 01 00:   GAMMA RAY FROM DENSITY LOG
 ZCOR.G/C3   45 356 01 00:   DENSITY CORRECTION
 ZDEN.G/C3   45 350 01 00:   BULK DENSITY
 RILD.OHMM   07 120 46 00:   INDUCTION LOG DEEP RESISTIVITY
 RILM.OHMM   07 120 44 00:   INDUCTION LOG MEDIUM RESISTIVITY
 RFOC.OHMM   07 220 04 00:   RESISTIVITY FOCUSED LOG
~PARAMETER INFORMATION
#MNEM.UNIT          VALUE    DESCRIPTION
#----------   ------------   ------------------------------
 PD  .                 GL:   PERMANENT DATUM
 EPD .F              5145:   ELEVATION PERMANENT DATUM
 LMF .                 KB:   LOG MEASURED FROM
 DAPD.F                 5:   FEET ABOVE PERMANENT DATUM
 DMF .                 KB:   DRILLING MEASURED FROM
 EKB .F              5150:   KELLING BUSHING
 EDF .F              5149:   DRILLING FLOOR
 EGL .F              5145:   GROUND LEVEL
 DATE.        27-APR-1992:   RUN DATE
 RUN .                  1:   RUN NUMBER
 DD  .F               565:   DEPTH DRILLER
 DL  .F               565:   DEPTH LOGGER
 BLI .F               563:   BOTTOM LOG INTERVAL
 CS  .IN            8.625:   CASING SIZE
 CBD .F                48:   CASING BOTTOM DRILLER
 CBL .F                51:   CASING BOTTOM LOGGER
 BS  .IN            7.875:   BIT SIZE
 BSD .F               565:   BIT SIZE AT DEPTH
 DFT .              WATER:   DRILLING FLUID TYPE
 TCS .HRS            0200:   TIME CURCULATED STOPPED
 MRT .F                88:   MAXIMUM RECORDED TEMPERATURE
 LUN .           HL- 6274:   LOGGING UNIT NUMBER
 LUL .             CASPER:   LOGGING UNIT LOCATION
 ENGI.             RAUTIO:   RECORDING ENGINEER
 WITN.        GARY STRONG:   WITNESSED BY
 CLNT.            A2DTECH:   CLIENT CODE
 ORIG.           5" PRINT:   ORIGIN OF DATA
 UWI .       490252252000:   UNIQUE WELL ID
 DICO. A2D Technologies, Inc.:   DIGITIZING COMPANY
~OTHER INFORMATION
~A   DEPT     PORZ        CNC       CALD        GRD       ZCOR       ZDEN       RILD       RILM       RFOC   
# ...
  158.0000     0.0922     0.3255     8.2242   105.4373     0.0269     2.4935    12.4938    12.5579    11.4259
  158.5000     0.0903     0.3291     8.2236   101.2425     0.0239     2.4980    12.4946    12.7336    11.6655
  159.0000     0.0898     0.3315     8.2230    99.4557     0.0239     2.5003    12.4956    12.7336    11.9933
  159.5000     0.0949     0.3294     8.2225    98.5603     0.0240     2.4980    12.4965    12.7336    12.0759
  160.0000     0.1063     0.3221     8.2369    97.3656     0.0195     2.4890    12.4973    12.6455    12.0751
  160.5000     0.1070     0.3182     8.2362    95.8714     0.0074     2.4754    12.4981    12.5579    12.0741
  161.0000     0.1054     0.3155     8.2356    93.7785     0.0014     2.4740    12.5860    12.3847    11.9898
  161.5000     0.1019     0.3145     8.2350    91.3861     0.0045     2.4793    12.5868    12.4710    11.9890
  162.0000     0.0969     0.3125     8.2345    92.8867     0.0105     2.4891    12.5006    12.6455    11.9052
  162.5000     0.0948     0.3097     8.2338    97.0811     0.0226     2.4944    12.3292    12.5579    11.8221
  163.0000     0.0963     0.3073     8.2332   100.9762     0.0408     2.4928    12.1602    12.2990    11.7396
  163.5000     0.1026     0.3058     8.2326   100.0809     0.0393     2.4831    12.0772    12.1293    11.6574
  164.0000     0.1089     0.3070     8.2321    96.1922     0.0378     2.4718    11.9945    11.9543    11.6566
  164.5000     0.1095     0.3124     8.2165    96.4945     0.0378     2.4696    11.8301    11.6342    11.5752
  165.0000     0.1089     0.3243     8.2158    98.5931     0.0363     2.4711    11.8310    11.6342    11.2575
  165.5000     0.1077     0.3326     8.2152   100.0930     0.0304     2.4719    11.8318    11.7969    10.7976
  166.0000     0.1065     0.3347     8.2147   100.0958     0.0243     2.4726    11.8326    11.9620    10.7222
  166.5000     0.1062     0.3368     8.2141    98.2555     0.0214     2.4734    11.4301    11.8792    10.7960
  167.0000     0.1068     0.3398     8.2135    96.5094     0.0229     2.4727    11.1181    11.2371    11.0992
  167.5000     0.1087     0.3431     8.2128    95.6141     0.0246     2.4681    11.1964    11.2371    11.3322
  168.0000     0.1110     0.3488     8.2122    95.3168     0.0287     2.4652    11.4325    11.3943    10.6450
  168.5000     0.1125     0.3470     8.2117    96.2186     0.0320     2.4675    11.6737    11.6342    10.5707
  169.0000     0.1112     0.3425     8.2111    96.8203     0.0306     2.4712    11.6745    11.7153    10.9433
  169.5000     0.1082     0.3386     8.2104    94.7280     0.0291     2.4742    11.5945    11.7153    11.1726
  170.0000     0.1064     0.3364     8.2098    93.8327     0.0276     2.4758    11.5900    11.6235    11.4864
  170.5000     0.1064     0.3349     8.2093    94.7337     0.0261     2.4773    11.5159    11.3943    11.4856
  171.0000     0.1055     0.3319     8.2087    97.4312     0.0246     2.4804    11.3582    11.3154    11.4848
  171.5000     0.1040     0.3288     8.2081    99.2305     0.0217     2.4833    11.2025    11.1593    11.4046
  172.0000     0.1010     0.3274     8.2074    94.1442     0.0187     2.4751    10.9726    11.0820    11.3135
  172.5000     0.1028     0.3279     8.2068    94.7459     0.0187     2.4668    10.6731    10.8535    10.8621
  173.0000     0.1076     0.3328     8.1913    97.4433     0.0172     2.4630    10.4449    10.5561    10.4184
  173.5000     0.1113     0.3373     8.1907   100.1408     0.0157     2.4600    10.3824    10.4105    10.3456
  174.0000     0.1133     0.3412     8.1900   101.3733     0.0173     2.4548    10.3114    10.3384    10.3450
  174.5000     0.1151     0.3430     8.1894   103.1412     0.0234     2.4510    10.3122    10.3384    10.3443
  175.0000     0.1190     0.3400     8.1889   104.3417     0.0370     2.4495    10.3129    10.2669    10.2008
  175.5000     0.1214     0.3442     8.2033   105.5421     0.0372     2.4473    10.3136    10.1958    10.1296
  176.0000     0.1214     0.3496     8.2177   103.4492     0.0247     2.4443    10.1724    10.1958    10.0589
  176.5000     0.1226     0.3442     8.2170   101.9012     0.0069     2.4428    10.1027    10.1252    10.0582
  177.0000     0.1258     0.3429     8.2164   100.7603     0.0084     2.4443    10.0334    10.1252    10.0575
  177.5000     0.1252     0.3448     8.2310   100.4637     0.0130     2.4489     9.9649    10.0551    10.0568
  178.0000     0.1225     0.3502     8.2303   100.4673     0.0205     2.4579     9.9655    10.0551     9.9865
  178.5000     0.1168     0.3474     8.2296   100.7695     0.0236     2.4617     9.9662    10.0551     9.9858
  179.0000     0.1147     0.3396     8.2290   100.7725     0.0236     2.4564     9.9670    10.0551     9.9161
  179.5000     0.1169     0.3366     8.2284   100.4759     0.0252     2.4519     9.9677     9.9855     9.9154
  180.0000     0.1195     0.3369     8.2279    99.5812     0.0267     2.4489    10.0377     9.9855     9.8462
  180.5000     0.1219     0.3396     8.2123    99.2840     0.0252     2.4467     9.9688     9.9164     9.8430
  181.0000     0.1246     0.3444     8.2116    98.6886     0.0207     2.4445     9.9697     9.9164     9.7766
  181.5000     0.1252     0.3459     8.2110    97.4771     0.0192     2.4452     9.9014     9.8478     9.7759
  182.0000     0.1249     0.3462     8.2105    93.9047     0.0193     2.4467     9.7658     9.8478     9.7753
  182.5000     0.1230     0.3453     8.2099    94.8058     0.0253     2.4460     9.6988     9.7796     9.7746
  183.0000     0.1251     0.3431     8.2092    98.1020     0.0284     2.4438     9.5660     9.7796     9.7740
  183.5000     0.1254     0.3419     8.2086    98.4043     0.0269     2.4438     9.5005     9.7119     9.7733
  184.0000     0.1251     0.3413     8.2080    96.8982     0.0237     2.4445     9.5012     9.7119     9.7725
  184.5000     0.1230     0.3392     8.2225    96.6136     0.0209     2.4468     9.3709     9.6405     9.7719
  185.0000     0.1218     0.3323     8.2219    98.4136     0.0225     2.4499     9.2424     9.5116     9.7712
  185.5000     0.1201     0.3262     8.2212    99.0152     0.0225     2.4619     9.1792     9.2510     9.5692
  186.0000     0.1145     0.3223     8.2206    97.2217     0.0256     2.4649     8.9909     8.9975     9.4367
  186.5000     0.1115     0.3217     8.2201    97.2245     0.0286     2.4641     8.8063     8.7510     9.1680
  187.0000     0.1121     0.3271     8.2345    99.9227     0.0301     2.4605     8.5025     8.3357     8.5616
  187.5000     0.1148     0.3358     8.2338   105.0154     0.0272     2.4492     7.4571     7.6602     8.0986
  188.0000     0.1211     0.3428     8.2332   108.0123     0.0242     2.4409     7.3041     7.3560     7.5551
  188.5000     0.1277     0.3563     8.2326   107.1169     0.0257     2.4417     7.3554     7.4073     7.5546
  189.0000     0.1262     0.3587     8.2321   105.0220     0.0272     2.4533     7.7218     7.6690     7.7667
  189.5000     0.1208     0.3569     8.2315   103.2311     0.0288     2.4688     8.2769     8.0511     8.2151
  190.0000     0.1142     0.3515     8.2308   101.1382     0.0288     2.4733     8.5182     8.5112     8.5582
  190.5000     0.1084     0.3457     8.2152    99.6440     0.0319     2.4734     8.2781     8.3878     8.4983
  191.0000     0.1066     0.3475     8.2147    97.8504     0.0379     2.4719     8.1645     8.2780     8.3226
  191.5000     0.1067     0.3500     8.2141    98.4521     0.0395     2.4688     8.4533     8.3357     8.3800
  192.0000     0.1111     0.3520     8.2135   104.4437     0.0380     2.4599     8.6316     8.6302     8.5557
  192.5000     0.1162     0.3532     8.2128   105.3447     0.0365     2.4546     8.6923     8.8734     8.6148
  193.0000     0.1189     0.3529     8.2122   105.6470     0.0335     2.4539     8.6930     8.8734     8.5545
  193.5000     0.1180     0.3508     8.2117   105.6499     0.0320     2.4561     8.6936     8.7435     8.5539
  194.0000     0.1156     0.3466     8.2111   107.1497     0.0260     2.4622     8.6340     8.5705     8.5533
