~VERSION INFORMATION
 VERS.                2.0:   CWLS LOG ASCII STANDARD - VERSION 2.0
 WRAP.                 NO:   ONE LINE PER DEPTH STEP
~WELL INFORMATION
#MNEM.UNIT      DATA TYPE    INFORMATION
#----------   ------------   ------------------------------
 STRT.F            0.0000:   START DEPTH
 STOP.F          663.0000:   STOP DEPTH
 STEP.F            0.1000:   STEP LENGTH
 NULL.          -999.2500:   NO VALUE
 COMP.   FLUOR DANIEL INC:   COMPANY
 WELL.     62-6 X 3 #62-3:   WELL
 FLD .             TEAPOT:   FIELD
 LOC .       S3 T38N R78W:   LOCATION
 CNTY.            NATRONA:   COUNTY
 STAT.            WYOMING:   STATE
 CTRY. UNITED STATES OF AMERICA:   COUNTRY
 SRVC.      Western Atlas:   SERVICE COMPANY
 DATE.        11-APR-1995:   LOGDATE
 API .       490252270400:   API NUMBER
~CURVE INFORMATION
#MNEM.UNIT       API CODE    CURVE DESCRIPTION
#----------   ------------   ------------------------------
 DEPT.F                  :   
 GRR .GAPI   07 310 01 00:   GAMMA RAY
 RILD.OHMM   07 120 46 00:   INDUCTION LOG DEEP RESISTIVITY
 RILM.OHMM   07 120 44 00:   INDUCTION LOG MEDIUM RESISTIVITY
~PARAMETER INFORMATION
#MNEM.UNIT          VALUE    DESCRIPTION
#----------   ------------   ------------------------------
 PD  .                 GL:   PERMANENT DATUM
 EPD .F              5157:   ELEVATION PERMANENT DATUM
 LMF .                 KB:   LOG MEASURED FROM
 DAPD.F                10:   FEET ABOVE PERMANENT DATUM
 DMF .                 KB:   DRILLING MEASURED FROM
 EKB .F              5167:   KELLING BUSHING
 EDF .F              5166:   DRILLING FLOOR
 EGL .F              5157:   GROUND LEVEL
 DATE.        11-APR-1995:   RUN DATE
 RUN .                  1:   RUN NUMBER
 DD  .F               671:   DEPTH DRILLER
 DL  .F               671:   DEPTH LOGGER
 BLI .F               663:   BOTTOM LOG INTERVAL
 TLI .F                95:   TOP LOG INTERVAL
 CS  .IN            9.625:   CASING SIZE
 CBD .F                95:   CASING BOTTOM DRILLER
 CBL .F                95:   CASING BOTTOM LOGGER
 BS  .IN             8.75:   BIT SIZE
 BSD .F               671:   BIT SIZE AT DEPTH
 DFT .                AIR:   DRILLING FLUID TYPE
 MRT .F                90:   MAXIMUM RECORDED TEMPERATURE
 LUN .            HL 6530:   LOGGING UNIT NUMBER
 LUL .             CASPER:   LOGGING UNIT LOCATION
 ENGI.      PAT RASMUSSEN:   RECORDING ENGINEER
 WITN.        GARY STRONG:   WITNESSED BY
 CLNT.            A2DTECH:   CLIENT CODE
 ORIG.           5" PRINT:   ORIGIN OF DATA
 UWI .       490252270400:   UNIQUE WELL ID
 DICO. A2D Technologies, Inc.:   DIGITIZING COMPANY
~OTHER INFORMATION
~A    DEPT      GRR      RILD       RILM   
# ...
  527.8000    75.6166    10.6646    11.2620
  527.9000    76.4899    10.6655    11.2254
  528.0000    77.3573    10.6665    11.2262
  528.1000    78.0052    10.6095    11.2178
  528.2000    78.5283    10.5944    11.1497
  528.3000    78.9974    10.5953    11.1506
  528.4000    79.2471    10.5962    11.1512
  528.5000    79.2491    10.5971    11.1075
  528.6000    79.0183    10.5980    11.0415
  528.7000    78.5679    10.5989    10.9989
  528.8000    78.0484    10.5999    10.9870
  528.9000    77.6384    10.6006    10.9238
  529.0000    77.3796    10.5605    10.9247
  529.1000    77.1207    10.5291    10.9254
  529.2000    76.8484    10.5300    10.9262
  529.3000    76.8501    10.5420    10.9269
  529.4000    76.8519    10.6050    10.9277
  529.5000    77.0186    10.6059    10.9284
  529.6000    77.2810    10.6068    10.9292
  529.7000    77.5435    10.6077    10.9300
  529.8000    77.7641    10.6086    10.9307
  529.9000    77.7659    10.6094    10.9315
  530.0000    77.7680    10.6103    10.9323
  530.1000    77.5491    10.6112    10.9330
  530.2000    77.1110    10.6121    10.9338
  530.3000    76.7298    10.6130    10.9346
  530.4000    76.3735    10.6139    10.9353
  530.5000    75.8542    10.6147    10.9362
  530.6000    75.3349    10.6156    10.9368
  530.7000    74.7640    10.6165    10.9376
  530.8000    74.2958    10.6174    10.9725
  530.9000    73.5828    10.6183    11.0158
  531.0000    72.9553    10.6192    11.0166
  531.1000    72.3239    10.6200    11.0173
  531.2000    71.5441    10.6209    11.0182
  531.3000    70.7938    10.6218    11.0780
  531.4000    70.2517    10.6227    11.0969
  531.5000    69.7547    10.6847    11.0976
  531.6000    69.2352    10.6984    11.1262
  531.7000    68.8830    10.6993    11.1770
  531.8000    69.1294    10.7002    11.1777
  531.9000    69.9130    10.7221    11.1786
  532.0000    70.7853    10.7765    11.1793
  532.1000    72.0839    10.7773    11.1801
  532.2000    72.9813    10.7784    11.1809
  532.3000    73.6515    10.8345    11.1816
  532.4000    74.4352    10.8551    11.1824
  532.5000    75.2186    10.8912    11.1832
  532.6000    75.9026    10.9324    11.1840
  532.7000    76.4259    10.9333    11.1849
  532.8000    76.9665    10.9343    11.1855
  532.9000    77.8204    10.9352    11.1863
  533.0000    78.0594    10.9361    11.1871
  533.1000    78.5181    10.9370    11.1879
  533.2000    78.8859    10.9771    11.1887
  533.3000    79.0341    11.0149    11.1930
  533.4000    79.0359    11.0158    11.2687
  533.5000    79.0377    11.0168    11.2088
  533.6000    79.0396    11.0177    11.1918
  533.7000    79.0417    11.0188    11.1926
  533.8000    78.8324    11.0195    11.1934
  533.9000    78.4039    11.0204    11.1941
  534.0000    78.0131    11.0213    11.1949
  534.1000    77.7542    11.0223    11.1957
  534.2000    77.4489    11.0232    11.1965
  534.3000    76.9350    11.0241    11.2510
  534.4000    76.6410    11.0251    11.2765
  534.5000    76.1919    11.0259    11.2773
  534.6000    75.6726    11.0269    11.2781
  534.7000    75.0100    11.0278    11.2789
  534.8000    74.4342    11.0287    11.2797
  534.9000    74.2365    11.0296    11.2806
  535.0000    74.2584    11.0305    11.2812
  535.1000    74.5419    11.0315    11.2820
  535.2000    74.5436    11.0324    11.2828
  535.3000    74.7440    11.0333    11.2836
  535.4000    75.1641    11.0342    11.2844
  535.5000    75.5706    11.0351    11.2852
  535.6000    75.7575    11.0360    11.2860
  535.7000    75.8283    11.0370    11.2868
  535.8000    76.3644    11.0379    11.2875
  535.9000    76.6682    11.0390    11.2883
  536.0000    76.6697    11.0397    11.2891
  536.1000    76.8437    11.0406    11.2899
  536.2000    76.9750    11.0415    11.2907
  536.3000    76.9768    11.0425    11.2915
  536.4000    76.9786    11.0434    11.2924
  536.5000    76.9804    11.0443    11.2931
  536.6000    76.9824    11.0453    11.2938
  536.7000    76.9840    11.0461    11.2946
  536.8000    76.9858    11.0471    11.2954
  536.9000    76.9876    11.0480    11.2962
  537.0000    76.9894    11.0489    11.2970
  537.1000    76.9912    11.0337    11.2979
  537.2000    76.9931    10.9743    11.2986
  537.3000    76.9950    10.9753    11.2994
  537.4000    76.9967    10.9762    11.3002
  537.5000    77.1996    10.9771    11.3009
  537.6000    77.6220    10.9780    11.3017
  537.7000    78.0261    10.9789    11.3025
  537.8000    78.2106    10.9798    11.3034
  537.9000    78.2494    10.9808    11.3041
  538.0000    78.5159    10.9817    11.3049
  538.1000    78.8196    10.9827    11.3057
  538.2000    78.8211    10.9835    11.3065
  538.3000    78.8229    10.9844    11.2880
  538.4000    78.8247    10.9853    11.2293
  538.5000    78.8265    10.9630    11.2302
  538.6000    78.8798    10.9110    11.2311
  538.7000    79.1318    10.9095    11.2317
  538.8000    78.8322    10.8377    11.2325
  538.9000    78.8338    10.8385    11.2333
  539.0000    78.8356    10.8394    11.2572
  539.1000    78.8374    10.8403    11.3136
  539.2000    78.8392    10.8412    11.3144
  539.3000    78.9070    10.8421    11.3153
  539.4000    79.1696    10.8430    11.3160
  539.5000    79.4481    10.8440    11.3167
  539.6000    79.4498    10.8448    11.3175
  539.7000    79.6552    10.8457    11.2914
  539.8000    80.0801    10.8466    11.2403
  539.9000    80.6030    10.8475    11.2411
  540.0000    81.2065    10.8484    11.2420
  540.1000    81.9511    10.8493    11.2427
  540.2000    82.4772    10.8503    11.2435
  540.3000    83.0826    10.7763    11.2443
  540.4000    83.5203    10.7770    11.2451
  540.5000    84.0433    10.7779    11.2458
  540.6000    84.4304    10.7788    11.2466
  540.7000    84.7878    10.7797    11.2474
  540.8000    85.0951    10.7806    11.2483
  540.9000    84.5887    10.7815    11.1383
  541.0000    84.3019    10.7825    11.0495
  541.1000    84.0710    10.7259    11.0173
  541.2000    83.8122    10.7097    10.9950
  541.3000    83.4030    10.6737    10.9420
  541.4000    82.9929    10.5843    10.9407
  541.5000    82.7340    10.4918    10.8677
  541.6000    82.4480    10.4861    10.8110
  541.7000    81.9011    10.4210    10.7468
  541.8000    81.6559    10.3629    10.7191
  541.9000    81.3970    10.3019    10.7198
  542.0000    80.9734    10.2800    10.7206
  542.1000    80.5778    10.2809    10.7156
  542.2000    80.2361    10.2622    10.6475
  542.3000    79.7584    10.2114    10.6482
  542.4000    79.4983    10.2126    10.6490
  542.5000    78.5976    10.2844    10.6497
  542.6000    78.3787    10.2852    10.6505
  542.7000    77.7612    10.3286    10.6707
  542.8000    77.1195    10.3585    10.7266
  542.9000    76.6000    10.3826    10.7273
  543.0000    76.1367    10.4323    10.7282
  543.1000    75.8779    10.4368    10.7288
  543.2000    75.5935    10.5067    10.7733
  543.3000    75.5952    10.5075    10.8055
  543.4000    75.7909    10.5084    10.8297
  543.5000    76.0533    10.5093    10.8960
  543.6000    76.4276    10.5101    10.9598
  543.7000    76.8798    10.5110    10.9606
  543.8000    77.1125    10.5119    10.9613
  543.9000    77.1144    10.5128    10.9621
  544.0000    77.1161    10.5741    10.9628
  544.1000    77.1179    10.5877    10.9636
  544.2000    77.1198    10.5886    10.9814
  544.3000    77.1216    10.5894    11.0420
  544.4000    77.1234    10.5903    11.0428
  544.5000    77.1252    10.5912    11.0435
  544.6000    77.1270    10.5929    11.0443
  544.7000    76.8274    10.6668    11.0451
  544.8000    76.8290    10.6676    11.0458
  544.9000    76.8308    10.6685    11.0466
  545.0000    76.9733    10.6694    11.0474
  545.1000    77.2358    10.6948    11.0481
  545.2000    77.5571    10.7454    11.0490
  545.3000    78.0446    10.7463    11.0445
  545.4000    78.0466    10.7473    11.0390
  545.5000    78.2856    10.7481    11.0335
  545.6000    78.5480    10.7490    11.0281
  545.7000    78.6552    10.7499    11.0226
  545.8000    78.7712    10.7508    11.0171
  545.9000    78.9605    10.7517    11.0117
