~VERSION INFORMATION
 VERS.                2.0:   CWLS LOG ASCII STANDARD - VERSION 2.0
 WRAP.                 NO:   ONE LINE PER DEPTH STEP
~WELL INFORMATION
#MNEM.UNIT      DATA TYPE    INFORMATION
#----------   ------------   ------------------------------
 STRT.F           30.0000:   START DEPTH
 STOP.F          770.5000:   STOP DEPTH
 STEP.F            0.5000:   STEP LENGTH
 NULL.          -999.2500:   NO VALUE
 COMP. FENIX & SCISSON INC:   COMPANY
 WELL. TEAPOT DOME 63 SX 34 #63-34:   WELL
 FLD .             TEAPOT:   FIELD
 LOC .      S34 T39N R78W:   LOCATION
 CNTY.            NATRONA:   COUNTY
 STAT.            WYOMING:   STATE
 CTRY. UNITED STATES OF AMERICA:   COUNTRY
 SRVC.           BIRDWELL:   SERVICE COMPANY
 DATE.        18-AUG-1978:   LOGDATE
 API .       490251070300:   API NUMBER
~CURVE INFORMATION
#MNEM.UNIT       API CODE    CURVE DESCRIPTION
#----------   ------------   ------------------------------
 DEPT.F                  :   
 SPR .MV     05 010 01 00:   SPONTANEOUS POTENTIAL
 SN  .OHMM   05 040 16 00:   SHORT NORMAL 16'
 ILD .OHMM   05 120 46 00:   INDUCTION LOG DEEP RESISTIVITY
 CALD.IN     45 280 60 00:   CALIPER
 GRD .GAPI   45 310 01 00:   GAMMA RAY FROM DENSITY LOG
 RHOB.G/C3   45 350 01 00:   BULK DENSITY
 DPHI.DEC    45 890 12 00:   DENSITY POROSITY SANDSTONE
 CORR.G/C3   45 356 01 00:   DENSITY CORRECTION
~PARAMETER INFORMATION
#MNEM.UNIT          VALUE    DESCRIPTION
#----------   ------------   ------------------------------
 PD  .                 GL:   PERMANENT DATUM
 EPD .F              5063:   ELEVATION PERMANENT DATUM
 LMF .                 KB:   LOG MEASURED FROM
 DAPD.F                 4:   FEET ABOVE PERMANENT DATUM
 DMF .                 KB:   DRILLING MEASURED FROM
 EKB .F              5067:   KELLING BUSHING
 EGL .F              5063:   GROUND LEVEL
 DATE.          8-18-1978:   RUN DATE
 RUN .                  1:   RUN NUMBER
 DD  .F               760:   DEPTH DRILLER
 DL  .F               770:   DEPTH LOGGER
 BLI .F               763:   BOTTOM LOG INTERVAL
 TLI .F                40:   TOP LOG INTERVAL
 CS  .IN            8.625:   CASING SIZE
 CBD .F                40:   CASING BOTTOM DRILLER
 CBL .F                40:   CASING BOTTOM LOGGER
 BS  .IN            7.875:   BIT SIZE
 BSD .F               760:   BIT SIZE AT DEPTH
 DFT .            MUD KCL:   DRILLING FLUID TYPE
 DFL .               10.6:   DRILLING FLUID LOSS
 MSS .          FLOW LINE:   MUD SAMPLE SOURCE
 RMS .OHMM             .2:   RESISTIVITY MUD SAMPLE
 MST .F                56:   MUD SAMPLE TEMPERATURE
 RMF .OHMM             .2:   RESISTIVITY MUD FILTRATE SAMPLE
 MFST.F                64:   MUD FILTRATE SAMPLE TEMPERATURE
 RMC .OHMM            .36:   RESISTIVITY MUD CAKE
 MCST.F                64:   MUD CAKE SAMPLE TEMPERATURE
 MFSS.               MEAS:   MUD FILTRATE SAMPLE SOURCE
 MCSS.               MEAS:   MUD CAKE SAMPLE SOURCE
 TCS .HRS               3:   TIME CURCULATED STOPPED
 MRT .F                72:   MAXIMUM RECORDED TEMPERATURE
 LUN .               3006:   LOGGING UNIT NUMBER
 LUL .               CASP:   LOGGING UNIT LOCATION
 ENGI.           REYNOLDS:   RECORDING ENGINEER
 WITN.              AMEND:   WITNESSED BY
 CLNT.            A2DTECH:   CLIENT CODE
 ORIG.           5" PRINT:   ORIGIN OF DATA
 UWI .       490251070300:   UNIQUE WELL ID
 DICO. A2D Technologies, Inc.:   DIGITIZING COMPANY
~OTHER INFORMATION
~A   DEPT      SPR         SN        ILD       CALD         GRD      RHOB       DPHI       CORR   
# ...
  678.0000   -64.6492    10.3411     8.4969     7.0864    65.1909     2.4635     0.1201     0.0421
  678.5000   -64.9023    10.3381     8.5030     7.1209    63.4252     2.4587     0.1226     0.0399
  679.0000   -65.2640    10.3350     8.5092     7.1566    61.6722     2.4542     0.1249     0.0400
  679.5000   -65.7648    10.3320     8.5154     7.1860    61.2107     2.4631     0.1225     0.0427
  680.0000   -66.2642    10.3290     8.5216     7.1841    61.8119     2.4671     0.1176     0.0446
  680.5000   -66.7647    10.3260     8.5278     7.1662    62.4770     2.4649     0.1127     0.0461
  681.0000   -66.8345    10.3229     8.5340     7.1487    62.0337     2.4623     0.1077     0.0554
  681.5000   -66.8347    10.3199     8.5403     7.1313    60.5730     2.4756     0.1028     0.0596
  682.0000   -66.8338    10.3169     8.5455     7.1137    59.1213     2.4913     0.0979     0.0645
  682.5000   -66.8337    10.3138     8.5287     7.1083    59.5617     2.4987     0.0950     0.0724
  683.0000   -66.8337    10.3108     8.5121     7.1059    66.0493     2.5014     0.0976     0.0719
  683.5000   -66.8337    10.3078     8.4956     7.1036    70.5910     2.4957     0.1062     0.0652
  684.0000   -66.8337    10.3048     8.4790     7.1013    71.7672     2.4857     0.1089     0.0584
  684.5000   -66.8336    10.3018     8.4626     7.0991    71.5353     2.4816     0.1118     0.0516
  685.0000   -66.8339    10.2987     8.4461     7.0968    70.4183     2.4744     0.1147     0.0460
  685.5000   -66.8323    10.2957     8.4297     7.0945    69.3117     2.4666     0.1100     0.0497
  686.0000   -66.9370    10.2927     8.4132     7.0922    68.2155     2.4743     0.1004     0.0611
  686.5000   -67.1015    10.2897     8.3969     7.0899    67.6504     2.4932     0.0938     0.0724
  687.0000   -67.2655    10.2866     8.3805     7.0876    68.7470     2.5032     0.0915     0.0811
  687.5000   -67.4491    10.2836     8.3642     7.0853    69.8491     2.5069     0.0866     0.0843
  688.0000   -68.0747    10.2806     8.3479     7.0830    69.9421     2.5094     0.0862     0.0877
  688.5000   -68.7176    10.2776     8.3317     7.0807    69.4105     2.5022     0.0921     0.0910
  689.0000   -69.2830    10.2746     8.3155     7.0784    69.5834     2.4943     0.0982     0.0944
  689.5000   -69.4555    10.2716     8.2993     7.0761    69.9155     2.4925     0.1018     0.0989
  690.0000   -69.6356    10.2556     8.2831     7.0738    69.2691     2.4934     0.0971     0.1033
  690.5000   -69.8164    10.2297     8.2670     7.0716    68.4303     2.4993     0.0921     0.1077
  691.0000   -69.9938    10.2037     8.2509     7.0720    67.7297     2.5054     0.0874     0.1092
  691.5000   -70.4562    10.1778     8.2349     7.0789    67.9460     2.5087     0.0874     0.1082
  692.0000   -70.9918    10.1519     8.2189     7.0855    68.1772     2.5038     0.0931     0.1071
  692.5000   -71.4550    10.1261     8.2029     7.0922    68.4047     2.4985     0.0974     0.1059
  693.0000   -71.4447    10.1004     8.1869     7.0988    69.5713     2.4972     0.0990     0.1115
  693.5000   -71.4430    10.0747     8.1710     7.1055    71.5564     2.5081     0.0896     0.1193
  694.0000   -71.4429    10.0492     8.1551     7.1122    73.0875     2.5242     0.0756     0.1083
  694.5000   -71.4428    10.0236     8.1392     7.1189    72.9598     2.5089     0.0901     0.0867
  695.0000   -71.4427     9.9982     8.1234     7.1254    73.1204     2.4875     0.1058     0.0680
  695.5000   -71.4435     9.9728     8.1076     7.1260    73.4269     2.4671     0.1127     0.0725
  696.0000   -71.4921     9.9475     8.0918     7.1112    73.5048     2.4747     0.1096     0.0897
  696.5000   -71.6465     9.9222     8.0141     7.0968    73.2507     2.4969     0.1054     0.1064
  697.0000   -71.7992     9.8970     7.9146     7.0826    71.0630     2.5152     0.0946     0.1234
  697.5000   -71.9520     9.8719     7.8165     7.0731    70.5092     2.5206     0.0776     0.1328
  698.0000   -72.1047     9.8468     7.7195     7.0994    70.5223     2.5286     0.0555     0.1400
  698.5000   -72.2574     9.8221     7.6237     7.1262    69.3048     2.5380     0.0658     0.1249
  699.0000   -72.4102     9.7478     7.5291     7.1490    68.5404     2.5173     0.0862     0.0885
  699.5000   -72.5629     9.6278     7.4454     7.1418    71.9447     2.4953     0.0976     0.0557
  700.0000   -72.7156     9.5091     7.3610     7.1342    75.8261     2.4901     0.1022     0.0514
  700.5000   -72.8684     9.3920     7.2688     7.1266    74.3757     2.4857     0.1038     0.0479
  701.0000   -73.0211     9.2763     7.1777     7.1191    72.4497     2.4875     0.1037     0.0487
  701.5000   -73.1738     9.1621     7.0878     7.1115    70.5217     2.4852     0.1039     0.0494
  702.0000   -73.3267     9.0492     6.9989     7.1040    69.5456     2.4818     0.1054     0.0495
  702.5000   -73.4805     8.9378     6.9112     7.0965    71.6158     2.4826     0.1014     0.0479
  703.0000   -73.6378     8.8277     6.8245     7.0889    74.4927     2.4864     0.1036     0.0464
  703.5000   -73.6876     8.7190     6.7391     7.0814    74.4183     2.4846     0.1057     0.0448
  704.0000   -73.7302     8.6116     6.7112     7.0739    74.1180     2.4803     0.1078     0.0433
  704.5000   -73.7737     8.5055     6.6907     7.0663    75.2952     2.4760     0.1098     0.0417
  705.0000   -73.8166     8.4008     6.6703     7.0588    76.8141     2.4736     0.1126     0.0401
  705.5000   -73.8488     8.2973     6.2487     7.0519    77.5586     2.4664     0.1241     0.0409
  706.0000   -73.8475     8.1951     5.8042     7.0292    76.9761     2.4475     0.1352     0.0420
  706.5000   -73.8423     8.0330     5.3914     7.0046    78.0668     2.4288     0.1463     0.0432
  707.0000   -73.5531     7.8454     5.0079     6.9792    81.6793     2.4082     0.1573     0.0440
  707.5000   -72.9600     7.6622     4.7455     6.9834    87.3075     2.4185     0.1448     0.0550
  708.0000   -72.3730     7.4833     4.8094     7.0049    94.0873     2.4425     0.1243     0.0652
  708.5000   -71.8256     7.3085     4.8700     7.0266   100.6896     2.4665     0.1040     0.0513
  709.0000   -71.7960     7.1379     4.9313     7.0477    96.5539     2.4907     0.0966     0.0469
  709.5000   -71.7569     6.9814     4.9934     7.0673    86.6080     2.5004     0.0938     0.0484
  710.0000   -71.7156     7.0066     5.0562     7.0680    76.7411     2.5044     0.0894     0.0499
  710.5000   -71.6743     7.0358     5.1199     7.0695    70.4172     2.5138     0.0854     0.0514
  711.0000   -71.6330     7.5186     5.4402     7.0701    72.4240     2.5143     0.0866     0.0529
  711.5000   -71.5916     8.2993     6.1203     7.0700    75.1331     2.5138     0.0878     0.0532
  712.0000   -71.5503     9.1141     6.8867     7.0700    77.8824     2.5137     0.0826     0.0514
  712.5000   -71.5090     9.1650     7.1989     7.0700    79.8077     2.5216     0.0795     0.0495
  713.0000   -71.4677     9.2136     7.2366     7.0700    80.4172     2.5268     0.0856     0.0466
  713.5000   -71.4264     9.2625     7.2782     7.0700    80.8524     2.5117     0.0904     0.0379
  714.0000   -71.3850     9.3118     7.3200     7.0700    81.2989     2.5011     0.0952     0.0320
  714.5000   -71.3437     9.3603     7.3621     7.0700    80.8206     2.4984     0.0994     0.0328
  715.0000   -71.3024     9.4578     7.4454     7.0698    80.5339     2.4965     0.0981     0.0335
  715.5000   -71.2611     9.5639     7.5248     7.0703    80.6129     2.4985     0.0962     0.0341
  716.0000   -71.2198     9.6715     7.6110     7.1020    80.5484     2.4955     0.0986     0.0348
  716.5000   -71.1784     9.7803     7.7283     7.1369    79.5120     2.4936     0.1014     0.0354
  717.0000   -71.1371     9.8904     7.8473     7.1715    76.7827     2.4935     0.1011     0.0360
  717.5000   -71.0959    10.0016     7.9682     7.1936    73.2471     2.4927     0.1002     0.0374
  718.0000   -71.0518    10.1142     8.0910     7.2094    72.1110     2.4904     0.0998     0.0430
