~VERSION INFORMATION
 VERS.                2.0:   CWLS LOG ASCII STANDARD - VERSION 2.0
 WRAP.                 NO:   ONE LINE PER DEPTH STEP
~WELL INFORMATION
#MNEM.UNIT      DATA TYPE    INFORMATION
#----------   ------------   ------------------------------
 STRT.F           50.0000:   START DEPTH
 STOP.F         1152.0000:   STOP DEPTH
 STEP.F            0.5000:   STEP LENGTH
 NULL.          -999.2500:   NO VALUE
 COMP. FENIX & SCISSON INC:   COMPANY
 WELL.  NPR 3 #65 SX14-14:   WELL
 FLD .             TEAPOT:   FIELD
 LOC .      S14 T38N R78W:   LOCATION
 CNTY.            NATRONA:   COUNTY
 STAT.            WYOMING:   STATE
 CTRY. UNITED STATES OF AMERICA:   COUNTRY
 SRVC.              Welex:   SERVICE COMPANY
 DATE.        13-JAN-1979:   LOGDATE
 API .       490251073800:   API NUMBER
~CURVE INFORMATION
#MNEM.UNIT       API CODE    CURVE DESCRIPTION
#----------   ------------   ------------------------------
 DEPT.F                  :   
 SPR .MV     07 010 01 00:   SPONTANEOUS POTENTIAL
 SGRD.OHMM   07 220 05 00:   SHALLOW GUARD RESISTIVITY
 ILD .OHMM   07 120 46 00:   INDUCTION LOG DEEP
 ILM .OHMM   07 120 44 00:   INDUCTION LOG MEDIUM
 CALD.IN     45 280 60 00:   CALIPER
 GRD .GAPI   45 310 01 00:   GAMMA RAY FROM DENSITY LOG
 RHOB.G/C3   45 350 01 00:   BULK DENSITY
 DPHI.DEC    45 890 12 00:   DENSITY POROSITY SANDSTONE
 CORR.G/C3   45 356 01 00:   DENSITY CORRECTION
~PARAMETER INFORMATION
#MNEM.UNIT          VALUE    DESCRIPTION
#----------   ------------   ------------------------------
 PD  .                 GL:   PERMANENT DATUM
 EPD .F              5312:   ELEVATION PERMANENT DATUM
 LMF .                 KB:   LOG MEASURED FROM
 DAPD.F                 4:   FEET ABOVE PERMANENT DATUM
 DMF .                 KB:   DRILLING MEASURED FROM
 EKB .F              5316:   KELLING BUSHING
 EGL .F              5312:   GROUND LEVEL
 DATE.            1-13-79:   RUN DATE
 RUN .                  1:   RUN NUMBER
 DD  .F              1167:   DEPTH DRILLER
 DL  .F              1154:   DEPTH LOGGER
 BLI .F              1152:   BOTTOM LOG INTERVAL
 TLI .F                50:   TOP LOG INTERVAL
 CS  .IN            8.625:   CASING SIZE
 CBD .F                40:   CASING BOTTOM DRILLER
 CBL .F                60:   CASING BOTTOM LOGGER
 BS  .IN            7.875:   BIT SIZE
 BSD .F              1167:   BIT SIZE AT DEPTH
 DFT .            KCL MUD:   DRILLING FLUID TYPE
 DFD .                8.8:   DRILLING FLUID DENSITY
 DFV .                 42:   DRILLING FLUID VISCOSITY
 DFPH.                8.2:   DRILLING FLUID PH
 DFL .                7.7:   DRILLING FLUID LOSS
 MSS .                PIT:   MUD SAMPLE SOURCE
 RMS .OHMM            .29:   RESISTIVITY MUD SAMPLE
 MST .F                40:   MUD SAMPLE TEMPERATURE
 RMF .OHMM            .19:   RESISTIVITY MUD FILTRATE SAMPLE
 MFST.F                40:   MUD FILTRATE SAMPLE TEMPERATURE
 RMC .OHMM            .87:   RESISTIVITY MUD CAKE
 MCST.F                40:   MUD CAKE SAMPLE TEMPERATURE
 MFSS.           MEASURED:   MUD FILTRATE SAMPLE SOURCE
 MCSS.           MEASURED:   MUD CAKE SAMPLE SOURCE
 RMB .OHMM           .119:   RESISTIVITY MUD AT BHT
 BHT .F                97:   BOTTOM HOLE TEMPERATURE
 TCS .HRS              30:   TIME CURCULATED STOPPED
 MRT .F                97:   MAXIMUM RECORDED TEMPERATURE
 LUN .               8611:   LOGGING UNIT NUMBER
 LUL .             CASPER:   LOGGING UNIT LOCATION
 ENGI.            BENTSEN:   RECORDING ENGINEER
 WITN.              AMEND:   WITNESSED BY
 CLNT.            A2DTECH:   CLIENT CODE
 ORIG.       2", 5" PRINT:   ORIGIN OF DATA
 UWI .       490251073800:   UNIQUE WELL ID
 DICO. A2D Technologies, Inc.:   DIGITIZING COMPANY
~OTHER INFORMATION
~A   DEPT      SPR       SGRD        ILD        ILM       CALD        GRD       RHOB       DPHI       CORR   
# ...
  597.5000   -10.1125    13.6175    19.5230    13.6438     7.7653   105.9162     2.4437     0.1394     0.0421
  598.0000   -10.5319    15.2211    20.2529    14.4412     7.7653   105.0903     2.4495     0.1363     0.0415
  598.5000   -11.0173    17.0173    21.0100    14.9547     7.7654   106.3320     2.4567     0.1323     0.0516
  599.0000   -10.9708    17.1750    21.7955    14.9547     7.7653   107.9567     2.4639     0.1284     0.0570
  599.5000   -10.8186    14.9500    22.6103    14.1620     7.7591   109.5988     2.4710     0.1226     0.0601
  600.0000   -10.9408    14.4127    23.4555    13.4333     7.7084   109.6788     2.4781     0.1154     0.0631
  600.5000   -11.5830    14.4415    24.3895    12.7422     7.6569   108.2415     2.4852     0.1132     0.0662
  601.0000   -11.9446    14.4820    24.3895    12.0865     7.6035   108.0766     2.4923     0.1109     0.0688
  601.5000   -12.5427    14.5227    24.3970    11.2339     7.5897   109.3665     2.4994     0.1075     0.0726
  602.0000   -12.9062    14.5463    23.4270    11.2705     7.5923   110.6488     2.5060     0.1041     0.0765
  602.5000   -13.1028    14.0919    22.7554    11.3321     7.5956   111.9333     2.5119     0.1007     0.0780
  603.0000   -13.5639    13.6662    22.1019    11.0685     7.5988   113.2118     2.5178     0.0973     0.0759
  603.5000   -14.0212    13.3869    21.4370    11.8607     7.6020   114.7164     2.5213     0.0938     0.0733
  604.0000   -14.4938    13.7616    20.7576    12.6664     7.6057   121.4266     2.5151     0.0968     0.0596
  604.5000   -15.1238    14.1716    20.0621    13.0275     7.6220   123.7089     2.5106     0.0994     0.0449
  605.0000   -15.7738    14.4127    19.3899    12.9054     7.6737   125.8592     2.5182     0.0941     0.0319
  605.5000   -16.4268    13.8868    18.7402    13.2028     7.7236   126.2330     2.5259     0.0890     0.0305
  606.0000   -17.1382    13.6363    18.1122    13.6931     7.7734   124.8170     2.5303     0.0906     0.0255
  606.5000   -18.1327    14.0414    17.5054    14.0163     7.8234   122.0149     2.5250     0.0906     0.0115
  607.0000   -19.0999    14.2803    16.7719    13.3989     7.8735   119.2314     2.5176     0.0932     0.0072
  607.5000   -20.1973    14.2803    15.4010    12.9486     7.9217   117.6019     2.5074     0.1001     0.0026
  608.0000   -21.9202    14.1887    14.1410    12.6629     7.9196   119.3184     2.5148     0.0966     0.0072
  608.5000   -23.6275    13.7627    12.9838    12.3871     7.9133   121.0857     2.5296     0.0897     0.0134
  609.0000   -24.8605    14.1543    11.9219    12.0946     7.9071   122.8548     2.5296     0.0881     0.0145
  609.5000   -25.9907    14.5463    10.9467    11.3680     7.9009   124.1360     2.5262     0.0917     0.0108
  610.0000   -27.1216    11.1551    10.0514    10.6237     7.8948   121.6971     2.5227     0.0954     0.0071
  610.5000   -28.2783     9.5070     9.2292     9.9280     7.8886   118.7703     2.5192     0.0986     0.0033
  611.0000   -28.4877     8.5158     8.4743     9.2780     7.8824   119.9879     2.5175     0.0967     0.0005
  611.5000   -29.0619     7.6948     7.7812     8.6704     7.8762   121.4846     2.5194     0.0947     0.0048
  612.0000   -29.6937     7.8089     7.1886     8.0582     7.8700   120.9597     2.5232     0.0926     0.0081
  612.5000   -29.7787     8.0407     7.0338     7.9480     7.8643   119.2587     2.5270     0.0905     0.0080
  613.0000   -29.8476     8.3284     6.8736     7.8297     7.8719   117.5665     2.5305     0.0884     0.0080
  613.5000   -29.9181     8.6282     6.7186     7.7132     7.8800   118.5248     2.5402     0.0856     0.0080
  614.0000   -29.9892     8.9183     6.5172     7.5983     7.8881   119.5958     2.5507     0.0828     0.0113
  614.5000   -30.0615     8.7162     6.5404     7.4851     7.8961   118.7759     2.5612     0.0799     0.0168
  615.0000   -30.1706     8.5236     6.5778     7.3739     7.9042   117.8630     2.5721     0.0771     0.0223
  615.5000   -30.3297     8.3363     6.6145     7.2804     7.9122   117.3281     2.5716     0.0755     0.0276
  616.0000   -30.4883     8.1533     6.6514     7.2978     7.9207   120.0146     2.5554     0.0800     0.0206
  616.5000   -30.6473     7.9752     6.6885     7.3162     7.9194   120.4723     2.5354     0.0886     0.0127
  617.0000   -30.8052     7.9109     6.7259     7.3345     7.9141   120.7722     2.5152     0.0972     0.0049
  617.5000   -30.9154     8.0745     6.7634     7.3476     7.9086   124.0004     2.4968     0.1059    -0.0030
  618.0000   -30.9509     8.3257     6.8011     7.2919     7.9031   122.7352     2.4964     0.1102    -0.0108
  618.5000   -30.9873     8.6783     6.8391     7.2486     7.8976   120.5825     2.4979     0.1090    -0.0135
  619.0000   -31.0234     8.6770     6.8773     7.2055     7.8921   119.0307     2.5044     0.1052    -0.0153
  619.5000   -31.0596     8.5763     6.9157     7.1626     7.8867   117.9673     2.5108     0.1004    -0.0105
  620.0000   -31.0958     8.4535     6.9520     7.1200     7.8812   117.4184     2.5172     0.0956    -0.0017
  620.5000   -31.1320     8.3324     6.8988     7.0777     7.8757   121.1740     2.5235     0.0918     0.0019
  621.0000   -31.1682     8.2131     6.8377     7.0356     7.8703   124.1476     2.5239     0.0918    -0.0011
  621.5000   -31.2046     8.0955     6.7771     6.9785     7.8650   123.1928     2.5154     0.0941    -0.0114
  622.0000   -31.2411     7.9795     6.7171     6.9092     7.8549   121.8742     2.5119     0.0985    -0.0215
  622.5000   -31.2757     7.8653     6.6576     6.8405     7.8252   120.5514     2.5131     0.0980    -0.0185
  623.0000   -31.2257     7.7526     6.5986     6.7725     7.7281   119.2306     2.5143     0.0975    -0.0145
  623.5000   -31.0109     7.6948     6.5402     6.7052     7.6311   117.9053     2.5155     0.0970    -0.0154
  624.0000   -30.7987     7.7741     6.4823     6.6386     7.5317   118.1807     2.5124     0.0985    -0.0175
  624.5000   -30.5860     7.8629     6.4249     6.5725     7.5109   120.3998     2.5089     0.1003    -0.0197
  625.0000   -30.3735     7.9527     6.3680     6.5075     7.6208   122.5822     2.5085     0.0992    -0.0158
  625.5000   -30.1609     8.0582     6.3116     6.4576     7.7438   122.1610     2.5186     0.0944    -0.0108
  626.0000   -29.9442     7.8459     6.2789     6.5432     7.8662   120.1688     2.5348     0.0896    -0.0058
  626.5000   -29.8361     7.6488     6.5377     6.6139     7.8834   119.7637     2.5506     0.0848    -0.0007
  627.0000   -29.7534     8.0345     6.7504     6.6857     7.8792   121.6126     2.5460     0.0826     0.0043
  627.5000   -29.6710     8.5170     6.9059     6.7581     7.8745   121.2940     2.5539     0.0850     0.0093
  628.0000   -29.5874     8.3797     7.0148     6.8313     7.8700   119.6990     2.5651     0.0786     0.0146
  628.5000   -29.5047     8.1497     7.1254     6.9033     7.8655   118.9586     2.5536     0.0816     0.0137
  629.0000   -29.5977     7.9842     7.2377     6.9695     7.8610   121.6268     2.5482     0.0842     0.0105
  629.5000   -29.7054     8.1684     7.3519     7.0363     7.8565   125.0426     2.5437     0.0841     0.0072
  630.0000   -29.8125     8.3837     7.4678     7.1038     7.8520   126.0881     2.5279     0.0903     0.0039
  630.5000   -29.9194     8.6046     7.5855     7.1719     7.8476   122.9043     2.5086     0.0998     0.0007
  631.0000   -30.0248     8.8346     7.7051     7.2135     7.8463   118.7090     2.5135     0.0970     0.0038
  631.5000   -30.1071     9.0041     7.8266     7.0816     7.8558   115.1780     2.5213     0.0934     0.0094
  632.0000   -30.1257     8.8987     7.9500     7.1132     7.8651   116.2965     2.5353     0.0870     0.0068
  632.5000   -30.1458     8.7788     8.0755     7.1618     7.8744   118.9964     2.5508     0.0804     0.0051
  633.0000   -30.1656     8.6763     8.2036     7.2135     7.8830   116.8762     2.5663     0.0771     0.0047
  633.5000   -30.1855     8.9552     8.2845     7.0724     7.8710   119.9938     2.5804     0.0738     0.0110
