~VERSION INFORMATION
 VERS.                2.0:   CWLS LOG ASCII STANDARD - VERSION 2.0
 WRAP.                 NO:   ONE LINE PER DEPTH STEP
~WELL INFORMATION
#MNEM.UNIT      DATA TYPE    INFORMATION
#----------   ------------   ------------------------------
 STRT.F            2.0000:   START DEPTH
 STOP.F          500.0000:   STOP DEPTH
 STEP.F            0.1000:   STEP LENGTH
 NULL.          -999.2500:   NO VALUE
 COMP.   FLUOR DANIEL INC:   COMPANY
 WELL.   73-5 X 10 #73-10:   WELL
 FLD .             TEAPOT:   FIELD
 LOC .      S10 T38N R78W:   LOCATION
 CNTY.            NATRONA:   COUNTY
 STAT.            WYOMING:   STATE
 CTRY. UNITED STATES OF AMERICA:   COUNTRY
 SRVC.      Western Atlas:   SERVICE COMPANY
 DATE.        07-JUN-1995:   LOGDATE
 API .       490252271400:   API NUMBER
~CURVE INFORMATION
#MNEM.UNIT       API CODE    CURVE DESCRIPTION
#----------   ------------   ------------------------------
 DEPT.F                  :   
 GRR .GAPI   07 310 01 00:   GAMMA RAY
 RILD.OHMM   07 120 46 00:   INDUCTION LOG DEEP RESISTIVITY
 RILM.OHMM   07 120 44 00:   RESITIVITY LONG MEDIUM
~PARAMETER INFORMATION
#MNEM.UNIT          VALUE    DESCRIPTION
#----------   ------------   ------------------------------
 PD  .                 GL:   PERMANENT DATUM
 EPD .F              5175:   ELEVATION PERMANENT DATUM
 LMF .                 KB:   LOG MEASURED FROM
 DAPD.F                10:   FEET ABOVE PERMANENT DATUM
 DMF .                 KB:   DRILLING MEASURED FROM
 EKB .F              5185:   KELLING BUSHING
 EDF .F              5184:   DRILLING FLOOR
 EGL .F              5175:   GROUND LEVEL
 DATE.        07-JUN-1995:   RUN DATE
 RUN .                  1:   RUN NUMBER
 DD  .F               511:   DEPTH DRILLER
 DL  .F               508:   DEPTH LOGGER
 BLI .F               500:   BOTTOM LOG INTERVAL
 TLI .F                96:   TOP LOG INTERVAL
 CS  .IN            9.625:   CASING SIZE
 CBD .F                96:   CASING BOTTOM DRILLER
 CBL .F                96:   CASING BOTTOM LOGGER
 BS  .IN             8.75:   BIT SIZE
 BSD .F               511:   BIT SIZE AT DEPTH
 DFT .                AIR:   DRILLING FLUID TYPE
 MRT .F               116:   MAXIMUM RECORDED TEMPERATURE
 LUN .            HL 6530:   LOGGING UNIT NUMBER
 LUL .             CASPER:   LOGGING UNIT LOCATION
 ENGI.        VERN RAUTIO:   RECORDING ENGINEER
 WITN.        GARY STRONG:   WITNESSED BY
 CLNT.            A2DTECH:   CLIENT CODE
 ORIG.           5" PRINT:   ORIGIN OF DATA
 UWI .       490252271400:   UNIQUE WELL ID
 DICO. A2D Technologies, Inc.:   DIGITIZING COMPANY
~OTHER INFORMATION
~A    DEPT       GRR     RILD       RILM   
# ...
  366.0000    89.6304    20.5015    20.6216
  366.1000    88.4049    21.1564    20.8983
  366.2000    87.5663    21.5931    21.4028
  366.3000    86.9691    22.0060    21.7523
  366.4000    86.5615    22.3855    22.0352
  366.5000    86.3173    22.7409    22.3520
  366.6000    86.0435    23.0019    22.7360
  366.7000    86.0446    23.2665    23.1182
  366.8000    85.8859    23.5341    23.4253
  366.9000    85.7458    23.8046    23.7645
  367.0000    85.7470    24.0780    24.0880
  367.1000    85.7482    24.3544    24.3638
  367.2000    85.7494    24.6597    24.6425
  367.3000    85.7506    24.9176    24.9374
  367.4000    85.7518    25.2041    25.2102
  367.5000    85.7530    25.4937    25.4990
  367.6000    85.7542    25.7500    25.7911
  367.7000    85.7556    25.8983    26.0863
  367.8000    85.7566    26.0766    26.3846
  367.9000    85.7578    26.1978    26.7332
  368.0000    85.7590    26.3489    26.8631
  368.1000    85.7236    26.5007    26.9215
  368.2000    85.4603    26.6534    26.9230
  368.3000    85.4614    26.8186    26.9245
  368.4000    85.2923    26.8203    26.9261
  368.5000    85.1627    26.9298    26.9275
  368.6000    85.1639    27.0106    26.9290
  368.7000    85.1651    27.0125    26.9305
  368.8000    85.1663    27.0078    26.8869
  368.9000    85.1675    26.8300    26.7476
  369.0000    85.1687    26.8315    26.7494
  369.1000    85.2506    26.7420    26.6218
  369.2000    85.4971    26.5924    26.4729
  369.3000    85.7748    26.4436    26.3248
  369.4000    85.7759    26.2868    26.1497
  369.5000    85.9358    26.1487    25.8467
  369.6000    86.0795    25.8969    25.7069
  369.7000    86.1277    25.6785    25.5632
  369.8000    86.3832    25.5751    25.4202
  369.9000    86.8574    25.5685    25.3213
  370.0000    86.9880    25.4023    25.3110
  370.1000    87.1141    25.4037    25.1496
  370.2000    87.2916    25.3168    25.0287
  370.3000    87.2928    25.2318    24.9788
  370.4000    87.2942    25.2085    24.9213
  370.5000    87.4980    25.0611    24.8090
  370.6000    87.7446    25.0627    24.8107
  370.7000    87.9912    25.0645    24.8120
  370.8000    88.2732    24.9933    24.7080
  370.9000    88.8061    24.8948    24.6436
  371.0000    89.2570    24.8965    24.6450
  371.1000    89.5799    24.8985    24.6464
  371.2000    89.9398    24.7799    24.6479
  371.3000    90.3743    24.7297    24.5285
  371.4000    90.6209    24.7315    24.4805
  371.5000    90.8675    24.7332    24.4818
  371.6000    91.1140    24.7349    24.4832
  371.7000    91.2253    24.7366    24.4846
  371.8000    91.2265    24.7383    24.4859
  371.9000    91.2277    24.7400    24.3823
  372.0000    91.2291    24.7417    24.3197
  372.1000    91.2301    24.7435    24.3211
  372.2000    91.2313    24.7454    24.3224
  372.3000    91.1309    24.7469    24.3239
  372.4000    90.8868    24.7486    24.3251
  372.5000    90.6326    24.7503    24.3265
  372.6000    90.3984    24.7520    24.3278
  372.7000    89.9747    24.7538    24.3291
  372.8000    89.6089    24.7555    24.3305
  372.9000    89.2968    24.7572    24.3318
  373.0000    88.8072    24.7589    24.3332
  373.1000    88.2303    24.7606    24.3345
  373.2000    87.6266    24.7770    24.3359
  373.3000    87.0373    24.9365    24.3372
  373.4000    86.5477    24.9380    24.3387
  373.5000    86.0582    24.9397    24.3399
  373.6000    85.5254    24.9414    24.3413
  373.7000    85.0790    24.9432    24.3426
  373.8000    84.5895    24.9449    24.3440
  373.9000    83.9879    24.9466    24.3453
  374.0000    83.3092    24.9484    24.3467
  374.1000    82.8198    24.9501    24.3480
  374.2000    82.3302    24.9518    24.3494
  374.3000    81.6506    24.9705    24.3507
  374.4000    81.1840    25.1290    24.3521
  374.5000    80.9398    25.1306    24.3536
  374.6000    80.6956    25.1323    24.4774
  374.7000    80.4182    25.1341    24.5252
  374.8000    80.6313    25.1698    24.5266
  374.9000    80.8779    25.3123    24.5279
  375.0000    81.1245    25.3141    24.5293
  375.1000    81.3265    25.3159    24.5307
  375.2000    81.3278    25.3176    24.6406
  375.3000    81.7972    25.3194    24.7037
  375.4000    82.2892    25.3406    24.7051
  375.5000    82.9036    25.4991    24.7065
  375.6000    83.7075    25.5007    24.7080
  375.7000    84.6795    25.5025    24.7092
  375.8000    85.5520    25.5043    24.8048
  375.9000    86.1541    25.5061    24.8835
  376.0000    86.7470    25.5078    24.8849
  376.1000    87.0614    25.5099    24.8863
  376.2000    87.0627    25.5114    24.8877
  376.3000    87.0640    25.5131    24.8890
  376.4000    86.8426    25.4613    24.8904
  376.5000    86.5984    25.3402    24.8918
  376.6000    86.2434    25.3423    24.8932
  376.7000    85.6988    25.3439    24.8947
  376.8000    84.9614    25.2439    24.8959
  376.9000    84.4736    25.1724    24.8973
  377.0000    83.9840    25.1359    24.8987
  377.1000    83.4944    25.0019    24.8671
  377.2000    83.0049    25.0041    24.7297
  377.3000    82.5577    24.8884    24.7311
  377.4000    82.5592    24.8345    24.7325
  377.5000    82.5602    24.8362    24.6542
  377.6000    82.5614    24.8146    24.5646
  377.7000    82.8602    24.6682    24.5484
  377.8000    83.5543    24.6698    24.3981
  377.9000    84.0711    24.5703    24.3993
  378.0000    84.7711    24.4329    24.3064
  378.1000    85.8626    24.3353    24.1704
  378.2000    86.9695    24.3283    24.0352
  378.3000    88.0177    24.1709    23.9007
  378.4000    89.2264    24.0570    23.7670
  378.5000    90.1026    24.0070    23.6341
  378.6000    90.9004    23.9541    23.5019
  378.7000    91.5964    23.8200    23.4174
  378.8000    92.0884    23.6815    23.4010
  378.9000    92.5804    23.5543    23.2586
  379.0000    93.1206    23.4226    23.1400
  379.1000    93.3430    23.3603    23.0106
  379.2000    93.4241    23.2831    22.8818
  379.3000    93.5349    23.0317    22.7538
  379.4000    93.7277    22.8847    22.6264
  379.5000    93.7289    22.7749    22.4752
  379.6000    93.7301    22.5660    22.3741
  379.7000    93.7313    22.3653    22.3224
  379.8000    93.6008    22.2401    22.2781
  379.9000    93.4325    22.1127    22.1534
  380.0000    93.4337    21.9920    22.0194
  380.1000    93.4351    21.8691    21.9063
  380.2000    93.2265    21.7468    21.7838
  380.3000    93.1362    21.6251    21.6619
  380.4000    93.0393    21.5041    21.5717
  380.5000    92.8371    21.3687    21.5689
  380.6000    92.8386    21.2643    21.4255
  380.7000    92.6080    21.2238    21.4265
  380.8000    92.5398    21.2253    21.4276
  380.9000    92.5410    21.2013    21.3843
  381.0000    92.4779    21.0816    21.2821
  381.1000    92.2421    21.0831    21.2835
  381.2000    92.2436    21.0846    21.2846
  381.3000    92.2446    21.0860    21.2012
  381.4000    92.3880    21.0875    21.1402
  381.5000    92.5482    21.0758    21.1102
  381.6000    92.6105    20.9449    20.9967
  381.7000    93.1531    20.9462    20.9981
  381.8000    93.3743    20.9477    20.9990
  381.9000    93.6209    20.9491    20.9295
  382.0000    93.8675    20.9506    20.8124
  382.1000    94.1141    20.9520    20.7137
  382.2000    94.3639    20.9535    20.7151
  382.3000    94.6072    20.9549    20.6072
  382.4000    94.6675    20.8892    20.5744
  382.5000    94.6687    20.8131    20.5188
  382.6000    94.5952    20.8145    20.4348
  382.7000    94.3698    20.8161    20.4359
  382.8000    94.3713    20.8174    20.4373
  382.9000    94.1638    20.8188    20.4382
  383.0000    93.9197    20.8203    20.4393
  383.1000    93.7723    20.8217    20.4405
  383.2000    93.7325    20.8232    20.4416
  383.3000    93.4736    20.8249    20.4428
  383.4000    93.4747    20.8261    20.4438
  383.5000    93.6506    20.8275    20.4450
  383.6000    93.7783    20.8718    20.4461
  383.7000    93.8425    20.9753    20.4472
  383.8000    94.0892    20.9768    20.4484
  383.9000    94.3846    20.9782    20.4497
  384.0000    94.7791    20.9796    20.4506
  384.1000    95.2711    20.9811    20.4518
