~VERSION INFORMATION
 VERS.                2.0:   CWLS LOG ASCII STANDARD - VERSION 2.0
 WRAP.                 NO:   ONE LINE PER DEPTH STEP
~WELL INFORMATION
#MNEM.UNIT      DATA TYPE    INFORMATION
#----------   ------------   ------------------------------
 STRT.F           39.0000:   START DEPTH
 STOP.F          590.0000:   STOP DEPTH
 STEP.F            0.5000:   STEP LENGTH
 NULL.          -999.2500:   NO VALUE
 COMP. FENIX & SCISSON INC:   COMPANY
 WELL.    NPR-3 SX #41-34:   WELL
 FLD .             TEAPOT:   FIELD
 LOC .      S34 T39N R78W:   LOCATION
 CNTY.            NATRONA:   COUNTY
 STAT.            WYOMING:   STATE
 CTRY. UNITED STATES OF AMERICA:   COUNTRY
 SRVC.           BIRDWELL:   SERVICE COMPANY
 DATE.        28-AUG-1978:   LOGDATE
 API .       490251069800:   API NUMBER
~CURVE INFORMATION
#MNEM.UNIT       API CODE    CURVE DESCRIPTION
#----------   ------------   ------------------------------
 DEPT.F                  :   
 SPR .MV     05 010 01 00:   SPONTANEOUS POTENTIAL FROM RES.
 SN  .OHMM   05 040 16 00:   SHORT NORMAL 16"
 ILD .OHMM   05 120 46 00:   INDUCTION LOG DEEP
 CALD.IN     45 280 60 00:   CALIPER
 GRD .GAPI   45 310 01 00:   GAMMA RAY FROM DENSITY LOG
 RHOB.G/C3   45 350 01 00:   BULK DENSITY
 DPHI.DEC    45 890 12 00:   DENSITY POROSITY SANDSTONE
 CORR.G/C3   45 356 01 00:   DENSITY CORRECTION
~PARAMETER INFORMATION
#MNEM.UNIT          VALUE    DESCRIPTION
#----------   ------------   ------------------------------
 PD  .                 GL:   PERMANENT DATUM
 EPD .F              5064:   ELEVATION PERMANENT DATUM
 LMF .                 KB:   LOG MEASURED FROM
 DAPD.F                 4:   FEET ABOVE PERMANENT DATUM
 DMF .                 KB:   DRILLING MEASURED FROM
 EKB .F              5068:   KELLING BUSHING
 EGL .F              5064:   GROUND LEVEL
 DATE.          8-28-1978:   RUN DATE
 RUN .                  1:   RUN NUMBER
 DD  .F               600:   DEPTH DRILLER
 DL  .F               596:   DEPTH LOGGER
 BLI .F               590:   BOTTOM LOG INTERVAL
 TLI .F                50:   TOP LOG INTERVAL
 CS  .IN            8.625:   CASING SIZE
 CBD .F                40:   CASING BOTTOM DRILLER
 BS  .IN            7.875:   BIT SIZE
 BSD .F               600:   BIT SIZE AT DEPTH
 DFT .                KCL:   DRILLING FLUID TYPE
 DFD .                8.7:   DRILLING FLUID DENSITY
 DFV .                 35:   DRILLING FLUID VISCOSITY
 DFPH.                  9:   DRILLING FLUID PH
 DFL .                 10:   DRILLING FLUID LOSS
 MSS .          FLOW LINE:   MUD SAMPLE SOURCE
 RMS .OHMM             .4:   RESISTIVITY MUD SAMPLE
 MST .F                76:   MUD SAMPLE TEMPERATURE
 RMF .OHMM             .3:   RESISTIVITY MUD FILTRATE SAMPLE
 MFST.F                80:   MUD FILTRATE SAMPLE TEMPERATURE
 RMC .OHMM             .4:   RESISTIVITY MUD CAKE
 MCST.F                80:   MUD CAKE SAMPLE TEMPERATURE
 MFSS.               MEAS:   MUD FILTRATE SAMPLE SOURCE
 MCSS.               MEAS:   MUD CAKE SAMPLE SOURCE
 TCS .HRS               3:   TIME CURCULATED STOPPED
 LUN .               2958:   LOGGING UNIT NUMBER
 LUL .               CASP:   LOGGING UNIT LOCATION
 ENGI.             MILLER:   RECORDING ENGINEER
 WITN.              AMEND:   WITNESSED BY
 CLNT.            A2DTECH:   CLIENT CODE
 ORIG.           5" PRINT:   ORIGIN OF DATA
 UWI .       490251069800:   UNIQUE WELL ID
 DICO. A2D Technologies, Inc.:   DIGITIZING COMPANY
~OTHER INFORMATION
~A   DEPT      SPR         SN        ILD       CALD        GRD         RHOB       DPHI      CORR  
# ...
  120.0000   -31.6235     8.3470     8.7705     7.1438    92.3046     2.4828     0.1186     0.0166
  120.5000   -31.6714     8.2571     8.7800     7.1423    90.3380     2.4854     0.1172     0.0179
  121.0000   -31.7263     8.1682     8.7895     7.1354    92.5393     2.4880     0.1157     0.0192
  121.5000   -31.7823     8.0802     8.7990     7.1287    95.3681     2.4905     0.1154     0.0205
  122.0000   -31.8439     8.0578     8.8085     7.1220    96.3074     2.4915     0.1154     0.0218
  122.5000   -32.0241     8.0576     8.8181     7.1153    96.8452     2.4929     0.1116     0.0231
  123.0000   -32.1885     8.0577     8.8275     7.1086    99.3551     2.5014     0.1056     0.0238
  123.5000   -32.4468     8.0576     8.8316     7.1020    99.8040     2.5096     0.0995     0.0231
  124.0000   -32.4331     8.0578     8.8918     7.0953    97.1221     2.5146     0.0986     0.0226
  124.5000   -32.4353     8.1039     8.9578     7.0886    92.2212     2.5133     0.1067     0.0218
  125.0000   -32.4351     8.2378     9.0249     7.0819    87.2322     2.5034     0.1125     0.0185
  125.5000   -32.4351     8.3739     9.0923     7.0753    86.5086     2.4938     0.1186     0.0153
  126.0000   -32.4351     8.5122     9.1603     7.0693    92.1668     2.4878     0.1190     0.0121
  126.5000   -32.4351     8.6528     9.2288     7.0850    96.7985     2.4892     0.1150     0.0125
  127.0000   -32.4351     8.7954     9.2477     7.0814   100.1721     2.4945     0.1094     0.0132
  127.5000   -32.4351     8.9137     9.2280     7.0787    92.8838     2.5010     0.1081     0.0139
  128.0000   -32.4351     8.8451     9.2022     7.0763    89.9467     2.5052     0.1066     0.0140
  128.5000   -32.4351     8.7872     9.1764     7.0739    91.2376     2.5037     0.1022     0.0140
  129.0000   -32.4351     8.7296     9.1507     7.0715    96.8508     2.5130     0.0957     0.0140
  129.5000   -32.4351     8.6724     9.1251     7.0691   100.6718     2.5228     0.0892     0.0140
  130.0000   -32.4351     8.6156     9.0856     7.0667    96.4532     2.5331     0.0859     0.0140
  130.5000   -32.4351     8.5927     8.9919     7.0642    93.7434     2.5312     0.0906     0.0160
  131.0000   -32.4351     8.6279     9.0455     7.0641    94.9590     2.5253     0.0949     0.0199
  131.5000   -32.4351     8.7085     9.1297     7.0782    95.6434     2.5192     0.0993     0.0238
  132.0000   -32.4351     8.7898     9.2125     7.1085    95.4480     2.5133     0.1036     0.0249
  132.5000   -32.4351     8.8720     9.2959     7.1387    95.4716     2.5103     0.1077     0.0200
  133.0000   -32.4351     8.9549     9.3801     7.1690    98.4546     2.5042     0.1122     0.0152
  133.5000   -32.4351     9.0386     9.4651     7.1993    98.7014     2.4958     0.1168     0.0105
  134.0000   -32.4351     9.1234     9.5508     7.2008   101.4439     2.4873     0.1206     0.0057
  134.5000   -32.4351     9.2078     9.5937     7.1945   101.5675     2.4800     0.1189     0.0062
  135.0000   -32.4351     9.2477     9.4901     7.1883    98.1574     2.4881     0.1153     0.0096
  135.5000   -32.4351     9.1557     9.4118     7.1821    96.0903     2.4964     0.1116     0.0131
  136.0000   -32.4351     9.0767     9.3341     7.1758    96.7163     2.5045     0.1080     0.0166
  136.5000   -32.4351     8.9984     9.2570     7.1696    96.0913     2.5091     0.1050     0.0199
  137.0000   -32.4351     8.9208     9.1806     7.1634    92.0874     2.5084     0.1031     0.0206
  137.5000   -32.4351     8.8438     9.1048     7.1572    94.5650     2.5104     0.1026     0.0214
  138.0000   -32.4351     8.7675     9.0297     7.1510    97.6474     2.5088     0.1055     0.0222
  138.5000   -32.4351     8.7489     8.9552     7.1448   100.7070     2.5069     0.1070     0.0230
  139.0000   -32.4351     8.7449     8.9142     7.1385   102.9675     2.5067     0.1033     0.0238
  139.5000   -32.4351     8.7410     8.9364     7.1323   101.4776     2.5136     0.0982     0.0233
  140.0000   -32.4351     8.7371     8.9520     7.1261   100.8865     2.5190     0.1026     0.0224
  140.5000   -32.4351     8.7331     8.9676     7.1199   101.1752     2.5104     0.1050     0.0216
  141.0000   -32.4351     8.7292     8.9832     7.1137   101.2642     2.5033     0.1059     0.0208
  141.5000   -32.4350     8.7253     8.9988     7.1075    97.6168     2.5045     0.1068     0.0195
  142.0000   -32.4328     8.7214     9.0144     7.1012    96.1849     2.5055     0.1067     0.0192
  142.5000   -32.5398     8.7175     9.0300     7.0950    96.1849     2.5055     0.1054     0.0217
  143.0000   -32.6820     8.7135     9.0457     7.0888    96.8060     2.5057     0.1024     0.0243
  143.5000   -32.8249     8.7096     9.0613     7.0837    99.5706     2.5173     0.0969     0.0269
  144.0000   -32.9681     8.7057     9.0772     7.0839    99.8627     2.5329     0.0918     0.0296
  144.5000   -33.1110     8.7018     9.0795     7.0833    98.7747     2.5302     0.0977     0.0315
  145.0000   -33.2321     8.6979     9.0794     7.0725    97.2009     2.5156     0.1048     0.0210
  145.5000   -33.1889     8.6940     9.0794     7.0618    94.5570     2.5074     0.1119     0.0102
  146.0000   -33.1487     8.6901     9.0794     7.0512    91.9381     2.4992     0.1186     0.0080
  146.5000   -33.1094     8.6861     9.0794     7.0406    89.3530     2.4911     0.1190     0.0099
  147.0000   -33.0702     8.6825     9.0794     7.0300    88.5872     2.4863     0.1149     0.0119
  147.5000   -32.9956     8.6783     9.0794     7.0194    94.3583     2.4853     0.1110     0.0139
  148.0000   -32.6746     8.6744     9.0794     7.0088    93.9179     2.5012     0.1106     0.0118
  148.5000   -32.3461     8.5921     9.0794     6.9982    96.8125     2.4997     0.1111     0.0095
  149.0000   -32.0277     8.5878     9.0794     6.9876   100.4872     2.4982     0.1116     0.0102
  149.5000   -32.2260     8.5849     9.0794     6.9770   102.0220     2.4968     0.1122     0.0125
  150.0000   -32.2345     8.5809     9.0794     6.9664   100.3552     2.4954     0.1088     0.0148
  150.5000   -32.2360     8.5772     9.0794     6.9558    99.5087     2.5020     0.1053     0.0171
  151.0000   -32.2355     8.5735     9.0794     6.9452    99.0949     2.5112     0.1019     0.0193
  151.5000   -32.2355     8.5698     9.0794     6.9346    95.9425     2.5203     0.0998     0.0216
  152.0000   -32.2355     8.5661     9.0794     6.9239    92.6354     2.5226     0.1010     0.0238
  152.5000   -32.2355     8.5624     9.0794     6.9131    92.1400     2.5161     0.1029     0.0261
  153.0000   -32.2355     8.5587     9.0794     6.9042    94.4336     2.5103     0.1042     0.0283
  153.5000   -32.2355     8.5550     9.0794     6.9199   100.2644     2.5099     0.1042     0.0306
  154.0000   -32.2355     8.5513     9.0794     6.9482   105.8307     2.5095     0.1042     0.0316
  154.5000   -32.2355     8.5477     9.0794     6.9722   105.6254     2.5084     0.1044     0.0294
  155.0000   -32.2351     8.5440     9.0794     6.9963    98.7725     2.5071     0.1046     0.0273
  155.5000   -32.2379     8.5403     9.0794     7.0206    95.2172     2.5058     0.1053     0.0253
  156.0000   -32.2865     8.5366     9.0794     7.0448    94.3972     2.5045     0.1054     0.0240
  156.5000   -32.3339     8.5329     9.0794     7.0690    95.0509     2.5068     0.1031     0.0251
  157.0000   -32.3813     8.5292     9.0794     7.0932    95.9479     2.5085     0.1026     0.0259
  157.5000   -32.4311     8.5255     9.0794     7.1174    97.7219     2.5080     0.1034     0.0250
  158.0000   -32.3397     8.5219     9.0794     7.1417   101.8778     2.5075     0.1042     0.0241
  158.5000   -32.2261     8.5183     9.0794     7.1659   106.5059     2.5083     0.1038     0.0232
  159.0000   -32.1122     8.5141     9.0795     7.1899   107.7907     2.5093     0.1018     0.0222
  159.5000   -31.9987     8.4791     9.0741     7.1989   107.7700     2.5104     0.1043     0.0213
  160.0000   -31.8853     8.4408     9.0667     7.1878   104.3869     2.5068     0.1068     0.0204
