~VERSION INFORMATION
 VERS.                2.0:   CWLS LOG ASCII STANDARD - VERSION 2.0
 WRAP.                 NO:   ONE LINE PER DEPTH STEP
~WELL INFORMATION
#MNEM.UNIT      DATA TYPE    INFORMATION
#----------   ------------   ------------------------------
 STRT.F           11.5000:   START DEPTH
 STOP.F          583.0000:   STOP DEPTH
 STEP.F            0.5000:   STEP LENGTH
 NULL.          -999.2500:   NO VALUE
 COMP.    FENIX & SCISSON:   COMPANY
 WELL.      41 SX 3 #41-3:   WELL
 FLD .             TEAPOT:   FIELD
 LOC .       S3 T38N R78W:   LOCATION
 CNTY.            NATRONA:   COUNTY
 STAT.            WYOMING:   STATE
 CTRY. UNITED STATES OF AMERICA:   COUNTRY
 SRVC.            Unknown:   SERVICE COMPANY
 DATE.        01-DEC-1978:   LOGDATE
 API .       490251074000:   API NUMBER
~CURVE INFORMATION
#MNEM.UNIT       API CODE    CURVE DESCRIPTION
#----------   ------------   ------------------------------
 DEPT.F                  :   
 SPR .MV     05 010 01 00:   SPONTANEOUS POTENTIAL FROM RES.
 SN  .OHMM   05 040 16 00:   SHORT NORMAL 16"
 IL  .OHMM   05 120 00 00:   INDUCTION LOG
 GRD .GAPI   45 310 01 00:   GAMMA RAY FROM DENSITY LOG
 CALD.IN     45 280 60 00:   CALIPER
 DEN .G/C3   45 350 01 00:   COMPENSATED BULK DENSTIY
 CORR.G/C3   45 356 01 00:   DENSITY CORRECTION
 DPHI.DEC    45 890 12 00:   DENSITY POROSITY SANDSTONE
~PARAMETER INFORMATION
#MNEM.UNIT          VALUE    DESCRIPTION
#----------   ------------   ------------------------------
 PD  .                 GL:   PERMANENT DATUM
 EPD .F              5150:   ELEVATION PERMANENT DATUM
 LMF .                 KB:   LOG MEASURED FROM
 DAPD.F                 4:   FEET ABOVE PERMANENT DATUM
 DMF .                 KB:   DRILLING MEASURED FROM
 EKB .F              5154:   KELLING BUSHING
 EGL .F              5150:   GROUND LEVEL
 DATE.            12-1-78:   RUN DATE
 RUN .                  1:   RUN NUMBER
 DD  .F               600:   DEPTH DRILLER
 DL  .F               582:   DEPTH LOGGER
 BLI .F               576:   BOTTOM LOG INTERVAL
 TLI .F                42:   TOP LOG INTERVAL
 CS  .IN            8.625:   CASING SIZE
 CBD .F                40:   CASING BOTTOM DRILLER
 CBL .F                41:   CASING BOTTOM LOGGER
 BS  .IN            7.875:   BIT SIZE
 BSD .F               600:   BIT SIZE AT DEPTH
 DFT .                KCL:   DRILLING FLUID TYPE
 DFD .                8.8:   DRILLING FLUID DENSITY
 DFV .                 35:   DRILLING FLUID VISCOSITY
 DFPH.               11.2:   DRILLING FLUID PH
 DFL .               11.6:   DRILLING FLUID LOSS
 MSS .          FLOW LINE:   MUD SAMPLE SOURCE
 RMS .OHMM            .36:   RESISTIVITY MUD SAMPLE
 MST .F                52:   MUD SAMPLE TEMPERATURE
 RMF .OHMM            .36:   RESISTIVITY MUD FILTRATE SAMPLE
 MFST.F                55:   MUD FILTRATE SAMPLE TEMPERATURE
 RMC .OHMM            .42:   RESISTIVITY MUD CAKE
 MCST.F                60:   MUD CAKE SAMPLE TEMPERATURE
 MFSS.           MEASURED:   MUD FILTRATE SAMPLE SOURCE
 MCSS.           MEASURED:   MUD CAKE SAMPLE SOURCE
 RMB .OHMM            .32:   RESISTIVITY MUD AT BHT
 BHT .F                58:   BOTTOM HOLE TEMPERATURE
 MRT .F                58:   MAXIMUM RECORDED TEMPERATURE
 LUN .               2958:   LOGGING UNIT NUMBER
 LUL .                CPR:   LOGGING UNIT LOCATION
 ENGI.            ROLLINS:   RECORDING ENGINEER
 WITN.              AMEND:   WITNESSED BY
 CLNT.            A2DTECH:   CLIENT CODE
 ORIG.       2", 5" PRINT:   ORIGIN OF DATA
 UWI .       490251074000:   UNIQUE WELL ID
 DICO. A2D Technologies, Inc.:   DIGITIZING COMPANY
~OTHER INFORMATION
~A   DEPT      SPR         SN         IL         GRD      CALD        DEN       CORR       DPHI   
# ...
  457.0000   -33.5852    11.9222    13.5683    86.3682     8.0370     2.4342     0.0166     0.1541
  457.5000   -33.6367    11.9222    13.5685    85.1596     8.0364     2.4307     0.0146     0.1557
  458.0000   -33.6893    11.9222    13.5694    83.9707     8.0359     2.4272     0.0131     0.1573
  458.5000   -33.6728    11.9222    13.5683    82.7889     8.0354     2.4257     0.0145     0.1620
  459.0000   -33.6428    11.9221    13.6846    81.6096     8.0348     2.4211     0.0159     0.1690
  459.5000   -33.6122    11.9222    13.8331    80.4396     8.0343     2.4104     0.0172     0.1743
  460.0000   -33.5816    11.9263    13.9833    80.5445     8.0337     2.3998     0.0185     0.1751
  460.5000   -33.5511    11.9549    14.2097    82.6677     8.0332     2.3949     0.0199     0.1723
  461.0000   -33.5208    11.9833    14.1767    83.9673     8.0327     2.4009     0.0211     0.1709
  461.5000   -33.4985    12.0127    14.1125    82.5182     8.0321     2.4043     0.0220     0.1703
  462.0000   -33.4990    12.0314    14.0486    80.7319     8.0316     2.4065     0.0229     0.1662
  462.5000   -33.4991    11.9340    13.9851    79.2495     8.0311     2.4089     0.0239     0.1615
  463.0000   -33.4992    11.8569    13.9218    80.6845     8.0305     2.4160     0.0248     0.1598
  463.5000   -33.4983    11.7803    13.8588    81.4390     8.0300     2.4236     0.0257     0.1575
  464.0000   -33.5692    11.7039    13.7430    81.1921     8.0294     2.4311     0.0267     0.1521
  464.5000   -33.6834    11.7041    13.5510    83.0518     8.0289     2.4390     0.0243     0.1506
  465.0000   -33.7985    11.7039    13.3615    83.6745     8.0284     2.4407     0.0205     0.1511
  465.5000   -33.9384    11.7039    13.1748    83.8867     8.0278     2.4407     0.0167     0.1493
  466.0000   -34.2272    11.7039    12.9906    84.0805     8.0273     2.4409     0.0130     0.1445
  466.5000   -34.5170    11.7039    12.8096    84.2767     8.0267     2.4442     0.0121     0.1431
  467.0000   -34.8060    11.7039    12.7174    84.5620     8.0262     2.4476     0.0146     0.1436
  467.5000   -35.0950    11.7039    12.7190    86.1497     8.0257     2.4508     0.0170     0.1441
  468.0000   -35.3875    11.7039    12.7185    87.5422     8.0251     2.4499     0.0180     0.1446
  468.5000   -35.4856    11.7040    12.7186    86.1052     8.0246     2.4465     0.0123     0.1503
  469.0000   -35.4871    11.7053    12.7186    84.6987     8.0241     2.4359     0.0068     0.1642
  469.5000   -35.4870    11.6986    12.7186    82.0180     8.0235     2.4219     0.0029     0.1819
  470.0000   -35.4854    11.8259    12.9608    78.7559     8.0230     2.3936     0.0049     0.1996
  470.5000   -35.3701    12.0320    13.2081    77.2558     8.0225     2.3627     0.0084     0.2276
  471.0000   -35.0420    12.2535    13.6588    76.3200     8.0219     2.3210     0.0118     0.2583
  471.5000   -34.7139    12.4360    14.2926    69.7804     8.0214     2.2798     0.0168     0.2803
  472.0000   -34.3516    12.7132    15.5054    68.4811     8.0208     2.2376     0.0223     0.2805
  472.5000   -33.8509    13.1623    17.0576    65.9870     8.0203     2.2253     0.0269     0.2775
  473.0000   -33.3621    13.8295    18.7653    64.0112     8.0198     2.2276     0.0264     0.2670
  473.5000   -32.8864    14.4781    20.6439    64.1553     8.0192     2.2396     0.0259     0.2565
  474.0000   -31.7130    15.4283    22.7105    65.9186     8.0187     2.2562     0.0255     0.2510
  474.5000   -30.2027    16.3902    24.9841    67.8551     8.0181     2.2715     0.0250     0.2478
  475.0000   -29.5245    17.4120    26.0239    69.6762     8.0176     2.2753     0.0236     0.2464
  475.5000   -29.0339    18.4976    26.6320    71.2671     8.0171     2.2759     0.0218     0.2464
  476.0000   -28.5466    19.0841    26.2209    71.4029     8.0165     2.2763     0.0201     0.2468
  476.5000   -28.0603    19.3364    25.8020    70.6117     8.0160     2.2762     0.0184     0.2474
  477.0000   -27.6977    19.4551    25.1971    70.6019     8.0154     2.2757     0.0167     0.2498
  477.5000   -27.5992    19.4304    25.2199    70.6313     8.0149     2.2707     0.0149     0.2527
  478.0000   -27.4980    19.3991    25.2628    69.2246     8.0144     2.2628     0.0131     0.2557
  478.5000   -27.3969    19.3677    25.3069    67.7132     8.0138     2.2544     0.0157     0.2584
  479.0000   -27.2963    19.3363    25.3511    67.6901     8.0133     2.2543     0.0197     0.2574
  479.5000   -27.1959    19.3051    25.3954    67.8964     8.0128     2.2584     0.0238     0.2524
  480.0000   -27.1156    19.2739    25.4298    69.3227     8.0122     2.2704     0.0279     0.2447
  480.5000   -27.0641    19.1186    25.2289    72.6864     8.0117     2.2824     0.0320     0.2356
  481.0000   -27.0162    18.9677    25.0079    76.0465     8.0112     2.2942     0.0349     0.2285
  481.5000   -26.9648    18.8179    24.6947    77.8885     8.0106     2.3047     0.0350     0.2270
  482.0000   -27.3972    18.6691    24.3854    76.1926     8.0101     2.3119     0.0288     0.2272
  482.5000   -27.9516    18.5214    24.0803    66.2359     8.0097     2.3086     0.0209     0.2356
  483.0000   -27.9602    18.3749    23.7785    66.0036     8.0102     2.2956     0.0153     0.2459
  483.5000   -27.9823    18.2296    23.4803    68.4473     8.0107     2.2829     0.0177     0.2482
  484.0000   -28.0048    18.0856    23.1870    70.4122     8.0111     2.2753     0.0199     0.2460
  484.5000   -28.0265    18.0675    22.9726    68.5552     8.0116     2.2890     0.0221     0.2221
  485.0000   -28.0481    18.0675    22.9659    66.1962     8.0121     2.3100     0.0243     0.2149
  485.5000   -28.0699    18.0673    22.9382    67.0224     8.0125     2.3161     0.0266     0.2044
  486.0000   -28.0915    18.0675    22.9111    69.9663     8.0130     2.3416     0.0287     0.1852
  486.5000   -28.1124    18.0675    22.8838    72.0448     8.0135     2.3861     0.0217     0.1314
  487.0000   -28.1324    18.0675    22.8566    69.5425     8.0139     2.4305     0.0138     0.1365
  487.5000   -28.2051    18.0675    22.8293    67.1214     8.0144     2.4614     0.0110     0.1461
  488.0000   -28.6928    18.0675    22.8016    65.8981     8.0148     2.4593     0.0109     0.1741
  488.5000   -29.1805    18.0677    22.7739    67.4950     8.0153     2.3993     0.0110     0.2092
  489.0000   -29.6670    18.0680    22.6051    70.2790     8.0158     2.3557     0.0123     0.2215
  489.5000   -29.9181    18.0665    22.2999    70.1290     8.0162     2.3237     0.0160     0.2217
  490.0000   -29.9189    18.0696    22.1392    69.3700     8.0167     2.3195     0.0197     0.2207
  490.5000   -29.9206    17.6995    22.1392    71.6541     8.0172     2.3196     0.0212     0.2207
  491.0000   -29.9206    17.4119    22.1392    76.8657     8.0176     2.3199     0.0216     0.2220
  491.5000   -29.9205    17.1295    21.1340    77.6568     8.0181     2.3203     0.0221     0.2233
  492.0000   -29.9205    16.8521    20.1968    78.5516     8.0185     2.3161     0.0225     0.2241
  492.5000   -29.9205    16.5826    19.5804    77.6999     8.0190     2.3145     0.0229     0.2239
  493.0000   -29.9205    16.3338    19.1808    74.5623     8.0195     2.3149     0.0241     0.2238
  493.5000   -29.9205    16.0884    18.8885    73.0884     8.0199     2.3149     0.0259     0.2246
  494.0000   -29.9205    15.8471    18.7913    72.9635     8.0204     2.3123     0.0277     0.2305
  494.5000   -29.9205    15.6087    18.6947    72.9115     8.0209     2.3097     0.0295     0.2225
  495.0000   -29.9201    15.3739    18.5986    72.9144     8.0213     2.3093     0.0312     0.2116
  495.5000   -29.9206    15.0931    18.5030    72.9035     8.0218     2.3277     0.0330     0.2067
  496.0000   -30.0604    14.7919    18.4079    73.4952     8.0223     2.3475     0.0349     0.2024
  496.5000   -30.2230    14.7446    18.3132    74.2394     8.0227     2.3532     0.0295     0.1958
  497.0000   -30.3853    14.7453    18.2191    74.1034     8.0232     2.3599     0.0231     0.1967
