~VERSION INFORMATION
 VERS.                2.0:   CWLS LOG ASCII STANDARD - VERSION 2.0
 WRAP.                 NO:   ONE LINE PER DEPTH STEP
~WELL INFORMATION
#MNEM.UNIT      DATA TYPE    INFORMATION
#----------   ------------   ------------------------------
 STRT.F           40.0000:   START DEPTH
 STOP.F          512.0000:   STOP DEPTH
 STEP.F            0.5000:   STEP LENGTH
 NULL.          -999.2500:   NO VALUE
 COMP. FENIX & SCISSON INC:   COMPANY
 WELL.    SX 3FO 55 #52-3:   WELL
 FLD .             TEAPOT:   FIELD
 LOC .       S3 T38N R78W:   LOCATION
 CNTY.            NATRONA:   COUNTY
 STAT.            WYOMING:   STATE
 CTRY. UNITED STATES OF AMERICA:   COUNTRY
 SRVC.              Welex:   SERVICE COMPANY
 DATE.        28-JUN-1980:   LOGDATE
 API .       490251081600:   API NUMBER
~CURVE INFORMATION
#MNEM.UNIT       API CODE    CURVE DESCRIPTION
#----------   ------------   ------------------------------
 DEPT.F                  :   
 GRD .GAPI   45 310 01 00:   GAMMA RAY FROM DENSITY LOG
 CALD.IN     45 280 60 00:   CALIPER
 RHOB.G/C3   45 350 01 00:   BULK DENSITY
 DPHI.DEC    45 890 12 00:   DENSITY POROSITY SANDSTONE
 CORR.G/C3   45 356 01 00:   DENSITY CORRECTION
~PARAMETER INFORMATION
#MNEM.UNIT          VALUE    DESCRIPTION
#----------   ------------   ------------------------------
 PD  .                 GL:   PERMANENT DATUM
 EPD .F              5161:   ELEVATION PERMANENT DATUM
 LMF .                 KB:   LOG MEASURED FROM
 DAPD.F                 5:   FEET ABOVE PERMANENT DATUM
 DMF .                 KB:   DRILLING MEASURED FROM
 EKB .F              5166:   KELLING BUSHING
 EGL .F              5161:   GROUND LEVEL
 DATE.            6-28-80:   RUN DATE
 RUN .                  1:   RUN NUMBER
 DD  .F               514:   DEPTH DRILLER
 DL  .F               514:   DEPTH LOGGER
 BLI .F               512:   BOTTOM LOG INTERVAL
 TLI .F                46:   TOP LOG INTERVAL
 CS  .IN                7:   CASING SIZE
 BS  .IN             6.25:   BIT SIZE
 BSD .F               514:   BIT SIZE AT DEPTH
 DFT .        AIR DRILLED:   DRILLING FLUID TYPE
 BHT .F                74:   BOTTOM HOLE TEMPERATURE
 TCS .HRS               2:   TIME CURCULATED STOPPED
 MRT .F                74:   MAXIMUM RECORDED TEMPERATURE
 ENGI.            TOTHILL:   RECORDING ENGINEER
 WITN.              AMEND:   WITNESSED BY
 CLNT.            A2DTECH:   CLIENT CODE
 ORIG.           5" PRINT:   ORIGIN OF DATA
 UWI .       490251081600:   UNIQUE WELL ID
 DICO. A2D Technologies, Inc.:   DIGITIZING COMPANY
~OTHER INFORMATION
~A   DEPT       GRD        CALD       RHOB       DPHI       CORR 
# ...
  162.0000   111.5883     6.4044     2.4433     0.1364     0.0029
  162.5000   110.5278     6.4044     2.4385     0.1405     0.0046
  163.0000   109.4730     6.4044     2.4388     0.1411     0.0076
  163.5000   108.4102     6.4044     2.4404     0.1394     0.0105
  164.0000   108.1095     6.4044     2.4369     0.1394     0.0135
  164.5000   108.4745     6.4044     2.4446     0.1413     0.0165
  165.0000   108.8274     6.4044     2.4497     0.1357     0.0194
  165.5000   109.1591     6.4044     2.4521     0.1326     0.0205
  166.0000   108.7949     6.4044     2.4495     0.1305     0.0104
  166.5000   108.4681     6.4044     2.4441     0.1370     0.0033
  167.0000   108.4313     6.4044     2.4381     0.1409    -0.0014
  167.5000   108.9015     6.4044     2.4299     0.1459    -0.0061
  168.0000   109.3259     6.4044     2.4219     0.1509    -0.0101
  168.5000   109.7517     6.4044     2.4232     0.1501    -0.0077
  169.0000   110.1834     6.4044     2.4250     0.1487    -0.0053
  169.5000   110.5974     6.4044     2.4288     0.1473    -0.0030
  170.0000   110.2675     6.4044     2.4334     0.1457    -0.0006
  170.5000   109.8938     6.4044     2.4299     0.1454     0.0017
  171.0000   109.7736     6.4044     2.4318     0.1469     0.0040
  171.5000   109.7138     6.4044     2.4335     0.1439     0.0059
  172.0000   109.6566     6.4044     2.4310     0.1442     0.0077
  172.5000   109.7768     6.4044     2.4360     0.1444     0.0088
  173.0000   110.1380     6.4044     2.4399     0.1411     0.0098
  173.5000   110.5004     6.4044     2.4361     0.1400     0.0107
  174.0000   111.1492     6.4044     2.4302     0.1441     0.0116
  174.5000   111.9471     6.4044     2.4332     0.1461     0.0155
  175.0000   112.7531     6.4044     2.4399     0.1406     0.0206
  175.5000   113.5653     6.4044     2.4397     0.1389     0.0212
  176.0000   113.2682     6.4044     2.4229     0.1518     0.0125
  176.5000   112.0076     6.4044     2.3966     0.1658    -0.0022
  177.0000   110.7964     6.4044     2.3949     0.1666    -0.0013
  177.5000   109.5908     6.4044     2.4056     0.1617     0.0108
  178.0000   108.8242     6.4044     2.4176     0.1569     0.0232
  178.5000   109.3563     6.4044     2.4379     0.1435     0.0356
  179.0000   109.8922     6.4044     2.4481     0.1369     0.0380
  179.5000   110.6276     6.4044     2.4646     0.1293     0.0377
  180.0000   111.6282     6.4044     2.4852     0.1158     0.0457
  180.5000   112.6350     6.4044     2.4929     0.1085     0.0557
  181.0000   113.7409     6.4044     2.5001     0.1046     0.0598
  181.5000   114.9790     6.4044     2.4981     0.1058     0.0542
  182.0000   116.2205     6.4044     2.4802     0.1131     0.0430
  182.5000   117.4530     6.4044     2.4692     0.1226     0.0282
  183.0000   117.3263     6.4044     2.4790     0.1179     0.0337
  183.5000   115.7019     6.4044     2.4915     0.1106     0.0429
  184.0000   114.5370     6.4049     2.5034     0.1052     0.0518
  184.5000   113.6351     6.4060     2.4973     0.1046     0.0481
  185.0000   113.8843     6.4071     2.4907     0.1064     0.0439
  185.5000   114.1836     6.4082     2.4988     0.1042     0.0497
  186.0000   113.8115     6.4093     2.5069     0.0994     0.0558
  186.5000   113.3957     6.4103     2.4960     0.1049     0.0481
  187.0000   112.9774     6.4114     2.4850     0.1122     0.0406
  187.5000   113.0723     6.4125     2.4742     0.1184     0.0243
  188.0000   113.4977     6.4136     2.4639     0.1269     0.0129
  188.5000   113.9280     6.4147     2.4654     0.1237     0.0230
  189.0000   114.3616     6.4158     2.4752     0.1194     0.0287
  189.5000   114.7970     6.4169     2.4705     0.1211     0.0237
  190.0000   115.1939     6.4179     2.4609     0.1263     0.0190
  190.5000   114.6686     6.4190     2.4553     0.1317     0.0161
  191.0000   114.0454     6.4201     2.4631     0.1279     0.0289
  191.5000   113.4437     6.4212     2.4743     0.1224     0.0428
  192.0000   112.8608     6.4223     2.4802     0.1162     0.0503
  192.5000   112.2841     6.4234     2.4899     0.1138     0.0600
  193.0000   111.8474     6.4224     2.5007     0.1050     0.0764
  193.5000   111.5290     6.4081     2.5085     0.0986     0.0925
  194.0000   111.2446     6.3936     2.5132     0.1062     0.0916
  194.5000   112.3238     6.3792     2.4762     0.1188     0.0584
  195.0000   113.5009     6.3649     2.4620     0.1270     0.0420
  195.5000   114.6620     6.3504     2.4574     0.1290     0.0384
  196.0000   115.6149     6.3570     2.4529     0.1310     0.0396
  196.5000   115.5029     6.3769     2.4475     0.1349     0.0409
  197.0000   115.3388     6.3971     2.4380     0.1397     0.0415
  197.5000   113.4383     6.4043     2.4185     0.1530     0.0307
  198.0000   111.6385     6.4044     2.3972     0.1650     0.0199
  198.5000   111.3803     6.4044     2.3758     0.1766     0.0101
  199.0000   111.1643     6.4044     2.3540     0.1883     0.0093
  199.5000   110.7371     6.4044     2.3424     0.1971     0.0086
  200.0000   109.6425     6.4044     2.3344     0.2012     0.0080
  200.5000   108.5747     6.4044     2.3160     0.2133     0.0111
  201.0000   107.7473     6.4044     2.2953     0.2267     0.0146
  201.5000   107.1675     6.4044     2.2808     0.2336     0.0181
  202.0000   106.5892     6.4044     2.2759     0.2376     0.0216
  202.5000   106.0114     6.4044     2.2713     0.2403     0.0258
  203.0000   105.4076     6.4044     2.2707     0.2419     0.0302
  203.5000   105.2428     6.4044     2.2860     0.2357     0.0346
  204.0000   105.7205     6.4044     2.2993     0.2263     0.0291
  204.5000   107.3178     6.4044     2.3099     0.2170     0.0153
  205.0000   109.6192     6.4044     2.3462     0.2084     0.0064
  205.5000   113.0354     6.4044     2.3973     0.1808     0.0080
  206.0000   117.2540     6.4044     2.4189     0.1557     0.0110
  206.5000   119.1593     6.4044     2.4360     0.1419     0.0155
  207.0000   119.1881     6.4044     2.4534     0.1345     0.0208
  207.5000   119.1849     6.4044     2.4721     0.1226     0.0260
  208.0000   119.5111     6.4044     2.4763     0.1190     0.0298
  208.5000   120.0456     6.4044     2.4720     0.1195     0.0286
  209.0000   120.5508     6.4044     2.4743     0.1230     0.0321
  209.5000   120.0351     6.4044     2.4799     0.1177     0.0410
  210.0000   120.3963     6.4044     2.4772     0.1130     0.0441
  210.5000   121.7829     6.4044     2.4708     0.1226     0.0367
  211.0000   121.4846     6.4044     2.4642     0.1268     0.0294
  211.5000   121.5812     6.4044     2.4511     0.1322     0.0221
  212.0000   121.9382     6.4044     2.4383     0.1395     0.0148
  212.5000   122.1743     6.4044     2.4284     0.1455     0.0082
  213.0000   122.1698     6.4044     2.4260     0.1477     0.0098
  213.5000   122.1784     6.4044     2.4220     0.1508     0.0115
  214.0000   122.5150     6.4044     2.4205     0.1525     0.0179
  214.5000   122.6777     6.4044     2.4283     0.1476     0.0247
  215.0000   122.3126     6.4044     2.4400     0.1411     0.0290
  215.5000   121.4565     6.4044     2.4519     0.1325     0.0324
  216.0000   120.5687     6.4042     2.4636     0.1242     0.0349
  216.5000   120.4553     6.4033     2.4687     0.1225     0.0326
  217.0000   120.5031     6.4025     2.4717     0.1208     0.0304
  217.5000   120.9753     6.4017     2.4715     0.1208     0.0266
  218.0000   122.5886     6.4009     2.4779     0.1196     0.0226
  218.5000   124.0079     6.4001     2.4836     0.1144     0.0230
  219.0000   124.4479     6.3993     2.4867     0.1121     0.0247
  219.5000   124.5873     6.3985     2.4949     0.1098     0.0279
  220.0000   124.7087     6.3977     2.5036     0.1034     0.0371
  220.5000   125.4372     6.3969     2.5104     0.0998     0.0465
  221.0000   126.7627     6.3961     2.4995     0.1031     0.0414
  221.5000   128.3049     6.3953     2.4886     0.1096     0.0335
  222.0000   128.6345     6.3945     2.4777     0.1157     0.0254
  222.5000   128.7683     6.3937     2.4729     0.1197     0.0239
