~VERSION INFORMATION
 VERS.                2.0:   CWLS LOG ASCII STANDARD - VERSION 2.0
 WRAP.                 NO:   ONE LINE PER DEPTH STEP
~WELL INFORMATION
#MNEM.UNIT      DATA TYPE    INFORMATION
#----------   ------------   ------------------------------
 STRT.F            0.0000:   START DEPTH
 STOP.F          453.5000:   STOP DEPTH
 STEP.F            0.5000:   STEP LENGTH
 NULL.          -999.2500:   NO VALUE
 COMP. BROWN JOHN E&C INC:   COMPANY
 WELL. NAVAL PETROLEUM RESERVE 3 SX-1 #54-1-10:   WELL
 FLD .             TEAPOT:   FIELD
 LOC .      S10 T38N R78W:   LOCATION
 CNTY.            NATRONA:   COUNTY
 STAT.            WYOMING:   STATE
 CTRY. UNITED STATES OF AMERICA:   COUNTRY
 SRVC.     Atlas Wireline:   SERVICE COMPANY
 DATE.        22-APR-1991:   LOGDATE
 API .       490251133200:   API NUMBER
~CURVE INFORMATION
#MNEM.UNIT       API CODE    CURVE DESCRIPTION
#----------   ------------   ------------------------------
 DEPT.F                  :   
 GRR .GAPI   07 310 01 00:   GAMMA RAY
 RILD.OHMM   07 120 46 00:   INDUCTION LOG DEEP RESISTIVITY
 RILM.OHMM   07 120 44 00:   INDUCTION LOG MEDIUM RESISTIVITY
~PARAMETER INFORMATION
#MNEM.UNIT          VALUE    DESCRIPTION
#----------   ------------   ------------------------------
 PD  .                 GL:   PERMANENT DATUM
 EPD .F              5199:   ELEVATION PERMANENT DATUM
 LMF .                 KB:   LOG MEASURED FROM
 DAPD.F                 5:   FEET ABOVE PERMANENT DATUM
 DMF .                 KB:   DRILLING MEASURED FROM
 EKB .F              5204:   KELLING BUSHING
 EGL .F              5199:   GROUND LEVEL
 DATE.        22-APR-1991:   RUN DATE
 RUN .                  1:   RUN NUMBER
 DD  .F               460:   DEPTH DRILLER
 DL  .F               461:   DEPTH LOGGER
 BLI .F               459:   BOTTOM LOG INTERVAL
 TLI .F                 0:   TOP LOG INTERVAL
 CS  .IN            8.625:   CASING SIZE
 CBD .F                45:   CASING BOTTOM DRILLER
 CBL .F                44:   CASING BOTTOM LOGGER
 BS  .IN            7.875:   BIT SIZE
 BSD .F               460:   BIT SIZE AT DEPTH
 DFT .                AIR:   DRILLING FLUID TYPE
 LUN .           HL- 6307:   LOGGING UNIT NUMBER
 LUL .             CASPER:   LOGGING UNIT LOCATION
 ENGI.          OTTERHOLT:   RECORDING ENGINEER
 WITN.   HERRMANN/ STRONG:   WITNESSED BY
 CLNT.            A2DTECH:   CLIENT CODE
 ORIG.           5" PRINT:   ORIGIN OF DATA
 UWI .       490251133200:   UNIQUE WELL ID
 DICO. A2D Technologies, Inc.:   DIGITIZING COMPANY
~OTHER INFORMATION
~A    DEPT      GRR      RILD       RILM   
# ...
   91.0000   134.3253     9.9095    10.4162
   91.5000   133.0872     9.9061    10.4111
   92.0000   132.7633     9.9020    10.4069
   92.5000   133.0455     9.8986    10.3306
   93.0000   132.0949     9.8952    10.2549
   93.5000   131.7909     9.8234    10.1093
   94.0000   134.1897     9.6845     9.9658
   94.5000   137.5023     9.5477     9.8928
   95.0000   136.2692     9.4784     9.8203
   95.5000   132.6120     9.4095     9.8847
   96.0000   126.8336     9.4727     9.9495
   96.5000   121.6612     9.4687    10.0148
   97.0000   121.0395     9.5315     9.9298
   97.5000   127.6801     9.5946     9.8676
   98.0000   134.0228     9.5913     9.8635
   98.5000   135.2141     9.6548     9.9292
   99.0000   136.7084     9.6507    10.0640
   99.5000   139.7179     9.6474    10.1300
  100.0000   137.8788     9.7796    10.0550
  100.5000   136.0302     9.5753     9.9840
  101.0000   134.4849     9.3657     9.8450
  101.5000   130.6819     8.9895     9.5739
  102.0000   128.4249     8.5606     9.2458
  102.5000   133.2548     8.2661     8.8058
  103.0000   141.7247     8.0374     8.4436
  103.5000   147.7703     7.9244     8.2028
  104.0000   148.9712     7.8674     7.9866
  104.5000   148.3464     7.8108     7.9302
  105.0000   145.3012     7.7009     8.0400
  105.5000   140.1347     7.6988     8.2079
  106.0000   135.2712     7.6967     8.2643
  106.5000   131.0139     7.9114     8.4368
  107.0000   129.4837     8.0758     8.4948
  107.5000   130.0748     8.1299     8.5528
  108.0000   131.5751     8.0616     8.6713
  108.5000   135.4995     7.9573     8.6698
  109.0000   137.9087     8.0664     8.6086
  109.5000   139.7120     8.1210     8.4887
  110.0000   140.9091     8.2892     8.4875
  110.5000   143.9244     8.3452     8.6650
  111.0000   142.6057     8.5186     8.7243
  111.5000   138.5606     8.6354     8.7867
  112.0000   134.4819     8.8149     8.9676
  112.5000   133.8608     8.9351     8.9663
  113.0000   133.2399     8.9950     9.1538
  113.5000   132.0127     8.9925     9.2163
  114.0000   132.9068     8.9867     9.2801
  114.5000   136.2252     8.8635     9.4782
  115.0000   140.1496     8.7992     9.6716
  115.5000   139.2256     8.7968     9.2110
  116.0000   136.4833     8.8563     9.1460
  116.5000   135.2563     8.7920     9.2088
  117.0000   134.6389     8.7896     9.2072
  117.5000   137.6505     8.7872     9.2704
  118.0000   142.4841     8.7848     9.2688
  118.5000   149.4394     8.7825     9.2034
  119.0000   146.0905     8.7801     9.2022
  119.5000   141.5301     8.7169     9.2009
  120.0000   142.1212     8.7145     9.1996
  120.5000   139.9392     8.6514     9.1984
  121.0000   134.7578     8.5896     9.1335
  121.5000   135.2424     8.5277     9.0690
  122.0000   142.3607     8.5249     8.9427
  122.5000   143.5616     8.5226     8.9393
  123.0000   141.1187     8.5203     8.8783
  123.5000   140.8005     8.5179     8.8771
  124.0000   139.2705     8.5156     8.9378
  124.5000   138.9563     8.4544     8.9362
  125.0000   142.5739     8.4521     8.9350
  125.5000   146.8013     8.3913     8.9338
  126.0000   145.8773     8.3309     8.8707
  126.5000   139.1956     8.2710     8.8695
  127.0000   136.7564     8.2115     8.7460
  127.5000   138.8627     8.0941     8.6241
  128.0000   145.5144     7.9761     8.4451
  128.5000   149.1818     7.8056     8.3275
  129.0000   145.1815     7.5461     7.9865
  129.5000   134.8635     7.3884     7.7664
  130.0000   128.1819     7.1343     7.5003
  130.5000   131.5760     6.9369     7.2937
  131.0000   136.7270     6.7920     7.0929
  131.5000   139.3491     6.7901     6.9457
  132.0000   137.2091     6.7413     7.0419
  132.5000   139.0124     6.7864     7.1892
  133.0000   138.9973     6.8320     7.3396
  133.5000   139.5885     6.9738     7.4412
  134.0000   140.1796     7.1187     7.5445
  134.5000   142.2859     7.2224     7.7558
  135.0000   145.3012     7.4244     7.8632
  135.5000   145.5929     7.6240     7.9721
  136.0000   139.5136     7.7829     8.1388
  136.5000   137.0744     7.8351     8.1944
  137.0000   140.3928     7.8875     8.1933
  137.5000   143.1051     7.9403     8.1922
  138.0000   141.5788     7.9376     8.1908
  138.5000   144.8933     7.9354     8.1330
  139.0000   149.1208     7.8784     8.0756
  139.5000   149.7274     7.8217     8.0186
  140.0000   146.6667     7.7117     7.9620
  140.5000   140.8179     7.6032     7.9058
  141.0000   135.9095     7.3922     7.7957
  141.5000   133.8945     7.1840     7.7406
  142.0000   136.3000     6.8777     7.5275
  142.5000   135.9857     6.5182     7.2193
  143.0000   136.5769     6.1642     6.7808
  143.5000   136.5581     5.8294     6.1945
  144.0000   134.4220     5.5900     5.8589
  144.5000   132.8919     5.5113     5.5798
  145.0000   134.9981     5.5098     5.6574
  145.5000   140.1347     5.5083     5.7458
  146.0000   139.2107     5.5456     5.9946
  146.5000   140.1048     5.6213     6.4080
  147.0000   140.6959     5.8589     6.7732
  147.5000   140.3779     6.2786     7.2091
  148.0000   137.0296     6.7791     7.6200
  148.5000   136.1055     7.2218     7.8336
  149.0000   136.6965     7.6729     7.9424
  149.5000   137.2877     7.8869     8.1085
  150.0000   141.5117     7.9479     8.1640
  150.5000   138.7637     8.0484     8.1599
  151.0000   138.1369     8.1017     8.3283
  151.5000   141.4495     8.2116     8.5002
  152.0000   149.6107     8.3236     8.6765
  152.5000   150.2011     8.4379     8.8556
  153.0000   145.0237     8.6119     8.9129
  153.5000   136.8212     8.5494     8.9713
  154.0000   138.9216     8.4874     8.9610
  154.5000   149.6112     8.4845     8.9011
  155.0000   150.6984     8.4816     8.8974
  155.5000   146.1269     8.4787     8.8938
  156.0000   144.2881     8.5396     8.8902
  156.5000   146.0855     8.6016     9.0118
  157.0000   146.0648     8.7080     9.1342
  157.5000   146.9532     8.8275     9.2582
  158.0000   147.5385     8.8860     9.3180
  158.5000   149.3360     8.8823     9.2497
  159.0000   150.5273     8.8793     9.1183
  159.5000   147.7143     8.8148     8.9782
  160.0000   146.8444     8.8118     8.8604
  160.5000   147.4348     8.8088     8.8568
  161.0000   145.8937     8.8058     8.8532
  161.5000   144.0600     8.7376     8.8496
  162.0000   147.0644     8.6183     8.7848
  162.5000   151.8973     8.5551     8.7812
  163.0000   150.0533     8.4930     8.6565
  163.5000   149.4265     8.4313     8.5336
  164.0000   148.4967     8.3122     8.4125
  164.5000   144.4513     8.1380     8.2929
  165.0000   139.6673     7.9675     8.0617
  165.5000   142.9748     7.7465     7.7833
  166.0000   148.4085     7.4796     7.4626
  166.5000   151.4181     7.2218     7.1551
  167.0000   148.6701     6.8738     6.7656
  167.5000   148.9525     6.4826     6.3530
  168.0000   153.1741     5.8977     5.8833
  168.5000   154.0677     5.3494     5.4106
  169.0000   151.3145     4.7851     4.8384
  169.5000   144.0211     4.0490     4.1633
  170.0000   138.5253     3.4500     3.4884
  170.5000   139.5785     3.0861     3.0986
  171.0000   141.8377     2.8581     2.8299
  171.5000   139.9936     2.6654     2.7133
  172.0000   137.2456     2.5915     2.6934
  172.5000   137.5279     2.5906     2.7875
  173.0000   138.1184     2.6468     2.9252
  173.5000   139.0016     2.7365     3.0273
  174.0000   142.3141     2.8919     3.2213
  174.5000   148.9601     3.1422     3.5085
  175.0000   147.4243     3.7368     4.1913
  175.5000   147.1005     4.3827     5.0178
  176.0000   148.5897     4.8962     5.5666
  176.5000   147.9629     5.3200     6.0061
  177.0000   145.5180     5.7404     6.2592
  177.5000   146.4063     6.1086     6.5229
  178.0000   151.8401     6.4126     6.6575
  178.5000   161.5164     6.4533     6.7480
  179.0000   159.6775     6.3176     6.6060
  179.5000   145.1113     6.1424     6.4191
  180.0000   137.5148     5.8489     6.0615
  180.5000   138.7305     5.4545     5.5073
  181.0000   144.0914     5.0166     5.1001
  181.5000   156.2353     4.7439     4.8561
