~VERSION INFORMATION
 VERS.                2.0:   CWLS LOG ASCII STANDARD - VERSION 2.0
 WRAP.                 NO:   ONE LINE PER DEPTH STEP
~WELL INFORMATION
#MNEM.UNIT      DATA TYPE    INFORMATION
#----------   ------------   ------------------------------
 STRT.F           32.0000:   START DEPTH
 STOP.F          688.5000:   STOP DEPTH
 STEP.F            0.5000:   STEP LENGTH
 NULL.          -999.2500:   NO VALUE
 COMP. FENIX & SCISSON INC:   COMPANY
 WELL.       NPR 3 #78-34:   WELL
 FLD .  TEAPOT DOME NPR-3:   FIELD
 LOC .      S34 T39N R78W:   LOCATION
 CNTY.            NATRONA:   COUNTY
 STAT.            WYOMING:   STATE
 CTRY. UNITED STATES OF AMERICA:   COUNTRY
 SRVC.           BIRDWELL:   SERVICE COMPANY
 DATE.        16-AUG-1978:   LOGDATE
 API .       490251070700:   API NUMBER
~CURVE INFORMATION
#MNEM.UNIT       API CODE    CURVE DESCRIPTION
#----------   ------------   ------------------------------
 DEPT.F                  :   
 SPR .MV     05 010 01 00:   SPONTANEOUS POTENTIAL
 SN  .OHMM   05 040 16 00:   SHORT NORMAL 16'
 ILD .OHMM   05 120 46 00:   INDUCTION LOG DEEP RESISTIVITY
 CALD.IN     45 280 60 00:   CALIPER
 GRD .GAPI   45 310 01 00:   GAMMA RAY FROM DENSITY LOG
 RHOB.G/C3   45 350 01 00:   BULK DENSITY
 DPHI.DEC    45 890 12 00:   DENSITY POROSITY SANDSTONE
 CORR.G/C3   45 356 01 00:   DENSITY CORRECTION
~PARAMETER INFORMATION
#MNEM.UNIT          VALUE    DESCRIPTION
#----------   ------------   ------------------------------
 PD  .                 GL:   PERMANENT DATUM
 EPD .F              5085:   ELEVATION PERMANENT DATUM
 LMF .                 KB:   LOG MEASURED FROM
 DAPD.F                 4:   FEET ABOVE PERMANENT DATUM
 DMF .                 KB:   DRILLING MEASURED FROM
 EKB .F              5089:   KELLING BUSHING
 EGL .F              5085:   GROUND LEVEL
 DATE.          8-16-1978:   RUN DATE
 RUN .                  1:   RUN NUMBER
 DD  .F               680:   DEPTH DRILLER
 DL  .F               688:   DEPTH LOGGER
 BLI .F               682:   BOTTOM LOG INTERVAL
 TLI .F                50:   TOP LOG INTERVAL
 CS  .IN            8.625:   CASING SIZE
 CBD .F                40:   CASING BOTTOM DRILLER
 BS  .IN            7.875:   BIT SIZE
 BSD .F               680:   BIT SIZE AT DEPTH
 DFT .                KCL:   DRILLING FLUID TYPE
 RMS .OHMM            .32:   RESISTIVITY MUD SAMPLE
 MST .F                64:   MUD SAMPLE TEMPERATURE
 RMF .OHMM             .3:   RESISTIVITY MUD FILTRATE SAMPLE
 MFST.F                76:   MUD FILTRATE SAMPLE TEMPERATURE
 RMC .OHMM            .16:   RESISTIVITY MUD CAKE
 MCST.F                64:   MUD CAKE SAMPLE TEMPERATURE
 MFSS.               MEAS:   MUD FILTRATE SAMPLE SOURCE
 MCSS.               MEAS:   MUD CAKE SAMPLE SOURCE
 TCS .HRS               1:   TIME CURCULATED STOPPED
 LUN .               3006:   LOGGING UNIT NUMBER
 LUL .               CASP:   LOGGING UNIT LOCATION
 ENGI.             MILLER:   RECORDING ENGINEER
 WITN.           MCGINLEY:   WITNESSED BY
 CLNT.            A2DTECH:   CLIENT CODE
 ORIG.           5" PRINT:   ORIGIN OF DATA
 UWI .       490251070700:   UNIQUE WELL ID
 DICO. A2D Technologies, Inc.:   DIGITIZING COMPANY
~OTHER INFORMATION
~A   DEPT      SPR         SN        ILD       CALD         GRD      RHOB       DPHI       CORR   
# ...
  194.0000   -31.5708     7.5448     6.8542     7.7512    88.3945     2.5344     0.0807     0.0829
  194.5000   -31.5800     7.5958     6.8543     7.7642    87.7853     2.5460     0.0743     0.0797
  195.0000   -31.5892     7.6472     6.8543     7.7597    85.3732     2.5664     0.0706     0.0765
  195.5000   -31.5984     7.6989     6.8542     7.7510    82.8034     2.5705     0.0691     0.0734
  196.0000   -31.6076     7.7509     6.8542     7.7422    82.5566     2.5668     0.0651     0.0658
  196.5000   -31.6168     7.8033     6.8536     7.7335    82.2354     2.5599     0.0611     0.0551
  197.0000   -31.6259     7.8560     6.9087     7.7248    81.5358     2.5654     0.0603     0.0517
  197.5000   -31.6351     7.9091     6.9529     7.7161    80.2387     2.5706     0.0690     0.0415
  198.0000   -31.6443     7.9626     6.9975     7.7074    79.7401     2.5315     0.0882     0.0228
  198.5000   -31.6535     8.0164     7.0423     7.6987    81.2578     2.5024     0.1098     0.0255
  199.0000   -31.6627     8.0705     7.0874     7.6900    82.7851     2.4964     0.1139     0.0301
  199.5000   -31.6719     8.1251     7.1328     7.6811    83.1970     2.4966     0.1122     0.0300
  200.0000   -31.6811     8.1800     7.1785     7.6732    83.2980     2.5015     0.1154     0.0299
  200.5000   -31.6903     8.2353     7.2245     7.6825    85.0716     2.5063     0.1091     0.0299
  201.0000   -31.6994     8.2909     7.2708     7.7084    87.4364     2.5092     0.1050     0.0299
  201.5000   -31.7086     8.3470     7.3173     7.7368    89.6181     2.5105     0.1066     0.0293
  202.0000   -31.7178     8.4034     7.3642     7.7896    89.9815     2.5155     0.1014     0.0276
  202.5000   -31.7270     8.4679     7.4117     7.8431    89.9742     2.5208     0.0939     0.0259
  203.0000   -31.7362     8.3904     7.4608     7.8966    88.5279     2.5068     0.1089     0.0241
  203.5000   -31.7453     8.4376     7.5180     7.9456    86.1202     2.4956     0.1162     0.0247
  204.0000   -31.7538     8.4697     7.5748     7.9483    85.5184     2.4972     0.1162     0.0256
  204.5000   -31.7670     8.5019     7.6322     7.9499    86.1760     2.5029     0.1085     0.0264
  205.0000   -31.8786     8.5342     7.6900     7.9516    87.7489     2.5076     0.1066     0.0273
  205.5000   -31.9926     8.5666     7.7482     7.9534    89.3612     2.5077     0.1073     0.0281
  206.0000   -32.1059     8.5992     7.8069     7.9552    90.9714     2.5081     0.1082     0.0290
  206.5000   -32.2191     8.6319     7.8660     7.9570    92.5445     2.5085     0.1075     0.0299
  207.0000   -32.3324     8.6647     7.9256     7.9588    93.5251     2.5089     0.1068     0.0292
  207.5000   -32.4456     8.6976     7.9452     7.9606    94.4802     2.5093     0.1061     0.0283
  208.0000   -32.5589     8.7307     7.9518     7.9624    95.3454     2.5098     0.1054     0.0274
  208.5000   -32.6722     8.7639     7.9585     7.9642    95.3700     2.5109     0.1034     0.0265
  209.0000   -32.7855     8.7972     7.9651     7.9662    93.9918     2.5119     0.1014     0.0257
  209.5000   -32.8980     8.8308     7.9717     7.9657    91.7808     2.5124     0.1024     0.0248
  210.0000   -32.9698     8.8660     7.9783     7.9520    90.3393     2.5089     0.1066     0.0239
  210.5000   -32.9771     8.8664     7.9850     7.9028    90.9684     2.5013     0.1108     0.0230
  211.0000   -32.9852     8.8662     7.9916     7.8486    91.9948     2.4984     0.1142     0.0221
  211.5000   -32.9931     8.8662     7.9983     7.7939    91.9156     2.4983     0.1114     0.0213
  212.0000   -33.0011     8.8662     8.0049     7.7392    91.3120     2.4927     0.1150     0.0204
  212.5000   -33.0091     8.8662     8.0136     7.6845    88.9686     2.4840     0.1238     0.0195
  213.0000   -33.0171     8.8671     8.0060     7.6298    86.4331     2.4827     0.1238     0.0187
  213.5000   -33.0251     8.8252     7.9914     7.5751    82.1310     2.4883     0.1180     0.0178
  214.0000   -33.0331     8.7701     7.9768     7.5209    77.1921     2.4943     0.1150     0.0198
  214.5000   -33.0410     8.7153     7.9623     7.4866    73.3091     2.4817     0.1235     0.0250
  215.0000   -33.0490     8.6608     7.9478     7.4874    75.0126     2.4736     0.1275     0.0348
  215.5000   -33.0570     8.6068     7.9333     7.4973    77.9673     2.4721     0.1263     0.0446
  216.0000   -33.0650     8.5530     7.9189     7.5077    80.2651     2.4706     0.1273     0.0545
  216.5000   -33.0730     8.4996     7.9044     7.5181    80.7262     2.4711     0.1293     0.0644
  217.0000   -33.0810     8.4465     7.8900     7.5240    80.9876     2.4920     0.1165     0.0724
  217.5000   -33.0890     8.3938     7.8756     7.4945    80.3852     2.5140     0.1082     0.0615
  218.0000   -33.0969     8.3414     7.8613     7.4461    79.5484     2.5135     0.1141     0.0493
  218.5000   -33.1049     8.2342     7.8470     7.3913    79.6034     2.4881     0.1288     0.0366
  219.0000   -33.1129     8.2350     7.8327     7.3365    81.3327     2.4701     0.1312     0.0338
  219.5000   -33.1209     8.2391     7.8184     7.2816    83.3031     2.4645     0.1319     0.0376
  220.0000   -33.1289     8.2376     7.8041     7.2268    85.0002     2.4723     0.1345     0.0425
  220.5000   -33.1369     8.1622     7.7899     7.1719    85.6091     2.4822     0.1203     0.0473
  221.0000   -33.1448     8.1720     7.7757     7.1171    85.1249     2.4889     0.1171     0.0526
  221.5000   -33.1526     8.1782     7.7615     7.0602    84.7772     2.4946     0.1139     0.0699
  222.0000   -33.1610     8.1843     7.7474     7.0479    85.4263     2.5010     0.1088     0.0872
  222.5000   -33.2039     8.1905     7.7334     7.0483    86.9364     2.5090     0.1029     0.0975
  223.0000   -33.3320     8.1967     7.7023     7.0700    88.2154     2.5170     0.0971     0.1077
  223.5000   -33.4585     8.2028     7.6417     7.1083    85.9768     2.5250     0.0912     0.1179
  224.0000   -33.5852     8.2090     7.5814     7.2046    82.4744     2.5331     0.0853     0.1282
  224.5000   -33.7118     8.2152     7.5218     7.2997    80.4196     2.5403     0.0810     0.1331
  225.0000   -33.8389     8.2214     7.4625     7.3830    80.5590     2.5401     0.0805     0.1370
  225.5000   -33.9658     8.2277     7.4038     7.4212    81.5244     2.5256     0.0834     0.1437
  226.0000   -34.0852     8.2340     7.3515     7.4475    84.2086     2.5330     0.0814     0.1567
  226.5000   -33.9831     8.2375     7.3045     7.4671    86.8595     2.5425     0.0802     0.1694
  227.0000   -33.8925     8.1779     7.2579     7.5064    87.1041     2.5433     0.0798     0.1752
  227.5000   -33.8243     8.1348     7.2115     7.5577    86.6588     2.5446     0.0746     0.1806
  228.0000   -33.7526     8.0920     7.1654     7.6114    86.2267     2.5556     0.0686     0.1837
  228.5000   -33.6810     8.0495     7.1196     7.6482    86.1547     2.5658     0.0663     0.1791
  229.0000   -33.6094     8.0072     7.0741     7.6351    87.3776     2.5664     0.0699     0.1603
  229.5000   -33.5378     7.9651     7.0289     7.6172    89.0384     2.5640     0.0718     0.1425
  230.0000   -33.4662     7.9232     6.9840     7.5996    90.5430     2.5773     0.0495     0.1201
  230.5000   -33.3946     7.8816     6.9394     7.5819    90.1637     2.5871     0.0814     0.0749
  231.0000   -33.3230     7.8401     6.8951     7.5642    89.4625     2.5064     0.1206     0.0328
  231.5000   -33.2512     7.7989     6.8510     7.5473    88.9395     2.4829     0.1234     0.0324
  232.0000   -33.1791     7.7579     6.8072     7.5465    90.4614     2.4836     0.1203     0.0362
  232.5000   -33.1985     7.7242     6.7638     7.5483    92.1753     2.4881     0.1164     0.0398
  233.0000   -33.2758     7.7406     6.7289     7.5827    92.3811     2.4926     0.1130     0.0410
  233.5000   -33.3527     7.7546     6.7526     7.6170    91.4532     2.4892     0.1174     0.0422
  234.0000   -33.4299     7.7685     6.7812     7.6511    90.5424     2.4800     0.1252     0.0434
