~VERSION INFORMATION
 VERS.                2.0:   CWLS LOG ASCII STANDARD - VERSION 2.0
 WRAP.                 NO:   ONE LINE PER DEPTH STEP
~WELL INFORMATION
#MNEM.UNIT      DATA TYPE    INFORMATION
#----------   ------------   ------------------------------
 STRT.F            0.0000:   START DEPTH
 STOP.F          497.0000:   STOP DEPTH
 STEP.F            0.1000:   STEP LENGTH
 NULL.          -999.2500:   NO VALUE
 COMP.       F D SERV INC:   COMPANY
 WELL. NAVAL PETROLEUM RESERVE 3 SX-1 #81-1-10:   WELL
 FLD .             NPR #3:   FIELD
 LOC .      S10 T38N R78W:   LOCATION
 CNTY.            NATRONA:   COUNTY
 STAT.            WYOMING:   STATE
 CTRY. UNITED STATES OF AMERICA:   COUNTRY
 SRVC.     Atlas Wireline:   SERVICE COMPANY
 DATE.        14-DEC-1997:   LOGDATE
 API .       490252257400:   API NUMBER
~CURVE INFORMATION
#MNEM.UNIT       API CODE    CURVE DESCRIPTION
#----------   ------------   ------------------------------
 DEPT.F                  :   
 GRR .GAPI   07 310 01 00:   GAMMA RAY
 RILD.OHMM   07 120 46 00:   INDUCTION LOG DEEP RESISTIVITY
 RILM.OHMM   07 120 44 00:   INDUCTION LOG MEDIUM RESISTIVITY
~PARAMETER INFORMATION
#MNEM.UNIT          VALUE    DESCRIPTION
#----------   ------------   ------------------------------
 PD  .                 GL:   PERMANENT DATUM
 EPD .F              5132:   ELEVATION PERMANENT DATUM
 LMF .                 KB:   LOG MEASURED FROM
 DAPD.F                10:   FEET ABOVE PERMANENT DATUM
 DMF .                 KB:   DRILLING MEASURED FROM
 EKB .F              5142:   KELLING BUSHING
 EDF .F              5141:   DRILLING FLOOR
 EGL .F              5132:   GROUND LEVEL
 DATE.        14-DEC-1992:   RUN DATE
 RUN .                  1:   RUN NUMBER
 DD  .F               513:   DEPTH DRILLER
 DL  .F               505:   DEPTH LOGGER
 BLI .F               497:   BOTTOM LOG INTERVAL
 CS  .IN            8.625:   CASING SIZE
 CBD .F                53:   CASING BOTTOM DRILLER
 CBL .F                54:   CASING BOTTOM LOGGER
 BS  .IN            7.875:   BIT SIZE
 BSD .F               513:   BIT SIZE AT DEPTH
 DFT .           AIR FOAM:   DRILLING FLUID TYPE
 BHT .F                68:   BOTTOM HOLE TEMPERATURE
 MRT .F                68:   MAXIMUM RECORDED TEMPERATURE
 LUN .           HL- 6274:   LOGGING UNIT NUMBER
 LUL .             CASPER:   LOGGING UNIT LOCATION
 ENGI.             RAUTIO:   RECORDING ENGINEER
 WITN.          G. STRONG:   WITNESSED BY
 CLNT.            A2DTECH:   CLIENT CODE
 ORIG.           5" PRINT:   ORIGIN OF DATA
 UWI .       490252257400:   UNIQUE WELL ID
 DICO. A2D Technologies, Inc.:   DIGITIZING COMPANY
~OTHER INFORMATION
~A    DEPT      GRR      RILD       RILM   
# ...
  327.6000    75.0312    23.9021    24.2462
  327.7000    74.7314    24.0818    24.3856
  327.8000    74.7325    24.5293    24.3864
  327.9000    74.5416    24.6696    24.0086
  328.0000    74.1365    24.9337    23.6842
  328.1000    73.7275    25.1371    23.4808
  328.2000    73.4711    25.2864    23.2888
  328.3000    73.1968    25.3928    23.0743
  328.4000    72.6314    25.3746    23.0749
  328.5000    71.7048    25.2177    23.0756
  328.6000    70.6755    25.2177    22.9536
  328.7000    69.6461    25.2177    23.0177
  328.8000    68.9205    25.2177    23.0775
  328.9000    68.5488    25.2177    23.0781
  329.0000    67.8192    25.2177    23.0787
  329.1000    67.8206    25.2177    23.0900
  329.2000    67.3655    25.2177    23.2406
  329.3000    66.8515    25.3592    23.3680
  329.4000    66.6193    25.3928    23.4034
  329.5000    66.6205    25.3928    23.4860
  329.6000    66.7759    25.3928    23.6269
  329.7000    67.1454    25.3928    23.7321
  329.8000    67.5948    25.4083    23.7327
  329.9000    67.8301    25.5692    23.7334
  330.0000    67.8314    25.5692    23.8661
  330.1000    68.3077    25.5692    23.8998
  330.2000    68.8241    25.5692    23.9866
  330.3000    69.4908    25.5692    24.0673
  330.4000    70.3717    25.5692    24.1077
  330.5000    71.4035    25.5692    24.2523
  330.6000    72.4352    25.5692    24.4053
  330.7000    73.5628    25.4295    24.4059
  330.8000    74.4989    25.3928    24.4066
  330.9000    75.5307    25.3928    24.4073
  331.0000    76.7091    25.3928    24.4079
  331.1000    77.8954    25.3739    24.4086
  331.2000    78.8676    25.2990    24.4093
  331.3000    79.5939    25.2177    24.4100
  331.4000    79.2941    25.2177    24.4108
  331.5000    78.8354    25.2177    24.4113
  331.6000    78.3213    25.2177    24.4120
  331.7000    77.6645    25.2177    24.4127
  331.8000    76.8928    25.2177    24.4134
  331.9000    76.0655    25.2177    24.4140
  332.0000    75.0482    25.2177    24.4147
  332.1000    74.1821    25.2177    24.2469
  332.2000    73.7308    25.2177    24.2474
  332.3000    73.0343    25.2177    24.2481
  332.4000    72.4016    25.2177    24.2488
  332.5000    71.8876    25.2177    24.2495
  332.6000    71.3735    25.2177    24.2501
  332.7000    70.8595    25.2177    24.2511
  332.8000    70.2749    25.3522    24.4202
  332.9000    70.0536    25.3928    24.4208
  333.0000    69.9759    25.3928    24.4215
  333.1000    69.8420    25.3928    24.4222
  333.2000    69.6771    25.4267    24.4736
  333.3000    69.7263    25.5777    24.6204
  333.4000    69.9851    25.7467    24.7681
  333.5000    70.2833    26.0194    24.9381
  333.6000    70.9398    26.3297    25.0663
  333.7000    71.8888    26.6435    25.1128
  333.8000    73.1832    26.8993    25.1929
  333.9000    74.5546    27.0591    25.3997
  334.0000    75.4538    27.2198    25.6734
  334.1000    75.7133    27.4012    25.8274
  334.2000    76.3159    27.4012    26.0020
  334.3000    76.9607    27.5169    26.2752
  334.4000    77.3927    27.5915    26.4782
  334.5000    77.6516    27.5915    26.5503
  334.6000    77.9105    27.5915    26.5511
  334.7000    78.1289    27.5915    26.5866
  334.8000    78.1301    27.5915    26.7461
  334.9000    78.1315    27.5915    26.9240
  335.0000    77.9217    27.5915    26.9246
  335.1000    77.8325    27.6788    27.0426
  335.2000    77.7100    27.7830    27.2049
  335.3000    77.3735    27.8154    27.3027
  335.4000    76.8595    27.9760    27.3034
  335.5000    76.3314    27.9760    27.3162
  335.6000    75.1279    28.1189    27.4949
  335.7000    74.3010    28.1702    27.6451
  335.8000    73.2715    28.2579    27.8111
  335.9000    72.1221    28.3658    27.8809
  336.0000    70.9878    28.3973    27.8817
  336.1000    70.2817    28.5691    27.8825
  336.2000    70.0145    28.9609    27.8832
  336.3000    70.0157    29.1073    27.8841
  336.4000    70.0169    29.2802    28.0394
  336.5000    70.1777    29.5445    28.0795
  336.6000    70.4365    29.8349    28.1810
  336.7000    70.7678    30.0440    28.4244
  336.8000    71.3132    30.4016    28.7186
  336.9000    72.1314    30.8218    28.8720
  337.0000    72.3755    31.1312    28.8728
  337.1000    72.4349    31.5023    28.8736
  337.2000    72.4361    31.6869    28.8744
  337.3000    72.3251    31.8141    29.0893
  337.4000    72.0000    32.1606    29.4386
  337.5000    71.5111    32.3516    29.7920
  337.6000    71.2362    32.5762    30.1265
  337.7000    70.5199    32.5762    30.3139
  337.8000    70.1394    32.7047    30.4893
  337.9000    69.8829    32.8990    30.6723
  338.0000    69.7349    33.0302    30.8564
  338.1000    69.7361    33.0614    31.0415
  338.2000    69.7374    33.2596    31.1703
  338.3000    69.7387    33.2596    31.1981
  338.4000    69.7398    33.4222    31.3888
  338.5000    69.9327    33.4905    31.3898
  338.6000    70.1916    33.3945    31.2382
  338.7000    70.3458    33.1972    31.1746
  338.8000    70.4080    33.0010    31.0847
  338.9000    70.6494    32.8024    30.9610
  339.0000    70.6507    32.5762    30.9618
  339.1000    70.6518    32.5762    30.9627
  339.2000    70.4651    32.5762    30.7499
  339.3000    70.2086    32.5762    30.7506
  339.4000    69.9522    32.5762    30.7514
  339.5000    69.6387    32.5493    30.6595
  339.6000    69.1517    32.3516    30.5407
  339.7000    69.1532    32.3516    30.5416
  339.8000    68.9265    32.3516    30.5424
  339.9000    68.8542    32.2302    30.5434
  340.0000    68.8554    32.1285    30.5441
  340.1000    68.8566    32.1285    30.5450
  340.2000    68.9113    32.1535    30.4505
  340.3000    69.1800    32.3516    30.3357
  340.4000    69.7640    32.5367    30.3365
  340.5000    70.4366    32.5762    30.3311
  340.6000    71.2107    32.6975    30.1288
  340.7000    71.7114    32.8917    30.1295
  340.8000    72.2497    33.0871    30.0038
  340.9000    73.1824    33.2836    29.9231
  341.0000    73.6928    33.4905    29.8564
  341.1000    73.9893    33.4905    29.7181
  341.2000    74.2105    33.4905    29.7096
  341.3000    74.6459    33.4905    29.5146
  341.4000    75.0293    33.4905    29.3596
  341.5000    75.4667    33.4905    29.1672
  341.6000    76.1036    33.4905    28.9679
  341.7000    76.1070    33.4905    28.7687
  341.8000    76.4074    33.4905    28.5695
  341.9000    76.4084    33.4905    28.3702
  342.0000    76.4096    33.1328    28.1710
  342.1000    76.4108    32.6329    27.9717
  342.2000    76.4121    32.1973    27.7725
  342.3000    76.4133    31.6486    27.5733
  342.4000    76.4145    31.2514    27.3740
  342.5000    76.4159    30.9077    27.1748
  342.6000    76.4169    30.8218    26.9756
  342.7000    76.4181    30.6049    26.7763
  342.8000    76.4193    30.2445    26.5771
  342.9000    76.4205    29.9341    26.3779
  343.0000    76.4217    29.7409    26.1786
  343.1000    76.4229    29.3645    25.9990
  343.2000    76.4243    29.2041    25.8041
  343.3000    76.2166    29.0316    25.5151
  343.4000    76.1253    28.7602    25.3556
  343.5000    76.1265    28.4919    25.2144
  343.6000    76.0498    28.3658    25.1818
  343.7000    75.7591    28.3658    25.1825
  343.8000    75.2265    28.3658    25.1832
  343.9000    74.9793    28.2125    25.1839
  344.0000    74.7229    28.1702    25.1846
  344.1000    74.4665    28.1702    25.1853
  344.2000    74.3277    28.1702    25.1860
  344.3000    74.3289    28.1702    25.1867
  344.4000    74.3301    28.1702    25.1874
  344.5000    74.3314    28.1702    25.2588
  344.6000    74.3325    28.1702    25.3640
  344.7000    74.5347    28.2939    25.3647
  344.8000    74.7936    28.3658    25.3654
  344.9000    75.0524    28.3658    25.5426
  345.0000    75.2410    28.3658    25.5432
  345.1000    75.2689    28.3658    25.5439
  345.2000    75.5447    28.3658    25.5446
  345.3000    76.0273    28.3658    25.5947
  345.4000    76.3466    28.3658    25.7237
  345.5000    76.6054    28.3658    25.7244
  345.6000    76.8642    28.3001    25.7252
  345.7000    77.1230    28.1329    25.8538
