~VERSION INFORMATION
 VERS.                2.0:   CWLS LOG ASCII STANDARD - VERSION 2.0
 WRAP.                 NO:   ONE LINE PER DEPTH STEP
~WELL INFORMATION
#MNEM.UNIT      DATA TYPE    INFORMATION
#----------   ------------   ------------------------------
 STRT.F            6.0000:   START DEPTH
 STOP.F          522.0000:   STOP DEPTH
 STEP.F            0.5000:   STEP LENGTH
 NULL.          -999.2500:   NO VALUE
 COMP.       F D SERV INC:   COMPANY
 WELL.    88-7 SX-3 #88-3:   WELL
 FLD .             TEAPOT:   FIELD
 LOC .       S3 T38N R78W:   LOCATION
 CNTY.            NATRONA:   COUNTY
 STAT.            WYOMING:   STATE
 CTRY. UNITED STATES OF AMERICA:   COUNTRY
 SRVC.      Western Atlas:   SERVICE COMPANY
 DATE.        30-NOV-1992:   LOGDATE
 API .       490252254100:   API NUMBER
~CURVE INFORMATION
#MNEM.UNIT       API CODE    CURVE DESCRIPTION
#----------   ------------   ------------------------------
 DEPT.F                  :   
 GRR .GAPI   07 310 01 00:   GAMMA RAY
 RILD.OHMM   07 120 46 00:   INDUCTION LOG DEEP RESISTIVITY
 RILM.OHMM   07 120 44 00:   INDUCTION LOG MEDIUM RESISTIVITY
 C13 .IN     45 280 13 00:   CALIPER 13
 ZCOR.G/C3   45 356 01 00:   DENSITY CORRECTION
 ZDEN.G/C3   45 350 01 00:   BULK DENSITY
 PORZ.DEC    45 890 00 00:   DENSITY POROSITY
 NPHI.DEC    42 890 03 00:   NEUTRON POROSITY SANDSTONE
~PARAMETER INFORMATION
#MNEM.UNIT          VALUE    DESCRIPTION
#----------   ------------   ------------------------------
 PD  .                 GL:   PERMANENT DATUM
 EPD .F              5155:   ELEVATION PERMANENT DATUM
 LMF .                 KB:   LOG MEASURED FROM
 DAPD.F                10:   FEET ABOVE PERMANENT DATUM
 DMF .                 KB:   DRILLING MEASURED FROM
 EKB .F              5165:   KELLING BUSHING
 EDF .F              5164:   DRILLING FLOOR
 EGL .F              5155:   GROUND LEVEL
 DATE.        30-NOV-1992:   RUN DATE
 RUN .                  1:   RUN NUMBER
 DD  .F               525:   DEPTH DRILLER
 DL  .F               525:   DEPTH LOGGER
 BLI .F               516:   BOTTOM LOG INTERVAL
 TLI .F                 6:   TOP LOG INTERVAL
 CS  .IN            8.625:   CASING SIZE
 CBD .F                95:   CASING BOTTOM DRILLER
 CBL .F                98:   CASING BOTTOM LOGGER
 BS  .IN            7.875:   BIT SIZE
 BSD .F               525:   BIT SIZE AT DEPTH
 DFT .           AIR FOAM:   DRILLING FLUID TYPE
 MRT .F                68:   MAXIMUM RECORDED TEMPERATURE
 LUN .           HL- 6774:   LOGGING UNIT NUMBER
 LUL .             CASPER:   LOGGING UNIT LOCATION
 ENGI.             RAUTIO:   RECORDING ENGINEER
 WITN.          BOB SYLER:   WITNESSED BY
 CLNT.            A2DTECH:   CLIENT CODE
 ORIG.           5" PRINT:   ORIGIN OF DATA
 UWI .       490252254100:   UNIQUE WELL ID
 DICO. A2D Technologies, Inc.:   DIGITIZING COMPANY
~OTHER INFORMATION
~A    DEPT     GRR       RILD       RILM        C13       ZCOR       ZDEN       PORZ       NPHI   
# ...
   87.0000    86.3060  -999.2500  -999.2500  -999.2500  -999.2500  -999.2500  -999.2500     0.5397
   87.5000    84.7263  -999.2500  -999.2500  -999.2500  -999.2500  -999.2500  -999.2500     0.5382
   88.0000    84.4134  -999.2500  -999.2500  -999.2500  -999.2500  -999.2500  -999.2500     0.5367
   88.5000    84.7084  -999.2500  -999.2500  -999.2500  -999.2500  -999.2500  -999.2500     0.5361
   89.0000    85.3576  -999.2500  -999.2500  -999.2500  -999.2500  -999.2500  -999.2500     0.5370
   89.5000    86.5120  -999.2500  -999.2500  -999.2500  -999.2500  -999.2500  -999.2500     0.5391
   90.0000    87.1132  -999.2500  -999.2500  -999.2500  -999.2500  -999.2500  -999.2500     0.5379
   90.5000    84.9744  -999.2500  -999.2500  -999.2500  -999.2500  -999.2500  -999.2500     0.5373
   91.0000    83.4457  -999.2500  -999.2500  -999.2500  -999.2500  -999.2500  -999.2500     0.5392
   91.5000    82.8311  -999.2500  -999.2500  -999.2500  -999.2500  -999.2500  -999.2500     0.5401
   92.0000    85.8594  -999.2500  -999.2500  -999.2500  -999.2500  -999.2500  -999.2500     0.5398
   92.5000    88.2821  -999.2500  -999.2500  -999.2500  -999.2500  -999.2500  -999.2500     0.5364
   93.0000    89.1854  -999.2500  -999.2500  -999.2500  -999.2500  -999.2500  -999.2500     0.5349
   93.5000    89.4802  -999.2500  -999.2500  -999.2500  -999.2500  -999.2500  -999.2500     0.5334
   94.0000    88.5593  -999.2500  -999.2500  -999.2500  -999.2500  -999.2500  -999.2500     0.5319
   94.5000    87.0051  -999.2500  -999.2500  -999.2500  -999.2500  -999.2500  -999.2500     0.5307
   95.0000    85.7548  -999.2500  -999.2500  -999.2500  -999.2500  -999.2500  -999.2500     0.5289
   95.5000    83.9710  -999.2500  -999.2500  -999.2500  -999.2500  -999.2500  -999.2500     0.5244
   96.0000    82.4423  -999.2500  -999.2500  -999.2500  -999.2500  -999.2500  -999.2500     0.5171
   96.5000    82.1316  -999.2500  -999.2500  -999.2500  -999.2500  -999.2500  -999.2500     0.4998
   97.0000    86.3758  -999.2500  -999.2500  -999.2500  -999.2500  -999.2500  -999.2500     0.4776
   97.5000    92.1419  -999.2500  -999.2500  -999.2500  -999.2500  -999.2500  -999.2500     0.4688
   98.0000    96.6923  -999.2500  -999.2500  -999.2500  -999.2500  -999.2500  -999.2500     0.4691
   98.5000   100.6347  -999.2500  -999.2500     8.3338    -0.2054     2.0544     0.3394     0.4509
   99.0000   106.0969  -999.2500  -999.2500     8.7463     0.0467     2.1763     0.2505     0.4058
   99.5000   116.1184  -999.2500  -999.2500     8.8659     0.2029     2.3412     0.1696     0.3589
  100.0000   124.6201  -999.2500     0.2000     8.4845     0.0792     2.4065     0.1390     0.3544
  100.5000   131.9676     3.5435     2.9024     8.3763     0.0323     2.4337     0.1282     0.3550
  101.0000   139.2705     1.9171     2.4891     8.3591     0.0308     2.4587     0.1151     0.3395
  101.5000   143.2857     2.0127     3.6916     8.3570     0.0450     2.4799     0.1042     0.3371
  102.0000   144.9727     2.6232     4.4655     8.3549     0.0608     2.4943     0.0935     0.3371
  102.5000   144.0578     4.1858     5.6966     8.3528     0.0622     2.5101     0.0859     0.3371
  103.0000   143.1423     7.8418     8.5901     8.3507     0.0651     2.5124     0.0814     0.3371
  103.5000   141.9234     8.8898     9.8034     8.3638     0.0666     2.5086     0.0847     0.3362
  104.0000   140.7046     7.3614     8.5842     8.3617     0.0635     2.5056     0.0866     0.3353
  104.5000   139.1819     6.8162     8.3454     8.3596     0.0559     2.5116     0.0841     0.3337
  105.0000   137.3551     6.7203     8.2271     8.3424     0.0362     2.5101     0.0832     0.3319
  105.5000   139.1758     6.6722     8.5158     8.3403     0.0241     2.5063     0.0857     0.3289
  106.0000   142.2123     6.6244    10.0660     8.3382     0.0315     2.5095     0.0866     0.3274
  106.5000   140.6896     6.7161     9.2734     8.3361     0.0345     2.5199     0.0814     0.3274
  107.0000   137.3431     7.2504     8.0459     8.3339     0.0238     2.5320     0.0723     0.3277
  107.5000   135.8211     7.6153     9.8432     8.3471     0.0222     2.5266     0.0714     0.3289
  108.0000   138.2489     7.8892     9.8398     8.3445     0.0207     2.5100     0.0742     0.3307
  108.5000   138.2459     8.1656     9.0475     8.3424     0.0161     2.4978     0.0818     0.3316
  109.0000   138.2429     8.2714     8.3771     8.3403     0.0145     2.4986     0.0912     0.3335
  109.5000   140.6715     8.0980     8.0314     8.3382     0.0053     2.4872     0.0961     0.3347
  110.0000   144.9238     7.9841     7.8626     8.3361     0.0023     2.4880     0.0975     0.3353
  110.5000   149.7840     7.9269     7.8053     8.3340     0.0069     2.4872     0.0979     0.3368
  111.0000   143.3980     7.8702     7.6947     8.3476     0.0112     2.4796     0.0997     0.3405
  111.5000   137.9239     7.8139     7.5856     8.3450     0.0171     2.4773     0.1042     0.3414
  112.0000   133.9695     7.7040     7.4262     8.3429     0.0155     2.4773     0.1045     0.3408
  112.5000   134.8784     7.5428     7.3721     8.3408     0.0154     2.4780     0.1036     0.3386
  113.0000   140.0425     7.4368     7.3184     8.3539     0.0139     2.4780     0.1036     0.3362
  113.5000   146.4225     7.3322     7.2146     8.3518     0.0138     2.4772     0.1046     0.3359
  114.0000   149.7629     7.2291     7.1621     8.3497     0.0137     2.4756     0.1055     0.3375
  114.5000   148.5055     7.1773     7.1099     8.3476     0.0136     2.4733     0.1070     0.3399
  115.0000   146.6870     7.1758     7.0515     8.3455     0.0151     2.4674     0.1091     0.3402
  115.5000   146.0648     7.1744     7.0061     8.3586     0.0150     2.4658     0.1107     0.3393
  116.0000   145.4428     7.1729     7.0527     8.3560     0.0149     2.4742     0.1088     0.3384
  116.5000   143.9720     7.2216     7.1002     8.3696     0.0133     2.4810     0.1031     0.3369
  117.0000   142.7532     7.3216     7.1973     8.3669     0.0072     2.4847     0.1013     0.3347
  117.5000   141.5344     7.4229     7.3468     8.3497     0.0026     2.4862     0.1010     0.3311
  118.0000   141.8361     7.5257     7.3956     8.3476     0.0041     2.4817     0.1016     0.3281
  118.5000   143.0481     7.5800     7.4962     8.3455     0.0040     2.4801     0.1019     0.3268
  119.0000   142.4372     7.6817     7.6519     8.3591     0.0070     2.4809     0.1012     0.3268
  119.5000   141.5224     7.7880     7.7573     8.3565     0.0100     2.4846     0.0992     0.3253
  120.0000   141.2154     7.8409     7.7539     8.3544     0.0158     2.4907     0.0946     0.3214
  120.5000   140.9084     7.9495     7.8061     8.3523     0.0155     2.4937     0.0928     0.3214
  121.0000   139.6896     8.0035     7.9677     8.3502     0.0127     2.4952     0.0904     0.3208
  121.5000   138.4708     8.0014     8.0206     8.3481     0.0156     2.4968     0.0898     0.3196
  122.0000   139.0757     8.0562     8.0178     8.3460     0.0155     2.5027     0.0913     0.3174
  122.5000   140.5924     8.0541     8.0150     8.3439     0.0154     2.4965     0.0916     0.3147
  123.0000   141.1981     7.9964     8.0122     8.3418     0.0214     2.4959     0.0904     0.3125
  123.5000   140.5864     7.9948     8.0094     8.3397     0.0304     2.5027     0.0877     0.3105
  124.0000   138.7597     7.9931     8.0061     8.3372     0.0213     2.5034     0.0865     0.3108
  124.5000   137.8448     7.9915     8.0034     8.3351     0.0152     2.4890     0.0901     0.3144
  125.0000   138.1459     7.9343     8.0006     8.3330     0.0151     2.4868     0.0983     0.3181
  125.5000   138.4468     7.9326     7.9423     8.3309     0.0180     2.4875     0.0980     0.3190
  126.0000   138.4437     7.9310     7.9396     8.3288     0.0134     2.4882     0.0962     0.3190
  126.5000   138.1367     7.9294     7.9931     8.3267     0.0103     2.4875     0.0968     0.3208
  127.0000   137.5258     7.9833     7.9896     8.3246     0.0027     2.4837     0.0996     0.3232
