~VERSION INFORMATION
 VERS.                2.0:   CWLS LOG ASCII STANDARD - VERSION 2.0
 WRAP.                 NO:   ONE LINE PER DEPTH STEP
~WELL INFORMATION
#MNEM.UNIT      DATA TYPE    INFORMATION
#----------   ------------   ------------------------------
 STRT.F           23.0000:   START DEPTH
 STOP.F         2536.0000:   STOP DEPTH
 STEP.F            0.5000:   STEP LENGTH
 NULL.          -999.2500:   NO VALUE
 COMP. FENIX & SCISSON INC:   COMPANY
 WELL.     14 SHX 3 #14-3:   WELL
 FLD .             TEAPOT:   FIELD
 LOC .       S3 T38N R78W:   LOCATION
 CNTY.            NATRONA:   COUNTY
 STAT.            WYOMING:   STATE
 CTRY. UNITED STATES OF AMERICA:   COUNTRY
 SRVC.           BIRDWELL:   SERVICE COMPANY
 DATE.        20-MAR-1979:   LOGDATE
 API .       490251073900:   API NUMBER
~CURVE INFORMATION
#MNEM.UNIT       API CODE    CURVE DESCRIPTION
#----------   ------------   ------------------------------
 DEPT.F                  :   
 SPR .MV     07 010 01 00:   SPONTANEOUS POTENTIAL
 SN  .OHMM   07 040 16 00:   SHORT NORMAL 16'
 IL  .OHMM   07 120 00 00:   INDUCTION LOG
 GRD .GAPI   45 310 01 00:   GAMMA RAY FROM DENSITY LOG
 CALD.IN     45 280 60 00:   CALIPER
 CORR.G/C3   45 356 01 00:   DENSITY CORRECTION
 DEN .G/C3   45 350 01 00:   
 DPHI.DEC    45 890 12 00:   DENSITY POROSITY SANDSTONE
~PARAMETER INFORMATION
#MNEM.UNIT          VALUE    DESCRIPTION
#----------   ------------   ------------------------------
 PD  .                 GL:   PERMANENT DATUM
 EPD .F              5208:   ELEVATION PERMANENT DATUM
 LMF .                 KB:   LOG MEASURED FROM
 DAPD.F                10:   FEET ABOVE PERMANENT DATUM
 DMF .                 KB:   DRILLING MEASURED FROM
 EKB .F              5218:   KELLING BUSHING
 EGL .F              5208:   GROUND LEVEL
 DATE.            3-20-79:   RUN DATE
 RUN .                  1:   RUN NUMBER
 DD  .F              2580:   DEPTH DRILLER
 DL  .F              2536:   DEPTH LOGGER
 BLI .F              2536:   BOTTOM LOG INTERVAL
 TLI .F               400:   TOP LOG INTERVAL
 CS  .IN            9.625:   CASING SIZE
 CBL .F               680:   CASING BOTTOM LOGGER
 BS  .IN             8.75:   BIT SIZE
 BSD .F              2580:   BIT SIZE AT DEPTH
 DFT .                AIR:   DRILLING FLUID TYPE
 TCS .HRS               6:   TIME CURCULATED STOPPED
 LUN .               2959:   LOGGING UNIT NUMBER
 LUL .             CASPER:   LOGGING UNIT LOCATION
 ENGI.            ROLLINS:   RECORDING ENGINEER
 WITN.           DINSMORE:   WITNESSED BY
 CLNT.            A2DTECH:   CLIENT CODE
 ORIG. 1", 2", 2.5", 5" PRINT:   ORIGIN OF DATA
 UWI .       490251073900:   UNIQUE WELL ID
 DICO. A2D Technologies, Inc.:   DIGITIZING COMPANY
~OTHER INFORMATION
~A   DEPT      SPR         SN         IL        GRD       CALD       CORR        DEN       DPHI   
# ...
 2493.5000  -999.2500  -999.2500  -999.2500   131.7181     9.4080    -0.0167     2.5300     0.0079
 2494.0000  -999.2500  -999.2500  -999.2500   126.9461     9.4190    -0.0258     2.5192     0.0127
 2494.5000  -999.2500  -999.2500  -999.2500   124.7338     9.4248    -0.0352     2.5085     0.0208
 2495.0000  -999.2500  -999.2500  -999.2500   126.9526     9.4310    -0.0396     2.5031     0.0181
 2495.5000  -999.2500  -999.2500  -999.2500   125.8816     9.4372    -0.0284     2.5114     0.0129
 2496.0000  -999.2500  -999.2500  -999.2500   129.6384     9.4432    -0.0073     2.5331     0.0077
 2496.5000  -999.2500  -999.2500  -999.2500   135.3036     9.4494     0.0095     2.5555     0.0022
 2497.0000  -999.2500  -999.2500  -999.2500   134.0443     9.4555     0.0087     2.5515     0.0014
 2497.5000  -999.2500  -999.2500  -999.2500   130.0643     9.4616     0.0090     2.5503     0.0014
 2498.0000  -999.2500  -999.2500  -999.2500   127.9581     9.4678     0.0052     2.5489     0.0024
 2498.5000  -999.2500  -999.2500  -999.2500   125.8441     9.4739     0.0011     2.5484     0.0034
 2499.0000  -999.2500  -999.2500  -999.2500   123.5236     9.4801    -0.0030     2.5419     0.0044
 2499.5000  -999.2500  -999.2500  -999.2500   122.4720     9.4862    -0.0068     2.5422     0.0055
 2500.0000  -999.2500  -999.2500  -999.2500   123.2065     9.4925    -0.0069     2.5443     0.0043
 2500.5000  -999.2500  -999.2500  -999.2500   123.8450     9.4973     0.0008     2.5468     0.0022
 2501.0000  -999.2500  -999.2500  -999.2500   122.3926     9.4861     0.0109     2.5490     0.0002
 2501.5000  -999.2500  -999.2500  -999.2500   119.5479     9.4665     0.0212     2.5562    -0.0018
 2502.0000  -999.2500  -999.2500  -999.2500   122.5189     9.4483     0.0312     2.5619    -0.0038
 2502.5000  -999.2500  -999.2500  -999.2500   125.7984     9.4300     0.0410     2.5687    -0.0050
 2503.0000  -999.2500  -999.2500  -999.2500   126.4266     9.4115     0.0309     2.5593    -0.0016
 2503.5000  -999.2500  -999.2500  -999.2500   128.4638     9.3936     0.0197     2.5455     0.0044
 2504.0000  -999.2500  -999.2500  -999.2500   127.7581     9.3743     0.0076     2.5305     0.0095
 2504.5000  -999.2500  -999.2500  -999.2500   130.9158     9.3572     0.0087     2.5345     0.0095
 2505.0000  -999.2500  -999.2500  -999.2500   132.6671     9.3373     0.0208     2.5482     0.0022
 2505.5000  -999.2500  -999.2500  -999.2500   131.9099     9.3308     0.0322     2.5605    -0.0059
 2506.0000  -999.2500  -999.2500  -999.2500   131.4051     9.3872     0.0371     2.5668    -0.0059
 2506.5000  -999.2500  -999.2500  -999.2500   133.4937     9.4940     0.0257     2.5372     0.0082
 2507.0000  -999.2500  -999.2500  -999.2500   135.3848     9.4681     0.0151     2.5090     0.0206
 2507.5000  -999.2500  -999.2500  -999.2500   137.7315     9.4159     0.0114     2.4930     0.0257
 2508.0000  -999.2500  -999.2500  -999.2500   136.6713     9.3617     0.0216     2.4974     0.0216
 2508.5000  -999.2500  -999.2500  -999.2500   134.8322     9.3313     0.0309     2.5094     0.0168
 2509.0000  -999.2500  -999.2500  -999.2500   131.9556     9.3465     0.0400     2.5084     0.0168
 2509.5000  -999.2500  -999.2500  -999.2500   133.3736     9.3682     0.0490     2.5117     0.0167
 2510.0000  -999.2500  -999.2500  -999.2500   137.4344     9.3887     0.0601     2.5227     0.0119
 2510.5000  -999.2500  -999.2500  -999.2500   136.5051     9.4096     0.0483     2.5350     0.0040
 2511.0000  -999.2500  -999.2500  -999.2500   133.3976     9.4305     0.0241     2.5398     0.0066
 2511.5000  -999.2500  -999.2500  -999.2500   135.9724     9.4514     0.0022     2.5236     0.0126
 2512.0000  -999.2500  -999.2500  -999.2500   132.9710     9.4724    -0.0198     2.5098     0.0187
 2512.5000  -999.2500  -999.2500  -999.2500   132.3802     9.4933    -0.0276     2.4903     0.0257
 2513.0000  -999.2500  -999.2500  -999.2500   134.9438     9.5140    -0.0160     2.4971     0.0221
 2513.5000  -999.2500  -999.2500  -999.2500   136.2512     9.5354    -0.0034     2.5142     0.0144
 2514.0000  -999.2500  -999.2500  -999.2500   136.5298     9.5555     0.0084     2.5299     0.0071
 2514.5000  -999.2500  -999.2500  -999.2500   137.1472     9.5750     0.0083     2.5331     0.0071
 2515.0000  -999.2500  -999.2500  -999.2500   142.8006     9.5638     0.0079     2.5363     0.0071
 2515.5000  -999.2500  -999.2500  -999.2500   144.1500     9.5519     0.0071     2.5346     0.0071
 2516.0000  -999.2500  -999.2500  -999.2500   139.1022     9.5387     0.0066     2.5327     0.0067
 2516.5000  -999.2500  -999.2500  -999.2500   137.2995     9.5263     0.0060     2.5351     0.0058
 2517.0000  -999.2500  -999.2500  -999.2500   135.0410     9.5137     0.0053     2.5405     0.0049
 2517.5000  -999.2500  -999.2500  -999.2500   136.3334     9.5010     0.0047     2.5441     0.0038
 2518.0000  -999.2500  -999.2500  -999.2500   138.6035     9.4884     0.0039     2.5439     0.0055
 2518.5000  -999.2500  -999.2500  -999.2500   140.9811     9.4758     0.0032     2.5326     0.0071
 2519.0000  -999.2500  -999.2500  -999.2500   143.2234     9.4632     0.0025     2.5327     0.0071
 2519.5000  -999.2500  -999.2500  -999.2500   145.6478     9.4506     0.0017     2.5466     0.0023
 2520.0000  -999.2500  -999.2500  -999.2500   147.8236     9.4380     0.0010     2.5579    -0.0018
 2520.5000  -999.2500  -999.2500  -999.2500   149.8822     9.4254     0.0003     2.5572    -0.0010
 2521.0000  -999.2500  -999.2500  -999.2500   146.4662     9.4128    -0.0005     2.5493     0.0016
 2521.5000  -999.2500  -999.2500  -999.2500   142.8377     9.4004    -0.0013     2.5382     0.0037
 2522.0000  -999.2500  -999.2500  -999.2500   140.8349     9.3875    -0.0016     2.5363     0.0059
 2522.5000  -999.2500  -999.2500  -999.2500   141.3656     9.3743    -0.0032     2.5316     0.0081
 2523.0000  -999.2500  -999.2500  -999.2500   143.0331     9.3490    -0.0027     2.5273     0.0087
 2523.5000  -999.2500  -999.2500  -999.2500   144.6611     9.3233    -0.0003     2.5607    -0.0060
 2524.0000  -999.2500  -999.2500  -999.2500   146.3833     9.2972     0.0366     2.6211    -0.0217
 2524.5000  -999.2500  -999.2500  -999.2500   148.0673     9.2713     0.0697     2.6692    -0.0373
 2525.0000  -999.2500  -999.2500  -999.2500   149.3523     9.2454     0.1047     2.6864    -0.0529
 2525.5000  -999.2500  -999.2500  -999.2500   149.4238     9.2195     0.1328     2.7031    -0.0685
 2526.0000  -999.2500  -999.2500  -999.2500   149.0824     9.1935     0.1293     2.7216    -0.0729
 2526.5000  -999.2500  -999.2500  -999.2500  -999.2500     9.1676     0.1002     2.6998    -0.0657
 2527.0000  -999.2500  -999.2500  -999.2500  -999.2500     9.1416     0.0876     2.6604    -0.0515
 2527.5000  -999.2500  -999.2500  -999.2500  -999.2500     9.1157     0.0848     2.6219    -0.0373
 2528.0000  -999.2500  -999.2500  -999.2500  -999.2500     9.0899     0.0816     2.5837    -0.0231
 2528.5000  -999.2500  -999.2500  -999.2500  -999.2500     9.0636     0.0630     2.5491    -0.0089
 2529.0000  -999.2500  -999.2500  -999.2500  -999.2500     9.0382     0.0423     2.5370     0.0053
 2529.5000  -999.2500  -999.2500  -999.2500  -999.2500     9.0134     0.0212     2.5261     0.0144
 2530.0000  -999.2500  -999.2500  -999.2500  -999.2500  -999.2500    -0.0008     2.5147     0.0180
 2530.5000  -999.2500  -999.2500  -999.2500  -999.2500  -999.2500    -0.0152     2.5090     0.0215
 2531.0000  -999.2500  -999.2500  -999.2500  -999.2500  -999.2500    -0.0173     2.4999     0.0251
 2531.5000  -999.2500  -999.2500  -999.2500  -999.2500  -999.2500    -0.0244     2.4861     0.0286
 2532.0000  -999.2500  -999.2500  -999.2500  -999.2500  -999.2500    -0.0039     2.4767     0.0298
 2532.5000  -999.2500  -999.2500  -999.2500  -999.2500  -999.2500     0.0339     2.4929     0.0235
 2533.0000  -999.2500  -999.2500  -999.2500  -999.2500  -999.2500     0.0448     2.5162     0.0171
 2533.5000  -999.2500  -999.2500  -999.2500  -999.2500  -999.2500     0.0346     2.5177     0.0140
