~VERSION INFORMATION
 VERS.                2.0:   CWLS LOG ASCII STANDARD - VERSION 2.0
 WRAP.                 NO:   ONE LINE PER DEPTH STEP
~WELL INFORMATION
#MNEM.UNIT      DATA TYPE    INFORMATION
#----------   ------------   ------------------------------
 STRT.F           29.0000:   START DEPTH
 STOP.F          539.0000:   STOP DEPTH
 STEP.F            0.1000:   STEP LENGTH
 NULL.          -999.2500:   NO VALUE
 COMP. LAWRENCE/ALLISON INC:   COMPANY
 WELL. NPR 3 81-11 STX #10-10:   WELL
 FLD .             TEAPOT:   FIELD
 LOC .      S10 T38N R78W:   LOCATION
 CNTY.            NATRONA:   COUNTY
 STAT.            WYOMING:   STATE
 CTRY. UNITED STATES OF AMERICA:   COUNTRY
 SRVC.           Gearhart:   SERVICE COMPANY
 DATE.        01-JUN-1987:   LOGDATE
 API .       490251113000:   API NUMBER
~CURVE INFORMATION
#MNEM.UNIT       API CODE    CURVE DESCRIPTION
#----------   ------------   ------------------------------
 DEPT.F                  :   
 GRR .GAPI   07 310 01 00:   GAMMA RAY FROM RES. LOG.
 ILD .OHMM   07 120 46 00:   INDUCTION LOG DEEP RESISTIVITY
 RILM.OHMM   07 120 44 00:   INDUCTION LOG MEDIUM RESISTIVITY
~PARAMETER INFORMATION
#MNEM.UNIT          VALUE    DESCRIPTION
#----------   ------------   ------------------------------
 PD  .                 GL:   PERMANENT DATUM
 EPD .F              5156:   ELEVATION PERMANENT DATUM
 LMF .                 KB:   LOG MEASURED FROM
 DAPD.F                 8:   FEET ABOVE PERMANENT DATUM
 DMF .                 KB:   DRILLING MEASURED FROM
 EKB .F              5164:   KELLING BUSHING
 EDF .F              5162:   DRILLING FLOOR
 EGL .F              5156:   GROUND LEVEL
 DATE.             6-1-87:   RUN DATE
 RUN .                  1:   RUN NUMBER
 DD  .F               550:   DEPTH DRILLER
 DL  .F               546:   DEPTH LOGGER
 BLI .F               540:   BOTTOM LOG INTERVAL
 TLI .F                30:   TOP LOG INTERVAL
 CS  .IN            8.625:   CASING SIZE
 CBD .F                50:   CASING BOTTOM DRILLER
 CBL .F                49:   CASING BOTTOM LOGGER
 BS  .IN            7.875:   BIT SIZE
 BSD .F               550:   BIT SIZE AT DEPTH
 DFT .                AIR:   DRILLING FLUID TYPE
 TLAB.HRS            0634:   TIME LOGGER AT BOTTOM
 MRT .F                80:   MAXIMUM RECORDED TEMPERATURE
 LUN .               7597:   LOGGING UNIT NUMBER
 LUL .           GILLETTE:   LOGGING UNIT LOCATION
 ENGI. WEATHERMON/JOHNSTON:   RECORDING ENGINEER
 WITN.             STRONG:   WITNESSED BY
 CLNT.            A2DTECH:   CLIENT CODE
 ORIG.       2", 5" PRINT:   ORIGIN OF DATA
 UWI .       490251113000:   UNIQUE WELL ID
 DICO. A2D Technologies, Inc.:   DIGITIZING COMPANY
~OTHER INFORMATION
~A   DEPT       GRR       ILD       RILM   
# ...
  520.4000   118.1402    10.2927     9.7747
  520.5000   118.5177    10.3226     9.8949
  520.6000   118.9484    10.3581     9.9646
  520.7000   119.3790    10.3936    10.0343
  520.8000   119.8097    10.4291    10.1039
  520.9000   120.2403    10.4646    10.1736
  521.0000   120.6710    10.5000    10.2433
  521.1000   120.9414    10.5361    10.2709
  521.2000   121.2118    10.5722    10.2984
  521.3000   121.4822    10.6083    10.3260
  521.4000   121.7526    10.6444    10.3536
  521.5000   122.0230    10.6805    10.3811
  521.6000   122.0859    10.7172    10.4091
  521.7000   122.1488    10.7540    10.4371
  521.8000   122.2117    10.7907    10.4651
  521.9000   122.2745    10.8274    10.4931
  522.0000   122.3374    10.8641    10.5211
  522.1000   121.9457    10.9053    10.5494
  522.2000   121.5540    10.9465    10.5778
  522.3000   121.1624    10.9877    10.6061
  522.4000   120.7707    11.0289    10.6345
  522.5000   120.3790    11.0700    10.6628
  522.6000   120.0703    11.0637    10.6813
  522.7000   119.7615    11.0575    10.6999
  522.8000   119.4528    11.0512    10.7184
  522.9000   119.1440    11.0449    10.7369
  523.0000   118.8353    11.0386    10.7554
  523.1000  -999.2500    11.0294    10.7368
  523.2000  -999.2500    11.0202    10.7183
  523.3000  -999.2500    11.0111    10.6997
  523.4000  -999.2500    11.0019    10.6811
  523.5000  -999.2500    10.9927    10.6625
  523.6000  -999.2500    10.9836    10.6472
  523.7000  -999.2500    10.9744    10.6319
  523.8000  -999.2500    10.9652    10.6166
  523.9000  -999.2500    10.9561    10.6012
  524.0000  -999.2500    10.9469    10.5859
  524.1000  -999.2500    10.9378    10.5707
  524.2000  -999.2500    10.9287    10.5554
  524.3000  -999.2500    10.9196    10.5402
  524.4000  -999.2500    10.9105    10.5250
  524.5000  -999.2500    10.9013    10.5097
  524.6000  -999.2500    10.8923    10.4946
  524.7000  -999.2500    10.8832    10.4795
  524.8000  -999.2500    10.8741    10.4644
  524.9000  -999.2500    10.8651    10.4493
  525.0000  -999.2500    10.8560    10.4341
  525.1000  -999.2500    10.8469    10.4192
  525.2000  -999.2500    10.8379    10.4042
  525.3000  -999.2500    10.8289    10.3893
  525.4000  -999.2500    10.8198    10.3743
  525.5000  -999.2500    10.8108    10.3594
  525.6000  -999.2500    10.8018    10.3414
  525.7000  -999.2500    10.7928    10.3234
  525.8000  -999.2500    10.7838    10.3055
  525.9000  -999.2500    10.7748    10.2875
  526.0000  -999.2500    10.7658    10.2695
  526.1000  -999.2500    10.7569    10.2945
  526.2000  -999.2500    10.7479    10.3195
  526.3000  -999.2500    10.7389    10.3445
  526.4000  -999.2500    10.7300    10.3694
  526.5000  -999.2500    10.7210    10.3944
  526.6000  -999.2500    10.7121    10.4268
  526.7000  -999.2500    10.7032    10.4593
  526.8000  -999.2500    10.6942    10.4917
  526.9000  -999.2500    10.6853    10.5241
  527.0000  -999.2500    10.6764    10.5565
  527.1000  -999.2500    10.6552    10.5894
  527.2000  -999.2500    10.6339    10.6224
  527.3000  -999.2500    10.6127    10.6553
  527.4000  -999.2500    10.5915    10.6882
  527.5000  -999.2500    10.5703    10.7211
  527.6000  -999.2500    10.5329    10.7497
  527.7000  -999.2500    10.4956    10.7783
  527.8000  -999.2500    10.4583    10.8069
  527.9000  -999.2500    10.4209    10.8355
  528.0000  -999.2500    10.3836    10.8641
  528.1000  -999.2500    10.3469    10.8339
  528.2000  -999.2500    10.3103    10.8037
  528.3000  -999.2500    10.2736    10.7734
  528.4000  -999.2500    10.2369    10.7432
  528.5000  -999.2500    10.2002    10.7130
  528.6000  -999.2500    10.1642    10.6829
  528.7000  -999.2500    10.1282    10.6527
  528.8000  -999.2500    10.0922    10.6226
  528.9000  -999.2500    10.0561    10.5925
  529.0000  -999.2500    10.0201    10.5624
  529.1000  -999.2500     9.9761    10.5721
  529.2000  -999.2500     9.9321    10.5818
  529.3000  -999.2500     9.8881    10.5916
  529.4000  -999.2500     9.8441    10.6013
  529.5000  -999.2500     9.8001    10.6110
  529.6000  -999.2500     9.7344    10.6212
  529.7000  -999.2500     9.6687    10.6314
  529.8000  -999.2500     9.6031    10.6416
  529.9000  -999.2500     9.5374    10.6518
  530.0000  -999.2500     9.4717    10.6620
  530.1000  -999.2500     9.4082    10.6441
  530.2000  -999.2500     9.3447    10.6262
  530.3000  -999.2500     9.2813    10.6082
  530.4000  -999.2500     9.2178    10.5903
  530.5000  -999.2500     9.1543    10.5724
  530.6000  -999.2500     9.0932    10.5565
  530.7000  -999.2500     9.0320    10.5406
  530.8000  -999.2500     8.9709    10.5248
  530.9000  -999.2500     8.9098    10.5089
  531.0000  -999.2500     8.8486    10.4930
  531.1000  -999.2500     8.7884    10.4236
  531.2000  -999.2500     8.7282    10.3543
  531.3000  -999.2500     8.6680    10.2849
  531.4000  -999.2500     8.6078    10.2156
  531.5000  -999.2500     8.5476    10.1462
  531.6000  -999.2500     8.4828    10.0583
  531.7000  -999.2500     8.4180     9.9704
  531.8000  -999.2500     8.3532     9.8824
  531.9000  -999.2500     8.2884     9.7945
  532.0000  -999.2500     8.2236     9.7065
  532.1000  -999.2500     8.1397     9.6365
  532.2000  -999.2500     8.0558     9.5665
  532.3000  -999.2500     7.9718     9.4964
  532.4000  -999.2500     7.8879     9.4264
  532.5000  -999.2500     7.8040     9.3563
  532.6000  -999.2500     7.7253     9.2945
  532.7000  -999.2500     7.6466     9.2327
  532.8000  -999.2500     7.5680     9.1710
  532.9000  -999.2500     7.4893     9.1092
  533.0000  -999.2500     7.4106     9.0474
  533.1000  -999.2500     7.3308     8.9890
  533.2000  -999.2500     7.2509     8.9307
  533.3000  -999.2500     7.1711     8.8724
  533.4000  -999.2500     7.0913     8.8140
  533.5000  -999.2500     7.0114     8.7557
  533.6000  -999.2500     6.9300     8.6281
  533.7000  -999.2500     6.8486     8.5006
  533.8000  -999.2500     6.7671     8.3730
  533.9000  -999.2500     6.6857     8.2454
  534.0000  -999.2500     6.6043     8.1179
  534.1000  -999.2500     6.5275     7.9395
  534.2000  -999.2500     6.4508     7.7612
  534.3000  -999.2500     6.3740     7.5828
  534.4000  -999.2500     6.2972     7.4045
  534.5000  -999.2500     6.2205     7.2262
  534.6000  -999.2500     6.1456     7.0968
  534.7000  -999.2500     6.0708     6.9675
  534.8000  -999.2500     5.9960     6.8381
  534.9000  -999.2500     5.9211     6.7088
  535.0000  -999.2500     5.8463     6.5795
  535.1000  -999.2500  -999.2500     6.4282
  535.2000  -999.2500  -999.2500     6.2769
  535.3000  -999.2500  -999.2500     6.1257
  535.4000  -999.2500  -999.2500     5.9744
  535.5000  -999.2500  -999.2500     5.8232
  535.6000  -999.2500  -999.2500     5.6722
  535.7000  -999.2500  -999.2500     5.5213
  535.8000  -999.2500  -999.2500     5.3703
  535.9000  -999.2500  -999.2500     5.2193
  536.0000  -999.2500  -999.2500     5.0684
  536.1000  -999.2500  -999.2500     4.8841
  536.2000  -999.2500  -999.2500     4.6998
  536.3000  -999.2500  -999.2500     4.5156
  536.4000  -999.2500  -999.2500     4.3313
  536.5000  -999.2500  -999.2500     4.1470
  536.6000  -999.2500  -999.2500     3.9863
  536.7000  -999.2500  -999.2500     3.8256
  536.8000  -999.2500  -999.2500     3.6649
  536.9000  -999.2500  -999.2500     3.5042
  537.0000  -999.2500  -999.2500     3.3435
  537.1000  -999.2500  -999.2500     3.2787
  537.2000  -999.2500  -999.2500     3.2138
  537.3000  -999.2500  -999.2500     3.1489
  537.4000  -999.2500  -999.2500     3.0840
  537.5000  -999.2500  -999.2500     3.0191
  537.6000  -999.2500  -999.2500     2.9618
  537.7000  -999.2500  -999.2500     2.9046
  537.8000  -999.2500  -999.2500     2.8473
  537.9000  -999.2500  -999.2500     2.7901
  538.0000  -999.2500  -999.2500     2.7328
  538.1000  -999.2500  -999.2500     2.6900
  538.2000  -999.2500  -999.2500     2.6472
  538.3000  -999.2500  -999.2500     2.6044
  538.4000  -999.2500  -999.2500     2.5616
  538.5000  -999.2500  -999.2500     2.5188
