~VERSION INFORMATION
 VERS.                2.0:   CWLS LOG ASCII STANDARD - VERSION 2.0
 WRAP.                 NO:   ONE LINE PER DEPTH STEP
~WELL INFORMATION
#MNEM.UNIT      DATA TYPE    INFORMATION
#----------   ------------   ------------------------------
 STRT.F           30.0000:   START DEPTH
 STOP.F          597.0000:   STOP DEPTH
 STEP.F            0.5000:   STEP LENGTH
 NULL.          -999.2500:   NO VALUE
 COMP. FENIX & SCISSON-U.S. NAVY:   COMPANY
 WELL.    NPR #3 #15-S-11:   WELL
 FLD .             TEAPOT:   FIELD
 LOC .      S11 T38N R78W:   LOCATION
 CNTY.            NATRONA:   COUNTY
 STAT.            WYOMING:   STATE
 CTRY. UNITED STATES OF AMERICA:   COUNTRY
 SRVC.       Schlumberger:   SERVICE COMPANY
 DATE.        22-FEB-1977:   LOGDATE
 API .       490251028000:   API NUMBER
~CURVE INFORMATION
#MNEM.UNIT       API CODE    CURVE DESCRIPTION
#----------   ------------   ------------------------------
 DEPT.F                  :   
 SPR .MV     07 010 01 00:   SPONTANEOUS POTENTIAL
 ILD .OHMM   07 120 46 00:   INDUCTION LOG DEEP RES
 ILM .OHMM   07 120 44 00:   INDUCTION LOG MEDIUM RES
 LL8 .OHMM   07 220 08 00:   LATEROLOG-8 RES
 CALD.IN     45 280 60 00:   CALIPER FROM DENSITY LOG
 GRD .GAPI   45 310 01 00:   GAMMA RAY FROM DENSITY LOG
 CORR.G/C3   45 356 01 00:   DENSITY CORRECTION
 RHOB.G/C3   45 350 01 00:   BULK DENSITY
 DPHI.DEC    45 890 12 00:   DENSITY POROSITY SANDSTONE
~PARAMETER INFORMATION
#MNEM.UNIT          VALUE    DESCRIPTION
#----------   ------------   ------------------------------
 PD  .                 GL:   PERMANENT DATUM
 EPD .F              5188:   ELEVATION PERMANENT DATUM
 LMF .                 KB:   LOG MEASURED FROM
 DAPD.F                 5:   FEET ABOVE PERMANENT DATUM
 DMF .                 KB:   DRILLING MEASURED FROM
 EKB .F              5193:   KELLING BUSHING
 EGL .F              5188:   GROUND LEVEL
 DATE.         22FEB-1977:   RUN DATE
 RUN .                  1:   RUN NUMBER
 DD  .F               598:   DEPTH DRILLER
 DL  .F               598:   DEPTH LOGGER
 BLI .F               597:   BOTTOM LOG INTERVAL
 TLI .F                35:   TOP LOG INTERVAL
 CS  .IN            8.625:   CASING SIZE
 CBD .F                42:   CASING BOTTOM DRILLER
 CBL .F                45:   CASING BOTTOM LOGGER
 BS  .IN            7.875:   BIT SIZE
 BSD .F               598:   BIT SIZE AT DEPTH
 DFT .                KCL:   DRILLING FLUID TYPE
 DFD .                8.7:   DRILLING FLUID DENSITY
 DFV .                 31:   DRILLING FLUID VISCOSITY
 DFPH.                  8:   DRILLING FLUID PH
 DFL .                7.2:   DRILLING FLUID LOSS
 MSS .           MUD TANK:   MUD SAMPLE SOURCE
 RMS .OHMM           .526:   RESISTIVITY MUD SAMPLE
 MST .F                70:   MUD SAMPLE TEMPERATURE
 RMF .OHMM           .515:   RESISTIVITY MUD FILTRATE SAMPLE
 MFST.F                71:   MUD FILTRATE SAMPLE TEMPERATURE
 RMC .OHMM            .77:   RESISTIVITY MUD CAKE
 MCST.F                70:   MUD CAKE SAMPLE TEMPERATURE
 MFSS.               MEAS:   MUD FILTRATE SAMPLE SOURCE
 MCSS.               CALC:   MUD CAKE SAMPLE SOURCE
 RMB .OHMM            .67:   RESISTIVITY MUD AT BHT
 BHT .F                55:   BOTTOM HOLE TEMPERATURE
 TCS .HRS            0600:   TIME CURCULATED STOPPED
 MRT .F                55:   MAXIMUM RECORDED TEMPERATURE
 LUN .               5642:   LOGGING UNIT NUMBER
 LUL .               CSPR:   LOGGING UNIT LOCATION
 ENGI.                FIX:   RECORDING ENGINEER
 WITN.         STUEBINGER:   WITNESSED BY
 CLNT.            A2DTECH:   CLIENT CODE
 ORIG.           5" PRINT:   ORIGIN OF DATA
 UWI .       490251028000:   UNIQUE WELL ID
 DICO. A2D Technologies, Inc.:   DIGITIZING COMPANY
~OTHER INFORMATION
~A   DEPT      SPR        ILD        ILM        LL8       CALD         GRD      CORR       RHOB       DPHI   
# ...
  176.0000   -68.0965     6.8101     7.0475     7.9632     8.1914   132.7448    -0.0038     2.4339     0.1349
  176.5000   -68.2459     6.8589     7.0482     7.9649     8.1922   126.8950     0.0060     2.4489     0.1253
  177.0000   -68.3952     7.0042     7.4498     8.0218     8.1918   122.0963     0.0075     2.4459     0.1196
  177.5000   -68.3937     7.1526     7.8741     8.2482     8.1902   119.5498     0.0023     2.4403     0.1229
  178.0000   -68.3801     7.3042     8.1518     9.0247     8.1885   117.7538     0.0000     2.4540     0.1204
  178.5000   -68.0890     7.4590     8.3234     9.2155     8.1868   117.7600     0.0098     2.4577     0.1156
  179.0000   -67.9206     7.5645     8.4401     9.1536     8.1851   118.8171     0.0113     2.4568     0.1189
  179.5000   -67.1446     7.6716     8.4994     9.1560     8.1834   120.0244     0.0030     2.4389     0.1265
  180.0000   -66.2545     7.6733     8.5001     9.2853     8.1823   115.2256     0.0135     2.4389     0.1240
  180.5000   -65.4967     7.7283     8.4421     9.3517     8.1831   113.4284     0.0068     2.4487     0.1198
  181.0000   -64.5642     7.7301     8.4430     9.2888     8.1839   114.0365     0.0120     2.4577     0.1171
  181.5000   -63.7058     7.7318     8.3854     9.0382     8.1846   116.1447     0.0045     2.4487     0.1195
  182.0000   -63.2237     7.7336     8.3283     8.7939     8.1854   119.0036     0.0023     2.4367     0.1243
  182.5000   -63.0996     7.6291     8.2716     8.6752     8.1712   120.2093     0.0008     2.4345     0.1309
  183.0000   -63.7011     7.5255     8.2155     8.7371     8.1719   116.7634    -0.0060     2.4353     0.1373
  183.5000   -64.1520     7.4754     8.2162     8.7995     8.1727   115.8686    -0.0038     2.4354     0.1345
  184.0000   -64.6034     7.5294     8.1602     8.8014     8.1585   119.6284     0.0069     2.4308     0.1303
  184.5000   -64.9036     7.6359     8.1610     8.8033     8.1592   121.4362    -0.0020     2.4278     0.1364
  185.0000   -64.9017     7.7977     8.1618     8.8662     8.1600   122.7936     0.0025     2.4240     0.1375
  185.5000   -64.5985     7.9081     8.2191     8.9295     8.1757   121.4483     0.0013     2.4233     0.1372
  186.0000   -64.1445     8.0200     8.3921     9.0556     8.1613   119.8027    -0.0105     2.4271     0.1414
  186.5000   -63.6905     8.1336     8.8091     9.2471     8.1622   120.5595     0.0130     2.4564     0.1235
  187.0000   -63.6890     8.3059     9.1830     9.5740     8.1480   123.8688     0.0089     2.4632     0.1146
  187.5000   -63.6875     8.4819     9.3117     9.7764     8.1488   128.9800     0.0000     2.4421     0.1236
  188.0000   -63.8372     8.3673     9.3125     9.9145     8.1495   130.6377    -0.0090     2.4249     0.1297
  188.5000   -63.8354     8.3115     9.3133     9.9166     8.1503   129.8930     0.0000     2.4444     0.1260
  189.0000   -63.6830     8.3134     9.1862     9.8500     8.1510   124.6438     0.0105     2.4550     0.1209
  189.5000   -63.6815     8.3153     9.1870     9.8526     8.1518   121.3465     0.0135     2.4542     0.1185
  190.0000   -63.6800     8.2594     9.1243     9.7869     8.1526   121.6818     0.0030     2.4505     0.1166
  190.5000   -63.3769     8.2617     9.1886     9.7216     8.1533   121.8075     0.0120     2.4610     0.1158
  191.0000   -63.0737     8.2066     9.2531     9.5904     8.1541   120.6966     0.0113     2.4640     0.1164
  191.5000   -62.9214     8.2085     9.3182     9.4608     8.1548   119.3994     0.0098     2.4520     0.1179
  192.0000   -62.6182     8.1533     9.3190     9.3977     8.1556   120.4081     0.0188     2.4776     0.1130
  192.5000   -62.3150     8.1556     9.3198     9.4649     8.1713   122.6027     0.0218     2.4693     0.1070
  193.0000   -62.3135     8.2140     9.3206     9.5986     8.1569   123.7897     0.0075     2.4611     0.1119
  193.5000   -62.4632     8.2159     9.2572     9.8695     8.1578   121.6856     0.0015     2.4641     0.1145
  194.0000   -62.6126     8.1606     9.1942    10.0089     8.1586   118.9970     0.0075     2.4701     0.1127
  194.5000   -62.7619     8.1629     9.0687    10.0186     8.1442   117.5016     0.0143     2.4709     0.1118
  195.0000   -62.7600     8.1648     9.0070     9.8757     8.1451   117.5076     0.0180     2.4627     0.1127
  195.5000   -62.7585     8.1099     8.9457     9.6089     8.1606   117.6638     0.0105     2.4454     0.1169
  196.0000   -62.6062     8.0003     8.8848     9.4139     8.1464   118.1203     0.0045     2.4349     0.1278
  196.5000   -62.4538     7.9469     8.8243     9.2868     8.1472   118.5768     0.0158     2.4552     0.1193
  197.0000   -62.4523     7.8400     8.8251     9.2249     8.1629   119.1834     0.0083     2.4282     0.1179
  197.5000   -62.3000     7.7877     8.7651     9.2908     8.1637   119.7901     0.0038     2.4492     0.1276
  198.0000   -62.1477     7.7354     8.6454     9.2927     8.1644   120.7797     0.0060     2.4695     0.1163
  198.5000   -61.8445     7.7376     8.5866     9.3591     8.1652   122.2639     0.0113     2.4650     0.1121
  199.0000   -61.5413     7.7393     8.5873     9.2967     8.1659   125.1382     0.0203     2.4688     0.1142
  199.5000   -61.2382     7.7410     8.5289     9.2347     8.1667   127.0903     0.0263     2.4673     0.1145
  200.0000   -60.9253     7.6847     8.5296     9.1732     8.1674   125.8987     0.0218     2.4742     0.1089
  200.5000   -60.8647     7.6588     8.4930     9.1719     8.1682   125.4556     0.0135     2.4914     0.1047
  201.0000   -60.8041     7.6329     8.4564     9.1706     8.1689   123.9646     0.0015     2.4779     0.1084
  201.5000   -60.5958     7.6070     8.4198     9.1693     8.1697   122.3239    -0.0083     2.4591     0.1153
  202.0000   -60.2958     7.5773     8.3832     9.1680     8.1555   123.3777    -0.0060     2.4448     0.1211
  202.5000   -60.7393     7.5790     8.3466     9.1667     8.1562   124.5813     0.0015     2.4636     0.1141
  203.0000   -60.8812     7.5807     8.3100     9.1567     8.1569   125.9346    -0.0045     2.4486     0.1186
  203.5000   -61.1738     7.5824     8.2872     9.0412     8.1577   129.0960    -0.0060     2.4396     0.1225
  204.0000   -61.1644     7.5841     8.2881     8.9790     8.1584   131.4840     0.0090     2.4516     0.1168
  204.5000   -61.1536     7.5858     8.2888     8.9791     8.1592   129.3957     0.0143     2.4794     0.1078
  205.0000   -61.1446     7.5875     8.2895     8.9792     8.1599   127.9047     0.0240     2.4974     0.1005
  205.5000   -60.8339     7.5365     8.2902     8.9792     8.1457   127.3104     0.0158     2.4824     0.1045
  206.0000   -60.6741     7.5386     8.3485     8.9793     8.1465   131.3598     0.0015     2.4644     0.1135
  206.5000   -60.0618     7.5403     8.3492     8.9794     8.1472   130.9167    -0.0105     2.4471     0.1186
  207.0000   -59.6003     7.5420     8.3499     8.9794     8.1487   130.6218    -0.0135     2.4426     0.1219
  207.5000   -59.1388     7.5960     8.4669     8.9795     8.1637   133.0244    -0.0105     2.4502     0.1216
  208.0000   -58.6773     7.7035     8.5264     9.1044     8.1644   134.3762    -0.0045     2.4569     0.1171
  208.5000   -58.2158     7.7587     8.5863     9.2311     8.1652   131.0903    -0.0075     2.4637     0.1132
  209.0000   -58.0560     7.8685     8.7066     9.4243     8.1659   129.4496    -0.0135     2.4705     0.1110
  209.5000   -57.8962     7.9249     8.8286     9.4897     8.1667   129.6053    -0.0105     2.4727     0.1092
  210.0000   -58.1888     7.9267     8.8907     9.5555     8.1674   130.2101    -0.0015     2.4562     0.1140
  210.5000   -58.6323     7.9835     9.0152     9.5556     8.1681   129.4676     0.0045     2.4382     0.1234
  211.0000   -57.4167     7.9852     9.0786     9.5557     8.1689   128.1263     0.0015     2.4540     0.1225
  211.5000   -54.9944     8.0425     9.1424     9.6886     8.1696   127.3837    -0.0008     2.4525     0.1173
  212.0000   -53.4771     8.0443     9.2066     9.7558     8.1704   127.0888    -0.0008     2.4442     0.1212
