~VERSION INFORMATION
 VERS.                2.0:   CWLS LOG ASCII STANDARD - VERSION 2.0
 WRAP.                 NO:   ONE LINE PER DEPTH STEP
~WELL INFORMATION
#MNEM.UNIT      DATA TYPE    INFORMATION
#----------   ------------   ------------------------------
 STRT.F           20.0000:   START DEPTH
 STOP.F          508.0000:   STOP DEPTH
 STEP.F            0.5000:   STEP LENGTH
 NULL.          -999.2500:   NO VALUE
 COMP. FENIX & SCISSON INC:   COMPANY
 WELL.      NPR #3 #45-10:   WELL
 FLD .             TEAPOT:   FIELD
 LOC .      S10 T38N R78W:   LOCATION
 CNTY.            NATRONA:   COUNTY
 STAT.            WYOMING:   STATE
 CTRY. UNITED STATES OF AMERICA:   COUNTRY
 SRVC.              Welex:   SERVICE COMPANY
 DATE.        09-MAY-1980:   LOGDATE
 API .       490251081000:   API NUMBER
~CURVE INFORMATION
#MNEM.UNIT       API CODE    CURVE DESCRIPTION
#----------   ------------   ------------------------------
 DEPT.F                  :   
 SPR .MV     07 010 01 00:   SPONTANEOUS POTENTIAL
 SGRD.OHMM   07 220 05 00:   SHALLOW GUARD RESISTIVITY
 ILD .OHMM   07 120 46 00:   INDUCTION LOG DEEP RESISTIVITY
 ILM .OHMM   07 120 44 00:   INDUCTION LOG MEDIUM
 GRD .GAPI   45 310 01 00:   GAMMA RAY FROM DENSITY LOG
 CALD.IN     45 280 60 00:   CALIPER
 CORR.G/C3   45 356 01 00:   DENSITY CORRECTION
 RHOB.G/C3   45 350 01 00:   BULK DENSITY
 DPHI.DEC    45 890 12 00:   DENSITY POROSITY SANDSTONE
~PARAMETER INFORMATION
#MNEM.UNIT          VALUE    DESCRIPTION
#----------   ------------   ------------------------------
 PD  .                 GL:   PERMANENT DATUM
 EPD .F              5228:   ELEVATION PERMANENT DATUM
 LMF .                 KB:   LOG MEASURED FROM
 DAPD.F                 5:   FEET ABOVE PERMANENT DATUM
 DMF .                 KB:   DRILLING MEASURED FROM
 EKB .F              5233:   KELLING BUSHING
 EGL .F              5228:   GROUND LEVEL
 DATE.             5-9-80:   RUN DATE
 RUN .                  1:   RUN NUMBER
 DD  .F               507:   DEPTH DRILLER
 DL  .F               510:   DEPTH LOGGER
 BLI .F               508:   BOTTOM LOG INTERVAL
 TLI .F                20:   TOP LOG INTERVAL
 BS  .IN            7.875:   BIT SIZE
 BSD .F               507:   BIT SIZE AT DEPTH
 DFT .                KCL:   DRILLING FLUID TYPE
 DFD .                8.9:   DRILLING FLUID DENSITY
 DFV .                 42:   DRILLING FLUID VISCOSITY
 MSS .                PIT:   MUD SAMPLE SOURCE
 RMS .OHMM            .36:   RESISTIVITY MUD SAMPLE
 MST .F                75:   MUD SAMPLE TEMPERATURE
 RMF .OHMM            .29:   RESISTIVITY MUD FILTRATE SAMPLE
 MFST.F                75:   MUD FILTRATE SAMPLE TEMPERATURE
 RMC .OHMM            .43:   RESISTIVITY MUD CAKE
 MCST.F                75:   MUD CAKE SAMPLE TEMPERATURE
 MFSS.           MEASURED:   MUD FILTRATE SAMPLE SOURCE
 MCSS.           MEASURED:   MUD CAKE SAMPLE SOURCE
 TCS .HRS               2:   TIME CURCULATED STOPPED
 MRT .F               100:   MAXIMUM RECORDED TEMPERATURE
 LUN .               9685:   LOGGING UNIT NUMBER
 LUL .             CASPER:   LOGGING UNIT LOCATION
 ENGI.            TOTHILL:   RECORDING ENGINEER
 WITN.           DINSMORE:   WITNESSED BY
 CLNT.            A2DTECH:   CLIENT CODE
 ORIG.         2.5" PRINT:   ORIGIN OF DATA
 UWI .       490251081000:   UNIQUE WELL ID
 DICO. A2D Technologies, Inc.:   DIGITIZING COMPANY
~OTHER INFORMATION
~A   DEPT      SPR       SGRD        ILD        ILM         GRD        CALD       CORR       RHOB       DPHI 
# ...
   93.0000   -48.3971     8.1806     6.5033     7.2999   106.3449     7.9665     0.0487     2.4786     0.1194
   93.5000   -48.3932     8.1002     6.5033     7.2554   106.4303     7.9704     0.0428     2.4702     0.1233
   94.0000   -48.3944     8.0187     6.5032     7.2108   106.5256     7.9743     0.0412     2.4788     0.1161
   94.5000   -48.3947     7.9381     6.5035     7.1666   106.6192     7.9783     0.0478     2.4749     0.1179
   95.0000   -48.3939     7.8302     6.5033     7.1227   106.6904     7.9822     0.0548     2.4750     0.1159
   95.5000   -48.3947     7.9503     6.5028     7.0790   107.1023     7.9861     0.0482     2.4955     0.1039
   96.0000   -48.3946     8.2366     6.5056     7.0356   107.9350     7.9900     0.0411     2.4630     0.1067
   96.5000   -48.3928     8.2315     6.4812     7.0046   108.1214     7.9939     0.0383     2.4590     0.1098
   97.0000   -48.3986     8.0667     6.4416     7.0046   108.3074     7.9978     0.0397     2.4691     0.1048
   97.5000   -48.3914     7.9053     6.4053     7.0043   108.5061     8.0017     0.0279     2.4622     0.1221
   98.0000   -48.3758     7.8302     6.3690     7.0044   108.3409     8.0056     0.0292     2.4627     0.1266
   98.5000   -48.0982     7.8622     6.3331     7.0046   107.7462     8.0096     0.0400     2.4730     0.1193
   99.0000   -47.8550     7.9555     6.2972     7.0045   107.1833     8.0135     0.0315     2.4689     0.1222
   99.5000   -47.5943     8.0499     6.2615     7.0046   106.6231     8.0175     0.0235     2.4588     0.1298
  100.0000   -47.3324     8.1264     6.2264     7.0046   106.0529     8.0217     0.0477     2.4620     0.1227
  100.5000   -47.0826     8.1441     6.1918     7.0046   105.4891     8.0253     0.0723     2.4890     0.1106
  101.0000   -46.8451     8.1870     6.1504     7.0046   104.9199     8.0281     0.0856     2.5115     0.0984
  101.5000   -46.6011     8.2275     6.1655     7.0045   104.3530     8.0089     0.0938     2.5341     0.0871
  102.0000   -46.3554     8.2745     6.1980     7.0044   103.7928     7.9857     0.0977     2.5327     0.0884
  102.5000   -46.1119     8.0822     6.2306     7.0045   103.2097     7.9643     0.0902     2.5222     0.0927
  103.0000   -45.8687     7.8692     6.2635     7.0039   102.6631     7.9096     0.0820     2.5113     0.0971
  103.5000   -45.6221     7.5578     6.2965     7.0045   102.1126     7.7916     0.0855     2.5034     0.1003
  104.0000   -45.3787     7.7419     6.3297     7.0045   101.4235     7.6853     0.0992     2.5172     0.0964
  104.5000   -45.1826     8.2596     6.3630     7.0008   102.3354     7.5568     0.1016     2.5231     0.0913
  105.0000   -45.1791     7.9769     6.3966     7.0452   104.3235     7.6242     0.0898     2.5123     0.0961
  105.5000   -45.2214     8.2788     6.4304     7.1596   105.4116     7.7143     0.0786     2.5040     0.1008
  106.0000   -45.4189     8.5126     6.4636     7.2737   106.4313     7.8143     0.0679     2.5034     0.1055
  106.5000   -45.6109     8.8054     6.5020     7.3897   107.5139     7.9054     0.0561     2.4915     0.1102
  107.0000   -45.8087     9.0842     6.5101     7.5073   108.0037     7.9813     0.0629     2.4827     0.1136
  107.5000   -46.0043     8.7058     6.5196     7.6267   107.9913     7.9281     0.0697     2.4913     0.1085
  108.0000   -46.1974     8.3689     6.5287     7.7478   107.6741     7.8807     0.0764     2.5084     0.0972
  108.5000   -46.4027     8.2788     6.5374     7.8708   107.0881     7.8672     0.0714     2.5050     0.0992
  109.0000   -46.5839     8.3902     6.5461     7.9790   106.5126     7.8676     0.0747     2.5085     0.1018
  109.5000   -46.7634     8.5102     6.5550     7.9759   105.9469     7.8682     0.0784     2.5088     0.0988
  110.0000   -46.4070     8.6320     6.5639     7.8535   105.5695     7.8682     0.0863     2.5054     0.0959
  110.5000   -46.0358     8.7530     6.5729     7.7307   105.6722     7.8669     0.0715     2.5018     0.1013
  111.0000   -45.6051     8.5031     6.5819     7.6100   105.7606     7.8677     0.0534     2.4729     0.1155
  111.5000   -45.0209     8.2788     6.5909     7.4911   105.8579     7.8720     0.0331     2.4524     0.1297
  112.0000   -44.5612     8.2788     6.5999     7.4058   105.9607     7.8118     0.0265     2.4446     0.1386
  112.5000   -43.8422     8.2788     6.6086     7.3899   106.0511     7.6579     0.0410     2.4555     0.1324
  113.0000   -43.1098     8.2817     6.6175     7.3586   106.1376     7.5107     0.0525     2.4658     0.1259
  113.5000   -42.5721     8.2761     6.6252     7.3270   105.9960     7.5302     0.0659     2.4794     0.1195
  114.0000   -42.2454     8.0560     6.5537     7.2955   105.8552     7.5749     0.0588     2.4767     0.1177
  114.5000   -41.9713     7.9439     6.4588     7.2697   105.7035     7.5568     0.0483     2.4691     0.1215
  115.0000   -41.9668     7.8911     6.3652     7.0307   105.5564     7.4954     0.0472     2.4671     0.1248
  115.5000   -41.9559     7.8292     6.2730     6.8337   105.4091     7.4574     0.0502     2.4714     0.1225
  116.0000   -41.9668     7.6950     6.1821     6.6423   105.2621     7.4501     0.0469     2.4661     0.1239
  116.5000   -41.9789     7.5348     6.1504     6.3836   105.1176     7.4317     0.0370     2.4595     0.1280
  117.0000   -42.2384     7.3785     6.1598     6.3836   104.9430     7.4594     0.0278     2.4472     0.1323
  117.5000   -42.6246     7.2798     6.1702     6.3836   104.6994     7.5325     0.0193     2.4451     0.1364
  118.0000   -42.8699     7.3143     6.1807     6.3836   104.3670     7.6227     0.0152     2.4401     0.1405
  118.5000   -44.0671     7.3491     6.1911     6.3836   104.7003     7.7326     0.0113     2.4369     0.1443
  119.0000   -45.1515     7.3839     6.2016     6.3836   104.6777     7.7868     0.0078     2.4433     0.1378
  119.5000   -46.3564     7.4809     6.2121     6.3836   103.8041     7.8105     0.0040     2.4419     0.1418
  120.0000   -46.8269     7.6861     6.2226     6.3836   102.9723     7.9165     0.0022     2.4540     0.1366
  120.5000   -46.8605     7.9758     6.2332     6.5669   102.1078     7.9436     0.0134     2.4722     0.1217
  121.0000   -46.9638     7.9391     6.2437     6.7242   102.0246     7.9942     0.0344     2.4749     0.1181
  121.5000   -47.0679     7.8422     6.2543     6.8853   102.1960     7.9718     0.0357     2.4836     0.1167
  122.0000   -47.1589     7.9089     6.2649     7.0116   102.3354     7.9400     0.0390     2.4886     0.1120
  122.5000   -47.2587     8.2360     6.2755     7.0372   102.4865     7.9130     0.0421     2.4897     0.1105
  123.0000   -47.3551     8.1450     6.2861     7.0629   101.7257     7.8689     0.0415     2.4879     0.1105
  123.5000   -47.4502     7.9732     6.2967     7.0887   100.8662     7.8282     0.0369     2.4798     0.1150
  124.0000   -47.5529     7.9812     6.3074     7.1145   100.1426     7.8941     0.0325     2.4685     0.1215
  124.5000   -47.5932     8.1399     6.3180     7.1359   100.5803     7.9342     0.0284     2.4564     0.1279
  125.0000   -47.5859     8.3130     6.3287     7.1608   100.9088     7.9782     0.0239     2.4443     0.1350
  125.5000   -47.4963     8.5920     6.3395     7.1820   101.2573     7.9771     0.0232     2.4418     0.1394
  126.0000   -47.4057     8.4830     6.3502     7.2033   100.4952     7.9616     0.0232     2.4436     0.1394
  126.5000   -47.3116     8.2356     6.3607     7.2247    99.7719     7.9468     0.0221     2.4357     0.1416
  127.0000   -47.2175     7.9955     6.3714     7.2461    98.9311     7.9324     0.0323     2.4367     0.1422
  127.5000   -47.1873     7.8302     6.3836     7.2697    98.6229     7.9171     0.0476     2.4432     0.1377
  128.0000   -47.1888     7.9748     6.3840     7.2697    98.2982     7.8998     0.0620     2.4509     0.1330
  128.5000   -47.1892     8.1383     6.4065     7.2522    97.9934     7.8787     0.0555     2.4398     0.1396
  129.0000   -47.1900     8.2788     6.4263     7.2275    97.6711     7.8569     0.0486     2.4305     0.1467
