~VERSION INFORMATION
 VERS.                2.0:   CWLS LOG ASCII STANDARD - VERSION 2.0
 WRAP.                 NO:   ONE LINE PER DEPTH STEP
~WELL INFORMATION
#MNEM.UNIT      DATA TYPE    INFORMATION
#----------   ------------   ------------------------------
 STRT.F            0.0000:   START DEPTH
 STOP.F          561.0000:   STOP DEPTH
 STEP.F            0.1000:   STEP LENGTH
 NULL.          -999.2500:   NO VALUE
 COMP.       F D SERV INC:   COMPANY
 WELL.  83-1 sx 10 #83-10:   WELL
 FLD .             TEAPOT:   FIELD
 LOC .      S10 T38N R78W:   LOCATION
 CNTY.            NATRONA:   COUNTY
 STAT.            WYOMING:   STATE
 CTRY. UNITED STATES OF AMERICA:   COUNTRY
 SRVC.     Atlas Wireline:   SERVICE COMPANY
 DATE.        10-DEC-1992:   LOGDATE
 API .       490252258000:   API NUMBER
~CURVE INFORMATION
#MNEM.UNIT       API CODE    CURVE DESCRIPTION
#----------   ------------   ------------------------------
 DEPT.F                  :   
 GRR .GAPI   07 310 01 00:   GAMMA RAY
 RILD.OHMM   07 120 46 00:   INDUCTION LOG DEEP RESISTIVITY
 RILM.OHMM   07 120 44 00:   INDUCTION LOG MEDIUM RESISTIVITY
~PARAMETER INFORMATION
#MNEM.UNIT          VALUE    DESCRIPTION
#----------   ------------   ------------------------------
 PD  .                 GL:   PERMANENT DATUM
 EPD .F              5170:   ELEVATION PERMANENT DATUM
 LMF .                 KB:   LOG MEASURED FROM
 DAPD.F                10:   FEET ABOVE PERMANENT DATUM
 DMF .                 KB:   DRILLING MEASURED FROM
 EKB .F              5180:   KELLING BUSHING
 EDF .F              5179:   DRILLING FLOOR
 EGL .F              5170:   GROUND LEVEL
 DATE.        10-DEC-1992:   RUN DATE
 RUN .                  1:   RUN NUMBER
 DD  .F               567:   DEPTH DRILLER
 DL  .F               569:   DEPTH LOGGER
 BLI .F               560:   BOTTOM LOG INTERVAL
 TLI .F                97:   TOP LOG INTERVAL
 CS  .IN            8.625:   CASING SIZE
 CBD .F                97:   CASING BOTTOM DRILLER
 CBL .F                97:   CASING BOTTOM LOGGER
 BS  .IN            7.875:   BIT SIZE
 BSD .F               567:   BIT SIZE AT DEPTH
 DFT .           AIR FOAM:   DRILLING FLUID TYPE
 MRT .F                65:   MAXIMUM RECORDED TEMPERATURE
 LUN .           HL- 6274:   LOGGING UNIT NUMBER
 LUL .             CASPER:   LOGGING UNIT LOCATION
 ENGI.       P. RASMUSSEN:   RECORDING ENGINEER
 WITN.          G. STRONG:   WITNESSED BY
 CLNT.            A2DTECH:   CLIENT CODE
 ORIG.           5" PRINT:   ORIGIN OF DATA
 UWI .       490252258000:   UNIQUE WELL ID
 DICO. A2D Technologies, Inc.:   DIGITIZING COMPANY
~OTHER INFORMATION
~A    DEPT      GRR      RILD       RILM   
# ...
  236.6000   124.7927     7.0541     6.9226
  236.7000   124.4925     7.0382     6.8819
  236.8000   124.2740     7.0386     6.8400
  236.9000   124.1924     7.0266     6.7933
  237.0000   124.1942     6.9740     6.7612
  237.1000   124.1961     6.8459     6.7214
  237.2000   124.3508     6.7514     6.6819
  237.3000   125.1362     6.7190     6.6425
  237.4000   126.0227     6.6534     6.5972
  237.5000   126.7072     6.5933     6.5193
  237.6000   127.5853     6.5416     6.4747
  237.7000   128.5014     6.4637     6.4428
  237.8000   129.0646     6.3866     6.4049
  237.9000   129.0080     6.3426     6.3672
  238.0000   128.7324     6.3111     6.3164
  238.1000   128.1598     6.2484     6.2491
  238.2000   127.2211     6.1930     6.2110
  238.3000   126.5637     6.1434     6.1285
  238.4000   125.8926     6.0771     6.0654
  238.5000   125.3273     6.0401     5.9939
  238.6000   125.0019     5.9586     5.9039
  238.7000   124.4813     5.8973     5.8129
  238.8000   123.9237     5.8028     5.7365
  238.9000   123.6827     5.6995     5.6327
  239.0000   123.6237     5.5979     5.4879
  239.1000   123.7835     5.4911     5.4292
  239.2000   123.9308     5.3625     5.3415
  239.3000   124.0061     5.2569     5.2471
  239.4000   124.2691     5.2010     5.1672
  239.5000   124.5433     5.1618     5.1142
  239.6000   125.0453     5.1311     5.0810
  239.7000   125.5694     5.1007     5.0175
  239.8000   126.0936     5.0704     4.9342
  239.9000   126.4947     5.0428     4.8695
  240.0000   126.6768     5.0431     4.8120
  240.1000   126.6786     5.0434     4.7553
  240.2000   126.6805     5.0207     4.6991
  240.3000   126.0756     5.0089     4.6474
  240.4000   125.4313     5.0091     4.6194
  240.5000   124.8225     5.0094     4.6197
  240.6000   123.7790     5.0097     4.6652
  240.7000   122.3905     5.0100     4.7031
  240.8000   121.3936     5.0103     4.7456
  240.9000   120.6118     5.0105     4.8029
  241.0000   119.7150     5.0108     4.8559
  241.1000   118.3799     5.0111     4.8856
  241.2000   117.1756     5.0114     4.9536
  241.3000   116.4090     5.0116     4.9791
  241.4000   115.9842     5.0119     5.0093
  241.5000   115.7248     5.0123     5.0396
  241.6000   115.4767     5.0372     5.0813
  241.7000   115.4788     5.0479     5.1363
  241.8000   115.4804     5.0482     5.1674
  241.9000   115.6702     5.0586     5.2024
  242.0000   115.9332     5.0893     5.2302
  242.1000   116.4030     5.1203     5.2847
  242.2000   117.1885     5.1562     5.3485
  242.3000   117.9740     5.1828     5.4002
  242.4000   118.8299     5.2144     5.4407
  242.5000   119.7826     5.2461     5.5089
  242.6000   120.8292     5.2895     5.6172
  242.7000   122.3353     5.3473     5.6794
  242.8000   123.9437     5.3798     5.7481
  242.9000   125.1829     5.4166     5.8384
  243.0000   126.2033     5.4743     5.9288
  243.1000   127.0368     5.5408     6.0102
  243.2000   127.7742     5.6082     6.1150
  243.3000   128.3567     5.6897     6.1925
  243.4000   129.0416     5.7855     6.2282
  243.5000   129.8270     5.8580     6.3255
  243.6000   130.6124     5.9752     6.3918
  243.7000   131.3641     6.0740     6.4486
  243.8000   131.9054     6.1572     6.5265
  243.9000   132.5145     6.2320     6.5995
  244.0000   132.9368     6.3077     6.6401
  244.1000   133.1247     6.3843     6.6868
  244.2000   133.2524     6.4655     6.7202
  244.3000   133.4319     6.5915     6.7609
  244.4000   133.4337     6.6662     6.8018
  244.5000   133.4355     6.7472     6.8571
  244.6000   133.1341     6.8042     6.9323
  244.7000   133.1357     6.8641     6.9743
  244.8000   132.9619     6.9355     7.0226
  244.9000   132.7025     6.9776     7.0230
  245.0000   132.4431     7.0217     7.0528
  245.1000   132.1837     7.0628     7.0728
  245.2000   131.9243     7.1401     7.0892
  245.3000   131.6294     7.1716     7.1230
  245.4000   131.4056     7.1925     7.1235
  245.5000   131.1462     7.2226     7.1240
  245.6000   130.8868     7.2296     7.1625
  245.7000   130.6274     7.2740     7.1745
  245.8000   130.3680     7.2745     7.1750
  245.9000   130.1225     7.3112     7.1931
  246.0000   130.1246     7.3557     7.2259
  246.1000   130.3591     7.3780     7.2264
  246.2000   130.6221     7.3784     7.2270
  246.3000   130.8852     7.3788     7.2675
  246.4000   131.1482     7.3797     7.2782
  246.5000   131.4750     7.4041     7.3050
  246.6000   131.9777     7.4285     7.3298
  246.7000   132.2617     7.4529     7.3427
  246.8000   132.7442     7.4773     7.3818
  246.9000   133.2684     7.5017     7.3823
  247.0000   133.6368     7.5261     7.4253
  247.1000   134.0134     7.5505     7.4703
  247.2000   134.5376     7.5749     7.4869
  247.3000   135.0329     7.5993     7.5088
  247.4000   135.3094     7.6237     7.5400
  247.5000   135.5589     7.6482     7.5406
  247.6000   135.6164     7.6726     7.5411
  247.7000   135.6182     7.7006     7.5941
  247.8000   135.4990     7.7010     7.5946
  247.9000   135.1610     7.7014     7.6257
  248.0000   134.5675     7.7018     7.6484
  248.1000   133.5011     7.7023     7.6490
  248.2000   132.5928     7.7027     7.6495
  248.3000   131.9551     7.7031     7.6500
  248.4000   131.0025     7.7036     7.6506
  248.5000   129.8310     7.7040     7.6511
  248.6000   128.4406     7.7378     7.6840
  248.7000   126.7873     7.7588     7.7054
  248.8000   124.7045     7.7777     7.7059
  248.9000   123.1973     7.8141     7.7167
  249.0000   122.5372     7.8145     7.7606
  249.1000   121.7554     7.8150     7.7612
  249.2000   121.1096     7.8154     7.7616
  249.3000   120.6827     7.8510     7.7622
  249.4000   120.4743     7.8710     7.7896
  249.5000   120.4856     7.8715     7.8173
  249.6000   120.7820     7.8843     7.8178
  249.7000   124.2038     7.9275     7.8228
  249.8000   126.2665     7.9280     7.8733
  249.9000   128.0047     7.9284     7.8738
  250.0000   129.5903     7.9289     7.8743
  250.1000   130.3277     7.9293     7.8749
  250.2000   130.8998     7.9297     7.8754
  250.3000   131.4719     7.9302     7.8760
  250.4000   132.0440     7.9306     7.8827
  250.5000   132.6161     7.9311     7.9319
  250.6000   133.1882     7.9316     7.9325
  250.7000   133.4582     7.9320     7.9330
  250.8000   133.2014     7.9324     7.9335
  250.9000   132.9388     7.9476     7.9341
  251.0000   132.3463     7.9787     7.9501
  251.1000   131.6862     8.0099     7.9903
  251.2000   131.0875     8.0410     7.9909
  251.3000   130.4395     8.0722     7.9915
  251.4000   129.6643     8.1034     7.9920
  251.5000   128.9327     8.1345     7.9926
  251.6000   128.4152     8.1657     7.9931
  251.7000   127.5076     8.1968     8.0109
  251.8000   126.8674     8.2280     8.0498
  251.9000   125.7527     8.2591     8.0504
  252.0000   124.4593     8.2903     8.0510
  252.1000   123.2469     8.3215     8.0937
  252.2000   122.2126     8.3363     8.1080
  252.3000   121.1485     8.3367     8.1086
  252.4000   120.2408     8.3372     8.1092
  252.5000   120.2428     8.3367     8.1210
  252.6000   120.2452     8.2802     8.1667
  252.7000   120.3664     8.2806     8.1673
  252.8000   120.6280     8.2810     8.1678
  252.9000   120.8896     8.2815     8.1684
  253.0000   121.1655     8.2820     8.1689
  253.1000   121.6579     8.2906     8.1695
  253.2000   122.3794     8.3409     8.1701
  253.3000   123.1593     8.3415     8.1706
  253.4000   124.0514     8.3419     8.1712
  253.5000   124.9550     8.3423     8.1718
  253.6000   125.4523     8.3428     8.1723
  253.7000   125.7349     8.3433     8.1729
  253.8000   126.4522     8.3437     8.1961
  253.9000   127.4261     8.3442     8.2162
  254.0000   128.3155     8.3447     8.1745
  254.1000   128.9901     8.3451     8.1752
  254.2000   129.4498     8.3456     8.1758
  254.3000   129.7283     8.3461     8.1854
  254.4000   130.3044     8.3465     8.1971
  254.5000   130.7699     8.3470     8.2087
  254.6000   131.4780     8.3475     8.2207
  254.7000   132.2580     8.3479     8.2207
