~VERSION INFORMATION
 VERS.                2.0:   CWLS LOG ASCII STANDARD - VERSION 2.0
 WRAP.                 NO:   ONE LINE PER DEPTH STEP
~WELL INFORMATION
#MNEM.UNIT      DATA TYPE    INFORMATION
#----------   ------------   ------------------------------
 STRT.F            0.0000:   START DEPTH
 STOP.F          479.0000:   STOP DEPTH
 STEP.F            0.5000:   STEP LENGTH
 NULL.          -999.2500:   NO VALUE
 COMP. BROWN JOHN E&C INC:   COMPANY
 WELL.  63-3 SX-10 #63-10:   WELL
 FLD .             TEAPOT:   FIELD
 LOC .      S10 T38N R78W:   LOCATION
 CNTY.            NATRONA:   COUNTY
 STAT.            WYOMING:   STATE
 CTRY. UNITED STATES OF AMERICA:   COUNTRY
 SRVC.     Atlas Wireline:   SERVICE COMPANY
 DATE.        25-APR-1992:   LOGDATE
 API .       490252252900:   API NUMBER
~CURVE INFORMATION
#MNEM.UNIT       API CODE    CURVE DESCRIPTION
#----------   ------------   ------------------------------
 DEPT.F                  :   
 GRR .GAPI   07 310 01 00:   GAMMA RAY
 SPR .MV     07 010 01 00:   SPONTANEOUS POTENTIAL
 RILD.OHMM   07 120 46 00:   INDUCTION LOG DEEP RESISTIVITY
 RILM.OHMM   07 120 44 00:   INDUCTION LOG MEDIUM RESISTIVITY
 RFOC.OHMM   07 220 04 00:   RESISTIVITY FOCUSED LOG
 PORD.DEC    45 890 12 00:   POROSITY DENSITY SANDSTONE
 CNC .DEC    42 890 03 00:   NEUTRON POROSITY SANDSTONE
 CALD.IN     45 280 60 00:   CALIPER FROM DENSITY
 CORR.G/C3   45 356 01 00:   DENSITY CORRECTION
 DEN .G/C3   45 350 01 00:   COMPENSATED BULK DENSTIY
~PARAMETER INFORMATION
#MNEM.UNIT          VALUE    DESCRIPTION
#----------   ------------   ------------------------------
 PD  .                 GL:   PERMANENT DATUM
 EPD .F              5189:   ELEVATION PERMANENT DATUM
 LMF .                 KB:   LOG MEASURED FROM
 DAPD.F                10:   FEET ABOVE PERMANENT DATUM
 DMF .                 KB:   DRILLING MEASURED FROM
 EKB .F              5199:   KELLING BUSHING
 EGL .F              5189:   GROUND LEVEL
 DATE.        25-APR-1992:   RUN DATE
 RUN .                  1:   RUN NUMBER
 DD  .F               480:   DEPTH DRILLER
 DL  .F               482:   DEPTH LOGGER
 BLI .F               480:   BOTTOM LOG INTERVAL
 CS  .IN            8.625:   CASING SIZE
 CBD .F               130:   CASING BOTTOM DRILLER
 CBL .F               143:   CASING BOTTOM LOGGER
 BS  .IN            7.875:   BIT SIZE
 BSD .F               480:   BIT SIZE AT DEPTH
 DFT .     DISP. WEIGHTED:   DRILLING FLUID TYPE
 DFD .               15.1:   DRILLING FLUID DENSITY
 DFV .                 44:   DRILLING FLUID VISCOSITY
 DFPH.                8.4:   DRILLING FLUID PH
 DFL .                  7:   DRILLING FLUID LOSS
 MSS .           FLOWLINE:   MUD SAMPLE SOURCE
 TCS .HRS            0230:   TIME CURCULATED STOPPED
 LUN .           HL- 6272:   LOGGING UNIT NUMBER
 LUL .             CASPER:   LOGGING UNIT LOCATION
 ENGI.       P. RASMUSSEN:   RECORDING ENGINEER
 WITN.          G. STRONG:   WITNESSED BY
 CLNT.            A2DTECH:   CLIENT CODE
 ORIG.           5" PRINT:   ORIGIN OF DATA
 UWI .       490252252900:   UNIQUE WELL ID
 DICO. A2D Technologies, Inc.:   DIGITIZING COMPANY
~OTHER INFORMATION
~A    DEPT      GRR       SPR       RILD       RILM       RFOC       PORD        CNC       CALD       CORR        DEN   
# ...
  201.0000   105.0065   -76.4857     6.9352     6.8718     6.8496     0.1035     0.3608     7.9432     0.0041     2.4799
  201.5000   105.8553   -76.4932     7.1805     6.9148     6.8293     0.1014     0.3568     7.8974     0.0055     2.4838
  202.0000   101.6006   -76.5022     7.3318     6.8658     6.7870     0.0959     0.3595     7.8967     0.0055     2.4905
  202.5000    97.9548   -76.3570     7.4340     6.9126     6.8331     0.0935     0.3628     7.8807     0.0085     2.4950
  203.0000    94.9142   -76.2136     7.4855     6.9602     6.9757     0.0917     0.3637     7.8648     0.0084     2.4989
  203.5000    94.2941   -75.6196     7.4850     7.1059     7.1215     0.0899     0.3595     7.8640     0.0038     2.5025
  204.0000    95.7920   -74.7220     7.5368     7.2548     7.2704     0.0884     0.3535     7.8633     0.0023     2.5048
  204.5000    99.4079   -73.6737     7.5362     7.3558     7.3713     0.0866     0.3471     7.8624     0.0007     2.5078
  205.0000   103.3264   -72.7761     7.5884     7.4062     7.4213     0.0848     0.3399     7.8616     0.0007     2.5107
  205.5000   104.5255   -72.0294     7.5879     7.4569     7.4713     0.0836     0.3345     7.8760     0.0021     2.5129
  206.0000   103.5991   -71.7352     7.4304     7.5079     7.4697     0.0842     0.3315     7.8752     0.0021     2.5136
  206.5000   103.8867   -71.5900     7.3271     7.3515     7.4682     0.0854     0.3306     7.8747     0.0021     2.5106
  207.0000   105.6872   -71.5993     7.1751     7.1985     7.4666     0.0867     0.3309     7.8823     0.0020     2.5083
  207.5000   106.5837   -71.6067     7.0753     7.0488     7.4651     0.0864     0.3327     7.8894     0.0020     2.5090
  208.0000   106.2625   -71.6141     6.9285     6.9504     7.4117     0.0845     0.3366     7.8965     0.0035     2.5127
  208.5000   104.7347   -71.6216     6.8321     6.8533     7.2569     0.0827     0.3412     7.9036     0.0094     2.5150
  209.0000   102.9043   -71.6290     6.7842     6.8524     7.0560     0.0812     0.3433     7.9107     0.0124     2.5165
  209.5000   101.0739   -71.6365     6.7837     6.8514     6.9570     0.0794     0.3409     7.9157     0.0154     2.5187
  210.0000   100.1513   -71.9457     6.8370     6.8505     6.9523     0.0779     0.3373     7.9141     0.0153     2.5194
  210.5000    99.5310   -72.1041     6.9345     6.9456     7.0027     0.0788     0.3364     7.9116     0.0153     2.5186
  211.0000   100.7563   -72.2886     7.1710     7.0420     7.2507     0.0802     0.3382     7.9092     0.0137     2.5178
  211.5000   102.3146   -72.8747     7.4766     7.2904     7.5612     0.0834     0.3424     7.9068     0.0107     2.5148
  212.0000   104.9289   -73.6363     7.4241     7.3916     7.8236     0.0867     0.3448     7.9044     0.0076     2.5125
  212.5000   107.0320   -74.3979     7.2701     7.2842     7.5807     0.0894     0.3430     7.9020     0.0045     2.5042
  213.0000   109.4376   -75.1595     7.0698     7.0810     6.8983     0.0885     0.3412     7.8996     0.0030     2.5034
  213.5000   111.8433   -75.7703     6.6861     6.8755     6.7546     0.0879     0.3406     7.8972     0.0029     2.5049
  214.0000   110.0129   -76.2302     6.1067     5.9120     7.1898     0.0940     0.3533     7.8948     0.0029     2.4935
  214.5000   105.7619   -76.0868     5.7352     4.9670     7.2390     0.1249     0.3769     7.8927     0.0043     2.4549
  215.0000   104.2341   -75.4909     5.6161     4.8978     6.4288     0.1388     0.3865     7.8920     0.0073     2.4258
  215.5000   104.8281   -74.2917     5.5380     4.8292     5.4378     0.1435     0.3847     7.8912     0.0118     2.4199
  216.0000   105.4183   -73.0926     5.5377     4.5038     5.1422     0.1230     0.3742     7.9058     0.0148     2.4291
  216.5000   105.0970   -72.3458     5.5373     4.7944     5.3606     0.0964     0.3612     7.9049     0.0147     2.4691
  217.0000   103.2667   -71.9008     5.5369     5.2478     5.4344     0.0913     0.3594     7.9041     0.0147     2.4933
  217.5000    99.9234   -71.3758     5.4599     5.3580     6.3775     0.0916     0.3621     7.9034     0.0131     2.5001
  218.0000   101.7239   -71.3078     5.2360     5.1379     6.6022     0.0958     0.3760     7.8874     0.0101     2.4947
  218.5000   102.3147   -71.2195     4.9864     4.6927     6.6938     0.1061     0.3938     7.8867     0.0085     2.4839
  219.0000   101.6940   -70.7625     4.8154     4.3767     6.7864     0.1158     0.4027     7.8859     0.0070     2.4693
  219.5000   103.1919   -70.3055     4.7816     4.6914     5.7002     0.1233     0.4056     7.8700     0.0039     2.4519
  220.0000   106.2027   -70.0000     4.7151     4.5938     5.0272     0.1218     0.3917     7.8846     0.0008     2.4440
  220.5000   106.1269   -70.0101     5.0550     4.1666     5.1682     0.1086     0.3757     7.8836    -0.0022     2.4648
  221.0000   102.1787   -70.6768     5.1256     4.2245     5.5786     0.0997     0.3618     7.8981    -0.0008     2.4862
  221.5000    99.4100   -72.8707     5.1650     5.0974     6.1489     0.0914     0.3546     7.8973     0.0022     2.4957
  222.0000    95.8518   -73.7774     5.8857     5.5407     6.5912     0.0865     0.3567     7.8966     0.0082     2.5058
  222.5000    94.6265   -73.9270     6.7307     5.6177     6.6827     0.0838     0.3591     7.9112     0.0157     2.5119
  223.0000    94.9179   -73.0148     6.7240     5.9386     6.7278     0.0826     0.3567     7.9103     0.0157     2.5149
  223.5000    95.8070   -72.1033     6.7704     6.4584     6.6796     0.0835     0.3519     7.9095     0.0141     2.5110
  224.0000    98.8177   -71.9493     7.0099     6.6828     6.6318     0.0850     0.3447     7.9087     0.0126     2.5072
  224.5000   101.8285   -71.9468     7.1079     6.6819     6.6305     0.0863     0.3401     7.9080     0.0110     2.5049
  225.0000   104.5367   -72.2474     7.1073     6.6810     6.6754     0.0863     0.3432     7.9072     0.0110     2.5064
  225.5000   106.0346   -72.3965     6.9115     6.6799     6.6741     0.0857     0.3502     7.9065     0.0154     2.5094
  226.0000   107.2300   -72.3939     6.5364     6.4505     6.7236     0.0848     0.3623     7.9057     0.0169     2.5109
  226.5000   108.1265   -72.2399     6.1387     6.0158     6.7715     0.0891     0.3903     7.9050     0.0108     2.5003
  227.0000   107.5027   -72.0859     5.6854     5.3810     6.9636     0.1061     0.4120     7.9042     0.0017     2.4647
  227.5000   106.5800   -71.4768     5.4144     4.5524     6.2194     0.1298     0.4163     7.9035    -0.0044     2.4277
  228.0000   105.9599   -69.8077     5.2287     4.3053     5.0806     0.1361     0.4051     7.8875    -0.0044     2.4216
  228.5000   106.5501   -68.5931     5.1202     4.1285     4.4777     0.1312     0.3894     7.8715    -0.0030     2.4488
  229.0000   106.2326   -67.9845     5.0490     3.9592     4.0076     0.1113     0.3707     7.8556     0.0015     2.4752
  229.5000   100.1662   -67.8305     5.0136     4.6784     5.4282     0.1020     0.3701     7.8396     0.0061     2.4789
  230.0000    97.7307   -67.8281     5.0133     5.0853     6.4395     0.0999     0.3686     7.8389     0.0090     2.4850
  230.5000    99.8640   -67.6741     5.1546     5.1560     6.2168     0.0960     0.3580     7.8381     0.0090     2.4940
  231.0000   101.6343   -67.8232     5.5261     5.4885     5.7522     0.0888     0.3496     7.8374     0.0089     2.5030
  231.5000   100.0340   -67.9722     6.0919     6.0495     6.0384     0.0824     0.3451     7.8366     0.0104     2.5121
  232.0000    98.0725   -68.2727     6.6226     6.6216     6.5636     0.0779     0.3422     7.8359     0.0103     2.5211
  232.5000    99.1664   -68.5733     7.0017     6.9514     7.0357     0.0776     0.3381     7.8351     0.0118     2.5218
  233.0000   100.0629   -68.8989     7.2494     7.1966     7.4375     0.0797     0.3348     7.8343     0.0117     2.5211
  233.5000    97.3211   -69.4768     7.4545     7.3475     7.5407     0.0803     0.3324     7.8336     0.0117     2.5172
  234.0000    93.6753   -69.7780     7.6135     7.5015     7.5918     0.0788     0.3339     7.8328     0.0101     2.5202
