~VERSION INFORMATION
 VERS.                2.0:   CWLS LOG ASCII STANDARD - VERSION 2.0
 WRAP.                 NO:   ONE LINE PER DEPTH STEP
~WELL INFORMATION
#MNEM.UNIT      DATA TYPE    INFORMATION
#----------   ------------   ------------------------------
 STRT.F            8.0000:   START DEPTH
 STOP.F          970.0000:   STOP DEPTH
 STEP.F            0.1000:   STEP LENGTH
 NULL.          -999.2500:   NO VALUE
 COMP.       F D SERV INC:   COMPANY
 WELL. N P R 3 STX-35 #15-35:   WELL
 FLD .             TEAPOT:   FIELD
 LOC .      S35 T39N R78W:   LOCATION
 CNTY.            NATRONA:   COUNTY
 STAT.            WYOMING:   STATE
 CTRY. UNITED STATES OF AMERICA:   COUNTRY
 SRVC.     Atlas Wireline:   SERVICE COMPANY
 DATE.        02-FEB-1992:   LOGDATE
 API .       490252250100:   API NUMBER
~CURVE INFORMATION
#MNEM.UNIT       API CODE    CURVE DESCRIPTION
#----------   ------------   ------------------------------
 DEPT.F                  :   
 GRR .GAPI   07 310 01 00:   GAMMA RAY
 RILD.OHMM   07 120 46 00:   INDUCTION LOG DEEP RESISTIVITY
 RILM.OHMM   07 120 44 00:   INDUCTION LOG MEDIUM RESISTIVITY
~PARAMETER INFORMATION
#MNEM.UNIT          VALUE    DESCRIPTION
#----------   ------------   ------------------------------
 PD  .                 GL:   PERMANENT DATUM
 EPD .F              5084:   ELEVATION PERMANENT DATUM
 LMF .                 KB:   LOG MEASURED FROM
 DAPD.F                10:   FEET ABOVE PERMANENT DATUM
 DMF .                 KB:   DRILLING MEASURED FROM
 EKB .F              5094:   KELLING BUSHING
 EDF .F              5093:   DRILLING FLOOR
 EGL .F              5084:   GROUND LEVEL
 DATE.        02-FEB-1982:   RUN DATE
 RUN .                  1:   RUN NUMBER
 DD  .F               980:   DEPTH DRILLER
 CS  .IN            8.625:   CASING SIZE
 BSD .F               980:   BIT SIZE AT DEPTH
 DFT .                AIR:   DRILLING FLUID TYPE
 LUN .            HL-6272:   LOGGING UNIT NUMBER
 LUL .             CASPER:   LOGGING UNIT LOCATION
 ENGI.       R. RASMLSSEN:   RECORDING ENGINEER
 WITN.          G. STRONG:   WITNESSED BY
 CLNT.            A2DTECH:   CLIENT CODE
 ORIG.           5" PRINT:   ORIGIN OF DATA
 UWI .       490252250100:   UNIQUE WELL ID
 DICO. A2D Technologies, Inc.:   DIGITIZING COMPANY
~OTHER INFORMATION
~A    DEPT      GRR      RILD       RILM   
# ...
  262.8000   124.1798     3.7634     3.7541
  262.9000   123.9539     3.7236     3.7345
  263.0000   123.7051     3.6961     3.6977
  263.1000   123.4562     3.6635     3.6553
  263.2000   123.2872     3.6211     3.6204
  263.3000   123.2915     3.5822     3.5938
  263.4000   123.2961     3.5605     3.5290
  263.5000   123.0666     3.5215     3.4714
  263.6000   122.6341     3.4961     3.4118
  263.7000   122.2658     3.4647     3.3423
  263.8000   121.9335     3.4247     3.2727
  263.9000   121.4314     3.3850     3.2132
  264.0000   120.8972     3.3453     3.1383
  264.1000   119.9534     3.3263     3.0853
  264.2000   119.3191     3.3224     3.0462
  264.3000   118.6799     3.3109     3.0113
  264.4000   117.8374     3.2995     2.9837
  264.5000   116.7540     3.2996     2.9667
  264.6000   115.1651     3.2994     2.9501
  264.7000   114.4468     3.2770     2.9504
  264.8000   114.0735     3.2771     2.9507
  264.9000   114.1062     3.2772     2.9510
  265.0000   114.4544     3.2772     2.9512
  265.1000   115.0470     3.2727     2.9558
  265.2000   116.0995     3.2547     2.9724
  265.3000   117.3250     3.2548     2.9727
  265.4000   118.5951     3.2549     2.9729
  265.5000   120.0098     3.2551     2.9732
  265.6000   121.4380     3.2462     2.9817
  265.7000   122.7070     3.2326     2.9945
  265.8000   124.0037     3.2311     2.9948
  265.9000   124.9991     3.2105     2.9951
  266.0000   125.4222     3.2106     2.9954
  266.1000   125.3834     3.2107     2.9957
  266.2000   125.0363     3.2014     2.9960
  266.3000   124.5826     3.1886     2.9963
  266.4000   124.3321     3.1887     2.9965
  266.5000   123.5820     3.1888     2.9969
  266.6000   123.0282     3.1718     2.9971
  266.7000   122.5262     3.1669     2.9974
  266.8000   121.9225     3.1571     2.9977
  266.9000   121.2192     3.1388     2.9980
  267.0000   120.7132     3.1234     2.9983
  267.1000   119.5141     3.1235     2.9986
  267.2000   118.4909     3.1062     2.9822
  267.3000   117.2295     3.0884     2.9785
  267.4000   115.9680     3.0705     2.9787
  267.5000   114.7622     3.0594     2.9790
  267.6000   113.7604     3.0562     2.9761
  267.7000   112.8729     3.0385     2.9590
  267.8000   112.4586     3.0211     2.9592
  267.9000   111.9566     3.0176     2.9459
  268.0000   111.5636     2.9966     2.9291
  268.1000   111.3147     2.9761     2.9194
  268.2000   111.0750     2.9725     2.9160
  268.3000   111.0801     2.9553     2.8997
  268.4000   111.2961     2.9353     2.9001
  268.5000   111.5534     2.9071     2.8864
  268.6000   112.0361     2.8843     2.8699
  268.7000   112.7999     2.8676     2.8462
  268.8000   113.5377     2.8469     2.8218
  268.9000   113.8327     2.8150     2.8201
  269.0000   114.4849     2.7965     2.7835
  269.1000   114.9160     2.7686     2.7559
  269.2000   115.4063     2.7366     2.7350
  269.3000   116.1034     2.7125     2.7044
  269.4000   116.6306     2.6924     2.6623
  269.5000   117.4945     2.6599     2.6318
  269.6000   117.2784     2.6093     2.5985
  269.7000   117.1994     2.5688     2.5718
  269.8000   117.0836     2.5244     2.5423
  269.9000   116.8348     2.4881     2.5132
  270.0000   116.6057     2.4550     2.4843
  270.1000   116.6108     2.4125     2.4559
  270.2000   116.6146     2.3679     2.4258
  270.3000   116.6188     2.3298     2.3999
  270.4000   116.7466     2.2994     2.3623
  270.5000   117.0040     2.2657     2.3217
  270.6000   117.2614     2.2310     2.2818
  270.7000   117.5453     2.2053     2.2425
  270.8000   118.0033     2.1789     2.2026
  270.9000   118.6910     2.1668     2.1783
  271.0000   119.7094     2.1543     2.1533
  271.1000   120.9020     2.1418     2.1358
  271.2000   121.8913     2.1341     2.1284
  271.3000   122.7222     2.1342     2.1285
  271.4000   123.4180     2.1343     2.1288
  271.5000   124.1816     2.1344     2.1290
  271.6000   124.8145     2.1344     2.1392
  271.7000   125.4061     2.1421     2.1442
  271.8000   126.1698     2.1494     2.1496
  271.9000   126.9900     2.1523     2.1624
  272.0000   127.4628     2.1645     2.1752
  272.1000   128.1580     2.1646     2.1902
  272.2000   128.9213     2.1752     2.2011
  272.3000   129.6000     2.1798     2.2141
  272.4000   130.1453     2.1856     2.2331
  272.5000   130.9548     2.1951     2.2595
  272.6000   131.6727     2.1951     2.2861
  272.7000   132.0603     2.1952     2.3165
  272.8000   132.5940     2.2177     2.3285
  272.9000   133.1810     2.2349     2.3703
  273.0000   133.4385     2.2480     2.4125
  273.1000   133.7075     2.2612     2.4409
  273.2000   133.4700     2.2744     2.4683
  273.3000   133.0294     2.2890     2.4843
  273.4000   132.5274     2.3133     2.5241
  273.5000   131.9335     2.3406     2.5581
  273.6000   131.2202     2.3681     2.5882
  273.7000   130.7026     2.3958     2.6288
  273.8000   129.9708     2.4239     2.6866
  273.9000   129.0201     2.4541     2.7202
  274.0000   128.1576     2.4948     2.7654
  274.1000   127.3072     2.5388     2.8144
  274.2000   126.2990     2.5836     2.8642
  274.3000   125.2734     2.6292     2.9148
  274.4000   124.2821     2.6755     2.9663
  274.5000   123.2738     2.7240     3.0202
  274.6000   122.2654     2.7866     3.0723
  274.7000   121.3562     2.8524     3.1267
  274.8000   120.6010     2.9096     3.1820
  274.9000   119.8443     2.9678     3.2382
  275.0000   118.6372     3.0306     3.2954
  275.1000   118.0330     3.0663     3.3534
  275.2000   117.7358     3.1524     3.3770
  275.3000   117.8428     3.1977     3.4256
  275.4000   118.1531     3.2541     3.4611
  275.5000   118.6696     3.3032     3.4902
  275.6000   119.8747     3.3420     3.5265
  275.7000   120.9099     3.3811     3.5482
  275.8000   122.0234     3.4270     3.5966
  275.9000   123.1464     3.4440     3.6146
  276.0000   124.4722     3.4774     3.6360
  276.1000   125.9820     3.5088     3.6576
  276.2000   127.1729     3.5349     3.6793
  276.3000   127.8060     3.5733     3.7011
  276.4000   128.5697     3.5734     3.7257
  276.5000   129.2232     3.5919     3.7260
  276.6000   129.6736     3.6130     3.7263
  276.7000   129.9206     3.6237     3.7267
  276.8000   129.9255     3.6238     3.7271
  276.9000   129.9291     3.6239     3.7252
  277.0000   129.7698     3.6240     3.7021
  277.1000   129.6345     3.6241     3.6828
  277.2000   129.6388     3.6242     3.6618
  277.3000   129.6291     3.6133     3.6521
  277.4000   129.3448     3.5924     3.6454
  277.5000   129.1313     3.5745     3.6217
  277.6000   128.8823     3.5746     3.5780
  277.7000   128.6334     3.5551     3.5587
  277.8000   128.3170     3.5346     3.5384
  277.9000   127.8153     3.5142     3.5069
  278.0000   127.2490     3.4939     3.4740
  278.1000   126.5905     3.4736     3.4542
  278.2000   126.0061     3.4532     3.4341
  278.3000   125.3830     3.4337     3.3956
  278.4000   124.6989     3.4295     3.3567
  278.5000   124.2181     3.4178     3.3296
  278.6000   123.9411     3.3980     3.3030
  278.7000   123.7203     3.3824     3.2730
  278.8000   123.6460     3.3820     3.2733
  278.9000   123.6503     3.3360     3.2285
  279.0000   123.7292     3.3202     3.2135
  279.1000   124.0114     3.3010     3.1952
  279.2000   124.5725     3.2820     3.1770
  279.3000   125.2607     3.2630     3.1502
  279.4000   126.3808     3.2441     3.0976
  279.5000   127.6508     3.2226     3.0773
  279.6000   128.9205     3.1910     3.0323
  279.7000   130.3311     3.1421     3.0030
  279.8000   133.0828     3.0795     2.9778
  279.9000   135.1715     3.0087     2.9437
  280.0000   136.5452     2.9407     2.9086
  280.1000   137.1664     2.8841     2.8529
  280.2000   137.3418     2.8547     2.8095
  280.3000   137.3139     2.8217     2.7723
  280.4000   137.0476     2.7891     2.7327
  280.5000   136.5807     2.7569     2.6857
  280.6000   136.2643     2.7233     2.6412
  280.7000   135.7443     2.6724     2.6085
  280.8000   135.0746     2.6300     2.5674
  280.9000   134.5728     2.5955     2.5232
