~VERSION INFORMATION
 VERS.                2.0:   CWLS LOG ASCII STANDARD - VERSION 2.0
 WRAP.                 NO:   ONE LINE PER DEPTH STEP
~WELL INFORMATION
#MNEM.UNIT      DATA TYPE    INFORMATION
#----------   ------------   ------------------------------
 STRT.F            0.0000:   START DEPTH
 STOP.F          533.0000:   STOP DEPTH
 STEP.F            0.1000:   STEP LENGTH
 NULL.          -999.2500:   NO VALUE
 COMP.   FLUOR DANIEL INC:   COMPANY
 WELL.   84-4 X 10 #81-10:   WELL
 FLD .             TEAPOT:   FIELD
 LOC .      S10 T38N R78W:   LOCATION
 CNTY.            NATRONA:   COUNTY
 STAT.            WYOMING:   STATE
 CTRY. UNITED STATES OF AMERICA:   COUNTRY
 SRVC.     Atlas Wireline:   SERVICE COMPANY
 DATE.        25-SEP-1994:   LOGDATE
 API .       490252264000:   API NUMBER
~CURVE INFORMATION
#MNEM.UNIT       API CODE    CURVE DESCRIPTION
#----------   ------------   ------------------------------
 DEPT.F                  :   
 GRR .GAPI   07 310 01 00:   GAMMA RAY
 RILD.OHMM   07 120 46 00:   INDUCTION LOG DEEP RESISTIVITY
 RILM.OHMM   07 120 44 00:   INDUCTION LOG MEDIUM RESISTIVITY
~PARAMETER INFORMATION
#MNEM.UNIT          VALUE    DESCRIPTION
#----------   ------------   ------------------------------
 PD  .                 GL:   PERMANENT DATUM
 EPD .F              5150:   ELEVATION PERMANENT DATUM
 LMF .                 KB:   LOG MEASURED FROM
 DAPD.F                10:   FEET ABOVE PERMANENT DATUM
 DMF .                 KB:   DRILLING MEASURED FROM
 EKB .F              5160:   KELLING BUSHING
 EDF .F              5159:   DRILLING FLOOR
 EGL .F              5150:   GROUND LEVEL
 DATE.        25-SEP-1994:   RUN DATE
 RUN .                  1:   RUN NUMBER
 DD  .F               545:   DEPTH DRILLER
 DL  .F               541:   DEPTH LOGGER
 BLI .F               533:   BOTTOM LOG INTERVAL
 CS  .IN            9.625:   CASING SIZE
 CBD .F                76:   CASING BOTTOM DRILLER
 CBL .F                76:   CASING BOTTOM LOGGER
 BS  .IN             8.75:   BIT SIZE
 BSD .F               545:   BIT SIZE AT DEPTH
 DFT .                AIR:   DRILLING FLUID TYPE
 MRT .F                85:   MAXIMUM RECORDED TEMPERATURE
 LUN .            HL 6401:   LOGGING UNIT NUMBER
 LUL .         FT. MORGAN:   LOGGING UNIT LOCATION
 ENGI.    DAVE FREDERICKS:   RECORDING ENGINEER
 WITN.        GARY STRONG:   WITNESSED BY
 CLNT.            A2DTECH:   CLIENT CODE
 ORIG.           5' PRINT:   ORIGIN OF DATA
 UWI .       490252264000:   UNIQUE WELL ID
 DICO. A2D Technologies, Inc.:   DIGITIZING COMPANY
~OTHER INFORMATION
~A    DEPT      GRR      RILD       RILM   
# ...
  473.2000   119.7402     9.5898     9.7310
  473.3000   120.5608     9.5637     9.7146
  473.4000   120.7996     9.5442     9.6647
  473.5000   120.8662     9.4886     9.6651
  473.6000   120.8686     9.4326     9.5599
  473.7000   120.7727     9.3030     9.4908
  473.8000   120.4684     9.3031     9.4357
  473.9000   119.9615     9.2694     9.3590
  474.0000   119.3748     9.1917     9.2502
  474.1000   118.9477     9.0984     9.1425
  474.2000   118.4408     9.0413     9.0216
  474.3000   117.9340     8.9251     8.8865
  474.4000   117.5034     8.7862     8.7667
  474.5000   117.2511     8.6334     8.6647
  474.6000   116.9830     8.4570     8.5640
  474.7000   116.9853     8.2446     8.4572
  474.8000   116.9877     8.0140     8.3048
  474.9000   116.9901     7.8254     8.1654
  475.0000   116.9925     7.5070     8.0234
  475.1000   117.0490     7.3336     7.8285
  475.2000   117.2980     7.1221     7.6024
  475.3000   117.3008     6.9515     7.3826
  475.4000   117.7360     6.8203     7.1689
  475.5000   118.2476     6.6679     6.9393
  475.6000   117.0188     6.5820     6.7966
  475.7000   116.6424     6.4799     6.6393
  475.8000   117.4086     6.3672     6.4856
  475.9000   118.0888     6.2756     6.3482
  476.0000   118.6807     6.1901     6.2314
  476.1000   119.7258     6.0822     6.0859
  476.2000   120.7225     5.9743     5.9200
  476.3000   121.7434     5.8112     5.8362
  476.4000   122.9208     5.7038     5.7136
  476.5000   124.1965     5.6119     5.6408
  476.6000   125.6005     5.5678     5.6410
  476.7000   127.4216     5.5516     5.6412
  476.8000   129.9684     5.5366     5.6415
  476.9000   132.4626     5.5367     5.6417
  477.0000   134.0030     5.5368     5.6419
  477.1000   135.4271     5.5599     5.6422
  477.2000   137.3883     5.5754     5.6424
  477.3000   139.8925     5.5755     5.6477
  477.4000   143.5164     5.5755     5.6730
  477.5000   148.6320     5.5756     5.6984
  477.6000   150.2702     5.5757     5.7237
  477.7000   151.8343     5.5758     5.7490
  477.8000   152.9976     5.5960     5.7952
  477.9000   153.9524     5.6147     5.8744
  478.0000   154.7188     5.6148     5.9744
  478.1000   155.5636     5.6171     6.0490
  478.2000   154.8799     5.6539     6.1169
  478.3000   154.1185     5.6540     6.2175
  478.4000   153.0844     5.6541     6.3062
  478.5000   151.8135     5.6542     6.3964
  478.6000   150.4544     5.6656     6.5013
  478.7000   148.6605     5.7043     6.5782
  478.8000   146.2573     5.7731     6.6662
  478.9000   144.6072     5.7732     6.7698
  479.0000   142.0912     5.7733     6.8623
  479.1000   139.5211     5.7942     6.9647
  479.2000   137.0270     5.8283     7.0886
  479.3000   134.0620     5.8626     7.2147
  479.4000   131.8354     5.8971     7.3462
  479.5000   127.9178     5.9358     7.4311
  479.6000   123.9601     5.9668     7.5902
  479.7000   119.7276     5.9772     7.7425
  479.8000   115.8847     5.9957     7.8803
  479.9000   113.6177     6.0431     8.0205
  480.0000   112.6015     6.1086     8.1669
  480.1000   112.3036     6.1455     8.3809
  480.2000   112.3056     6.2520     8.5152
  480.3000   112.3080     6.3631     8.7040
  480.4000   112.3104     6.5232     8.9111
  480.5000   112.3830     6.7695     9.0838
  480.6000   112.6641     7.1045     9.1914
  480.7000   113.2201     7.4969     9.3003
  480.8000   113.6875     8.1077     9.4954
  480.9000   114.1991     8.4089     9.5418
  481.0000   114.7108     8.6525     9.6349
  481.1000   115.3167     8.8305     9.7223
  481.2000   116.0831     8.9871     9.7799
  481.3000   116.8474     9.1380     9.8316
  481.4000   117.4476     9.2486     9.8320
  481.5000   118.2917     9.4086     9.8861
  481.6000   119.3127     9.5312     9.9447
  481.7000   120.0971     9.6091     9.9703
  481.8000   120.6088     9.6901     9.9707
  481.9000   121.0944     9.7902     9.9835
  482.0000   121.3716     9.8515    10.0408
  482.1000   121.6084     9.9816    10.0412
  482.2000   121.8655    10.0335    10.0416
  482.3000   122.1226    10.0926    10.0818
  482.4000   122.2833    10.1213    10.1122
  482.5000   122.3358    10.1614    10.1313
  482.6000   122.5889    10.2719    10.1913
  482.7000   122.5917    10.3342    10.2544
  482.8000   122.8063    10.3933    10.2548
  482.9000   123.0633    10.4063    10.3021
  483.0000   123.2000    10.4435    10.3632
  483.1000   123.2024    10.5050    10.4246
  483.2000   123.2329    10.5669    10.4864
  483.3000   123.5081    10.6291    10.5485
  483.4000   123.5104    10.6993    10.6922
  483.5000   123.5128    10.6994    10.7481
  483.6000   123.5152    10.7875    10.8118
  483.7000   123.5176    10.8818    10.8759
  483.8000   123.5200    10.9245    10.9403
  483.9000   123.5224    10.9343    10.9945
  484.0000   123.5252    11.0007    10.9950
  484.1000   123.5272    11.0009    11.0719
  484.2000   123.5296    11.0519    11.1248
  484.3000   123.5320    11.1170    11.1496
  484.4000   123.4582    11.1825    11.1794
  484.5000   123.2059    11.2483    11.2456
  484.6000   122.9379    11.3106    11.3064
  484.7000   122.4629    11.3108    11.3069
  484.8000   122.1486    11.3110    11.3678
  484.9000   121.6037    11.3573    11.4352
  485.0000   120.8422    11.4242    11.5030
  485.1000   120.0267    11.4914    11.5712
  485.2000   119.0025    11.5490    11.6398
  485.3000   117.5414    11.5492    11.7087
  485.4000   116.6774    11.6150    11.7897
  485.5000   115.6613    11.6298    11.8480
  485.6000   114.8938    11.6299    11.9182
  485.7000   114.3869    11.6588    11.9554
  485.8000   113.9438    11.7111    11.9977
  485.9000   113.9466    11.7151    12.1313
  486.0000   113.9489    11.7928    12.2078
  486.1000   113.7568    11.7929    12.2082
  486.2000   113.6529    11.8411    12.2632
  486.3000   113.6553    11.8752    12.3359
  486.4000   113.6577    11.8754    12.4090
  486.5000   113.6501    11.8857    12.4826
  486.6000   113.3621    11.9583    12.5565
  486.7000   113.3642    11.9584    12.6412
  486.8000   113.3666    11.9586    12.6417
  486.9000   113.2427    12.0009    12.6930
  487.0000   113.0707    12.0716    12.7682
  487.1000   113.0391    12.1427    12.8195
  487.2000   112.7748    12.2103    12.8309
  487.3000   112.7771    12.2105    12.9096
  487.4000   112.7795    12.2732    12.9835
  487.5000   112.7820    12.2957    13.0003
  487.6000   112.6801    12.3325    13.0008
  487.7000   112.4860    12.4051    13.0341
  487.8000   112.4884    12.4782    13.1113
  487.9000   112.4911    12.5545    13.1890
  488.0000   112.2727    12.5546    13.2758
  488.1000   112.0205    12.6123    13.2763
  488.2000   111.8965    12.6422    13.2768
  488.3000   111.8168    12.6424    13.3189
  488.4000   111.6003    12.6599    13.3701
  488.5000   111.6031    12.7345    13.3707
  488.6000   111.6054    12.8193    13.3713
  488.7000   111.6078    12.8850    13.3719
  488.8000   111.6102    12.9087    13.3724
  488.9000   111.6126    12.9472    13.3729
  489.0000   111.6752    12.9988    13.3735
  489.1000   111.9322    12.9989    13.3740
  489.2000   112.2217    12.9991    13.3823
  489.3000   112.4463    13.0726    13.4681
  489.4000   112.7033    13.0898    13.4686
  489.5000   112.8301    13.1358    13.4691
  489.6000   112.9167    13.1811    13.4697
  489.7000   113.1737    13.1992    13.4702
  489.8000   113.4389    13.2731    13.4868
  489.9000   113.3951    13.2733    13.5649
  490.0000   113.1429    13.3411    13.5656
  490.1000   112.8449    13.3659    13.5660
  490.2000   112.6384    13.3661    13.5666
  490.3000   112.0614    13.3663    13.5672
  490.4000   111.4162    13.3665    13.5921
  490.5000   110.8391    13.3667    13.6625
  490.6000   110.0778    13.3668    13.6631
  490.7000   109.2501    13.4279    13.6636
  490.8000   108.5547    13.4601    13.6642
  490.9000   108.1660    13.4603    13.6648
  491.0000   107.9138    13.4605    13.6653
  491.1000   107.7558    13.4607    13.6659
  491.2000   107.8063    13.4609    13.6665
  491.3000   108.0614    13.4610    13.6671
