~VERSION INFORMATION
 VERS.                2.0:   CWLS LOG ASCII STANDARD - VERSION 2.0
 WRAP.                 NO:   ONE LINE PER DEPTH STEP
~WELL INFORMATION
#MNEM.UNIT      DATA TYPE    INFORMATION
#----------   ------------   ------------------------------
 STRT.F           31.0000:   START DEPTH
 STOP.F          600.0000:   STOP DEPTH
 STEP.F            0.5000:   STEP LENGTH
 NULL.          -999.2500:   NO VALUE
 COMP. FENIX & SCISSON INC:   COMPANY
 WELL.      NPR 3 #84 S-3:   WELL
 FLD .             TEAPOT:   FIELD
 LOC .       S3 T38N R78W:   LOCATION
 CNTY.            NATRONA:   COUNTY
 STAT.            WYOMING:   STATE
 CTRY. UNITED STATES OF AMERICA:   COUNTRY
 SRVC.              Welex:   SERVICE COMPANY
 DATE.        29-MAR-1977:   LOGDATE
 API .       490251032000:   API NUMBER
~CURVE INFORMATION
#MNEM.UNIT       API CODE    CURVE DESCRIPTION
#----------   ------------   ------------------------------
 DEPT.F                  :   
 CALD.IN     45 280 60 00:   CALIPER FROM DENSITY LOG
 GRD .GAPI   45 310 01 00:   GAMMA RAY FROM DENSITY LOG
 CORR.G/C3   45 356 01 00:   DENSITY CORRECTION
 DPHI.DEC    45 890 12 00:   DENSITY POROSITY SANDSTONE
 RHOB.G/C3   45 350 01 00:   BULK DENSITY
 SPR .MV     07 010 01 00:   SPONTANEOUS POTENTIAL
 ILD .OHMM   07 120 46 00:   INDUCTION LOG DEEP
 ILM .OHMM   07 120 44 00:   INDUCTION LOG MEDIUM
 SGRD.OHMM   07 221 05 00:   SHALLOW SHORT GUARD RESISTIVITY
~PARAMETER INFORMATION
#MNEM.UNIT          VALUE    DESCRIPTION
#----------   ------------   ------------------------------
 PD  .                 GL:   PERMANENT DATUM
 EPD .F              5146:   ELEVATION PERMANENT DATUM
 LMF .                 GL:   LOG MEASURED FROM
 DMF .                 GL:   DRILLING MEASURED FROM
 EGL .F              5146:   GROUND LEVEL
 DATE.        29-MAR-1977:   RUN DATE
 RUN .                  1:   RUN NUMBER
 DD  .F               610:   DEPTH DRILLER
 DL  .F               602:   DEPTH LOGGER
 BLI .F               600:   BOTTOM LOG INTERVAL
 TLI .F                30:   TOP LOG INTERVAL
 CS  .IN            8.625:   CASING SIZE
 BSD .F               610:   BIT SIZE AT DEPTH
 DFT .                KCL:   DRILLING FLUID TYPE
 DFD .                8.8:   DRILLING FLUID DENSITY
 BHT .F                63:   BOTTOM HOLE TEMPERATURE
 TCS .HRS            0500:   TIME CURCULATED STOPPED
 MRT .F                63:   MAXIMUM RECORDED TEMPERATURE
 ENGI.            C. DOAK:   RECORDING ENGINEER
 WITN.            R. LYON:   WITNESSED BY
 CLNT.            A2DTECH:   CLIENT CODE
 ORIG.           5" PRINT:   ORIGIN OF DATA
 UWI .       490251032000:   UNIQUE WELL ID
 DICO. A2D Technologies, Inc.:   DIGITIZING COMPANY
~OTHER INFORMATION
~A   DEPT     CALD        GRD       CORR       DPHI       RHOB        SPR        ILD        ILM       SGRD   
# ...
  140.5000     7.9297   114.3416     0.0326     0.0923     2.4940   -32.3039     7.8888     9.0467    12.4590
  141.0000     7.9282   114.9557     0.0343     0.0938     2.4903   -32.5892     7.8920     9.5666    11.6325
  141.5000     7.8848   115.5698     0.0314     0.0917     2.4926   -33.1638     7.8953     9.4391    11.9650
  142.0000     7.8116   117.8232     0.0240     0.0878     2.4972   -33.8914     7.8986     9.0580    12.5654
  142.5000     7.7555   119.0334     0.0181     0.0889     2.4987   -34.6190     7.9019     9.6451    11.4099
  143.0000     7.7887   119.1959     0.0167     0.0916     2.4920   -35.2019     7.9051    10.2691    10.7257
  143.5000     7.8642   117.4299     0.0154     0.0928     2.4883   -34.5861     7.9084    10.4878    11.0323
  144.0000     7.9249   116.8473     0.0171     0.0883     2.4988   -36.0578     7.9117     9.5905    11.9941
  144.5000     7.9690   118.0619     0.0157     0.0826     2.5063   -38.1288     7.9232     8.8290    12.3370
  145.0000     7.9702   119.5702     0.0159     0.0837     2.5071   -38.2570     7.9732     8.8950    11.8406
  145.5000     7.9551   119.8817     0.0130     0.0870     2.5019   -38.6870     7.9765     8.9604    11.4432
  146.0000     7.9416   117.5197     0.0101     0.0894     2.4975   -42.0932     8.0358     9.1522    11.3684
  146.5000     7.9280   115.8983     0.0058     0.0921     2.4938   -42.9737     8.0391     9.4783    11.5339
  147.0000     7.9153   116.8104     0.0044     0.0947     2.4908   -42.8043     8.0424     9.5471    11.8637
  147.5000     7.9165   118.6167     0.0015     0.0986     2.4841   -43.3831     8.0457     9.1004    12.2876
  148.0000     7.9028   119.2263     0.0001     0.0995     2.4774   -44.2595     8.0490     9.2311    12.3775
  148.5000     7.8738   118.2055    -0.0012     0.0992     2.4767   -42.9038     8.0524     9.7606    12.2132
  149.0000     7.7857   117.6273    -0.0026     0.0997     2.4775   -41.1057     8.0557     9.5640    12.3910
  149.5000     7.7125   118.6885    -0.0039     0.1051     2.4715   -43.4702     8.1149     9.5010    12.3115
  150.0000     7.6841   119.2981    -0.0060     0.1096     2.4603   -42.7056     8.1109     9.9089    12.1466
  150.5000     7.7510   118.2558    -0.0067     0.1069     2.4671   -42.0939     8.0326    10.1929    11.5016
  151.0000     7.8064   114.8207     0.0011     0.1020     2.4776   -40.8870     8.0162     9.8495    11.2710
  151.5000     7.7780   112.3040     0.0072     0.0945     2.4859   -39.3824     8.0213     9.5191    11.5176
  152.0000     7.6901   112.8375     0.0105     0.0879     2.5009   -37.7291     8.0263     9.2638    11.6038
  152.5000     7.6022   113.8698     0.0137     0.0825     2.5106   -37.8655     8.0313     9.2043    11.1393
  153.0000     7.5142   115.1416     0.0169     0.0789     2.5167   -38.4402     8.0364     9.0197    11.3045
  153.5000     7.4560   117.5534     0.0183     0.0801     2.5182   -39.2574     8.0414     8.8385    11.6301
  154.0000     7.4576   119.4625     0.0199     0.0836     2.5032   -41.5418     8.0464     9.1543    11.9651
  154.5000     7.5932   119.2739     0.0186     0.0878     2.4965   -44.4380     7.9958     9.3498    12.0567
  155.0000     7.7586   117.6479     0.0187     0.0884     2.5018   -46.4931     7.9457     8.7906    11.8992
  155.5000     7.8644   116.0219     0.0158     0.0839     2.5086   -48.9945     7.8949     9.1045    11.7416
  156.0000     7.9255   114.5449     0.0130     0.0817     2.5116   -50.9008     7.8454     9.5610    11.5103
  156.5000     7.9419   113.9587     0.0101     0.0835     2.5034   -52.8071     7.7426     8.9261    11.5183
  157.0000     7.9136   115.0186     0.0072     0.0895     2.4914   -55.6061     7.6941     8.7459    11.4448
  157.5000     7.8999   116.2242     0.0058     0.0984     2.4810   -63.2227     7.6471     9.5090    11.3738
  158.0000     7.8867   117.8769     0.0060     0.1017     2.4735   -66.0346     7.6519     9.3828    11.5407
  158.5000     7.8882   120.2747     0.0061     0.0993     2.4796   -62.7470     7.6567     9.0056    11.7993
  159.0000     7.9046   122.9706     0.0077     0.0939     2.4908   -60.6518     7.6614     8.8851    11.9637
  159.5000     7.9210   125.5175     0.0079     0.0834     2.5058   -57.9622     7.6662     9.6603    11.7206
  160.0000     7.9374   126.5741     0.0080     0.0810     2.5133   -54.8306     7.6710     9.6650    11.1789
  160.5000     7.9538   125.5442     0.0036     0.0866     2.5036   -56.1529     7.6758     9.4710    11.5808
  161.0000     7.9553   124.2162     0.0007     0.0956     2.4902   -53.9054     7.6806     9.1534    11.9144
  161.5000     7.9418   123.9282    -0.0021     0.1009     2.4790   -52.5531     7.6854     8.8464    11.5970
  162.0000     7.9437   124.0939    -0.0020     0.1069     2.4708   -50.9037     7.6902     8.7886    11.5247
  162.5000     7.9299   123.9582    -0.0019     0.1108     2.4633   -50.4430     7.6950     9.4241    11.6132
  163.0000     7.9317   123.6734    -0.0002     0.1117     2.4581   -49.6850     7.6998     9.3637    11.6213
  163.5000     7.9179   122.6436     0.0014     0.1092     2.4559   -47.9822     7.7047     8.9252    11.4675
  164.0000     7.9045   120.2724     0.0046     0.1065     2.4687   -47.1322     7.7095     9.1802    11.3963
  164.5000     7.9064   119.5372     0.0077     0.1041     2.4739   -46.0906     7.7143     9.5741    11.5653
  165.0000     7.8926   122.6836     0.0094     0.1062     2.4725   -42.8826     7.7726     9.7122    11.4142
  165.5000     7.8791   125.5285     0.0095     0.1082     2.4695   -44.0714     7.8314     8.7589    11.2631
  166.0000     7.8508   125.6909     0.0081     0.1103     2.4650   -46.1814     7.8363     8.5229    11.2730
  166.5000     7.8076   125.7042     0.0037     0.1112     2.4628   -43.4919     7.8412     9.2665    11.2010
  167.0000     7.7647   125.7175    -0.0007     0.1070     2.4666   -46.1515     7.8461     9.7987    11.3672
  167.5000     7.7662   125.2838    -0.0066     0.1048     2.4719   -47.3252     7.9055     9.3568    11.6946
  168.0000     7.7975   122.6145    -0.0109     0.1075     2.4659   -49.9848     7.9104     8.7187    12.0315
  168.5000     7.8288   120.8395    -0.0123     0.1117     2.4607   -50.0357     7.9153     9.0561    11.4682
  169.0000     7.8601   121.2999    -0.0137     0.1150     2.4555   -46.9831     7.9203     9.8166    11.7191
  169.5000     7.8765   122.2075    -0.0136     0.1176     2.4525   -46.1753     7.9802     9.0277    12.3953
  170.0000     7.8779   122.0718    -0.0119     0.1185     2.4525   -47.1018     7.9953     8.9809    12.8410
  170.5000     7.8943   120.8928    -0.0088     0.1125     2.4623   -47.8298     8.1104     9.5053    12.0735
  171.0000     7.8958   119.1178    -0.0056     0.1071     2.4706   -49.4492     8.2179     9.9041    11.7499
  171.5000     7.8973   118.5350    -0.0025     0.1032     2.4736   -51.2173     8.1664     9.7727    12.0904
  172.0000     7.8988   118.9995     0.0038     0.0995     2.4789   -54.0255     8.1717     9.3799    12.2655
  172.5000     7.9152   119.9180     0.0115     0.0941     2.4879   -54.9021     8.1204     9.5152    12.1052
  173.0000     7.9166   121.4396     0.0177     0.0893     2.4969   -56.2244     8.1255     9.9234    12.2094
  173.5000     7.9181   123.7278     0.0224     0.0866     2.5037   -53.3863     8.0745     9.5245    12.4628
  174.0000     7.9196   125.7735     0.0254     0.0869     2.4984   -57.9776     8.0218     8.9538    12.2094
  174.5000     7.9361   125.4282     0.0238     0.0880     2.5000   -60.3437     7.9188     9.4027    11.8074
  175.0000     7.9375   123.4724     0.0178     0.0877     2.5045   -57.0561     7.9237     9.8061    11.8978
  175.5000     7.9390   122.0694     0.0134     0.0873     2.4978   -52.5835     7.8199     9.9476    11.5808
  176.0000     7.9404   124.0235     0.0123     0.0916     2.4926   -51.3835     7.8248     9.5477    11.9144
  176.5000     7.9419   125.5271     0.0110     0.0954     2.4888   -55.2318     7.7757     8.7306    12.1730
