~VERSION INFORMATION
 VERS.                2.0:   CWLS LOG ASCII STANDARD - VERSION 2.0
 WRAP.                 NO:   ONE LINE PER DEPTH STEP
~WELL INFORMATION
#MNEM.UNIT      DATA TYPE    INFORMATION
#----------   ------------   ------------------------------
 STRT.F            0.0000:   START DEPTH
 STOP.F          663.0000:   STOP DEPTH
 STEP.F            0.1000:   STEP LENGTH
 NULL.          -999.2500:   NO VALUE
 COMP.   FLUOR DANIEL INC:   COMPANY
 WELL.     62-6 X 3 #62-3:   WELL
 FLD .             TEAPOT:   FIELD
 LOC .       S3 T38N R78W:   LOCATION
 CNTY.            NATRONA:   COUNTY
 STAT.            WYOMING:   STATE
 CTRY. UNITED STATES OF AMERICA:   COUNTRY
 SRVC.      Western Atlas:   SERVICE COMPANY
 DATE.        11-APR-1995:   LOGDATE
 API .       490252270400:   API NUMBER
~CURVE INFORMATION
#MNEM.UNIT       API CODE    CURVE DESCRIPTION
#----------   ------------   ------------------------------
 DEPT.F                  :   
 GRR .GAPI   07 310 01 00:   GAMMA RAY
 RILD.OHMM   07 120 46 00:   INDUCTION LOG DEEP RESISTIVITY
 RILM.OHMM   07 120 44 00:   INDUCTION LOG MEDIUM RESISTIVITY
~PARAMETER INFORMATION
#MNEM.UNIT          VALUE    DESCRIPTION
#----------   ------------   ------------------------------
 PD  .                 GL:   PERMANENT DATUM
 EPD .F              5157:   ELEVATION PERMANENT DATUM
 LMF .                 KB:   LOG MEASURED FROM
 DAPD.F                10:   FEET ABOVE PERMANENT DATUM
 DMF .                 KB:   DRILLING MEASURED FROM
 EKB .F              5167:   KELLING BUSHING
 EDF .F              5166:   DRILLING FLOOR
 EGL .F              5157:   GROUND LEVEL
 DATE.        11-APR-1995:   RUN DATE
 RUN .                  1:   RUN NUMBER
 DD  .F               671:   DEPTH DRILLER
 DL  .F               671:   DEPTH LOGGER
 BLI .F               663:   BOTTOM LOG INTERVAL
 TLI .F                95:   TOP LOG INTERVAL
 CS  .IN            9.625:   CASING SIZE
 CBD .F                95:   CASING BOTTOM DRILLER
 CBL .F                95:   CASING BOTTOM LOGGER
 BS  .IN             8.75:   BIT SIZE
 BSD .F               671:   BIT SIZE AT DEPTH
 DFT .                AIR:   DRILLING FLUID TYPE
 MRT .F                90:   MAXIMUM RECORDED TEMPERATURE
 LUN .            HL 6530:   LOGGING UNIT NUMBER
 LUL .             CASPER:   LOGGING UNIT LOCATION
 ENGI.      PAT RASMUSSEN:   RECORDING ENGINEER
 WITN.        GARY STRONG:   WITNESSED BY
 CLNT.            A2DTECH:   CLIENT CODE
 ORIG.           5" PRINT:   ORIGIN OF DATA
 UWI .       490252270400:   UNIQUE WELL ID
 DICO. A2D Technologies, Inc.:   DIGITIZING COMPANY
~OTHER INFORMATION
~A    DEPT      GRR      RILD       RILM   
# ...
  309.4000   104.7448     8.3337     8.6183
  309.5000   104.5080     8.2956     8.6189
  309.6000   104.2490     8.2462     8.6195
  309.7000   103.8306     8.2199     8.6201
  309.8000   103.4297     8.2051     8.6207
  309.9000   103.0107     8.1637     8.6213
  310.0000   102.2690     8.1642     8.6219
  310.1000   101.7483     8.1647     8.5834
  310.2000   100.8486     8.1651     8.5631
  310.3000    99.9623     8.1656     8.5637
  310.4000    99.2835     8.1660     8.5643
  310.5000    99.3334     8.1665     8.5649
  310.6000    99.7558     8.1669     8.5655
  310.7000   100.0197     8.1674     8.5208
  310.8000   100.3069     8.1679     8.5071
  310.9000   100.8652     8.1683     8.5076
  311.0000   101.3574     8.1688     8.4897
  311.1000   101.8827     8.1692     8.4399
  311.2000   102.2426     8.1697     8.3905
  311.3000   102.7580     8.1853     8.3337
  311.4000   103.3727     8.2277     8.3342
  311.5000   103.6828     8.2281     8.3348
  311.6000   104.2081     8.2286     8.3109
  311.7000   104.8003     8.2290     8.2779
  311.8000   105.0305     8.2295     8.2785
  311.9000   105.4828     8.2568     8.2791
  312.0000   106.0081     8.2879     8.2797
  312.1000   106.6423     8.2884     8.2412
  312.2000   107.4289     8.2888     8.2232
  312.3000   108.1863     8.2893     8.2238
  312.4000   108.7326     8.2898     8.2243
  312.5000   109.6390     8.2902     8.2249
  312.6000   110.2747     8.2907     8.2255
  312.7000   110.7185     8.2911     8.2261
  312.8000   111.1141     8.2916     8.2266
  312.9000   111.6394     8.2921     8.2272
  313.0000   112.1124     8.2925     8.2278
  313.1000   112.3887     8.2931     8.2285
  313.2000   112.9689     8.2934     8.2712
  313.3000   112.9711     8.2594     8.2872
  313.4000   113.1679     8.2368     8.2878
  313.5000   113.2771     8.2182     8.2883
  313.6000   113.2795     8.1806     8.2774
  313.7000   113.2819     8.1811     8.2318
  313.8000   113.3196     8.1815     8.2324
  313.9000   113.5880     8.1366     8.2330
  314.0000   113.5908     8.1257     8.2335
  314.1000   113.5928     8.0960     8.2035
  314.2000   113.5952     8.0255     8.1774
  314.3000   113.5976     7.9590     8.1628
  314.4000   113.5020     7.9521     8.1141
  314.5000   113.3012     7.9047     8.0657
  314.6000   113.2852     7.8504     8.0102
  314.7000   113.0050     7.7711     8.0107
  314.8000   113.0072     7.7426     7.9778
  314.9000   112.6087     7.7180     7.9045
  315.0000   112.2490     7.6543     7.8280
  315.1000   111.7482     7.5733     7.7922
  315.2000   111.0474     7.5316     7.7891
  315.3000   110.4855     7.5321     7.7391
  315.4000   109.7068     7.4907     7.6112
  315.5000   109.4100     7.4117     7.5797
  315.6000   108.7421     7.3503     7.5521
  315.7000   108.1437     7.3065     7.4862
  315.8000   107.1920     7.2496     7.4103
  315.9000   105.9913     7.1696     7.3661
  316.0000   105.1406     7.1268     7.3222
  316.1000   104.9058     7.0779     7.1709
  316.2000   104.9086     6.9709     7.1348
  316.3000   105.6494     6.9034     7.0627
  316.4000   106.0233     6.8401     7.0009
  316.5000   106.6205     6.7740     6.9591
  316.6000   107.2803     6.7151     6.8985
  316.7000   107.8056     6.5979     6.7810
  316.8000   108.3310     6.5131     6.7374
  316.9000   108.8640     6.4058     6.6261
  317.0000   109.7473     6.2624     6.5376
  317.1000   110.2080     6.1359     6.4356
  317.2000   110.7333     6.0262     6.3202
  317.3000   110.9590     5.9184     6.2069
  317.4000   111.0715     5.8071     6.1012
  317.5000   111.3354     5.6687     6.0281
  317.6000   111.5687     5.5134     5.8625
  317.7000   111.5712     5.3483     5.7154
  317.8000   110.9715     5.1586     5.5455
  317.9000   110.9735     4.9755     5.3979
  318.0000   110.8032     4.8096     5.2572
  318.1000   110.2784     4.6731     5.0937
  318.2000   109.6827     4.5618     4.9120
  318.3000   109.3169     4.4449     4.7237
  318.4000   108.5622     4.3716     4.5943
  318.5000   108.2773     4.2738     4.4374
  318.6000   107.3381     4.1875     4.2953
  318.7000   106.2949     4.1126     4.1676
  318.8000   105.4074     4.0317     4.0435
  318.9000   104.5093     3.9356     3.9195
  319.0000   103.3894     3.8418     3.7796
  319.1000   102.1214     3.6593     3.6758
  319.2000   101.0651     3.5677     3.6018
  319.3000   100.4655     3.4196     3.5159
  319.4000   100.9044     3.2690     3.4321
  319.5000   101.0723     3.1269     3.3502
  319.6000   101.0747     2.9914     3.2658
  319.7000   101.0771     2.9012     3.1699
  319.8000   101.0795     2.7903     3.0885
  319.9000   101.0819     2.7292     3.0207
  320.0000   101.0845     2.6890     2.9487
  320.1000   100.6040     2.6471     2.8890
  320.2000   100.2851     2.5926     2.8294
  320.3000   100.0261     2.5402     2.7772
  320.4000    99.6450     2.5075     2.7555
  320.5000    99.2068     2.4626     2.7061
  320.6000    98.9478     2.4119     2.6502
  320.7000    98.6861     2.3997     2.6368
  320.8000    98.0919     2.3755     2.6102
  320.9000    97.8695     2.3624     2.5790
  321.0000    97.7952     2.3736     2.5540
  321.1000    97.6526     2.3958     2.5388
  321.2000    97.2884     2.3971     2.5225
  321.3000    96.8333     2.4128     2.4900
  321.4000    96.5743     2.4129     2.4763
  321.5000    96.3013     2.4131     2.4845
  321.6000    96.7983     2.4222     2.4998
  321.7000    97.3237     2.4302     2.5222
  321.8000    97.6812     2.4394     2.5483
  321.9000    97.9450     2.4646     2.5640
  322.0000    98.2088     2.4647     2.5797
  322.1000    98.4727     2.4821     2.6162
  322.2000    98.7365     2.4949     2.6298
  322.3000    99.0316     2.5207     2.6571
  322.4000    99.0337     2.5431     2.6896
  322.5000    99.2269     2.5646     2.7290
  322.6000    99.3398     2.5959     2.7831
  322.7000    99.4534     2.6263     2.8514
  322.8000    99.6458     2.6436     2.9268
  322.9000    99.6482     2.6883     3.0102
  323.0000    99.6507     2.7249     3.0885
  323.1000    99.6535     2.7581     3.1764
  323.2000    99.8691     2.8076     3.2836
  323.3000   100.1329     2.8708     3.3986
  323.4000   100.3968     2.9234     3.5098
  323.5000   100.7550     2.9769     3.6615
  323.6000   101.3474     3.0399     3.8452
  323.7000   102.1945     3.0871     3.9456
  323.8000   103.0416     3.1703     4.0672
  323.9000   103.8887     3.2676     4.1786
  324.0000   104.7358     3.3678     4.2813
  324.1000   105.5699     3.4760     4.3864
  324.2000   106.3904     3.6076     4.4918
  324.3000   107.8147     3.7999     4.5808
  324.4000   108.2939     3.9519     4.6849
  324.5000   108.6204     4.1229     4.8002
  324.6000   108.8843     4.3012     4.8997
  324.7000   109.0289     4.4999     4.9898
  324.8000   109.0313     4.7042     5.0815
  324.9000   109.0735     4.8729     5.1798
  325.0000   109.3373     5.0220     5.3068
  325.1000   109.6413     5.2366     5.4196
  325.2000   109.6434     5.3453     5.5041
  325.3000   109.8277     5.4532     5.5818
  325.4000   110.2338     5.5531     5.6688
  325.5000   110.7591     5.6548     5.7459
  325.6000   111.4098     5.7583     5.7975
  325.7000   112.4349     5.8582     5.8985
  325.8000   113.2724     5.8968     5.9375
  325.9000   113.7638     5.9632     6.0047
  326.0000   114.2892     6.0360     6.0783
  326.1000   114.4843     6.0868     6.1297
  326.2000   114.3614     6.1412     6.1847
  326.3000   114.1024     6.2045     6.2487
  326.4000   113.8887     6.2424     6.2812
  326.5000   113.8856     6.2805     6.2816
  326.6000   113.5931     6.3689     6.3262
  326.7000   113.3674     6.4019     6.3918
  326.8000   113.1084     6.4410     6.4429
  326.9000   112.7012     6.4803     6.4614
  327.0000   112.3976     6.5199     6.4618
  327.1000   112.3313     6.5597     6.4713
  327.2000   112.0723     6.5967     6.5111
  327.3000   111.8025     6.5971     6.5541
  327.4000   111.8053     6.6343     6.5913
  327.5000   111.8072     6.6439     6.6009
