~VERSION INFORMATION
 VERS.                2.0:   CWLS LOG ASCII STANDARD - VERSION 2.0
 WRAP.                 NO:   ONE LINE PER DEPTH STEP
~WELL INFORMATION
#MNEM.UNIT      DATA TYPE    INFORMATION
#----------   ------------   ------------------------------
 STRT.F            2.0000:   START DEPTH
 STOP.F          602.0000:   STOP DEPTH
 STEP.F            0.1000:   STEP LENGTH
 NULL.          -999.2500:   NO VALUE
 COMP.       F D SERV INC:   COMPANY
 WELL.    63-1 SX-3 #63-3:   WELL
 FLD .             TEAPOT:   FIELD
 LOC .       S3 T38N R78W:   LOCATION
 CNTY.            NATRONA:   COUNTY
 STAT.            WYOMING:   STATE
 CTRY. UNITED STATES OF AMERICA:   COUNTRY
 SRVC.     Atlas Wireline:   SERVICE COMPANY
 DATE.        20-APR-1992:   LOGDATE
 API .       490252251300:   API NUMBER
~CURVE INFORMATION
#MNEM.UNIT       API CODE    CURVE DESCRIPTION
#----------   ------------   ------------------------------
 DEPT.F                  :   
 GRR .GAPI   07 310 01 00:   GAMMA RAY
 RILD.OHMM   07 120 46 00:   INDUCTION LOG DEEP RESISTIVITY
 RILM.OHMM   07 120 44 00:   INDUCTION LOG MEDIUM RESISTIVITY
~PARAMETER INFORMATION
#MNEM.UNIT          VALUE    DESCRIPTION
#----------   ------------   ------------------------------
 PD  .                 GL:   PERMANENT DATUM
 EPD .F              5176:   ELEVATION PERMANENT DATUM
 LMF .                 KB:   LOG MEASURED FROM
 DAPD.F                 5:   FEET ABOVE PERMANENT DATUM
 DMF .                 KB:   DRILLING MEASURED FROM
 EKB .F              5181:   KELLING BUSHING
 EDF .F              5180:   DRILLING FLOOR
 EGL .F              5176:   GROUND LEVEL
 DATE.        20-APR-1992:   RUN DATE
 RUN .                  1:   RUN NUMBER
 DD  .F               608:   DEPTH DRILLER
 DL  .F               608:   DEPTH LOGGER
 BLI .F               602:   BOTTOM LOG INTERVAL
 CS  .IN            8.625:   CASING SIZE
 CBD .F                48:   CASING BOTTOM DRILLER
 CBL .F                50:   CASING BOTTOM LOGGER
 BS  .IN            7.875:   BIT SIZE
 BSD .F               608:   BIT SIZE AT DEPTH
 DFT .                AIR:   DRILLING FLUID TYPE
 TCS .HRS               2:   TIME CURCULATED STOPPED
 MRT .F                85:   MAXIMUM RECORDED TEMPERATURE
 LUN .           HL- 6274:   LOGGING UNIT NUMBER
 LUL .             CASPER:   LOGGING UNIT LOCATION
 ENGI.             RAUTIO:   RECORDING ENGINEER
 WITN.        GARY STRONG:   WITNESSED BY
 CLNT.            A2DTECH:   CLIENT CODE
 ORIG.           5" PRINT:   ORIGIN OF DATA
 UWI .       490252251300:   UNIQUE WELL ID
 DICO. A2D Technologies, Inc.:   DIGITIZING COMPANY
~OTHER INFORMATION
~A    DEPT      GRR      RILD       RILM   
# ...
  366.0000   132.6295     9.5806     9.8408
  366.1000   133.8190     9.5805     9.8405
  366.2000   133.8226     9.5804     9.8050
  366.3000   133.8251     9.5802     9.7944
  366.4000   133.8280     9.5906     9.8397
  366.5000   133.8310     9.6471     9.8394
  366.6000   133.8340     9.6470     9.8392
  366.7000   133.8373     9.6469     9.8806
  366.8000   133.3833     9.7039     9.9369
  366.9000   132.8928     9.7824     9.9935
  367.0000   132.1649     9.7895    10.0504
  367.1000   131.3085     9.9198    10.1162
  367.2000   130.8090    10.0636    10.2648
  367.3000   129.9342    10.2372    10.4419
  367.4000   129.3343    10.4136    10.6219
  367.5000   128.4511    10.6029    10.8163
  367.6000   127.3761    10.8624    11.0752
  367.7000   126.2176    11.1577    11.3212
  367.8000   125.4241    11.4337    11.5827
  367.9000   124.9710    11.7306    11.8500
  368.0000   124.4807    12.0878    12.1438
  368.1000   123.8722    12.5039    12.4940
  368.2000   122.9455    12.9348    12.9105
  368.3000   121.4765    13.0551    13.0362
  368.4000   120.0126    13.2939    13.2810
  368.5000   118.4149    13.6001    13.5238
  368.6000   115.8629    13.9132    13.7074
  368.7000   112.9037    14.2633    14.0361
  368.8000   109.8742    14.5628    14.3472
  368.9000   106.1511    14.9577    14.6786
  369.0000   101.8380    15.3899    15.0621
  369.1000    98.5302    15.8127    15.4446
  369.2000    96.1708    16.1766    15.7168
  369.3000    94.0127    16.5503    16.1354
  369.4000    91.2627    16.9326    16.4509
  369.5000    86.5617    17.3791    16.8915
  369.6000    81.9760    17.8808    17.3392
  369.7000    75.2924    18.3851    17.7384
  369.8000    69.9101    18.8603    18.1650
  369.9000    68.0616    19.2434    18.5667
  370.0000    66.0636    19.6875    19.0761
  370.1000    65.3863    20.1415    19.5696
  370.2000    63.4475    20.6052    20.0543
  370.3000    61.5669    21.0900    20.6326
  370.4000    60.4597    21.5665    21.3235
  370.5000    59.7435    22.1603    22.1678
  370.6000    59.7472    22.8010    23.0360
  370.7000    59.7496    23.4182    23.8371
  370.8000    59.7527    23.9567    24.6140
  370.9000    60.2013    24.5928    25.2073
  371.0000    61.4383    25.0758    25.9047
  371.1000    62.7785    25.6544    26.5428
  371.2000    65.0404    26.1249    27.1549
  371.3000    66.9982    26.4503    27.8271
  371.4000    68.8456    26.9297    28.6084
  371.5000    70.8846    27.3705    29.1802
  371.6000    73.0881    27.7276    29.4615
  371.7000    74.8633    28.0452    29.6936
  371.8000    75.6591    28.3663    29.7951
  371.9000    76.3623    28.6833    29.7943
  372.0000    76.6818    28.8764    29.7934
  372.1000    76.6847    28.7415    29.7926
  372.2000    76.6880    28.6746    29.7918
  372.3000    76.6908    28.6140    29.6200
  372.4000    76.3529    28.4277    29.3299
  372.5000    75.8624    28.0785    29.1621
  372.6000    75.3111    27.9316    28.9684
  372.7000    74.5735    27.6635    28.6923
  372.8000    73.6899    27.3494    28.3661
  372.9000    73.0991    27.0386    28.1059
  373.0000    72.3619    26.7362    27.9451
  373.1000    71.7126    26.7359    27.7769
  373.2000    71.2221    26.6153    27.4774
  373.3000    70.6880    26.5489    27.3905
  373.4000    70.2410    26.5486    27.3112
  373.5000    69.7506    26.5655    27.1985
  373.6000    69.0301    26.7339    27.1978
  373.7000    68.0458    26.7336    27.1969
  373.8000    67.0727    26.8347    27.1962
  373.9000    66.5820    27.0557    27.1954
  374.0000    66.0915    27.3320    27.1947
  374.1000    65.8853    27.4899    27.2203
  374.2000    65.7138    27.8013    27.3836
  374.3000    65.2877    27.9975    27.3828
  374.4000    65.5930    28.1572    27.4956
  374.5000    66.2684    28.3685    27.6522
  374.6000    66.8425    28.6930    27.8096
  374.7000    67.4535    29.0680    27.9679
  374.8000    68.3750    29.3545    28.1538
  374.9000    69.8638    29.6910    28.4228
  375.0000    71.5937    30.0311    28.6479
  375.1000    72.7347    30.4069    28.8112
  375.2000    73.7247    30.9527    28.9753
  375.3000    74.5414    31.2926    29.1494
  375.4000    75.0381    31.6515    29.3062
  375.5000    75.5810    32.1077    29.5953
  375.6000    75.5837    32.6075    29.8486
  375.7000    75.4180    32.9701    30.0185
  375.8000    75.2881    33.1903    30.1989
  375.9000    75.2322    33.3475    30.6032
  376.0000    74.9885    33.4222    30.8950
  376.1000    74.7447    33.4217    31.3589
  376.2000    74.3051    33.4212    31.8282
  376.3000    73.3918    33.4207    32.1922
  376.4000    72.4191    33.5978    32.5822
  376.5000    71.8665    33.7895    32.9339
  376.6000    70.7876    33.8897    33.3113
  376.7000    69.6754    33.9380    33.6927
  376.8000    68.4445    34.1315    34.0784
  376.9000    67.3270    34.3262    34.4580
  377.0000    66.4597    34.5222    34.6880
  377.1000    65.9689    34.7192    35.0179
  377.2000    65.4786    34.9172    35.4190
  377.3000    65.5738    35.1413    35.8244
  377.4000    65.8236    35.5847    36.2006
  377.5000    66.0734    35.7672    36.4194
  377.6000    66.3232    35.9713    36.8114
  377.7000    66.5976    36.1765    37.0807
  377.8000    66.6003    36.4293    37.2918
  377.9000    66.6034    36.8475    37.5042
  378.0000    66.3810    37.0571    37.7284
  378.1000    65.7752    37.2686    38.2358
  378.2000    64.7971    37.4812    38.4159
  378.3000    64.3063    37.6949    38.6348
  378.4000    63.6213    37.9099    38.8549
  378.5000    63.1635    38.1544    39.0760
  378.6000    62.8348    38.3438    39.3126
  378.7000    62.2839    38.4210    39.3116
  378.8000    61.2009    38.5124    39.4712
  378.9000    60.7598    38.7321    39.5847
  379.0000    60.2693    38.9601    39.5836
  379.1000    60.0030    38.9595    39.5825
  379.2000    60.0060    38.9590    39.5812
  379.3000    60.0090    39.0736    39.3947
  379.4000    60.0121    39.2311    39.3040
  379.5000    60.0151    39.2452    39.2182
  379.6000    60.2963    39.5051    38.9938
  379.7000    61.0454    39.5046    38.7559
  379.8000    62.3414    39.5040    38.7549
  379.9000    64.2507    39.5035    38.5970
  380.0000    65.1382    39.5029    38.3763
  380.1000    65.9623    39.5023    38.2146
  380.2000    66.3711    39.5018    38.2040
  380.3000    66.3176    39.5013    37.9466
  380.4000    66.0754    39.5007    37.7684
  380.5000    66.0784    39.5002    37.5524
  380.6000    66.0815    39.4915    37.3376
  380.7000    65.9460    39.2239    37.1241
  380.8000    65.7022    39.0428    36.8971
  380.9000    65.4868    38.9498    36.7007
  381.0000    65.4905    38.8697    36.3443
  381.1000    65.4932    38.6480    36.0300
  381.2000    65.4962    38.4075    35.7703
  381.3000    65.3884    38.4071    35.3626
  381.4000    65.2006    38.1093    34.8880
  381.5000    65.2036    37.7744    34.5632
  381.6000    65.2066    37.5591    34.1701
  381.7000    65.4025    37.3434    33.7813
  381.8000    65.7903    36.9200    33.3968
  381.9000    66.5363    36.5012    32.9894
  382.0000    67.7728    36.0868    32.6412
  382.1000    69.1436    35.6768    32.1412
  382.2000    70.4665    35.2713    31.6809
  382.3000    71.2897    34.8226    31.3201
  382.4000    71.4554    34.3038    30.9566
  382.5000    71.2117    33.7218    30.3345
  382.6000    70.9683    33.3100    30.0530
  382.7000    70.9713    33.0444    29.6113
  382.8000    70.3975    32.4700    29.1075
  382.9000    69.9350    32.1102    28.6122
  383.0000    69.6089    31.6110    28.0895
  383.1000    69.1731    31.1669    27.6479
  383.2000    69.1768    30.7607    27.2866
  383.3000    69.1795    30.2506    26.9028
  383.4000    69.1825    29.8556    26.4836
  383.5000    69.1855    29.5679    26.1818
  383.6000    69.1886    29.2325    25.8289
  383.7000    69.1916    28.9005    25.4720
  383.8000    69.1945    28.5721    25.1230
  383.9000    70.3469    28.2304    24.8372
  384.0000    72.3780    28.0780    24.5747
  384.1000    74.8491    27.9180    24.4233
