~VERSION INFORMATION
 VERS.                2.0:   CWLS LOG ASCII STANDARD - VERSION 2.0
 WRAP.                 NO:   ONE LINE PER DEPTH STEP
~WELL INFORMATION
#MNEM.UNIT      DATA TYPE    INFORMATION
#----------   ------------   ------------------------------
 STRT.F            0.0000:   START DEPTH
 STOP.F          551.0000:   STOP DEPTH
 STEP.F            0.1000:   STEP LENGTH
 NULL.          -999.2500:   NO VALUE
 COMP.       F D SERV INC:   COMPANY
 WELL.    62-2 SX-3 #62-3:   WELL
 FLD .          N.P.R. #3:   FIELD
 LOC .       S3 T38N R78W:   LOCATION
 CNTY.            NATRONA:   COUNTY
 STAT.            WYOMING:   STATE
 CTRY. UNITED STATES OF AMERICA:   COUNTRY
 SRVC.     Atlas Wireline:   SERVICE COMPANY
 DATE.        17-APR-1992:   LOGDATE
 API .       490252250700:   API NUMBER
~CURVE INFORMATION
#MNEM.UNIT       API CODE    CURVE DESCRIPTION
#----------   ------------   ------------------------------
 DEPT.F                  :   
 GRR .GAPI   07 310 01 00:   GAMMA RAY
 RILD.OHMM   07 120 46 00:   INDUCTION LOG DEEP RESISTIVITY
 RILM.OHMM   07 120 44 00:   INDUCTION LOG MEDIUM RESISTIVITY
~PARAMETER INFORMATION
#MNEM.UNIT          VALUE    DESCRIPTION
#----------   ------------   ------------------------------
 PD  .                 GL:   PERMANENT DATUM
 EPD .F              5130:   ELEVATION PERMANENT DATUM
 LMF .                 KB:   LOG MEASURED FROM
 DAPD.F                 5:   FEET ABOVE PERMANENT DATUM
 DMF .                 KB:   DRILLING MEASURED FROM
 EKB .F              5135:   KELLING BUSHING
 EDF .F              5134:   DRILLING FLOOR
 EGL .F              5130:   GROUND LEVEL
 DATE.        17-APR-1992:   RUN DATE
 RUN .                  1:   RUN NUMBER
 DD  .F               560:   DEPTH DRILLER
 DL  .F               560:   DEPTH LOGGER
 BLI .F               558:   BOTTOM LOG INTERVAL
 CS  .IN            8.625:   CASING SIZE
 CBD .F                47:   CASING BOTTOM DRILLER
 CBL .F                50:   CASING BOTTOM LOGGER
 BS  .IN            7.875:   BIT SIZE
 BSD .F               560:   BIT SIZE AT DEPTH
 DFT .                AIR:   DRILLING FLUID TYPE
 TCS .HRS               2:   TIME CURCULATED STOPPED
 MRT .F                83:   MAXIMUM RECORDED TEMPERATURE
 LUN .           HL- 6274:   LOGGING UNIT NUMBER
 LUL .             CASPER:   LOGGING UNIT LOCATION
 ENGI.            LEBSOCK:   RECORDING ENGINEER
 WITN.        GARY STRONG:   WITNESSED BY
 CLNT.            A2DTECH:   CLIENT CODE
 ORIG.           5" PRINT:   ORIGIN OF DATA
 UWI .       490252250700:   UNIQUE WELL ID
 DICO. A2D Technologies, Inc.:   DIGITIZING COMPANY
~OTHER INFORMATION
~A    DEPT      GRR      RILD       RILM   
# ...
  327.6000   141.7165     6.0211     5.1991
  327.7000   142.8553     5.9936     5.1994
  327.8000   144.1879     5.9794     5.1997
  327.9000   145.6791     5.9796     5.1999
  328.0000   147.2922     5.9797     5.2221
  328.1000   148.4347     5.9799     5.2679
  328.2000   149.5049     6.0120     5.3289
  328.3000   150.2623     6.0469     5.3929
  328.4000   150.6969     6.0992     5.5005
  328.5000   150.9583     6.1698     5.5823
  328.6000   151.5467     6.2413     5.6587
  328.7000   151.7529     6.3256     5.7381
  328.8000   151.8547     6.3870     5.8378
  328.9000   151.5732     6.4841     5.9416
  329.0000   150.7510     6.5970     6.0426
  329.1000   149.4435     6.7118     6.1478
  329.2000   148.0420     6.8332     6.2548
  329.3000   146.5566     6.9478     6.3753
  329.4000   144.6965     7.0387     6.5195
  329.5000   142.6783     7.1419     6.6468
  329.6000   141.1441     7.2663     6.7485
  329.7000   138.5693     7.4002     6.8659
  329.8000   136.6844     7.6448     6.9853
  329.9000   133.5232     7.7607     7.0977
  330.0000   130.2079     7.8663     7.1798
  330.1000   127.4803     7.9774     7.3049
  330.2000   124.6658     8.1062     7.4322
  330.3000   122.5079     8.2005     7.5615
  330.4000   121.0203     8.2952     7.6930
  330.5000   120.1764     8.3914     7.8266
  330.6000   119.9133     8.4886     7.9760
  330.7000   120.1864     8.5870     8.1014
  330.8000   120.7508     8.6925     8.2751
  330.9000   121.6166     8.8588     8.4220
  331.0000   122.7736     8.9515     8.5195
  331.1000   123.9103     9.0913     8.6180
  331.2000   124.9578     9.2496     8.7375
  331.3000   126.2118     9.4106     8.9013
  331.4000   127.4450     9.5759     9.0775
  331.5000   129.0721     9.8419     9.2353
  331.6000   130.5375     9.9809     9.3957
  331.7000   131.7810    10.1201     9.5710
  331.8000   132.9966    10.2373     9.6739
  331.9000   134.0972    10.3560     9.7860
  332.0000   134.5437    10.4837     9.8716
  332.1000   134.7080    10.5405     9.9136
  332.2000   134.2594    10.6016     9.9169
  332.3000   133.3280    10.6325     9.9843
  332.4000   132.5820    10.6499     9.9848
  332.5000   131.5932    10.7078     9.9853
  332.6000   130.6042    10.7081    10.0082
  332.7000   129.6147    10.7084    10.0563
  332.8000   128.7139    10.7087     9.9870
  332.9000   127.9386    10.7090    10.0422
  333.0000   126.8686    10.7093    10.0581
  333.1000   126.6434    10.7096    10.0587
  333.2000   126.2249    10.7098    10.0593
  333.3000   126.0888    10.7101    10.0641
  333.4000   126.3399    10.7105    10.1310
  333.5000   126.6215    10.7108    10.1812
  333.6000   127.7948    10.7110    10.2403
  333.7000   128.6124    10.7114    10.2998
  333.8000   129.6078    10.7117    10.3595
  333.9000   130.6032    10.7526    10.4210
  334.0000   131.5989    10.7875    10.4800
  334.1000   132.6507    10.7879    10.5868
  334.2000   133.3557    10.7883    10.7095
  334.3000   133.7439    10.8508    10.8137
  334.4000   133.8699    10.9137    10.8826
  334.5000   133.8729    10.9769    11.0240
  334.6000   133.8759    11.0405    11.1362
  334.7000   133.8794    11.1210    11.3082
  334.8000   133.6723    11.3322    11.4756
  334.9000   133.1167    11.4517    11.6084
  335.0000   132.2747    11.6310    11.7428
  335.1000   131.1919    11.8335    11.9474
  335.2000   129.6582    12.0394    12.1555
  335.3000   128.4607    12.2465    12.3671
  335.4000   127.4087    12.4146    12.6072
  335.5000   126.4193    12.5323    12.8904
  335.6000   125.3535    12.7217    13.1364
  335.7000   123.9177    12.9146    13.4126
  335.8000   119.9943    13.0764    13.7246
  335.9000   117.1918    13.3171    14.0436
  336.0000   114.4530    13.5362    14.3697
  336.1000   111.9739    13.8302    14.7027
  336.2000   109.3378    14.1942    15.1120
  336.3000   106.0908    14.6080    15.3239
  336.4000   100.9270    15.0330    15.6437
  336.5000    94.9524    15.5383    16.0414
  336.6000    90.3986    15.7687    16.5075
  336.7000    87.1763    16.1621    17.0229
  336.8000    84.1512    16.7150    17.3905
  336.9000    82.5086    17.3794    17.8684
  337.0000    80.0705    18.0029    18.3365
  337.1000    78.0143    18.6220    18.7916
  337.2000    76.1677    19.1082    19.3320
  337.3000    74.2438    19.4919    19.8587
  337.4000    72.5188    19.8683    20.2425
  337.5000    71.2807    20.3421    20.8610
  337.6000    70.2412    21.0057    21.5913
  337.7000    69.2516    21.5485    22.3235
  337.8000    68.2621    22.1781    23.0039
  337.9000    67.2730    22.8253    23.5139
  338.0000    66.2030    23.4587    24.0610
  338.1000    65.7499    24.0052    24.6203
  338.2000    65.4301    24.7082    25.1063
  338.3000    65.4231    25.3138    25.3967
  338.4000    65.7388    25.9033    25.7341
  338.5000    66.2280    26.5061    25.8616
  338.6000    66.5240    27.1009    26.2028
  338.7000    66.9340    27.6122    26.6585
  338.8000    67.2840    28.0540    27.1216
  338.9000    67.4403    28.6589    27.6042
  339.0000    67.4837    29.1630    28.0736
  339.1000    67.7490    29.5008    28.5623
  339.2000    67.7519    29.8422    28.9692
  339.3000    67.5753    30.2495    29.3047
  339.4000    67.3304    30.5386    29.6271
  339.5000    67.0853    30.7849    29.8200
  339.6000    66.8402    30.9633    29.9720
  339.7000    66.5572    31.1425    30.1460
  339.8000    66.3500    31.3319    30.3209
  339.9000    66.2602    31.3328    30.4584
  340.0000    66.1625    31.4658    30.4601
  340.1000    65.9631    31.6481    30.6371
  340.2000    66.2694    31.8314    30.8149
  340.3000    66.2723    32.0017    30.8940
  340.4000    66.0897    32.0027    30.9564
  340.5000    65.9758    32.1617    31.1141
  340.6000    65.9022    32.3480    31.1160
  340.7000    65.6572    32.5355    31.1176
  340.8000    65.3801    32.7239    31.1193
  340.9000    65.3827    32.9165    31.2039
  341.0000    65.3858    33.2919    31.3410
  341.1000    65.3888    33.5299    31.3428
  341.2000    65.4442    33.8308    31.3449
  341.3000    65.6975    34.1579    31.6374
  341.4000    65.9465    34.3556    32.0040
  341.5000    66.1977    34.5764    32.3063
  341.6000    66.4488    34.7549    32.5211
  341.7000    66.6999    34.9562    32.9253
  341.8000    66.9794    35.1587    33.2791
  341.9000    67.5313    35.3145    33.5281
  342.0000    67.5340    35.3187    33.8176
  342.1000    67.7045    35.5235    34.1035
  342.2000    67.9556    35.5657    34.1150
  342.3000    68.2653    35.6854    34.3469
  342.4000    68.7564    35.8177    34.3485
  342.5000    68.7595    35.8187    34.3503
  342.6000    68.7625    35.8198    34.2757
  342.7000    68.9087    36.0116    34.1146
  342.8000    69.0711    36.0735    34.1170
  342.9000    69.0741    36.0745    34.1188
  343.0000    69.0774    36.1313    33.9781
  343.1000    68.8522    36.3301    33.8850
  343.2000    68.7806    36.3313    33.8301
  343.3000    68.6646    36.5064    33.6526
  343.4000    68.3550    36.5885    33.6549
  343.5000    67.8719    36.6727    33.6565
  343.6000    67.5830    36.8478    33.6584
  343.7000    67.3817    36.8488    33.7406
  343.8000    66.9873    37.0533    33.9363
  343.9000    66.6838    37.1099    34.1379
  344.0000    66.6464    37.2222    34.1397
  344.1000    66.3875    37.4377    34.2900
  344.2000    66.3904    37.6545    34.5958
  344.3000    66.7525    37.9023    34.9325
  344.4000    67.3765    38.0922    35.1551
  344.5000    68.2648    38.3129    35.6118
  344.6000    69.4925    38.5348    35.9743
  344.7000    70.6419    38.7580    36.2536
  344.8000    71.9028    38.9845    36.6494
  344.9000    73.0839    38.9856    37.1915
  345.0000    74.0793    38.9866    37.4074
  345.1000    74.9824    38.9877    37.6247
  345.2000    75.4978    38.8398    37.8430
  345.3000    75.9810    38.3965    38.0626
  345.4000    76.4802    37.9139    38.2084
  345.5000    76.7171    37.5263    38.1839
  345.6000    76.5667    37.0986    37.9468
  345.7000    76.0511    36.6755    37.5590
