~VERSION INFORMATION
 VERS.                2.0:   CWLS LOG ASCII STANDARD - VERSION 2.0
 WRAP.                 NO:   ONE LINE PER DEPTH STEP
~WELL INFORMATION
#MNEM.UNIT      DATA TYPE    INFORMATION
#----------   ------------   ------------------------------
 STRT.F            4.0000:   START DEPTH
 STOP.F          508.0000:   STOP DEPTH
 STEP.F            0.5000:   STEP LENGTH
 NULL.          -999.2500:   NO VALUE
 COMP. LAWRENCE-ALLISON &AS:   COMPANY
 WELL. NPR ##3 58-65-SX-3-UPI:   WELL
 FLD .             TEAPOT:   FIELD
 LOC .       S3 T38N R78W:   LOCATION
 CNTY.            NATRONA:   COUNTY
 STAT.            WYOMING:   STATE
 CTRY. UNITED STATES OF AMERICA:   COUNTRY
 SRVC.      Dresser Atlas:   SERVICE COMPANY
 DATE.        07-DEC-1984:   LOGDATE
 API .       490251102500:   API NUMBER
~CURVE INFORMATION
#MNEM.UNIT       API CODE    CURVE DESCRIPTION
#----------   ------------   ------------------------------
 DEPT.F                  :   
 SPR .MV     07 010 01 00:   SPONTANEOUS POTENTIAL
 RILD.OHMM   07 120 46 00:   INDUCTION LOG DEEP RESISTIVITY
 RILM.OHMM   07 120 44 00:   INDUCTION LOG MEDIUM RESISTIVITY
 RFOC.OHMM   07 220 04 00:   RESISTIVITY FOCUSED LOG
 CALS.IN     60 280 50 00:   CALIPER FROM SONIC LOG
 GRS .GAPI   60 310 01 00:   GAMMA RAY FROM SONIC LOG
 AC  .US/F   60 520 00 00:   ACCOUSTIC SONIC
~PARAMETER INFORMATION
#MNEM.UNIT          VALUE    DESCRIPTION
#----------   ------------   ------------------------------
 PD  .                 GL:   PERMANENT DATUM
 EPD .F              5184:   ELEVATION PERMANENT DATUM
 LMF .                 GL:   LOG MEASURED FROM
 DMF .                 GL:   DRILLING MEASURED FROM
 EGL .F              5184:   GROUND LEVEL
 DATE.        07-DEC-1984:   RUN DATE
 RUN .                  1:   RUN NUMBER
 DD  .F               510:   DEPTH DRILLER
 DL  .F               510:   DEPTH LOGGER
 BLI .F               508:   BOTTOM LOG INTERVAL
 TLI .F                20:   TOP LOG INTERVAL
 CS  .IN            8.625:   CASING SIZE
 CBD .F                20:   CASING BOTTOM DRILLER
 CBL .F                20:   CASING BOTTOM LOGGER
 BS  .IN            7.875:   BIT SIZE
 BSD .F               510:   BIT SIZE AT DEPTH
 DFT .          KCL WATER:   DRILLING FLUID TYPE
 MSS .            MUD PIT:   MUD SAMPLE SOURCE
 RMS .OHMM            .14:   RESISTIVITY MUD SAMPLE
 MST .F                55:   MUD SAMPLE TEMPERATURE
 RMF .OHMM             .1:   RESISTIVITY MUD FILTRATE SAMPLE
 MFST.F                55:   MUD FILTRATE SAMPLE TEMPERATURE
 RMC .OHMM            .17:   RESISTIVITY MUD CAKE
 MCST.F                55:   MUD CAKE SAMPLE TEMPERATURE
 MFSS.               CALC:   MUD FILTRATE SAMPLE SOURCE
 MCSS.               CALC:   MUD CAKE SAMPLE SOURCE
 RMB .OHMM            .08:   RESISTIVITY MUD AT BHT
 BHT .F                86:   BOTTOM HOLE TEMPERATURE
 TCS .HRS               3:   TIME CURCULATED STOPPED
 MRT .F               100:   MAXIMUM RECORDED TEMPERATURE
 LUN .               6270:   LOGGING UNIT NUMBER
 LUL .                 FM:   LOGGING UNIT LOCATION
 ENGI.          E. GOVETT:   RECORDING ENGINEER
 WITN.      GROOMS, LUERS:   WITNESSED BY
 CLNT.            A2DTECH:   CLIENT CODE
 ORIG.           5" PRINT:   ORIGIN OF DATA
 UWI .       490251102500:   UNIQUE WELL ID
 DICO. A2D Technologies, Inc.:   DIGITIZING COMPANY
~OTHER INFORMATION
~A    DEPT     SPR       RILD       RILM       RFOC       CALS         GRS        AC   
    4.0000  -999.2500  -999.2500  -999.2500  -999.2500  -999.2500    89.8496  -999.2500
    4.5000  -999.2500  -999.2500  -999.2500  -999.2500  -999.2500    91.3445  -999.2500
    5.0000  -999.2500  -999.2500  -999.2500  -999.2500  -999.2500    85.6777  -999.2500
    5.5000  -999.2500  -999.2500  -999.2500  -999.2500  -999.2500  -999.2500  -999.2500
    6.0000  -999.2500  -999.2500  -999.2500  -999.2500  -999.2500  -999.2500  -999.2500
    6.5000  -999.2500  -999.2500  -999.2500  -999.2500  -999.2500  -999.2500  -999.2500
    7.0000  -999.2500  -999.2500  -999.2500  -999.2500  -999.2500  -999.2500  -999.2500
    7.5000  -999.2500  -999.2500  -999.2500  -999.2500  -999.2500  -999.2500  -999.2500
    8.0000  -999.2500  -999.2500  -999.2500  -999.2500  -999.2500  -999.2500  -999.2500
    8.5000  -999.2500  -999.2500  -999.2500  -999.2500  -999.2500  -999.2500  -999.2500
    9.0000  -999.2500  -999.2500  -999.2500  -999.2500  -999.2500  -999.2500  -999.2500
    9.5000  -999.2500  -999.2500  -999.2500  -999.2500  -999.2500  -999.2500  -999.2500
   10.0000  -999.2500  -999.2500  -999.2500  -999.2500  -999.2500  -999.2500  -999.2500
   10.5000  -999.2500  -999.2500  -999.2500  -999.2500  -999.2500  -999.2500  -999.2500
   11.0000  -999.2500  -999.2500  -999.2500  -999.2500  -999.2500  -999.2500  -999.2500
   11.5000  -999.2500  -999.2500  -999.2500  -999.2500  -999.2500  -999.2500  -999.2500
   12.0000  -999.2500  -999.2500  -999.2500  -999.2500  -999.2500  -999.2500  -999.2500
   12.5000  -999.2500  -999.2500  -999.2500  -999.2500  -999.2500  -999.2500  -999.2500
   13.0000  -999.2500  -999.2500  -999.2500  -999.2500  -999.2500  -999.2500  -999.2500
   13.5000  -999.2500  -999.2500  -999.2500  -999.2500  -999.2500  -999.2500  -999.2500
   14.0000  -999.2500  -999.2500  -999.2500  -999.2500  -999.2500  -999.2500  -999.2500
   14.5000  -999.2500  -999.2500  -999.2500  -999.2500  -999.2500  -999.2500  -999.2500
   15.0000  -999.2500  -999.2500  -999.2500  -999.2500  -999.2500  -999.2500  -999.2500
   15.5000  -999.2500  -999.2500  -999.2500  -999.2500  -999.2500  -999.2500  -999.2500
   16.0000  -999.2500  -999.2500  -999.2500  -999.2500  -999.2500  -999.2500  -999.2500
   16.5000  -999.2500  -999.2500  -999.2500  -999.2500  -999.2500  -999.2500  -999.2500
   17.0000  -999.2500  -999.2500  -999.2500  -999.2500  -999.2500  -999.2500  -999.2500
   17.5000  -999.2500  -999.2500  -999.2500  -999.2500  -999.2500  -999.2500  -999.2500
   18.0000  -999.2500  -999.2500  -999.2500  -999.2500  -999.2500  -999.2500  -999.2500
   18.5000  -999.2500  -999.2500  -999.2500  -999.2500  -999.2500  -999.2500  -999.2500
   19.0000  -999.2500  -999.2500  -999.2500  -999.2500  -999.2500  -999.2500  -999.2500
   19.5000  -999.2500  -999.2500  -999.2500  -999.2500  -999.2500  -999.2500  -999.2500
   20.0000   -20.9840 10075.0283  1972.4496     4.1480     7.7532    89.6892  -999.2500
   20.5000   -29.1068 10103.0332  1973.8180    16.6994     7.6497    95.0474  -999.2500
   21.0000   -34.5686 10132.2568  1975.1897    33.4357     7.5765    98.6226  -999.2500
   21.5000   -40.0215    30.5297     8.8772    16.3728     7.5627   101.1577  -999.2500
   22.0000   -42.8475     1.9953     2.7806    10.1506     7.5786   102.2046  -999.2500
   22.5000   -45.5539     1.7471     2.2269     8.3067     7.6243    99.7695  -999.2500
   23.0000   -47.2906     2.4696     3.2742     7.7025     7.7593    98.5080  -999.2500
   23.5000   -48.9177     4.2302     4.5390     7.7088     8.0133    98.5171  -999.2500
   24.0000   -50.3959     6.0197     5.5480     7.7157     8.3715    98.3775  -999.2500
   24.5000   -51.8740     7.5730     6.5070     7.8005     8.6553    97.9408  -999.2500
   25.0000   -53.3522     8.0902     7.3155     8.8108     8.6859    96.3154  -999.2500
   25.5000   -54.9794     7.8201     6.9375    10.1278     8.3301    91.1238  -999.2500
   26.0000   -56.3085     6.8991     6.3741    11.1460     7.9144    88.3097  -999.2500
   26.5000   -57.6376     5.9877     6.1210    11.6672     7.7221    91.1420  -999.2500
   27.0000   -58.8177     6.0697     6.3660    10.9767     7.7380   100.5121  -999.2500
   27.5000   -59.8487     6.8717     7.0031    10.3272     7.7837   103.3443  -999.2500
   28.0000   -60.7611     7.6433     7.7386     9.8653     7.7845   101.2732  -999.2500
   28.5000   -61.7964     8.1752     8.4122     9.6090     7.7855   100.0912  -999.2500
   29.0000   -62.7998     8.4102     9.1719     9.4375     7.7866   100.5483  -999.2500
   29.5000   -63.6779     8.4709     9.3950     9.3896     7.7877    99.9630  -999.2500
   30.0000   -64.4109     8.4428     8.9154     9.5176     7.8036    98.0981  -999.2500
   30.5000   -64.9949     8.2897     8.4240     9.7831     7.8046    98.2368  -999.2500
   31.0000   -65.4329     8.0629     8.1330     9.9681     7.8355    99.5750  -999.2500
   31.5000   -65.8678     8.0072     8.0602    10.0297     7.8812   100.7399  -999.2500
   32.0000   -66.4487     8.0331     8.2203    10.0750     7.9417    99.5603  -999.2500
   32.5000   -66.7346     8.0370     8.4611    10.2066     7.9874    97.0434  -999.2500
   33.0000   -66.8745     8.0045     8.6858    10.2874     8.0034    94.8236  -999.2500
   33.5000   -67.0114     7.9521     8.7095    10.4141     7.9744    93.7925  -999.2500
   34.0000   -66.9962     7.8624     8.2889    10.4783     7.9311    94.2474  -999.2500
   34.5000   -67.0084     7.7182     7.7537    10.1717     7.8875    98.1197  -999.2500
   35.0000   -67.1239     7.5602     7.5054     9.9001     7.8439   100.9520  -999.2500
   35.5000   -67.2608     7.4435     7.3767     9.8203     7.8149   102.1497  -999.2500
   36.0000   -67.3979     7.3814     7.2785     9.4976     7.7865   103.0503  -999.2500
   36.5000   -67.5350     7.4126     7.1817     8.8635     7.7874   103.5051  -999.2500
   37.0000   -67.5223     7.5518     7.1358     8.7141     7.7884   103.8114  -999.2500
   37.5000   -67.5102     7.7477     7.1927     8.8643     7.7894   103.3747  -999.2500
   38.0000   -65.7096     7.9143     7.2725     9.1547     7.7905   102.5835  -999.2500
   38.5000   -61.2265     8.0287     7.3858     9.4286     7.7766   102.2018  -999.2500
   39.0000   -60.1711     8.0884     7.4891     9.5730     7.7331   102.3685  -999.2500
   39.5000   -61.3512     8.0923     7.5781     9.5488     7.7192   103.7058  -999.2500
   40.0000   -66.4061     8.1525     7.6270     9.4229     7.6905   108.4697  -999.2500
   40.5000   -67.5892     8.1564     7.6323     9.3675     7.6764   109.3372  -999.2500
   41.0000   -66.3746     8.1039     7.6376     9.3398     7.6626   102.3957  -999.2500
   41.5000   -60.8346     7.9961     7.6087     9.3183     7.6639    99.7279  -999.2500
   42.0000   -58.4618     7.8897     7.5605     9.2514     7.6799    99.5884  -999.2500
   42.5000   -57.8535     7.8935     7.4775     9.0921     7.6958    99.5997  -999.2500
   43.0000   -58.2885     7.8426     7.3779     8.9092     7.7266   100.0545  -999.2500
   43.5000   -58.7234     7.8465     7.3156     8.7678     7.7426   104.6698  -999.2500
   44.0000   -59.1583     7.8503     7.3430     8.8082     7.7436   107.9478  -999.2500
   44.5000   -58.9971     7.8572     7.4000     8.8998     7.7447   108.1032  -999.2500
   45.0000   -57.9417     7.9126     7.4969     9.0125     7.7306   107.0744  -999.2500
   45.5000   -56.8864     7.9215     7.5677     9.1042     7.7317   105.8947  -999.2500
   46.0000   -56.7252     7.9815     7.5434     9.1763     7.7178   104.4874  -999.2500
   46.5000   -57.0141     8.0491     7.3834     9.2026     7.7189   101.3385  -999.2500
   47.0000   -57.1510     8.1510     7.2363     9.3533     7.7199    97.4088  -999.2500
   47.5000   -57.1386     8.1735     7.1912     9.5111     7.7210    94.0416  -999.2500
   48.0000   -57.1266     8.2832     7.1464     9.6542     7.7221    92.1190  -999.2500
   48.5000   -57.1145     8.3460     7.1513     9.7460     7.7231    93.0196   182.9149
   49.0000   -57.1023     8.3966     7.2059     9.9067     7.7242    95.2575   158.7141
