~VERSION INFORMATION
 VERS.                2.0:   CWLS LOG ASCII STANDARD - VERSION 2.0
 WRAP.                 NO:   ONE LINE PER DEPTH STEP
~WELL INFORMATION
#MNEM.UNIT      DATA TYPE    INFORMATION
#----------   ------------   ------------------------------
 STRT.F           20.0000:   START DEPTH
 STOP.F          710.0000:   STOP DEPTH
 STEP.F            0.5000:   STEP LENGTH
 NULL.          -999.2500:   NO VALUE
 COMP. FENIX & SCISSON INC:   COMPANY
 WELL.     NPR-3 #42SX-34:   WELL
 FLD .             TEAPOT:   FIELD
 LOC .      S34 T39N R78W:   LOCATION
 CNTY.            NATRONA:   COUNTY
 STAT.            WYOMING:   STATE
 CTRY. UNITED STATES OF AMERICA:   COUNTRY
 SRVC.           BIRDWELL:   SERVICE COMPANY
 DATE.        30-AUG-1978:   LOGDATE
 API .       490251070800:   API NUMBER
~CURVE INFORMATION
#MNEM.UNIT       API CODE    CURVE DESCRIPTION
#----------   ------------   ------------------------------
 DEPT.F                  :   
 SPR .MV     05 010 01 00:   SPONTANEOUS POTENTIAL
 SN  .OHMM   05 040 16 00:   SHORT NORMAL 16'
 ILD .OHMM   05 120 46 00:   INDUCTION LOG DEEP RESISTIVITY
 GRD .GAPI   45 310 01 00:   GAMMA RAY FROM DENSITY LOG
 CALD.IN     45 280 60 00:   CALIPER
 RHOB.G/C3   45 350 01 00:   BULK DENSITY
 DPHI.DEC    45 890 12 00:   DENSITY POROSITY SANDSTONE
 CORR.G/C3   45 356 01 00:   DENSITY CORRECTION
~PARAMETER INFORMATION
#MNEM.UNIT          VALUE    DESCRIPTION
#----------   ------------   ------------------------------
 PD  .                 GL:   PERMANENT DATUM
 EPD .F              5079:   ELEVATION PERMANENT DATUM
 LMF .                 KB:   LOG MEASURED FROM
 DAPD.F                 4:   FEET ABOVE PERMANENT DATUM
 DMF .                 KB:   DRILLING MEASURED FROM
 EKB .F              5083:   KELLING BUSHING
 EGL .F              5079:   GROUND LEVEL
 DATE.            8-30-78:   RUN DATE
 RUN .                  1:   RUN NUMBER
 DD  .F               705:   DEPTH DRILLER
 DL  .F               708:   DEPTH LOGGER
 BLI .F               702:   BOTTOM LOG INTERVAL
 TLI .F                50:   TOP LOG INTERVAL
 CS  .IN            8.625:   CASING SIZE
 CBD .F                40:   CASING BOTTOM DRILLER
 CBL .F                40:   CASING BOTTOM LOGGER
 BS  .IN            7.875:   BIT SIZE
 BSD .F               705:   BIT SIZE AT DEPTH
 DFT .                KCL:   DRILLING FLUID TYPE
 DFD .                8.6:   DRILLING FLUID DENSITY
 DFV .                 34:   DRILLING FLUID VISCOSITY
 DFPH.                  9:   DRILLING FLUID PH
 DFL .                7.4:   DRILLING FLUID LOSS
 MSS .           FLOWLINE:   MUD SAMPLE SOURCE
 RMS .OHMM             .3:   RESISTIVITY MUD SAMPLE
 MST .F                80:   MUD SAMPLE TEMPERATURE
 RMF .OHMM             .4:   RESISTIVITY MUD FILTRATE SAMPLE
 MFST.F                80:   MUD FILTRATE SAMPLE TEMPERATURE
 RMC .OHMM             .5:   RESISTIVITY MUD CAKE
 MCST.F                82:   MUD CAKE SAMPLE TEMPERATURE
 MFSS.               MEAS:   MUD FILTRATE SAMPLE SOURCE
 MCSS.               MEAS:   MUD CAKE SAMPLE SOURCE
 RMB .OHMM            .32:   RESISTIVITY MUD AT BHT
 BHT .F                73:   BOTTOM HOLE TEMPERATURE
 TCS .HRS               3:   TIME CURCULATED STOPPED
 MRT .F                73:   MAXIMUM RECORDED TEMPERATURE
 LUN .               3006:   LOGGING UNIT NUMBER
 LUL .               CASP:   LOGGING UNIT LOCATION
 ENGI.            POINTER:   RECORDING ENGINEER
 WITN.              AMEND:   WITNESSED BY
 CLNT.            A2DTECH:   CLIENT CODE
 ORIG.           5" PRINT:   ORIGIN OF DATA
 UWI .       490251070800:   UNIQUE WELL ID
 DICO. A2D Technologies, Inc.:   DIGITIZING COMPANY
~OTHER INFORMATION
~A   DEPT      SPR         SN        ILD         GRD      CALD       RHOB       DPHI       CORR   
# ...
  222.5000   -45.7194    11.9163    11.3776    95.3093     8.9392     2.4999     0.1151     0.0417
  223.0000   -45.6370    11.8531    11.6255    98.5213     8.9425     2.4908     0.1153     0.0359
  223.5000   -45.5530    11.6840    11.4910   101.9904     8.9458     2.4897     0.1205     0.0297
  224.0000   -45.4624    11.4622    11.2876   102.1758     8.9490     2.4792     0.1257     0.0258
  224.5000   -45.4061    11.2448    11.0870    99.4159     8.9523     2.4710     0.1309     0.0268
  225.0000   -45.4222    11.0314    10.8894    97.0367     8.9556     2.4691     0.1380     0.0273
  225.5000   -45.8922    10.8221    10.6951    99.4089     8.9589     2.4596     0.1362     0.0278
  226.0000   -46.3702    10.6167    10.5124   102.8702     8.9622     2.4628     0.1333     0.0285
  226.5000   -46.8615    10.4153    10.3286   104.5964     8.9655     2.4599     0.1348     0.0290
  227.0000   -47.3535    10.2176    10.2101   102.6916     8.9688     2.4577     0.1382     0.0296
  227.5000   -47.8484    10.0237    10.0237   102.4542     8.9721     2.4551     0.1391     0.0305
  228.0000   -48.1312     9.8408     9.8615   103.2846     8.9754     2.4559     0.1354     0.0318
  228.5000   -47.8518     9.8724     9.7275   103.0402     8.9787     2.4592     0.1317     0.0331
  229.0000   -47.5850     9.9030     9.6612   102.9579     8.9819     2.4666     0.1276     0.0344
  229.5000   -47.3088     9.9336     9.6612   101.2895     8.9853     2.4706     0.1294     0.0357
  230.0000   -47.0321     9.9647     9.6873    99.0674     8.9885     2.4688     0.1315     0.0370
  230.5000   -46.7501     9.9952     9.7326    96.9258     8.9918     2.4672     0.1332     0.0382
  231.0000   -46.4883    10.0261     9.7782    95.3104     8.9908     2.4657     0.1312     0.0396
  231.5000   -46.2284    10.0572     9.8240    92.0897     8.9897     2.4646     0.1294     0.0408
  232.0000   -46.5180    10.0884     9.8700    89.5448     8.9884     2.4641     0.1277     0.0420
  232.5000   -46.8188    10.1196     9.9162    87.1432     8.9872     2.4841     0.1260     0.0421
  233.0000   -47.1725    10.1510     9.9627    86.3721     8.9860     2.4888     0.1242     0.0419
  233.5000   -47.4657    10.1822    10.0093    86.2229     8.9848     2.4832     0.1225     0.0416
  234.0000   -47.7132    10.2101    10.0562    86.0344     8.9836     2.4830     0.1227     0.0349
  234.5000   -47.3541    10.2511    10.1033    85.9137     8.9824     2.4831     0.1289     0.0282
  235.0000   -47.4182    10.2880    10.1506    89.3962     8.9812     2.4759     0.1327     0.0208
  235.5000   -47.4010    10.3250    10.1982    91.7196     8.9800     2.4670     0.1353     0.0188
  236.0000   -47.3958    10.3622    10.2459    89.1646     8.9788     2.4627     0.1380     0.0214
  236.5000   -47.4035    10.3994    10.2939    86.6214     8.9776     2.4587     0.1359     0.0236
  237.0000   -47.3996    10.4369    10.3421    86.0191     8.9764     2.4584     0.1339     0.0257
  237.5000   -47.3995    10.4744    10.4021    86.0465     8.9752     2.4626     0.1318     0.0279
  238.0000   -47.4000    10.5121    10.3982    88.0947     8.9740     2.4667     0.1297     0.0301
  238.5000   -47.4000    10.5500    10.4002    91.0459     8.9727     2.4697     0.1267     0.0323
  239.0000   -47.4000    10.5881    10.3999    94.1161     8.9715     2.4718     0.1233     0.0335
  239.5000   -47.4000    10.6263    10.3990    94.3584     8.9703     2.4759     0.1188     0.0313
  240.0000   -47.4000    10.6645    10.3997    94.7436     8.9691     2.4798     0.1210     0.0291
  240.5000   -47.4000    10.7027    10.4016    94.8526     8.9679     2.4839     0.1244     0.0269
  241.0000   -47.4000    10.7413    10.3758    94.1703     8.9667     2.4829     0.1278     0.0247
  241.5000   -47.4000    10.7800    10.3349    97.7576     8.9655     2.4766     0.1312     0.0225
  242.0000   -47.4000    10.7434    10.2950   101.0078     8.9643     2.4684     0.1332     0.0223
  242.5000   -47.4000    10.6792    10.2553    98.1767     8.9631     2.4595     0.1362     0.0233
  243.0000   -47.4000    10.6155    10.2160    95.6568     8.9619     2.4585     0.1392     0.0243
  243.5000   -47.4000    10.5520    10.1770    93.2575     8.9607     2.4575     0.1412     0.0252
  244.0000   -47.4000    10.4890    10.1381    91.3578     8.9595     2.4572     0.1378     0.0260
  244.5000   -47.4000    10.4264    10.0994    92.3334     8.9583     2.4588     0.1355     0.0265
  245.0000   -47.4000    10.3641    10.0608    93.8478     8.9571     2.4603     0.1353     0.0270
  245.5000   -47.4000    10.3022    10.0238    96.8595     8.9558     2.4620     0.1352     0.0274
  246.0000   -47.4000    10.2407     9.9976    99.6284     8.9547     2.4627     0.1350     0.0279
  246.5000   -47.4000    10.1795     9.9723   101.9301     8.9535     2.4617     0.1348     0.0283
  247.0000   -47.4000    10.1186     9.9472    99.7727     8.9520     2.4608     0.1368     0.0288
  247.5000   -47.4000    10.0580     9.9222    94.7412     8.9544     2.4599     0.1388     0.0292
  248.0000   -47.4000     9.9978     9.8972    93.4507     8.9595     2.4590     0.1374     0.0297
  248.5000   -47.4000     9.9379     9.8723    96.7766     8.9642     2.4602     0.1358     0.0301
  249.0000   -47.4000     9.8794     9.8475    99.9111     8.9690     2.4614     0.1341     0.0319
  249.5000   -47.4000     9.8408     9.8227   100.8454     8.9737     2.4622     0.1324     0.0340
  250.0000   -47.4000     9.8408     9.7979    98.2741     8.9784     2.4666     0.1275     0.0360
  250.5000   -47.4000     9.8408     9.7733    95.9010     8.9834     2.4738     0.1224     0.0380
  251.0000   -47.4000     9.8408     9.7487    94.3015     8.9878     2.4806     0.1173     0.0375
  251.5000   -47.4000     9.8408     9.7241    93.8442     8.9911     2.4873     0.1162     0.0368
  252.0000   -47.4000     9.8408     9.6997    93.5809     8.9779     2.4885     0.1188     0.0360
  252.5000   -47.4000     9.8408     9.6752    91.6439     8.9663     2.4877     0.1215     0.0353
  253.0000   -47.4000     9.8408     9.6510    89.3890     8.9539     2.4849     0.1241     0.0344
  253.5000   -47.3999     9.8408     9.6267    89.6516     8.9417     2.4801     0.1268     0.0345
  254.0000   -47.3998     9.8408     9.6026    94.8745     8.9296     2.4754     0.1294     0.0363
  254.5000   -47.3999     9.8408     9.5788    99.5226     8.9173     2.4705     0.1293     0.0380
  255.0000   -47.3997     9.8408     9.5541   104.7299     8.9053     2.4701     0.1284     0.0398
  255.5000   -47.3995     9.8407     9.5297   103.2329     8.8929     2.4724     0.1276     0.0415
  256.0000   -47.4002     9.8406     9.5084   101.5920     8.8807     2.4724     0.1300     0.0458
  256.5000   -47.3997     9.8407     9.4901    94.0586     8.8746     2.4714     0.1285     0.0511
  257.0000   -47.4448     9.8405     9.5709    91.7776     8.8886     2.4707     0.1248     0.0564
  257.5000   -47.5086     9.8407     9.6476    88.8838     8.9024     2.4735     0.1210     0.0616
  258.0000   -47.5721     9.8413     9.7248    88.3262     8.9165     2.4824     0.1172     0.0668
  258.5000   -47.6348     9.8415     9.8026    89.1737     8.9305     2.4889     0.1135     0.0722
  259.0000   -47.6980     9.8976     9.8416    90.4102     8.9450     2.4928     0.1092     0.0773
  259.5000   -47.7612     9.9613     9.8637    91.7014     8.9543     2.4990     0.1103     0.0818
  260.0000   -47.8242    10.0259     9.8940    93.0969     8.9581     2.5006     0.1115     0.0799
  260.5000   -47.8875    10.0911     9.9244    94.8758     8.9623     2.4997     0.1127     0.0782
  261.0000   -47.9505    10.1568     9.9547    96.5004     8.9666     2.4988     0.1139     0.0761
  261.5000   -48.0134    10.2228     9.9856    98.2840     8.9707     2.4980     0.1147     0.0738
  262.0000   -48.0773    10.2892    10.0166    95.5857     8.9749     2.4972     0.1145     0.0644
  262.5000   -48.1391    10.3561    10.0476    92.5689     8.9791     2.4963     0.1143     0.0548
