~VERSION INFORMATION
 VERS.                2.0:   CWLS LOG ASCII STANDARD - VERSION 2.0
 WRAP.                 NO:   ONE LINE PER DEPTH STEP
~WELL INFORMATION
#MNEM.UNIT      DATA TYPE    INFORMATION
#----------   ------------   ------------------------------
 STRT.F           19.5000:   START DEPTH
 STOP.F          690.5000:   STOP DEPTH
 STEP.F            0.5000:   STEP LENGTH
 NULL.          -999.2500:   NO VALUE
 COMP. FENIX & SCISSON INC:   COMPANY
 WELL. 37-22 SX 11 WI #3-11:   WELL
 FLD .             TEAPOT:   FIELD
 LOC .      S11 T38N R78W:   LOCATION
 CNTY.            NATRONA:   COUNTY
 STAT.            WYOMING:   STATE
 CTRY. UNITED STATES OF AMERICA:   COUNTRY
 SRVC.      Dresser Atlas:   SERVICE COMPANY
 DATE.        11-AUG-1980:   LOGDATE
 API .       490251084400:   API NUMBER
~CURVE INFORMATION
#MNEM.UNIT       API CODE    CURVE DESCRIPTION
#----------   ------------   ------------------------------
 DEPT.F                  :   
 SPR .MV     07 010 01 00:   SPONTANEOUS POTENTIAL
 SFL .OHMM   07 220 01 00:   SHALLOW FOCUSED LOG RESISTIVITY
 ILD .OHMM   07 120 46 00:   INDUCTION LOG DEEP
 ILM .OHMM   07 120 44 00:   INDUCTION LOG MEDIUM
 GRD .GAPI   45 310 01 00:   GAMMA RAY FROM DENSITY LOG
 CALD.IN     45 280 60 00:   CALIPER
 CORR.G/C3   45 356 01 00:   DENSITY CORRECTION
 RHOB.G/C3   45 350 01 00:   BULK DENSITY
 NPHI.DEC    42 890 12 00:   NEUTRON POROSITY SANDSTONE
 DPHI.DEC    45 890 12 00:   DENSITY POROSITY SANDSTONE
~PARAMETER INFORMATION
#MNEM.UNIT          VALUE    DESCRIPTION
#----------   ------------   ------------------------------
 PD  .                 GL:   PERMANENT DATUM
 EPD .F              5191:   ELEVATION PERMANENT DATUM
 LMF .                 KB:   LOG MEASURED FROM
 DAPD.F                 5:   FEET ABOVE PERMANENT DATUM
 DMF .                 KB:   DRILLING MEASURED FROM
 EKB .F              5196:   KELLING BUSHING
 EGL .F              5191:   GROUND LEVEL
 DATE.            8-11-80:   RUN DATE
 RUN .                  1:   RUN NUMBER
 DD  .F               680:   DEPTH DRILLER
 DL  .F               689:   DEPTH LOGGER
 BLI .F               687:   BOTTOM LOG INTERVAL
 TLI .F                20:   TOP LOG INTERVAL
 CS  .IN            8.625:   CASING SIZE
 BS  .IN            7.875:   BIT SIZE
 BSD .F               680:   BIT SIZE AT DEPTH
 DFT .           CHEM GEL:   DRILLING FLUID TYPE
 DFD .                9.9:   DRILLING FLUID DENSITY
 DFV .                 52:   DRILLING FLUID VISCOSITY
 DFPH.               11.5:   DRILLING FLUID PH
 DFL .                104:   DRILLING FLUID LOSS
 MSS .           FLOWLINE:   MUD SAMPLE SOURCE
 RMS .OHMM             .2:   RESISTIVITY MUD SAMPLE
 MST .F                74:   MUD SAMPLE TEMPERATURE
 RMF .OHMM            .15:   RESISTIVITY MUD FILTRATE SAMPLE
 MFST.F                74:   MUD FILTRATE SAMPLE TEMPERATURE
 RMC .OHMM            .25:   RESISTIVITY MUD CAKE
 MCST.F                74:   MUD CAKE SAMPLE TEMPERATURE
 MFSS.               CALC:   MUD FILTRATE SAMPLE SOURCE
 MCSS.               CALC:   MUD CAKE SAMPLE SOURCE
 TCS .HRS               3:   TIME CURCULATED STOPPED
 LUN .             HL6150:   LOGGING UNIT NUMBER
 LUL .                 FM:   LOGGING UNIT LOCATION
 ENGI.            BRANNEY:   RECORDING ENGINEER
 WITN.           MCINTYRE:   WITNESSED BY
 CLNT.            A2DTECH:   CLIENT CODE
 ORIG.           5" PRINT:   ORIGIN OF DATA
 UWI .       490251084400:   UNIQUE WELL ID
 DICO. A2D Technologies, Inc.:   DIGITIZING COMPANY
~OTHER INFORMATION
~A   DEPT      SPR        SFL        ILD        ILM        GRD       CALD       CORR       RHOB       NPHI       DPHI   
# ...
  220.5000   -58.5280     7.4250     6.6720     6.0820   118.9590     8.1250     0.0140     2.4570     0.2690     0.1360
  221.0000   -58.4960     7.4140     6.6800     6.0270   116.2710     8.1260     0.0110     2.4410     0.2680     0.1430
  221.5000   -58.4650     7.4030     6.6880     6.0340   117.1890     8.1280     0.0160     2.4500     0.2690     0.1400
  222.0000   -58.4330     7.3920     6.6960     6.0400   115.7220     8.1300     0.0100     2.4680     0.2610     0.1340
  222.5000   -58.4010     7.3810     6.7030     6.0460   114.0750     8.1320     0.0290     2.4870     0.2620     0.1210
  223.0000   -58.3700     7.3700     6.7110     6.0520   115.4020     8.1330     0.0480     2.5050     0.2650     0.1010
  223.5000   -58.3380     7.3600     6.7190     6.0580   115.9500     8.1350     0.0590     2.5230     0.2600     0.1040
  224.0000   -58.3070     7.3490     6.7270     6.0640   115.1810     8.1340     0.0490     2.5130     0.2530     0.1100
  224.5000   -58.2750     7.3380     6.7350     6.0700   120.2290     8.1330     0.0400     2.5010     0.2570     0.1150
  225.0000   -58.2420     7.3270     6.7430     6.0760   121.5070     8.1320     0.0330     2.4890     0.2640     0.1190
  225.5000   -58.1900     7.3160     6.7510     6.0820   119.8320     8.1310     0.0340     2.4840     0.2700     0.1210
  226.0000   -58.1020     7.3100     6.7590     6.0880   118.8490     8.1300     0.0420     2.5040     0.2670     0.1160
  226.5000   -58.0140     7.3820     6.7670     6.0940   117.0120     8.1300     0.0500     2.5110     0.2710     0.1080
  227.0000   -57.9270     7.4410     6.7750     6.1000   118.1910     8.1290     0.0460     2.4940     0.2800     0.1130
  227.5000   -57.8390     7.5010     6.7830     6.1060   117.5900     8.1280     0.0330     2.4800     0.2770     0.1200
  228.0000   -57.7510     7.5600     6.7910     6.1120   119.8180     8.1270     0.0270     2.4740     0.2720     0.1270
  228.5000   -57.6640     7.6200     6.8320     6.1180   118.9540     8.1260     0.0330     2.4810     0.2660     0.1230
  229.0000   -57.5760     7.6790     6.8780     6.1240   117.9360     8.1250     0.0380     2.4950     0.2700     0.1150
  229.5000   -57.4880     7.7380     6.9250     6.1300   118.3070     8.1250     0.0400     2.4860     0.2750     0.1190
  230.0000   -57.4010     7.7980     6.9720     6.1350   118.9580     8.1240     0.0270     2.4610     0.2700     0.1240
  230.5000   -57.3130     7.8570     7.0180     6.1680   116.0970     8.1230     0.0190     2.4680     0.2670     0.1310
  231.0000   -57.2490     7.9160     7.0650     6.2270   117.6240     8.1220     0.0280     2.4820     0.2710     0.1260
  231.5000   -57.5030     7.9760     7.1120     6.2860   115.7320     8.1210     0.0310     2.4970     0.2730     0.1200
  232.0000   -57.7670     8.0350     7.1580     6.3450   113.3520     8.1200     0.0260     2.5000     0.2700     0.1160
  232.5000   -58.0280     8.0950     7.2050     6.4040   114.7870     8.1190     0.0300     2.4940     0.2740     0.1170
  233.0000   -58.2280     8.1540     7.2510     6.4630   115.6190     8.1190     0.0350     2.4950     0.2670     0.1140
  233.5000   -57.9580     8.2130     7.2980     6.5210   114.8280     8.1180     0.0410     2.5060     0.2590     0.1100
  234.0000   -57.6880     8.2730     7.3450     6.5800   115.6670     8.1170     0.0470     2.5120     0.2620     0.1080
  234.5000   -57.4190     8.3320     7.3910     6.6390   114.8700     8.1160     0.0430     2.5010     0.2690     0.1120
  235.0000   -57.1500     8.3910     7.4380     6.6980   118.3200     8.1110     0.0320     2.4900     0.2710     0.1170
  235.5000   -56.8820     8.4510     7.4850     6.7570   117.4320     8.0970     0.0220     2.4790     0.2680     0.1220
  236.0000   -56.8480     8.5100     7.5310     6.8160   118.5000     8.0970     0.0140     2.4690     0.2630     0.1280
  236.5000   -56.8690     8.5690     7.5780     6.8750   120.2430     8.0980     0.0240     2.4650     0.2560     0.1320
  237.0000   -56.8910     8.6290     7.6240     6.9340   120.5310     8.0990     0.0190     2.4740     0.2610     0.1260
  237.5000   -56.9120     8.6880     7.6710     6.9920   123.0030     8.0990     0.0120     2.4670     0.2670     0.1320
  238.0000   -56.9340     8.7480     7.7180     7.0510   124.3080     8.1000     0.0210     2.4800     0.2740     0.1250
  238.5000   -56.9560     8.8070     7.7640     7.1100   123.1430     8.1010     0.0380     2.4970     0.2700     0.1140
  239.0000   -56.9770     8.8660     7.8110     7.1690   123.3960     8.1020     0.0500     2.5170     0.2610     0.1040
  239.5000   -56.9990     8.9260     7.8580     7.2280   120.9510     8.1030     0.0450     2.5030     0.2640     0.1090
  240.0000   -57.0210     8.9850     7.9040     7.2870   120.7380     8.1040     0.0360     2.4970     0.2680     0.1130
  240.5000   -57.0380     9.0440     7.9510     7.3460   122.2190     8.1050     0.0410     2.5290     0.2610     0.0990
  241.0000   -56.8480     9.1040     7.9980     7.4050   122.8780     8.1060     0.0380     2.5230     0.2550     0.1020
  241.5000   -56.6420     9.1630     8.0440     7.4630   120.4020     8.1060     0.0310     2.5100     0.2460     0.1060
  242.0000   -56.4360     9.2230     8.0910     7.5170   117.8160     8.1070     0.0290     2.5030     0.2480     0.1080
  242.5000   -56.2310     9.2820     8.1370     7.5380   115.9510     8.1080     0.0420     2.5320     0.2500     0.0970
  243.0000   -56.0260     9.3410     8.1840     7.5600   117.3060     8.1090     0.0500     2.5230     0.2500     0.1010
  243.5000   -55.8230     9.4010     8.2310     7.5810   118.4130     8.1100     0.0470     2.5000     0.2460     0.1110
  244.0000   -55.6540     9.4600     8.2770     7.6020   116.6760     8.1110     0.0410     2.5060     0.2420     0.1070
  244.5000   -55.8340     9.5190     8.3240     7.6230   114.7290     8.1120     0.0350     2.5110     0.2420     0.1100
  245.0000   -56.2810     9.5790     8.3710     7.6440   112.7630     8.1130     0.0300     2.4950     0.2440     0.1160
  245.5000   -56.7290     9.6380     8.4170     7.6660   112.2170     8.1130     0.0240     2.4830     0.2470     0.1220
  246.0000   -57.1930     9.7160     8.4640     7.6870   114.7840     8.1140     0.0200     2.4700     0.2510     0.1290
  246.5000   -56.8040     9.7020     8.5110     7.7080   117.4740     8.1150     0.0320     2.4820     0.2550     0.1220
  247.0000   -56.7450     9.6750     8.5460     7.7240   119.1840     8.1250     0.0440     2.4980     0.2560     0.1110
  247.5000   -56.6670     9.6470     8.5260     7.7960   117.8790     8.1400     0.0400     2.5060     0.2540     0.1140
  248.0000   -56.5860     9.6190     8.5070     7.7590   121.9100     8.1540     0.0270     2.4850     0.2550     0.1230
  248.5000   -56.5060     9.5910     8.4870     7.7290   118.1980     8.1400     0.0140     2.4570     0.2610     0.1350
  249.0000   -56.4250     9.5630     8.4680     7.6990   115.8500     8.0780     0.0180     2.4640     0.2580     0.1290
  249.5000   -56.3450     9.5360     8.4480     7.6700   117.8700     8.0160     0.0210     2.4730     0.2540     0.1250
  250.0000   -56.2650     9.5080     8.4290     7.6400   117.2960     7.9540     0.0180     2.4580     0.2500     0.1350
  250.5000   -56.1850     9.4800     8.4100     7.6100   121.1780     7.9170     0.0230     2.4730     0.2510     0.1270
  251.0000   -56.1060     9.4520     8.3900     7.5810   118.0320     7.9220     0.0280     2.4830     0.2520     0.1210
  251.5000   -56.0470     9.4240     8.3710     7.5510   116.7530     7.9270     0.0320     2.4920     0.2440     0.1180
  252.0000   -56.0180     9.3970     8.3510     7.5220   118.5700     7.9320     0.0360     2.5010     0.2470     0.1150
  252.5000   -55.9890     9.3690     8.3320     7.5120   116.3610     7.9360     0.0330     2.5060     0.2520     0.1130
  253.0000   -55.9590     9.3410     8.3130     7.5080   117.5860     7.9410     0.0290     2.4960     0.2460     0.1170
  253.5000   -55.9310     9.3130     8.2930     7.5050   118.6810     7.9450     0.0250     2.4850     0.2380     0.1210
