~VERSION INFORMATION
 VERS.                2.0:   CWLS LOG ASCII STANDARD - VERSION 2.0
 WRAP.                 NO:   ONE LINE PER DEPTH STEP
~WELL INFORMATION
#MNEM.UNIT      DATA TYPE    INFORMATION
#----------   ------------   ------------------------------
 STRT.F           14.0000:   START DEPTH
 STOP.F          449.0000:   STOP DEPTH
 STEP.F            0.5000:   STEP LENGTH
 NULL.          -999.2500:   NO VALUE
 COMP.   LAWRENCE-ALLISON:   COMPANY
 WELL. NPR 3 #51-65SX10OB2:   WELL
 FLD .             TEAPOT:   FIELD
 LOC .      S10 T38N R78W:   LOCATION
 CNTY.            NATRONA:   COUNTY
 STAT.            WYOMING:   STATE
 CTRY. UNITED STATES OF AMERICA:   COUNTRY
 SRVC.      Dresser Atlas:   SERVICE COMPANY
 DATE.        18-DEC-1984:   LOGDATE
 API .       490251100900:   API NUMBER
~CURVE INFORMATION
#MNEM.UNIT       API CODE    CURVE DESCRIPTION
#----------   ------------   ------------------------------
 DEPT.F                  :   
 PORD.DEC    45 890 12 00:   POROSITY DENSITY SANDSTONE
 CNC .DEC    42 890 03 00:   NEUTRON POROSITY SANDSTONE
 CALD.IN     45 280 60 00:   CALIPER FROM DENSITY
 CORR.G/C3   45 356 01 00:   DENSITY CORRECTION
 DEN .G/C3   45 350 01 00:   COMPENSATED BULK DENSTIY
 GRD .GAPI   45 310 01 00:   GAMMA RAY FROM DENSITY LOG
 AC  .US/F   60 520 00 00:   ACCOUSTIC
~PARAMETER INFORMATION
#MNEM.UNIT          VALUE    DESCRIPTION
#----------   ------------   ------------------------------
 PD  .                 GL:   PERMANENT DATUM
 EPD .F              5156:   ELEVATION PERMANENT DATUM
 LMF .                 GL:   LOG MEASURED FROM
 DMF .                 GL:   DRILLING MEASURED FROM
 EGL .F              5156:   GROUND LEVEL
 DATE.        18-DEC-1984:   RUN DATE
 RUN .                  1:   RUN NUMBER
 DD  .F               448:   DEPTH DRILLER
 DL  .F               451:   DEPTH LOGGER
 BLI .F               449:   BOTTOM LOG INTERVAL
 TLI .F                20:   TOP LOG INTERVAL
 CS  .IN            8.625:   CASING SIZE
 CBD .F                20:   CASING BOTTOM DRILLER
 CBL .F                20:   CASING BOTTOM LOGGER
 BS  .IN             6.25:   BIT SIZE
 BSD .F               448:   BIT SIZE AT DEPTH
 DFT .          KCL WATER:   DRILLING FLUID TYPE
 MSS .             MUDPIT:   MUD SAMPLE SOURCE
 RMS .OHMM          0.132:   RESISTIVITY MUD SAMPLE
 MST .F                95:   MUD SAMPLE TEMPERATURE
 RMF .OHMM          0.099:   RESISTIVITY MUD FILTRATE SAMPLE
 MFST.F                95:   MUD FILTRATE SAMPLE TEMPERATURE
 RMC .OHMM          0.165:   RESISTIVITY MUD CAKE
 MCST.F                95:   MUD CAKE SAMPLE TEMPERATURE
 MFSS.               CALC:   MUD FILTRATE SAMPLE SOURCE
 MCSS.               CALC:   MUD CAKE SAMPLE SOURCE
 TCS .HRS               5:   TIME CURCULATED STOPPED
 MRT .F               100:   MAXIMUM RECORDED TEMPERATURE
 LUN .               6270:   LOGGING UNIT NUMBER
 ENGI.        TOM GAUGHAN:   RECORDING ENGINEER
 WITN.             GROOMS:   WITNESSED BY
 CLNT.            A2DTECH:   CLIENT CODE
 ORIG.           5" PRINT:   ORIGIN OF DATA
 UWI .       490251100900:   UNIQUE WELL ID
 DICO. A2D Technologies, Inc.:   DIGITIZING COMPANY
~OTHER INFORMATION
~A   DEPT     PORD        CNC       CALD       CORR        DEN        GRD         AC   
# ...
  196.0000     0.1126     0.3048     6.4718     0.0302     2.4924   119.8531   108.8886
  196.5000     0.1150     0.3138     6.4733     0.0199     2.4856   121.2032   108.4416
  197.0000     0.1210     0.3222     6.4896     0.0065     2.4797   122.9984   108.2203
  197.5000     0.1234     0.3333     6.4911     0.0007     2.4748   128.0577   108.4505
  198.0000     0.1209     0.3288     6.4926     0.0084     2.4757   128.3656   109.1322
  198.5000     0.1197     0.3197     6.4941     0.0280     2.4772   123.6363   109.8891
  199.0000     0.1229     0.3268     6.4956     0.0312     2.4743   120.0903   110.9470
  199.5000     0.1280     0.3334     6.4822     0.0269     2.4638   120.4018   112.0049
  200.0000     0.1363     0.3436     6.4837     0.0075     2.4538   122.2721   112.9130
  200.5000     0.1490     0.3457     6.4800    -0.0104     2.4358   125.4202   114.4246
  201.0000     0.1556     0.3447     6.4762     0.0018     2.4209   128.6054   114.2056
  201.5000     0.1525     0.3438     6.4731     0.0170     2.4225   129.3622   113.3093
  202.0000     0.1438     0.3341     6.4597    -0.0084     2.4338   127.5966   112.2626
  202.5000     0.1332     0.3208     6.4764     0.0053     2.4549   125.8311   110.9148
  203.0000     0.1290     0.3238     6.4779     0.0219     2.4640   123.9172   110.3179
  203.5000     0.1283     0.3532     6.4794     0.0190     2.4656   122.1513   111.5301
  204.0000     0.1325     0.3974     6.4957     0.0177     2.4597   123.9470   113.7189
  204.5000     0.1571     0.3944     6.4972     0.0194     2.4304   126.7982   117.8640
  205.0000     0.1802     0.3603     6.4987     0.0406     2.4005   123.5608   120.2033
  205.5000     0.1883     0.3335     6.5002     0.0467     2.3622   117.5381   119.4575
  206.0000     0.1787     0.3031     6.5017     0.0063     2.3683   114.2130   116.8535
  206.5000     0.1461     0.2994     6.5031    -0.0100     2.4315   115.3620   112.5546
  207.0000     0.1311     0.2986     6.5046    -0.0084     2.4616   118.5282   109.3661
  207.5000     0.1229     0.2970     6.5061     0.0218     2.4737   121.7557   107.1458
  208.0000     0.1136     0.2940     6.4924     0.0460     2.4843   123.7681   107.1524
  208.5000     0.1096     0.2898     6.4943     0.0521     2.4919   122.0880   107.2343
  209.0000     0.1075     0.2882     6.4957     0.0403     2.4980   119.8852   107.2410
  209.5000     0.1065     0.2918     6.5121     0.0314     2.5033   117.8309   106.9467
  210.0000     0.1071     0.2930     6.5136     0.0226     2.5034   115.7962   106.0504
  210.5000     0.1095     0.2857     6.5150     0.0182     2.4975   115.9950   105.2294
  211.0000     0.1130     0.2848     6.5165     0.0120     2.4900   117.0386   105.3866
  211.5000     0.1133     0.3070     6.5180     0.0164     2.4871   118.8437   106.3714
  212.0000     0.1124     0.3241     6.5043     0.0405     2.4932   122.7162   108.5602
  212.5000     0.1183     0.3268     6.5062     0.0488     2.4775   125.0890   112.4796
  213.0000     0.1478     0.3225     6.4924     0.0368     2.4452   124.8072   113.9159
  213.5000     0.1601     0.3035     6.4943     0.0220     2.4168   123.3384   113.2454
  214.0000     0.1486     0.2885     6.4958     0.0027     2.4251   120.3859   111.4384
  214.5000     0.1275     0.2899     6.4973     0.0134     2.4650   121.8845   109.0819
  215.0000     0.1269     0.2965     6.4988     0.0120     2.4711   125.1635   107.0655
  215.5000     0.1308     0.2962     6.5002     0.0017     2.4621   128.7392   106.4265
  216.0000     0.1313     0.2790     6.5017     0.0108     2.4607   130.8312   105.6807
  216.5000     0.1196     0.2775     6.5032     0.0455     2.4788   130.1042   104.9349
  217.0000     0.1147     0.2906     6.5047     0.0532     2.4864   126.1132   104.1892
  217.5000     0.1165     0.3020     6.5062     0.0293     2.4895   121.3803   103.5939
  218.0000     0.1252     0.2960     6.4925    -0.0066     2.4793   118.1311   103.2979
  218.5000     0.1293     0.2860     6.4943    -0.0185     2.4676   114.2884   103.0053
  219.0000     0.1302     0.2872     6.4958    -0.0228     2.4641   111.7811   102.7093
  219.5000     0.1278     0.2989     6.4973    -0.0242     2.4635   110.4599   102.4150
  220.0000     0.1253     0.3019     6.4836    -0.0210     2.4674   114.3331   102.3464
  220.5000     0.1226     0.3015     6.4854    -0.0103     2.4727   117.0186   102.4300
  221.0000     0.1231     0.2976     6.4717     0.0018     2.4750   116.7367   102.5872
  221.5000     0.1255     0.2945     6.4587     0.0140     2.4751   116.1582   102.6002
  222.0000     0.1276     0.2892     6.4602     0.0186     2.4714   113.9475   102.3748
  222.5000     0.1294     0.2809     6.4617     0.0022     2.4654   112.3266   101.9250
  223.0000     0.1290     0.2827     6.4632     0.0069     2.4633   115.4610   101.4713
  223.5000     0.1263     0.2899     6.4644    -0.0034     2.4663   119.9269   101.1043
  224.0000     0.1196     0.2962     6.4659    -0.0003     2.4724   117.8646   100.8966
  224.5000     0.1148     0.2970     6.4674     0.0062     2.4823   115.6540   101.0554
  225.0000     0.1147     0.2991     6.4689     0.0158     2.4884   113.7401   101.7393
  225.5000     0.1162     0.3003     6.4703     0.0150     2.4887   111.8262   102.3479
  226.0000     0.1198     0.2963     6.4867     0.0077     2.4795   112.4346   102.5803
  226.5000     0.1237     0.2806     6.4732     0.0035     2.4728   112.7462   102.2860
  227.0000     0.1230     0.2776     6.5045     0.0066     2.4729   111.5741   101.6155
  227.5000     0.1224     0.2761     6.5207     0.0068     2.4737   105.9510   100.2677
  228.0000     0.1223     0.2739     6.5222     0.0024     2.4738   103.1469    97.7789
  228.5000     0.1232     0.2730     6.5237    -0.0065     2.4731   104.2004    96.3598
  229.0000     0.1251     0.2750     6.5104    -0.0168     2.4702   106.7375    95.6165
  229.5000     0.1287     0.2852     6.4970    -0.0257     2.4665   107.1975    96.2995
  230.0000     0.1333     0.3243     6.4837    -0.0255     2.4598   107.5092   100.8865
  230.5000     0.1402     0.3447     6.4851    -0.0164     2.4501   109.4528   105.6987
  231.0000     0.1654     0.3426     6.4866    -0.0027     2.4179   113.9187   111.4118
  231.5000     0.2003     0.3170     6.4881     0.0200     2.3654   116.1592   113.8216
  232.0000     0.2135     0.2995     6.4896     0.0457     2.3234   115.2838   111.7268
  232.5000     0.1873     0.2859     6.4911     0.0563     2.3543   108.0287   105.5781
  233.0000     0.1542     0.2838     6.4926     0.0084     2.4129   106.4115   101.1561
  233.5000     0.1153     0.2747     6.4941    -0.0005     2.4806   105.3878    96.6541
  234.0000     0.0978     0.2593     6.4956     0.0102     2.5077   104.5125    95.1666
  234.5000     0.0975     0.2617     6.4970     0.0449     2.5183   104.3753    95.4743
  235.0000     0.1017     0.2794     6.4985     0.0376     2.5117   105.2841    95.8571
  235.5000     0.1083     0.2884     6.5000     0.0272     2.5012   104.4088    96.2398
  236.0000     0.1097     0.2902     6.5015     0.0168     2.5005   103.5335    96.6977
  236.5000     0.1082     0.2784     6.4882     0.0170     2.5014   103.8451    97.2306
  237.0000     0.1069     0.2739     6.4896     0.0216     2.5022   107.1241    97.9887
  237.5000     0.1081     0.2696     6.4763     0.0263     2.5015   111.1449    98.5216
  238.0000     0.1117     0.2612     6.4778     0.0189     2.4971   115.1657    98.6022
  238.5000     0.1159     0.2596     6.4793    -0.0007     2.4929   112.8067    97.5604
  239.0000     0.1182     0.2599     6.4956    -0.0018     2.4842   105.9967    96.5168
  239.5000     0.1197     0.2553     6.4822     0.0045     2.4815    97.9997    95.4731
  240.0000     0.1209     0.2454     6.4837     0.0121     2.4808    90.0027    94.4294
  240.5000     0.1223     0.2481     6.4852     0.0212     2.4809    84.0829    93.8362
  241.0000     0.1310     0.2567     6.4867     0.0258     2.4755    81.7239    97.3724
