~VERSION INFORMATION
 VERS.                2.0:   CWLS LOG ASCII STANDARD - VERSION 2.0
 WRAP.                 NO:   ONE LINE PER DEPTH STEP
~WELL INFORMATION
#MNEM.UNIT      DATA TYPE    INFORMATION
#----------   ------------   ------------------------------
 STRT.F            4.0000:   START DEPTH
 STOP.F          584.0000:   STOP DEPTH
 STEP.F            0.1000:   STEP LENGTH
 NULL.          -999.2500:   NO VALUE
 COMP.       F D SERV INC:   COMPANY
 WELL. N P R 3 SX-3 #62-3:   WELL
 FLD .             TEAPOT:   FIELD
 LOC .       S3 T38N R78W:   LOCATION
 CNTY.            NATRONA:   COUNTY
 STAT.            WYOMING:   STATE
 CTRY. UNITED STATES OF AMERICA:   COUNTRY
 SRVC.     Atlas Wireline:   SERVICE COMPANY
 DATE.        17-APR-1992:   LOGDATE
 API .       490252251600:   API NUMBER
~CURVE INFORMATION
#MNEM.UNIT       API CODE    CURVE DESCRIPTION
#----------   ------------   ------------------------------
 DEPT.F                  :   
 GRR .GAPI   07 310 01 00:   GAMMA RAY
 RILD.OHMM   07 120 46 00:   INDUCTION LOG DEEP RESISTIVITY
 RILM.OHMM   07 120 44 00:   INDUCTION LOG MEDIUM RESISTIVITY
~PARAMETER INFORMATION
#MNEM.UNIT          VALUE    DESCRIPTION
#----------   ------------   ------------------------------
 PD  .                 GL:   PERMANENT DATUM
 EPD .F              5135:   ELEVATION PERMANENT DATUM
 LMF .                 KB:   LOG MEASURED FROM
 DAPD.F                 5:   FEET ABOVE PERMANENT DATUM
 DMF .                 KB:   DRILLING MEASURED FROM
 EKB .F              5140:   KELLING BUSHING
 EDF .F              5139:   DRILLING FLOOR
 EGL .F              5135:   GROUND LEVEL
 DATE.        17-APR-1992:   RUN DATE
 RUN .                  1:   RUN NUMBER
 DD  .F               589:   DEPTH DRILLER
 DL  .F               590:   DEPTH LOGGER
 BLI .F               584:   BOTTOM LOG INTERVAL
 TLI .F                48:   TOP LOG INTERVAL
 CS  .IN            8.625:   CASING SIZE
 CBD .F                48:   CASING BOTTOM DRILLER
 CBL .F                48:   CASING BOTTOM LOGGER
 BS  .IN            7.875:   BIT SIZE
 BSD .F               589:   BIT SIZE AT DEPTH
 DFT .                AIR:   DRILLING FLUID TYPE
 TCS .HRS               2:   TIME CURCULATED STOPPED
 MRT .F                85:   MAXIMUM RECORDED TEMPERATURE
 LUN .            HL-6274:   LOGGING UNIT NUMBER
 LUL .             CASPER:   LOGGING UNIT LOCATION
 ENGI.             RAUTIO:   RECORDING ENGINEER
 WITN.        GARY STRONG:   WITNESSED BY
 CLNT.            A2DTECH:   CLIENT CODE
 ORIG.           5" PRINT:   ORIGIN OF DATA
 UWI .       490252251600:   UNIQUE WELL ID
 DICO. A2D Technologies, Inc.:   DIGITIZING COMPANY
~OTHER INFORMATION
~A    DEPT      GRR      RILD       RILM   
# ...
   76.8000   128.0974     7.1598     7.0007
   76.9000   128.5711     7.1598     7.0001
   77.0000   128.8435     7.1598     6.9995
   77.1000   129.0786     7.1598     6.9989
   77.2000   129.1500     7.1409     6.9983
   77.3000   129.2737     7.1008     6.9976
   77.4000   129.4562     7.1004     6.9971
   77.5000   129.4531     7.0958     6.9966
   77.6000   129.4495     7.0501     6.9960
   77.7000   129.4469     7.0497     6.9887
   77.8000   129.4437     7.0493     6.9461
   77.9000   129.3350     7.0305     6.9456
   78.0000   129.0749     6.9995     6.9449
   78.1000   128.8093     6.9980     6.9443
   78.2000   128.5549     6.9499     6.9437
   78.3000   128.2950     6.9496     6.9431
   78.4000   128.0350     6.9492     6.9425
   78.5000   127.6908     6.9488     6.9071
   78.6000   127.2312     6.9484     6.8931
   78.7000   127.2278     6.9480     6.8925
   78.8000   127.2250     6.9476     6.8828
   78.9000   127.2219     6.9473     6.8427
   79.0000   127.2188     6.9259     6.7950
   79.1000   127.2156     6.8981     6.7945
   79.2000   127.2125     6.8978     6.7711
   79.3000   127.2088     6.8973     6.7318
   79.4000   127.2063     6.8969     6.6986
   79.5000   127.2031     6.8965     6.6980
   79.6000   127.2000     6.8962     6.6975
   79.7000   127.1969     6.8958     6.7250
   79.8000   127.1936     6.8954     6.7433
   79.9000   127.1906     6.8949     6.7543
   80.0000   127.1875     6.8946     6.7895
   80.1000   127.1844     6.9180     6.7888
   80.2000   127.1813     6.9422     6.7883
   80.3000   127.1781     6.9418     6.7877
   80.4000   127.1746     6.9414     6.8042
   80.5000   127.1719     6.9410     6.8429
   80.6000   127.0025     6.9407     6.8815
   80.7000   126.6318     6.9403     6.8809
   80.8000   126.1151     6.9399     6.9118
   80.9000   125.5969     6.9395     6.9281
   81.0000   125.3375     6.9391     6.9275
   81.1000   124.8771     6.9387     6.9269
   81.2000   124.5051     6.9383     6.9263
   81.3000   124.3344     6.9379     6.9258
   81.4000   124.2976     6.9375     6.9537
   81.5000   124.0154     6.9372     6.9731
   81.6000   124.2475     6.9367     6.9725
   81.7000   124.3219     6.9364     6.9720
   81.8000   124.5663     6.9360     6.9713
   81.9000   125.0088     6.9356     6.9708
   82.0000   125.2752     6.9352     6.9702
   82.1000   125.8714     6.9348     6.9527
   82.2000   126.2964     6.9344     6.9205
   82.3000   126.8069     6.9341     6.9199
   82.4000   127.1125     6.9337     6.9193
   82.5000   127.1093     6.9333     6.9188
   82.6000   127.1061     6.9329     6.8958
   82.7000   126.8550     6.9325     6.8556
   82.8000   126.5950     6.9321     6.8158
   82.9000   126.1981     6.9317     6.7729
   83.0000   125.7625     6.9313     6.7724
   83.1000   125.5024     6.9309     6.7445
   83.2000   125.2121     6.9306     6.7431
   83.3000   124.7555     6.9301     6.7706
   83.4000   124.5812     6.9618     6.7701
   83.5000   124.5781     7.0016     6.7695
   83.6000   124.5750     7.0417     6.8351
   83.7000   124.5806     7.0819     6.8636
   83.8000   125.1931     7.1246     6.8795
   83.9000   125.3962     7.1242     6.9108
   84.0000   125.6499     7.1239     6.9101
   84.1000   125.9980     7.1235     6.9095
   84.2000   126.5088     7.1478     6.9396
   84.3000   127.0529     7.2264     6.9568
   84.4000   127.5300     7.2731     6.9562
   84.5000   128.2250     7.2727     6.9556
   84.6000   128.7350     7.2723     6.9550
   84.7000   128.9156     7.2904     7.0276
   84.8000   128.9125     7.3225     7.0799
   84.9000   128.9089     7.3221     7.1202
   85.0000   128.9062     7.3217     7.1497
   85.1000   128.9031     7.3213     7.1492
   85.2000   128.7924     7.3455     7.1485
   85.3000   128.5325     7.4032     7.1480
   85.4000   128.2687     7.4818     7.1473
   85.5000   128.0125     7.5271     7.1468
   85.6000   127.7525     7.5267     7.1462
   85.7000   127.4925     7.5895     7.1456
   85.8000   127.2325     7.6543     7.1851
   85.9000   126.9725     7.6980     7.2577
   86.0000   126.6872     7.7384     7.3180
   86.1000   126.4525     7.7378     7.4019
   86.2000   126.1925     7.7374     7.5681
   86.3000   125.9324     7.7081     7.7126
   86.4000   125.6725     7.6827     7.7120
   86.5000   125.4126     7.6725     7.7114
   86.6000   125.1057     7.6284     7.6901
   86.7000   124.6820     7.6280     7.6563
   86.8000   124.4750     7.6625     7.6541
   86.9000   124.3725     7.6806     7.6017
   87.0000   124.1568     7.6963     7.5654
   87.1000   124.4655     7.7336     7.5476
   87.2000   124.4625     7.7331     7.5469
   87.3000   124.4594     7.7327     7.5463
   87.4000   124.5901     7.7645     7.5456
   87.5000   124.8438     7.8088     7.5869
   87.6000   125.0976     7.8403     7.6630
   87.7000   125.3840     7.8398     7.7035
   87.8000   125.3813     7.8393     7.7170
   87.9000   125.3782     7.8389     7.7564
   88.0000   125.2626     7.8385     7.7556
   88.1000   125.0594     7.8380     7.7550
   88.2000   125.0563     7.8376     7.7544
   88.3000   125.0532     7.8372     7.7537
   88.4000   125.0500     7.8367     7.7530
   88.5000   125.1938     7.8363     7.7524
   88.6000   125.5388     7.8618     7.7516
   88.7000   126.0139     7.7093     7.7511
   88.8000   126.2873     7.7272     7.7505
   88.9000   126.2844     7.7619     7.7498
   89.0000   126.6439     7.7611     7.7492
   89.1000   127.0287     7.8486     7.7485
   89.2000   127.2824     7.9035     7.7479
   89.3000   127.5506     7.9482     7.7472
   89.4000   128.1432     7.9780     7.7933
   89.5000   128.5719     7.9772     7.8688
   89.6000   128.7626     7.9763     7.9135
   89.7000   128.7594     8.0168     7.9641
   89.8000   128.7562     8.0622     7.9635
   89.9000   128.7530     8.1078     7.9628
   90.0000   128.4999     8.1422     7.9621
   90.1000   128.4343     8.1414     7.9720
   90.2000   128.2924     8.1405     8.0173
   90.3000   128.1988     8.1398     8.0720
   90.4000   128.4525     8.1390     8.1087
   90.5000   128.7340     8.1382     8.1274
   90.6000   128.9600     8.1374     8.1268
   90.7000   129.3867     8.1366     8.1261
   90.8000   129.7799     8.1358     8.1253
   90.9000   130.0956     8.1350     8.1247
   91.0000   130.5999     8.1342     8.0902
   91.1000   130.9025     8.1335     8.0668
   91.2000   131.1075     8.1326     8.0661
   91.3000   131.2094     8.1317     8.0654
   91.4000   131.2062     8.1311     8.0646
   91.5000   131.2031     8.1303     8.1043
   91.6000   131.1998     8.1295     8.1199
   91.7000   131.1969     8.1287     8.1396
   91.8000   131.1937     8.1279     8.1755
   91.9000   131.1906     8.1271     8.1748
   92.0000   131.2625     8.1263     8.2215
   92.1000   131.5161     8.1255     8.3060
   92.2000   131.8058     8.1247     8.3736
   92.3000   132.0237     8.1239     8.4037
   92.4000   132.2775     8.1230     8.4170
   92.5000   132.6407     8.1223     8.5205
   92.6000   133.1512     8.1215     8.5655
   92.7000   133.6656     8.1422     8.6142
   92.8000   134.6824     8.1769     8.6383
   92.9000   135.5076     8.1761     8.6518
   93.0000   136.5628     8.1751     8.7009
   93.1000   137.6676     8.1744     8.7576
   93.2000   138.4353     8.2013     8.8001
   93.3000   139.2716     8.2654     8.8176
   93.4000   139.7361     8.3525     8.8169
   93.5000   140.0687     8.4028     8.8268
   93.6000   140.2000     8.4020     8.8772
   93.7000   140.1969     8.4012     8.8765
   93.8000   140.1825     8.4246     8.8361
   93.9000   139.8776     8.4585     8.8132
   94.0000   139.4500     8.4576     8.7949
   94.1000   138.7762     8.4567     8.7436
   94.2000   137.9012     8.4560     8.6886
   94.3000   136.7789     8.4552     8.6422
   94.4000   135.1749     8.4744     8.6267
   94.5000   134.1840     8.5130     8.6260
   94.6000   133.1536     8.5120     8.5851
   94.7000   132.2589     8.5112     8.4428
   94.8000   131.4852     8.5104     8.3860
   94.9000   130.7112     8.5361     8.4673
