~VERSION INFORMATION
 VERS.                2.0:   CWLS LOG ASCII STANDARD - VERSION 2.0
 WRAP.                 NO:   ONE LINE PER DEPTH STEP
~WELL INFORMATION
#MNEM.UNIT      DATA TYPE    INFORMATION
#----------   ------------   ------------------------------
 STRT.F           32.0000:   START DEPTH
 STOP.F          738.0000:   STOP DEPTH
 STEP.F            0.5000:   STEP LENGTH
 NULL.          -999.2500:   NO VALUE
 COMP. FENIX & SCISSON INC:   COMPANY
 WELL.       NPR-3 #43-34:   WELL
 FLD .             TEAPOT:   FIELD
 LOC .      S34 T39N R78W:   LOCATION
 CNTY.            NATRONA:   COUNTY
 STAT.            WYOMING:   STATE
 CTRY. UNITED STATES OF AMERICA:   COUNTRY
 SRVC.            Unknown:   SERVICE COMPANY
 DATE.        26-AUG-1978:   LOGDATE
 API .       490251069900:   API NUMBER
~CURVE INFORMATION
#MNEM.UNIT       API CODE    CURVE DESCRIPTION
#----------   ------------   ------------------------------
 DEPT.F                  :   
 GRD .GAPI   45 310 01 00:   GAMMA RAY FROM DENSITY LOG
 CALD.IN     45 280 60 00:   CALIPER
 RHOB.G/C3   45 350 01 00:   BULK DENSITY
 DPHI.DEC    45 890 12 00:   DENSITY POROSITY SANDSTONE
 CORR.G/C3   45 356 01 00:   DENSITY CORRECTION
 SPR .MV     05 010 01 00:   SPONTANEOUS POTENTIAL FROM RES.
 SN  .OHMM   05 040 16 00:   SHORT NORMAL 16"
 ILD .OHMM   05 120 46 00:   INDUCTION LOG DEEP
~PARAMETER INFORMATION
#MNEM.UNIT          VALUE    DESCRIPTION
#----------   ------------   ------------------------------
 PD  .                 GL:   PERMANENT DATUM
 EPD .F              5110:   ELEVATION PERMANENT DATUM
 LMF .                 KB:   LOG MEASURED FROM
 DAPD.F                 4:   FEET ABOVE PERMANENT DATUM
 DMF .                 KB:   DRILLING MEASURED FROM
 EKB .F              5114:   KELLING BUSHING
 EGL .F              5110:   GROUND LEVEL
 DATE.            8-26-78:   RUN DATE
 RUN .                  1:   RUN NUMBER
 DD  .F               748:   DEPTH DRILLER
 DL  .F               738:   DEPTH LOGGER
 BLI .F               732:   BOTTOM LOG INTERVAL
 TLI .F                40:   TOP LOG INTERVAL
 CS  .IN            8.625:   CASING SIZE
 CBD .F                40:   CASING BOTTOM DRILLER
 CBL .F                40:   CASING BOTTOM LOGGER
 BS  .IN            7.875:   BIT SIZE
 BSD .F               748:   BIT SIZE AT DEPTH
 DFT .                KCL:   DRILLING FLUID TYPE
 DFD .                8.7:   DRILLING FLUID DENSITY
 DFV .                 33:   DRILLING FLUID VISCOSITY
 DFPH.                  9:   DRILLING FLUID PH
 DFL .                 10:   DRILLING FLUID LOSS
 MSS .          FLOW LINE:   MUD SAMPLE SOURCE
 RMS .OHMM            .36:   RESISTIVITY MUD SAMPLE
 MST .F                80:   MUD SAMPLE TEMPERATURE
 RMF .OHMM             .3:   RESISTIVITY MUD FILTRATE SAMPLE
 MFST.F                80:   MUD FILTRATE SAMPLE TEMPERATURE
 RMC .OHMM            .48:   RESISTIVITY MUD CAKE
 MCST.F                82:   MUD CAKE SAMPLE TEMPERATURE
 MFSS.               MEAS:   MUD FILTRATE SAMPLE SOURCE
 MCSS.               MEAS:   MUD CAKE SAMPLE SOURCE
 TCS .HRS               2:   TIME CURCULATED STOPPED
 LUN .               2958:   LOGGING UNIT NUMBER
 LUL .               CASP:   LOGGING UNIT LOCATION
 ENGI.             MILLER:   RECORDING ENGINEER
 WITN.              AMEND:   WITNESSED BY
 CLNT.            A2DTECH:   CLIENT CODE
 ORIG.           5" PRINT:   ORIGIN OF DATA
 UWI .       490251069900:   UNIQUE WELL ID
 DICO. A2D Technologies, Inc.:   DIGITIZING COMPANY
~OTHER INFORMATION
~A   DEPT       GRD      CALD       RHOB       DPHI       CORR        SPR         SN        ILD   
# ...
  113.0000    84.6605     7.6757     2.4491     0.1333     0.0336   -37.9163     6.4665     5.1407
  113.5000    82.4509     7.6742     2.4602     0.1324     0.0304   -37.9025     6.4334     5.1529
  114.0000    80.2012     7.6727     2.4667     0.1385     0.0269   -38.1543     6.3197     5.5014
  114.5000    79.9192     7.6713     2.4517     0.1491     0.0236   -38.5786     6.0947     5.8668
  115.0000    81.4898     7.6698     2.4354     0.1579     0.0235   -38.9192     5.8777     5.8101
  115.5000    82.3478     7.6683     2.4260     0.1737     0.0235   -39.2533     5.6794     5.1502
  116.0000    76.8316     7.6668     2.4126     0.2018     0.0226   -39.3269     5.3465     4.1386
  116.5000    72.1379     7.6653     2.3693     0.2298     0.0147   -39.3508     4.9518     3.0898
  117.0000    73.8110     7.6638     2.3090     0.2738     0.0081   -39.3739     4.3037     2.3068
  117.5000    82.8122     7.6623     2.2242     0.3141     0.0157   -39.3974     3.7781     1.7250
  118.0000    91.7762     7.6608     2.1408     0.2931     0.0243   -39.4211     3.0795     1.2190
  118.5000   100.6620     7.6593     2.0884     0.2703     0.0327   -39.4448     2.5634     0.8275
  119.0000   109.0496     7.6578     2.0695     0.2594     0.0411   -39.4684     2.3047     0.6931
  119.5000   112.5247     7.6573     2.0530     0.2865     0.0495   -39.4934     2.0941     0.5869
  120.0000   111.3607     7.6573     2.0533     0.3069     0.0574   -39.5236     2.0559     0.4901
  120.5000   109.0635     7.6570     2.1033     0.3222     0.0870   -38.9263     2.0684     0.5006
  121.0000   107.8283     7.6691     2.1718     0.2527     0.1199   -38.7639     2.1528     0.5075
  121.5000   103.8877     7.6848     2.2404     0.1822     0.1193   -38.5018     2.2747     0.6561
  122.0000    95.7101     7.7220     2.3205     0.1603     0.0423   -37.5627     2.5645     0.9416
  122.5000    87.4660     7.8191     2.4023     0.1540     0.0197   -36.7355     2.9114     1.3471
  123.0000    80.0872     7.4649     2.4143     0.1544     0.0211   -36.5825     3.2554     1.9273
  123.5000    78.8114     7.4324     2.4272     0.1551     0.0289   -36.4204     4.7975     2.7847
  124.0000    75.4529     7.4200     2.4287     0.1535     0.0362   -36.2996     6.3683     5.1204
  124.5000    71.9607     7.4084     2.4271     0.1505     0.0396   -36.1738     6.9855     8.2376
  125.0000    70.9800     7.3964     2.4320     0.1478     0.0403   -36.1396     7.4301     9.3765
  125.5000    70.4841     7.3845     2.4399     0.1463     0.0409   -36.2871     8.0194    10.3781
  126.0000    71.1564     7.3770     2.4402     0.1463     0.0414   -36.4534     8.0107    10.3693
  126.5000    73.0458     7.3793     2.4388     0.1550     0.0420   -36.6172     7.9787    10.1769
  127.0000    74.9020     7.3814     2.4330     0.1670     0.0426   -36.7347     7.9297     8.8612
  127.5000    76.7657     7.3835     2.4042     0.1791     0.0432   -36.7324     7.8811     6.9459
  128.0000    77.8646     7.3856     2.3754     0.2146     0.0434   -36.7327     7.4431     5.4445
  128.5000    80.3882     7.3878     2.3467     0.2271     0.0581   -36.7327     6.8928     4.2736
  129.0000    87.4087     7.3899     2.3183     0.2253     0.0818   -36.7327     6.3818     3.6142
  129.5000    94.5290     7.3920     2.3035     0.2252     0.1063   -36.7328     5.8397     3.4018
  130.0000   101.6941     7.3941     2.3077     0.2187     0.1102   -36.7359     5.2442     3.5075
  130.5000   109.2623     7.3965     2.3233     0.2055     0.0806   -36.6581     5.2453     3.5688
  131.0000   105.6219     7.3743     2.3353     0.1920     0.0277   -36.5127     5.2798     3.5450
  131.5000    99.4941     7.3342     2.3639     0.1786     0.0167   -35.1154     5.2989     3.5185
  132.0000    88.2572     7.2972     2.4009     0.1659     0.0185   -33.6880     5.7757     3.5013
  132.5000    76.2394     7.2964     2.4059     0.1625     0.0221   -33.5297     7.0459     4.3498
  133.0000    74.2851     7.2966     2.4118     0.1636     0.0235   -33.4691     7.3506     6.0122
  133.5000    73.3388     7.2966     2.4160     0.1647     0.0235   -33.3937     7.7572     8.3045
  134.0000    73.4121     7.2966     2.4107     0.1655     0.0236   -33.1865     8.1908    10.8533
  134.5000    74.9758     7.2966     2.4053     0.1647     0.0213   -32.6891     8.6499    10.9535
  135.0000    78.9334     7.2966     2.4051     0.1635     0.0206   -32.3726     8.9480    10.6116
  135.5000    82.0647     7.2966     2.4083     0.1652     0.0199   -32.3716     9.0307    10.3658
  136.0000    78.6754     7.2966     2.4108     0.1716     0.0195   -32.0803     9.2810    10.3658
  136.5000    74.1349     7.2966     2.4094     0.1767     0.0195   -31.5776     9.5437    10.6634
  137.0000    69.9558     7.2966     2.3961     0.1771     0.0210   -31.5674     9.5463    11.4687
  137.5000    69.9960     7.2966     2.3922     0.1787     0.0224   -31.4683     9.5385    11.4687
  138.0000    73.4991     7.2966     2.3842     0.1850     0.0239   -31.3991     9.7384    11.6825
  138.5000    73.7231     7.2966     2.3737     0.1907     0.0253   -31.0940     9.9198    11.9552
  139.0000    74.0267     7.2966     2.3691     0.1896     0.0267   -30.9196     9.9916    12.2341
  139.5000    74.8133     7.2966     2.3693     0.1846     0.0250   -30.6523    10.0304    12.5199
  140.0000    78.5314     7.2966     2.3756     0.1797     0.0237   -30.1015    10.0670    12.8124
  140.5000    80.6316     7.2966     2.3843     0.1748     0.0223   -29.5024    10.0790    13.1155
  141.0000    80.6531     7.2966     2.3929     0.1699     0.0209   -29.4053    10.1818    13.2732
  141.5000    79.8263     7.2966     2.3993     0.1695     0.0195   -29.4045    10.2526    13.5455
  142.0000    77.7459     7.2966     2.4018     0.1733     0.0182   -29.4058    10.3143    13.5393
  142.5000    77.2512     7.2966     2.4000     0.1769     0.0175   -29.4059    10.3765    13.9595
  143.0000    77.3008     7.2966     2.3931     0.1799     0.0176   -29.4059    10.4392    14.3153
  143.5000    78.7710     7.2966     2.3863     0.1808     0.0178   -29.4059    10.4615    14.6802
  144.0000    79.8862     7.2966     2.3802     0.1823     0.0180   -29.4059    10.5337    15.0544
  144.5000    78.0318     7.2983     2.3800     0.1810     0.0182   -29.4059    10.6036    15.1103
  145.0000    75.8196     7.3066     2.3823     0.1803     0.0184   -29.4058    10.6738    15.1103
  145.5000    74.0351     7.3149     2.3858     0.1814     0.0186   -29.4051    10.7444    15.1103
  146.0000    74.5393     7.3167     2.3856     0.1859     0.0188   -29.4345    10.8154    15.1103
  146.5000    75.4778     7.3204     2.3786     0.1903     0.0190   -29.4676    10.8533    15.4678
  147.0000    75.4889     7.3243     2.3716     0.1923     0.0192   -29.5009    10.8732    15.6762
  147.5000    75.3938     7.3281     2.3642     0.1927     0.0194   -29.5341    10.8918    15.6762
  148.0000    73.6665     7.3320     2.3631     0.1923     0.0194   -29.5673    10.9104    15.5789
  148.5000    73.1244     7.3358     2.3648     0.1872     0.0237   -29.5992    10.9291    15.5328
  149.0000    74.5639     7.3284     2.3712     0.1810     0.0290   -29.5504    10.9478    15.7829
  149.5000    74.5404     7.3074     2.3795     0.1751     0.0346   -29.4385    11.1051    16.0164
  150.0000    70.9972     7.2965     2.3879     0.1741     0.0375   -29.3819    11.2780    16.2533
  150.5000    70.1828     7.2967     2.3953     0.1707     0.0380   -29.1481    11.4537    16.4937
  151.0000    71.1068     7.3021     2.3950     0.1652     0.0387   -28.9119    11.6320    16.7377
  151.5000    73.8636     7.3081     2.4046     0.1496     0.0393   -28.6685    11.8131    16.9849
  152.0000    76.7466     7.3141     2.4186     0.1488     0.0371   -28.6145    12.0081    17.2343
  152.5000    77.6804     7.3200     2.4352     0.1458     0.0331   -28.5816    12.2791    17.5064
  153.0000    77.5154     7.3260     2.4382     0.1359     0.0289   -28.3611    12.6092    18.2296
