~VERSION INFORMATION
 VERS.                2.0:   CWLS LOG ASCII STANDARD - VERSION 2.0
 WRAP.                 NO:   ONE LINE PER DEPTH STEP
~WELL INFORMATION
#MNEM.UNIT      DATA TYPE    INFORMATION
#----------   ------------   ------------------------------
 STRT.F            5.0000:   START DEPTH
 STOP.F          610.0000:   STOP DEPTH
 STEP.F            0.5000:   STEP LENGTH
 NULL.          -999.2500:   NO VALUE
 COMP. FENIX & SCISSON INC:   COMPANY
 WELL.        NPR 3 #25-3:   WELL
 FLD .        TEAPOT DOME:   FIELD
 LOC .       S3 T38N R78W:   LOCATION
 CNTY.            NATRONA:   COUNTY
 STAT.            WYOMING:   STATE
 CTRY. UNITED STATES OF AMERICA:   COUNTRY
 SRVC.           BIRDWELL:   SERVICE COMPANY
 DATE.        28-SEP-1978:   LOGDATE
 API .       490251068900:   API NUMBER
~CURVE INFORMATION
#MNEM.UNIT       API CODE    CURVE DESCRIPTION
#----------   ------------   ------------------------------
 DEPT.F                  :   
 SPR .MV     05 010 01 00:   SPONTANEOUS POTENTIAL FROM RES.
 IL  .OHMM   05 120 00 00:   INDUCTION LOG
 SN  .OHMM   05 040 16 00:   SHORT NORMAL 16"
 CALD.IN     45 280 60 00:   CALIPER
 GRD .GAPI   45 310 01 00:   GAMMA RAY FROM DENSITY LOG
 CORR.G/C3   45 356 01 00:   DENSITY CORRECTION
 DEN .G/C3   45 350 01 00:   COMPENSATED BULK DENSTIY
 DPHI.DEC    45 890 12 00:   DENSITY POROSITY SANDSTONE
~PARAMETER INFORMATION
#MNEM.UNIT          VALUE    DESCRIPTION
#----------   ------------   ------------------------------
 PD  .                 GL:   PERMANENT DATUM
 EPD .F              5249:   ELEVATION PERMANENT DATUM
 LMF .                 KB:   LOG MEASURED FROM
 DAPD.F                 4:   FEET ABOVE PERMANENT DATUM
 DMF .                 KB:   DRILLING MEASURED FROM
 EKB .F              5253:   KELLING BUSHING
 EGL .F              5249:   GROUND LEVEL
 DATE.            9-28-78:   RUN DATE
 RUN .                  1:   RUN NUMBER
 DD  .F               616:   DEPTH DRILLER
 DL  .F               613:   DEPTH LOGGER
 BLI .F               607:   BOTTOM LOG INTERVAL
 TLI .F                40:   TOP LOG INTERVAL
 BS  .IN            7.875:   BIT SIZE
 BSD .F               616:   BIT SIZE AT DEPTH
 DFT .                KCL:   DRILLING FLUID TYPE
 DFD .                8.7:   DRILLING FLUID DENSITY
 DFV .                 33:   DRILLING FLUID VISCOSITY
 DFPH.                  9:   DRILLING FLUID PH
 DFL .                  5:   DRILLING FLUID LOSS
 MSS .            MUD PIT:   MUD SAMPLE SOURCE
 RMS .OHMM            .14:   RESISTIVITY MUD SAMPLE
 MST .F                65:   MUD SAMPLE TEMPERATURE
 RMF .OHMM            2.1:   RESISTIVITY MUD FILTRATE SAMPLE
 MFST.F                65:   MUD FILTRATE SAMPLE TEMPERATURE
 RMC .OHMM            .32:   RESISTIVITY MUD CAKE
 MCST.F                65:   MUD CAKE SAMPLE TEMPERATURE
 MFSS.               MEAS:   MUD FILTRATE SAMPLE SOURCE
 TCS .HRS               2:   TIME CURCULATED STOPPED
 LUN .               2958:   LOGGING UNIT NUMBER
 LUL .               CASP:   LOGGING UNIT LOCATION
 ENGI.            ROLLINS:   RECORDING ENGINEER
 WITN.              AMEND:   WITNESSED BY
 CLNT.            A2DTECH:   CLIENT CODE
 ORIG.           5" PRINT:   ORIGIN OF DATA
 UWI .       490251068900:   UNIQUE WELL ID
 DICO. A2D Technologies, Inc.:   DIGITIZING COMPANY
~OTHER INFORMATION
~A    DEPT     SPR         IL         SN         CALD       GRD      CORR        DEN       DPHI   
# ...
  167.0000   -27.1315     7.9317     7.6815     8.0276   153.0396    -0.0070     2.5085     0.1006
  167.5000   -26.9461     7.9348     7.6815     8.0447   153.3388    -0.0072     2.5151     0.1026
  168.0000   -26.7610     7.9379     7.6815     8.0574   152.0591    -0.0074     2.5133     0.1084
  168.5000   -26.5788     7.9410     7.6815     8.0693   149.7584    -0.0077     2.5046     0.1098
  169.0000   -26.4446     7.9441     7.6815     8.0811   149.8279    -0.0079     2.4973     0.1101
  169.5000   -26.4475     7.9472     7.6815     8.0912   151.6142    -0.0081     2.4979     0.1130
  170.0000   -26.4471     7.9504     7.6815     8.0983   153.5556    -0.0083     2.4986     0.1167
  170.5000   -26.4469     7.9535     7.6814     8.1053   155.6072    -0.0085     2.4913     0.1190
  171.0000   -26.4460     7.9566     7.6822     8.1124   160.0545    -0.0088     2.4856     0.1190
  171.5000   -26.4488     7.9598     7.6948     8.1195   159.7551    -0.0090     2.4864     0.1210
  172.0000   -26.5492     7.9629     7.7071     8.1266   157.9348    -0.0057     2.4843     0.1214
  172.5000   -26.5676     7.9663     7.7194     8.1336   156.0771    -0.0016     2.4824     0.1180
  173.0000   -26.4832     7.9680     7.7316     8.1407   154.2145     0.0026     2.4867     0.1136
  173.5000   -26.3954     8.0168     7.7439     8.1478   152.0168     0.0067     2.4920     0.1096
  174.0000   -26.3090     8.0696     7.7562     8.1549   148.2143     0.0109     2.4973     0.1060
  174.5000   -26.2164     8.1228     7.7685     8.1620   144.5413     0.0149     2.5044     0.0998
  175.0000   -26.0950     8.1764     7.7808     8.1688   144.0521     0.0138     2.5126     0.0918
  175.5000   -25.9755     8.2303     7.7932     8.1681   144.4800     0.0118     2.5207     0.0838
  176.0000   -25.8500     8.2850     7.8057     8.1668   143.1876     0.0098     2.5409     0.0814
  176.5000   -26.0054     8.3447     7.8252     8.1656   141.6007     0.0078     2.5450     0.0862
  177.0000   -26.1816     8.3447     7.7887     8.1644   140.5989     0.0068     2.5429     0.0914
  177.5000   -26.3587     8.3447     7.7210     8.1632   140.9672     0.0065     2.5346     0.0932
  178.0000   -26.4228     8.2844     7.6530     8.1620   144.2176     0.0062     2.5266     0.0950
  178.5000   -26.3789     8.1991     7.5856     8.1608   147.6110     0.0059     2.5241     0.0986
  179.0000   -26.3337     8.1147     7.5188     8.1595   150.8748     0.0056     2.5213     0.1037
  179.5000   -26.2882     8.0311     7.4620     8.1583   150.9379     0.0054     2.5096     0.1126
  180.0000   -26.2463     7.9484     7.4278     8.1571   150.7047     0.0051     2.4975     0.1143
  180.5000   -26.2473     7.8666     7.3937     8.1559   150.4755     0.0036     2.4949     0.1126
  181.0000   -26.2475     7.7856     7.3598     8.1547   150.2923     0.0018     2.4957     0.1126
  181.5000   -26.2475     7.7054     7.3260     8.1535   150.5783     0.0000     2.4962     0.1152
  182.0000   -26.2473     7.6609     7.2921     8.1523   152.2455    -0.0010     2.4900     0.1203
  182.5000   -26.2475     7.6316     7.2687     8.1510   153.9497     0.0003     2.4835     0.1217
  183.0000   -26.2493     7.6024     7.3024     8.1498   154.9356     0.0024     2.4815     0.1221
  183.5000   -26.3474     7.5733     7.3283     8.1492   154.9227     0.0045     2.4817     0.1220
  184.0000   -26.5469     7.5414     7.3543     8.1506   155.2126     0.0066     2.4820     0.1212
  184.5000   -26.7462     7.5790     7.3804     8.1521   157.2883     0.0085     2.4822     0.1205
  185.0000   -26.8273     7.6210     7.4044     8.1535   157.6523     0.0148     2.4824     0.1196
  185.5000   -26.7945     7.6631     7.4337     8.1549   153.7927     0.0217     2.4854     0.1169
  186.0000   -26.7605     7.7059     7.4614     8.1563   149.3236     0.0286     2.4896     0.1094
  186.5000   -26.7258     7.7520     7.4889     8.1577   144.8244     0.0293     2.5005     0.1038
  187.0000   -26.6917     7.7622     7.5165     8.1592   142.0015     0.0215     2.5097     0.1043
  187.5000   -26.6535     7.7723     7.5414     8.1606   139.7589     0.0138     2.5094     0.1049
  188.0000   -26.7486     7.7827     7.5797     8.1620   132.3008     0.0062     2.5067     0.1066
  188.5000   -26.8909     7.7931     7.6146     8.1634   124.9748    -0.0009     2.5040     0.1102
  189.0000   -27.0430     7.8036     7.6498     8.1648   120.7375    -0.0006     2.5015     0.1101
  189.5000   -26.8792     7.8140     7.6824     8.1663   121.8049    -0.0001     2.5010     0.1100
  190.0000   -26.6912     7.8245     7.6929     8.1678   124.7834     0.0004     2.5006     0.1099
  190.5000   -26.5033     7.8350     7.7031     8.1697   126.5779     0.0009     2.5002     0.1098
  191.0000   -26.3160     7.8455     7.7133     8.1459   126.4799     0.0013     2.4998     0.1086
  191.5000   -26.1296     7.8560     7.7236     8.1189   126.4008     0.0018     2.5023     0.1040
  192.0000   -25.9419     7.8666     7.7339     8.0919   126.3219     0.0023     2.5101     0.1006
  192.5000   -25.8491     7.8771     7.7442     8.0961   126.2431     0.0027     2.5136     0.1005
  193.0000   -25.8296     7.8877     7.7546     8.1071   126.1603     0.0032     2.5144     0.1039
  193.5000   -25.8120     7.8982     7.7649     8.1123   126.3761     0.0037     2.5134     0.1077
  194.0000   -25.7950     7.9088     7.7753     8.1175   126.6306     0.0041     2.5044     0.1092
  194.5000   -25.7778     7.9194     7.7856     8.1231   126.8990     0.0046     2.5005     0.1103
  195.0000   -25.7605     7.9301     7.7960     8.1302   126.9170     0.0049     2.5002     0.1115
  195.5000   -25.7433     7.9407     7.8065     8.0600   125.4734     0.0032     2.4998     0.1127
  196.0000   -25.7261     7.9514     7.8169     7.9800   121.6739     0.0015     2.4982     0.1138
  196.5000   -25.7089     7.9622     7.8249     7.9026   118.0112     0.0002     2.4925     0.1186
  197.0000   -25.6919     7.9750     7.7576     7.8460   114.6689    -0.0010     2.4876     0.1178
  197.5000   -25.6745     7.9946     7.7068     7.8470   114.3689    -0.0021     2.4875     0.1166
  198.0000   -25.6553     8.0140     7.6815     7.8471   114.2548    -0.0033     2.4875     0.1235
  198.5000   -25.5419     8.0334     7.8402     7.8471   114.1371    -0.0044     2.4848     0.1290
  199.0000   -25.3278     8.1510     7.9478     7.8471   114.0169    -0.0046     2.4735     0.1290
  199.5000   -25.1165     8.3712     8.0570     7.8471   113.9011    -0.0031     2.4706     0.1240
  200.0000   -24.8556     8.5964     8.1668     7.8471   113.8777    -0.0017     2.4786     0.1236
  200.5000   -25.0151     8.8317     8.2855     7.8590   112.8738    -0.0013     2.4792     0.1203
  201.0000   -25.1662     9.0925     8.4570     7.8828   111.7439    -0.0039     2.4784     0.1123
  201.5000   -25.3168     9.3779     8.6321     7.9065   110.6288    -0.0066     2.4947     0.1042
  202.0000   -25.4134     9.6706     8.8108     7.9374   109.6265    -0.0091     2.5110     0.1052
  202.5000   -25.0559     9.9724     8.9928     8.0127   110.6909    -0.0081     2.5051     0.1131
  203.0000   -24.7019    10.3114     9.2355     8.0912   112.6430    -0.0052     2.4975     0.1162
  203.5000   -24.4008    10.2506     9.2321     8.1192   114.5944    -0.0023     2.4899     0.1130
  204.0000   -24.0079    10.1234     9.2335     8.1341   115.6925    -0.0012     2.4921     0.1079
  204.5000   -23.5989    10.2669     9.3908     8.1483   115.6791    -0.0014     2.5036     0.1036
  205.0000   -23.0927    10.4259     9.5656     8.1490   116.0019    -0.0016     2.5147     0.0993
  205.5000   -22.9804    10.5873     9.7576     8.1489   116.5961    -0.0019     2.5171     0.0996
  206.0000   -22.7592    10.7903     9.8055     8.1489   117.1161    -0.0021     2.5155     0.1015
  206.5000   -22.5237    11.0874     9.8578     8.1489   117.1079    -0.0024     2.5129     0.1034
  207.0000   -22.2656    11.4075     9.9104     8.1489   117.1074    -0.0026     2.5103     0.1036
