~VERSION INFORMATION
 VERS.                2.0:   CWLS LOG ASCII STANDARD - VERSION 2.0
 WRAP.                 NO:   ONE LINE PER DEPTH STEP
~WELL INFORMATION
#MNEM.UNIT      DATA TYPE    INFORMATION
#----------   ------------   ------------------------------
 STRT.F            4.0000:   START DEPTH
 STOP.F          528.0000:   STOP DEPTH
 STEP.F            0.1000:   STEP LENGTH
 NULL.          -999.2500:   NO VALUE
 COMP. BROWN JOHN E&C INC:   COMPANY
 WELL.    84-1 SHX- #84-3:   WELL
 FLD .        TEAPOT DOME:   FIELD
 LOC .       S3 T38N R78W:   LOCATION
 CNTY.            NATRONA:   COUNTY
 STAT.            WYOMING:   STATE
 CTRY. UNITED STATES OF AMERICA:   COUNTRY
 SRVC.     Atlas Wireline:   SERVICE COMPANY
 DATE.        18-JAN-1992:   LOGDATE
 API .       490252249900:   API NUMBER
~CURVE INFORMATION
#MNEM.UNIT       API CODE    CURVE DESCRIPTION
#----------   ------------   ------------------------------
 DEPT.F                  :   
 GRR .GAPI   07 310 01 00:   GAMMA RAY
 RILD.OHMM   07 120 46 00:   INDUCTION LOG DEEP RESISTIVITY
 RILM.OHMM   07 120 44 00:   INDUCTION LOG MEDIUM RESISTIVITY
~PARAMETER INFORMATION
#MNEM.UNIT          VALUE    DESCRIPTION
#----------   ------------   ------------------------------
 PD  .                 GL:   PERMANENT DATUM
 EPD .F              5147:   ELEVATION PERMANENT DATUM
 LMF .                 KB:   LOG MEASURED FROM
 DAPD.F                10:   FEET ABOVE PERMANENT DATUM
 DMF .                 KB:   DRILLING MEASURED FROM
 EKB .F              5157:   KELLING BUSHING
 EDF .F              5156:   DRILLING FLOOR
 EGL .F              5147:   GROUND LEVEL
 DATE.        18-JAN-1992:   RUN DATE
 RUN .                  1:   RUN NUMBER
 DD  .F               842:   DEPTH DRILLER
 DL  .F               837:   DEPTH LOGGER
 BLI .F               835:   BOTTOM LOG INTERVAL
 TLI .F                 4:   TOP LOG INTERVAL
 CS  .IN            8.625:   CASING SIZE
 CBD .F                39:   CASING BOTTOM DRILLER
 CBL .F                56:   CASING BOTTOM LOGGER
 BS  .IN             8.75:   BIT SIZE
 BSD .F               842:   BIT SIZE AT DEPTH
 DFT .                AIR:   DRILLING FLUID TYPE
 LUN .           HL- 6272:   LOGGING UNIT NUMBER
 LUL .             CASPER:   LOGGING UNIT LOCATION
 ENGI.       P. RASMUSSEN:   RECORDING ENGINEER
 WITN.          G. STRONG:   WITNESSED BY
 CLNT.            A2DTECH:   CLIENT CODE
 ORIG.           5" PRINT:   ORIGIN OF DATA
 UWI .       490252249900:   UNIQUE WELL ID
 DICO. A2D Technologies, Inc.:   DIGITIZING COMPANY
~OTHER INFORMATION
~A    DEPT      GRR      RILD       RILM   
# ...
  240.6000   133.4633     6.1358     6.6590
  240.7000   132.9151     6.1718     6.6967
  240.8000   132.1629     6.2559     6.7363
  240.9000   131.6745     6.3132     6.7726
  241.0000   130.9910     6.3851     6.8110
  241.1000   130.3804     6.4577     6.8495
  241.2000   129.8093     6.5311     6.8882
  241.3000   129.0462     6.6140     6.9282
  241.4000   127.9113     6.6473     7.0070
  241.5000   127.2766     6.6849     7.0546
  241.6000   126.6895     6.7392     7.0719
  241.7000   126.1945     6.8082     7.0851
  241.8000   125.6993     6.8480     7.1211
  241.9000   125.1788     6.8856     7.1210
  242.0000   124.9443     6.9538     7.1915
  242.1000   124.6971     6.9924     7.2206
  242.2000   124.5726     7.0034     7.2372
  242.3000   124.5066     7.0411     7.2709
  242.4000   124.2699     7.0409     7.2708
  242.5000   124.2706     7.0737     7.3096
  242.6000   124.2711     7.1138     7.3213
  242.7000   124.2717     7.1541     7.3412
  242.8000   124.2723     7.1946     7.3723
  242.9000   124.2730     7.2394     7.3722
  243.0000   124.2736     7.2393     7.3721
  243.1000   124.2742     7.2669     7.4049
  243.2000   124.2748     7.3081     7.4234
  243.3000   124.2754     7.3495     7.4233
  243.4000   124.3330     7.3918     7.4232
  243.5000   124.5805     7.3917     7.4231
  243.6000   124.5812     7.3916     7.4230
  243.7000   124.5817     7.3915     7.4228
  243.8000   124.7189     7.3914     7.4228
  243.9000   124.9674     7.3913     7.4227
  244.0000   125.2400     7.3912     7.4226
  244.1000   125.8001     7.3911     7.4224
  244.2000   126.4487     7.3910     7.4223
  244.3000   127.1928     7.3909     7.4223
  244.4000   127.8331     7.3908     7.4222
  244.5000   128.3768     7.3907     7.4220
  244.6000   129.1465     7.3906     7.4219
  244.7000   129.3864     7.3905     7.4218
  244.8000   129.4517     7.3904     7.4218
  244.9000   129.4523     7.3903     7.4085
  245.0000   129.3820     7.3902     7.3666
  245.1000   129.1495     7.3900     7.3188
  245.2000   129.1503     7.3899     7.3187
  245.3000   128.9442     7.3899     7.2931
  245.4000   128.5467     7.3898     7.2519
  245.5000   128.1459     7.3863     7.2172
  245.6000   127.8986     7.3382     7.2171
  245.7000   127.6335     7.3028     7.1794
  245.8000   127.1744     7.2615     7.1668
  245.9000   126.8531     7.2203     7.1481
  246.0000   126.6059     7.1794     7.1169
  246.1000   126.2972     7.1361     7.1168
  246.2000   125.8076     7.1360     7.1167
  246.3000   125.5603     7.1359     7.1166
  246.4000   125.3131     7.1358     7.1166
  246.5000   125.2067     7.1357     7.1165
  246.6000   125.2920     7.1362     7.1163
  246.7000   125.5689     7.1767     7.1162
  246.8000   126.1204     7.1852     7.0824
  246.9000   126.5614     7.1852     7.0667
  247.0000   127.0577     7.1851     7.0666
  247.1000   127.5540     7.1850     7.0665
  247.2000   128.0502     7.1849     7.0664
  247.3000   128.5550     7.1496     7.0299
  247.4000   129.0427     7.1348     7.0171
  247.5000   129.3516     7.1182     6.9992
  247.6000   129.7313     7.0851     6.9596
  247.7000   130.1523     7.0850     6.9198
  247.8000   130.4008     7.0848     6.9197
  247.9000   130.6864     7.0559     6.9196
  248.0000   130.8977     7.0355     6.9196
  248.1000   130.8369     7.0250     6.9080
  248.2000   130.4913     6.9851     6.8714
  248.3000   129.9961     6.9378     6.8712
  248.4000   129.4736     6.9062     6.8711
  248.5000   129.0060     6.8671     6.8478
  248.6000   128.1554     6.8283     6.8091
  248.7000   127.2865     6.7852     6.7707
  248.8000   126.5434     6.6998     6.7288
  248.9000   125.8292     6.6662     6.6944
  249.0000   125.8299     6.6285     6.6314
  249.1000   126.2327     6.5595     6.5567
  249.2000   126.7290     6.4629     6.4753
  249.3000   127.2254     6.4251     6.3638
  249.4000   127.6888     6.3204     6.2938
  249.5000   127.9605     6.2139     6.1969
  249.6000   128.6344     6.1265     6.0927
  249.7000   129.5469     6.0480     5.9807
  249.8000   130.5392     5.9458     5.8466
  249.9000   131.3927     5.8275     5.6925
  250.0000   131.7738     5.7319     5.5760
  250.1000   132.1550     5.6153     5.4432
  250.2000   132.5361     5.4988     5.3467
  250.3000   132.9173     5.3896     5.2338
  250.4000   133.3358     5.3231     5.1374
  250.5000   133.3364     5.2420     5.0785
  250.6000   133.3370     5.1148     5.0499
  250.7000   133.2284     4.9843     5.0220
  250.8000   132.9826     4.8844     5.0220
  250.9000   132.7327     4.8288     4.9997
  251.0000   132.0060     4.8018     4.9872
  251.1000   130.7095     4.7954     4.9872
  251.2000   129.4899     4.8100     4.9872
  251.3000   128.4320     4.8290     4.9872
  251.4000   127.2325     4.8312     4.9872
  251.5000   126.3728     4.8630     5.0051
  251.6000   126.3733     4.8865     5.0334
  251.7000   126.3739     4.8971     5.0571
  251.8000   126.4675     4.8971     5.0571
  251.9000   126.7147     4.9018     5.1111
  252.0000   126.9819     4.9315     5.1485
  252.1000   127.2087     4.9578     5.1917
  252.2000   127.4558     4.9861     5.2507
  252.3000   127.5897     5.0146     5.3108
  252.4000   127.6470     5.0360     5.4017
  252.5000   127.8939     5.0366     5.4698
  252.6000   127.8945     5.0653     5.5148
  252.7000   127.7053     5.1172     5.5361
  252.8000   127.4594     5.1426     5.5361
  252.9000   127.2136     5.1525     5.5361
  253.0000   126.9677     5.1819     5.5629
  253.1000   126.6855     5.2150     5.5748
  253.2000   126.6861     5.2674     5.5872
  253.3000   126.8402     5.3079     5.6189
  253.4000   127.0872     5.3381     5.6530
  253.5000   127.3343     5.3686     5.7127
  253.6000   127.5976     5.4002     5.7549
  253.7000   127.8285     5.4598     5.7875
  253.8000   128.2492     5.5222     5.8358
  253.9000   128.6256     5.6014     5.9354
  254.0000   128.9333     5.6975     6.0030
  254.1000   129.4227     5.7936     6.0979
  254.2000   129.6699     5.8716     6.2022
  254.3000   130.1108     5.9268     6.3082
  254.4000   130.4670     6.0149     6.4104
  254.5000   130.7141     6.1054     6.4524
  254.6000   130.9370     6.1798     6.4833
  254.7000   130.9377     6.2957     6.5428
  254.8000   131.1523     6.3940     6.6028
  254.9000   131.3994     6.4787     6.6459
  255.0000   131.6465     6.5696     6.7276
  255.1000   131.8491     6.6738     6.7979
  255.2000   131.8497     6.7504     6.8753
  255.3000   132.0846     6.8271     6.9534
  255.4000   132.1540     6.8752     7.0235
  255.5000   132.1546     6.9356     7.0636
  255.6000   132.1552     7.0024     7.1434
  255.7000   132.1638     7.0423     7.1936
  255.8000   132.4595     7.0884     7.2343
  255.9000   132.4600     7.0885     7.2753
  256.0000   132.3192     7.1137     7.3165
  256.1000   132.0734     7.1543     7.3649
  256.2000   131.7991     7.1883     7.3649
  256.3000   131.2504     7.1884     7.3649
  256.4000   130.8145     7.1885     7.3649
  256.5000   130.1606     7.2176     7.3649
  256.6000   129.6319     7.2389     7.3649
  256.7000   129.3375     7.2390     7.3649
  256.8000   128.8291     7.2391     7.3649
  256.9000   128.5913     7.2393     7.3649
  257.0000   128.3454     7.2394     7.3649
  257.1000   128.0995     7.2394     7.3649
  257.2000   127.9224     7.2395     7.4059
  257.3000   127.9351     7.2396     7.4164
  257.4000   128.2268     7.2398     7.4382
  257.5000   128.2273     7.2399     7.4803
  257.6000   128.2279     7.2400     7.5227
  257.7000   128.3174     7.2575     7.5729
  257.8000   128.5321     7.2907     7.5729
  257.9000   128.5328     7.2909     7.5729
  258.0000   128.7555     7.3311     7.5729
  258.1000   128.8370     7.3421     7.5729
  258.2000   128.9467     7.3634     7.5729
  258.3000   129.1938     7.3935     7.5729
  258.4000   129.4449     7.3937     7.5729
  258.5000   129.4455     7.3938     7.5729
  258.6000   129.4461     7.3939     7.5816
  258.7000   129.4467     7.4190     7.6258
