~VERSION INFORMATION
 VERS.                2.0:   CWLS LOG ASCII STANDARD - VERSION 2.0
 WRAP.                 NO:   ONE LINE PER DEPTH STEP
~WELL INFORMATION
#MNEM.UNIT      DATA TYPE    INFORMATION
#----------   ------------   ------------------------------
 STRT.F           14.0000:   START DEPTH
 STOP.F          513.0000:   STOP DEPTH
 STEP.F            0.1000:   STEP LENGTH
 NULL.          -999.2500:   NO VALUE
 COMP.       F D SERV INC:   COMPANY
 WELL.    52-1 SX-3 #52-3:   WELL
 FLD .             TEAPOT:   FIELD
 LOC .       S3 T38N R78W:   LOCATION
 CNTY.            NATRONA:   COUNTY
 STAT.            WYOMING:   STATE
 CTRY. UNITED STATES OF AMERICA:   COUNTRY
 SRVC.     Atlas Wireline:   SERVICE COMPANY
 DATE.        21-APR-1992:   LOGDATE
 API .       490252251400:   API NUMBER
~CURVE INFORMATION
#MNEM.UNIT       API CODE    CURVE DESCRIPTION
#----------   ------------   ------------------------------
 DEPT.F                  :   
 GRR .GAPI   07 310 01 00:   GAMMA RAY
 RILD.OHMM   07 120 46 00:   INDUCTION LOG DEEP RESISTIVITY
 RILM.OHMM   07 120 44 00:   INDUCTION LOG MEDIUM RESISTIVITY
~PARAMETER INFORMATION
#MNEM.UNIT          VALUE    DESCRIPTION
#----------   ------------   ------------------------------
 PD  .                 GL:   PERMANENT DATUM
 EPD .F              5115:   ELEVATION PERMANENT DATUM
 LMF .                 KB:   LOG MEASURED FROM
 DAPD.F                 5:   FEET ABOVE PERMANENT DATUM
 DMF .                 KB:   DRILLING MEASURED FROM
 EKB .F              5120:   KELLING BUSHING
 EDF .F              5119:   DRILLING FLOOR
 EGL .F              5115:   GROUND LEVEL
 DATE.        21-APR-1992:   RUN DATE
 RUN .                  1:   RUN NUMBER
 DD  .F               515:   DEPTH DRILLER
 DL  .F               520:   DEPTH LOGGER
 BLI .F               517:   BOTTOM LOG INTERVAL
 TLI .F                50:   TOP LOG INTERVAL
 CS  .IN            9.625:   CASING SIZE
 CBD .F                45:   CASING BOTTOM DRILLER
 CBL .F                50:   CASING BOTTOM LOGGER
 BS  .IN            7.875:   BIT SIZE
 BSD .F               515:   BIT SIZE AT DEPTH
 DFT .                AIR:   DRILLING FLUID TYPE
 LUN .            HL-6272:   LOGGING UNIT NUMBER
 LUL .             CASPER:   LOGGING UNIT LOCATION
 ENGI.       P. RASMUSSEN:   RECORDING ENGINEER
 WITN.          G. STRONG:   WITNESSED BY
 CLNT.            A2DTECH:   CLIENT CODE
 ORIG.           5" PRINT:   ORIGIN OF DATA
 UWI .       490252251400:   UNIQUE WELL ID
 DICO. A2D Technologies, Inc.:   DIGITIZING COMPANY
~OTHER INFORMATION
~A   DEPT      GRR       RILD       RILM   
# ...
   50.4000   127.2773   105.4149    55.1869
   50.5000   128.5076    10.5997     5.9191
   50.6000   129.8945     6.8227     4.8594
   50.7000   130.9680     3.9954     4.3137
   50.8000   132.1982     3.3450     3.7653
   50.9000   133.3244     2.8296     3.4539
   51.0000   134.4532     2.4301     3.4084
   51.1000   136.2271     2.2397     3.4082
   51.2000   137.6605     2.1811     3.4081
   51.3000   139.1372     2.1425     3.4079
   51.4000   140.4858     2.1424     3.4298
   51.5000   141.8610     2.1423     3.4689
   51.6000   143.5505     2.1422     3.5208
   51.7000   144.9736     2.1492     3.6781
   51.8000   146.0109     2.1755     3.9135
   51.9000   146.9365     2.2331     4.5310
   52.0000   147.3837     2.2767     5.1911
   52.1000   147.2580     2.3459     5.7067
   52.2000   146.4724     2.4563     6.2427
   52.3000   146.2381     2.6141     6.6866
   52.4000   145.4598     2.7891     6.9028
   52.5000   144.3505     3.0292     7.0153
   52.6000   143.0501     3.5275     7.0811
   52.7000   141.5782     4.3267     7.1264
   52.8000   140.1131     5.2154     7.2153
   52.9000   139.3088     5.8237     7.2899
   53.0000   138.7553     6.4247     7.3731
   53.1000   138.3275     7.6883     7.4971
   53.2000   137.6532     9.2638     7.7690
   53.3000   137.3823    10.8466     8.3787
   53.4000   137.1553    12.2239     9.9628
   53.5000   136.7372    12.9680    11.7258
   53.6000   136.4689    13.3991    13.0041
   53.7000   136.4085    13.7478    13.6048
   53.8000   136.1619    13.7016    13.6715
   53.9000   136.1595    13.2530    13.5761
   54.0000   136.1571    12.6424    13.5756
   54.1000   136.1547    11.6790    13.5218
   54.2000   136.0701    11.2427    13.3736
   54.3000   135.8477    10.4554    13.1103
   54.4000   135.8450     9.7077    12.7409
   54.5000   135.8429     9.3095    12.3140
   54.6000   136.0024     9.0892    11.7690
   54.7000   136.1402     8.9425    11.1538
   54.8000   136.1885     8.7907    10.6165
   54.9000   136.4374     8.6415    10.1419
   55.0000   136.6767     8.4946     9.6528
   55.1000   137.1069     8.3501     9.2598
   55.2000   137.5976     8.1858     8.8824
   55.3000   137.9384     8.1077     8.5576
   55.4000   137.9360     7.9877     8.2811
   55.5000   137.9332     7.8520     8.0492
   55.6000   137.9311     7.7335     7.8338
   55.7000   137.7740     7.6869     7.7262
   55.8000   137.6242     7.5631     7.5952
   55.9000   137.6217     7.4963     7.4817
   56.0000   137.6192     7.4321     7.4090
   56.1000   137.3825     7.3475     7.5123
   56.2000   137.3124     7.2639     7.6724
   56.3000   137.1867     7.1679     7.8808
   56.4000   137.0054     7.1336     8.1307
   56.5000   137.0151     7.0927     8.4123
   56.6000   137.3023     7.0520     8.6990
   56.7000   137.5033     7.0185     8.9358
   56.8000   137.7474     7.0670     9.1041
   56.9000   138.2671     7.1822     9.2498
   57.0000   139.2870     7.3360     9.2955
   57.1000   140.6137     7.5045     9.2423
   57.2000   141.7474     7.6892     9.1859
   57.3000   142.6344     7.9074     9.0409
   57.4000   143.3716     8.1191     8.9234
   57.5000   144.1088     8.3956     8.7978
   57.6000   144.8315     8.6440     8.6484
   57.7000   144.8290     8.8827     8.5035
   57.8000   145.0224     9.1990     8.3901
   57.9000   145.4066     9.5918     8.2730
   58.0000   145.6435     9.8538     8.1882
   58.1000   145.3656    10.0125     8.1239
   58.2000   144.8167    10.0402     8.0388
   58.3000   144.8145     9.9670     7.9900
   58.4000   144.6477     9.8566     7.9896
   58.5000   144.2900     9.7907     7.9568
   58.6000   143.8477     9.6525     7.9336
   58.7000   143.5963     9.4887     7.9333
   58.8000   143.5939     9.3275     7.9330
   58.9000   143.4030     9.1604     7.9326
   59.0000   143.2870     8.9417     7.9323
   59.1000   143.2073     8.7520     7.9046
   59.2000   142.9801     8.5896     7.8594
   59.3000   142.9773     8.4437     7.8218
   59.4000   142.7625     8.2874     7.8215
   59.5000   142.8278     8.1073     7.7793
   59.6000   142.9704     8.0530     7.7667
   59.7000   143.0139     7.9396     7.7442
   59.8000   143.2676     7.8049     7.6878
   59.9000   143.5021     7.6889     7.6029
   60.0000   143.5650     7.5945     7.5524
   60.1000   143.5625     7.4577     7.5163
   60.2000   143.5601     7.4176     7.4473
   60.3000   143.5577     7.3451     7.3791
   60.4000   143.5549     7.2820     7.3369
   60.5000   143.3474     7.2402     7.2929
   60.6000   143.0985     7.1987     7.2533
   60.7000   142.7553     7.1504     7.2118
   60.8000   142.2598     7.1165     7.1706
   60.9000   141.7303     7.0757     7.1296
   61.0000   141.2689     7.0352     7.0862
   61.1000   141.1214     6.9885     6.9932
   61.2000   141.0006     6.9041     6.9595
   61.3000   140.8773     6.8670     6.9197
   61.4000   141.1143     6.8277     6.8802
   61.5000   141.1113     6.7886     6.8339
   61.6000   141.5057     6.7394     6.7530
   61.7000   141.9964     6.6663     6.7527
   61.8000   142.5740     6.6658     6.7242
   61.9000   143.3112     6.6343     6.7054
   62.0000   144.1206     6.5963     6.6939
   62.1000   144.3408     6.5585     6.6556
   62.2000   144.4181     6.5268     6.6119
   62.3000   144.1934     6.5264     6.5798
   62.4000   143.7535     6.5260     6.5656
   62.5000   143.5045     6.5257     6.5653
   62.6000   143.2556     6.5253     6.5651
   62.7000   143.0067     6.5249     6.5648
   62.8000   142.6223     6.5263     6.5645
   62.9000   142.2066     6.5697     6.5642
   63.0000   141.9335     6.5694     6.5640
   63.1000   141.3749     6.5690     6.5637
   63.2000   141.1577     6.5828     6.5634
   63.3000   141.0683     6.6142     6.5631
   63.4000   141.0659     6.6138     6.5950
   63.5000   141.1118     6.6134     6.6084
   63.6000   141.3631     6.6399     6.6237
   63.7000   142.3178     6.6588     6.6612
   63.8000   143.3015     6.6585     6.7000
   63.9000   143.9009     6.6597     6.7369
   64.0000   144.0725     6.7041     6.7751
   64.1000   144.0532     6.7352     6.8135
   64.2000   143.7652     6.7733     6.8641
   64.3000   143.7632     6.8116     6.9356
   64.4000   143.6085     6.8561     6.9352
   64.5000   143.2628     6.9395     7.0036
   64.6000   142.7674     7.0132     7.0575
   64.7000   142.2428     7.0931     7.0975
   64.8000   141.3124     7.1739     7.1458
   64.9000   140.3239     7.2556     7.2291
   65.0000   139.3353     7.3381     7.2692
   65.1000   138.3468     7.4369     7.3104
   65.2000   137.3583     7.5063     7.3970
   65.3000   136.1857     7.5919     7.4969
   65.4000   135.1807     7.6619     7.5394
   65.5000   133.3656     7.7118     7.5876
   65.6000   131.4127     7.8059     7.6251
   65.7000   130.0326     7.8469     7.6683
   65.8000   129.2252     7.8596     7.7117
   65.9000   128.9982     7.8808     7.7554
   66.0000   129.0876     7.9136     7.8000
   66.1000   129.3317     7.9148     7.8435
   66.2000   129.5758     7.9678     7.8879
   66.3000   129.8199     7.9675     7.9082
   66.4000   130.0640     7.9670     7.9079
   66.5000   130.6948     7.9666     7.9075
   66.6000   131.4320     7.9594     7.9072
   66.7000   132.1692     7.9104     7.9069
   66.8000   132.9330     7.9100     7.9361
   66.9000   134.0323     7.9096     7.9614
   67.0000   134.9003     7.8876     7.9515
   67.1000   135.7221     7.8539     7.9056
   67.2000   136.2465     7.8534     7.9052
   67.3000   136.3891     7.8529     7.9049
   67.4000   136.1353     7.8526     7.8800
   67.5000   136.1329     7.8521     7.8495
   67.6000   135.9444     7.8517     7.8445
   67.7000   135.6955     7.8448     7.7944
   67.8000   135.4465     7.7964     7.7941
   67.9000   135.2169     7.7960     7.7938
   68.0000   135.2142     7.7955     7.7741
   68.1000   135.2121     7.7951     7.7392
   68.2000   135.2097     7.7947     7.7389
   68.3000   135.2072     7.7942     7.7385
   68.4000   135.2918     7.7937     7.7382
   68.5000   135.8065     7.7934     7.7379
