~VERSION INFORMATION
 VERS.                2.0:   CWLS LOG ASCII STANDARD - VERSION 2.0
 WRAP.                 NO:   ONE LINE PER DEPTH STEP
~WELL INFORMATION
#MNEM.UNIT      DATA TYPE    INFORMATION
#----------   ------------   ------------------------------
 STRT.F           30.0000:   START DEPTH
 STOP.F         2441.0000:   STOP DEPTH
 STEP.F            0.5000:   STEP LENGTH
 NULL.          -999.2500:   NO VALUE
 COMP. FENIX & SCISSON INC:   COMPANY
 WELL.      NPR 3 #81 S-4:   WELL
 FLD .             TEAPOT:   FIELD
 LOC .       S4 T38N R78W:   LOCATION
 CNTY.            NATRONA:   COUNTY
 STAT.            WYOMING:   STATE
 CTRY. UNITED STATES OF AMERICA:   COUNTRY
 SRVC.            Unknown:   SERVICE COMPANY
 DATE.        28-MAR-1978:   LOGDATE
 API .       490251060700:   API NUMBER
~CURVE INFORMATION
#MNEM.UNIT       API CODE    CURVE DESCRIPTION
#----------   ------------   ------------------------------
 DEPT.F                  :   
 CALD.IN     45 280 60 00:   CALIPER
 RHOB.G/C3   45 350 01 00:   BULK DENSITY
 DPHI.DEC    45 890 12 00:   DENSITY POROSITY SANDSTONE
 CORR.G/C3   45 356 01 00:   DENSITY CORRECTION
 GRD .GAPI   45 310 01 00:   GAMMA RAY FROM DENSITY LOG
~PARAMETER INFORMATION
#MNEM.UNIT          VALUE    DESCRIPTION
#----------   ------------   ------------------------------
 PD  .                 GL:   PERMANENT DATUM
 EPD .F              5169:   ELEVATION PERMANENT DATUM
 LMF .                 KB:   LOG MEASURED FROM
 DAPD.F                10:   FEET ABOVE PERMANENT DATUM
 DMF .                 KB:   DRILLING MEASURED FROM
 EKB .F              5179:   KELLING BUSHING
 EGL .F              5169:   GROUND LEVEL
 DATE.          3-28-1978:   RUN DATE
 RUN .                  1:   RUN NUMBER
 DD  .F              2454:   DEPTH DRILLER
 DL  .F              2443:   DEPTH LOGGER
 BLI .F              2441:   BOTTOM LOG INTERVAL
 TLI .F                40:   TOP LOG INTERVAL
 CS  .IN            9.625:   CASING SIZE
 CBD .F               660:   CASING BOTTOM DRILLER
 CBL .F               660:   CASING BOTTOM LOGGER
 BS  .IN             8.75:   BIT SIZE
 BSD .F              2454:   BIT SIZE AT DEPTH
 DFT .           AIR MIST:   DRILLING FLUID TYPE
 TCS .HRS               2:   TIME CURCULATED STOPPED
 LUN .               2958:   LOGGING UNIT NUMBER
 LUL .               CASP:   LOGGING UNIT LOCATION
 ENGI.             MILLER:   RECORDING ENGINEER
 CLNT.            A2DTECH:   CLIENT CODE
 ORIG.       2"  5" PRINT:   ORIGIN OF DATA
 UWI .       490251060700:   UNIQUE WELL ID
 DICO. A2D Technologies, Inc.:   DIGITIZING COMPANY
~OTHER INFORMATION
~A   DEPT     CALD       RHOB       DPHI       CORR        GRD   
# ...
 1372.0000    10.1700     2.4812     0.1043     0.0198   147.9674
 1372.5000    10.1857     2.4925     0.0994     0.0200   148.6623
 1373.0000    10.2043     2.4927     0.1003     0.0200   149.6082
 1373.5000    10.2231     2.4883     0.1013     0.0199   149.1229
 1374.0000    10.2419     2.4937     0.0949     0.0246   148.6208
 1374.5000    10.2605     2.5066     0.0872     0.0314   149.1919
 1375.0000    10.2722     2.5127     0.0796     0.0385   151.4164
 1375.5000    10.2719     2.5151     0.0925     0.0421   153.4643
 1376.0000    10.2716     2.5124     0.0930     0.0440   152.7945
 1376.5000    10.2876     2.5133     0.0922     0.0457   152.6406
 1377.0000    10.3060     2.5131     0.0928     0.0388   153.8640
 1377.5000    10.3244     2.5107     0.0936     0.0312   153.7118
 1378.0000    10.3429     2.5083     0.0938     0.0313   149.9828
 1378.5000    10.3582     2.5161     0.0914     0.0330   149.2772
 1379.0000    10.3713     2.5253     0.0890     0.0347   153.0130
 1379.5000    10.3842     2.5257     0.0898     0.0347   152.7630
 1380.0000    10.3971     2.5094     0.0930     0.0292   152.4160
 1380.5000    10.4101     2.5056     0.0958     0.0293   154.1812
 1381.0000    10.4230     2.5085     0.0878     0.0312   155.9701
 1381.5000    10.4359     2.5120     0.0862     0.0331   157.8378
 1382.0000    10.4489     2.5134     0.0901     0.0336   159.0973
 1382.5000    10.4616     2.5121     0.0946     0.0314   155.5785
 1383.0000    10.4690     2.5108     0.0956     0.0292   151.5878
 1383.5000    10.4647     2.5051     0.0966     0.0282   150.8952
 1384.0000    10.4607     2.5017     0.0974     0.0289   155.8562
 1384.5000    10.4565     2.5028     0.0914     0.0295   160.3074
 1385.0000    10.4524     2.5038     0.0962     0.0272   161.7508
 1385.5000    10.4483     2.5053     0.0890     0.0217   158.5000
 1386.0000    10.4442     2.5032     0.0958     0.0182   152.2643
 1386.5000    10.4401     2.5010     0.0973     0.0201   151.5399
 1387.0000    10.4360     2.4990     0.0982     0.0220   151.7051
 1387.5000    10.4319     2.5013     0.0970     0.0241   151.8700
 1388.0000    10.4278     2.5084     0.0950     0.0318   154.1227
 1388.5000    10.4237     2.5127     0.0942     0.0380   158.0071
 1389.0000    10.4196     2.5053     0.0959     0.0386   158.6614
 1389.5000    10.4154     2.4976     0.0974     0.0392   158.4548
 1390.0000    10.4111     2.4990     0.0850     0.0408   158.3677
 1390.5000    10.4202     2.5023     0.0902     0.0580   159.8042
 1391.0000    10.4313     2.5064     0.0955     0.0629   161.1125
 1391.5000    10.4423     2.5120     0.0930     0.0645   160.2293
 1392.0000    10.4533     2.5105     0.0814     0.0825   159.2683
 1392.5000    10.4643     2.4998     0.0912     0.0974   158.3512
 1393.0000    10.4754     2.4936     0.0990     0.0806   159.2952
 1393.5000    10.4864     2.4977     0.0998     0.0644   161.9749
 1394.0000    10.4974     2.5020     0.0922     0.0564   164.9937
 1394.5000    10.5085     2.5004     0.0952     0.0499   163.2908
 1395.0000    10.5062     2.5017     0.0978     0.0515   160.7303
 1395.5000    10.5009     2.5048     0.0966     0.0588   156.7190
 1396.0000    10.4951     2.4922     0.0954     0.0662   153.1170
 1396.5000    10.4764     2.4672     0.1052     0.0624   149.8010
 1397.0000    10.3012     2.4355     0.1162     0.0471   148.8440
 1397.5000    10.1515     2.4703     0.1085     0.0235   151.1815
 1398.0000    10.1330     2.5062     0.0844     0.0282   154.0779
 1398.5000    10.0999     2.5420     0.0607     0.0512   156.4069
 1399.0000    10.0736     2.5541     0.0794     0.0677   157.2339
 1399.5000    10.0739     2.5248     0.0798     0.0542   157.1165
 1400.0000    10.0770     2.5241     0.0774     0.0401   156.5374
 1400.5000    10.0907     2.5237     0.0815     0.0380   155.9731
 1401.0000    10.1038     2.5177     0.0798     0.0338   157.3180
 1401.5000    10.1169     2.5183     0.0835     0.0282   159.3073
 1402.0000    10.1300     2.5154     0.0913     0.0262   156.2677
 1402.5000    10.1431     2.5103     0.0958     0.0275   150.7992
 1403.0000    10.1535     2.5035     0.0967     0.0289   147.2287
 1403.5000    10.1481     2.5024     0.0984     0.0302   144.7589
 1404.0000    10.1421     2.4996     0.0841     0.0317   144.5574
 1404.5000    10.1361     2.4938     0.0995     0.0283   148.6915
 1405.0000    10.1333     2.4978     0.0970     0.0240   151.3852
 1405.5000    10.1291     2.5136     0.0927     0.0251   152.4537
 1406.0000    10.1247     2.5146     0.0914     0.0212   153.6608
 1406.5000    10.1203     2.5098     0.0931     0.0129   155.0157
 1407.0000    10.1157     2.5162     0.0908     0.0188   156.3709
 1407.5000    10.0997     2.5196     0.0913     0.0243   157.4435
 1408.0000    10.0687     2.5155     0.0838     0.0264   158.1681
 1408.5000    10.0260     2.5124     0.0858     0.0270   158.9450
 1409.0000     9.9953     2.5125     0.0938     0.0276   157.9320
 1409.5000     9.9967     2.5125     0.0927     0.0279   156.3132
 1410.0000    10.0015     2.5123     0.0899     0.0274   154.6426
 1410.5000    10.0063     2.5057     0.0928     0.0270   154.3676
 1411.0000    10.0108     2.4974     0.0982     0.0266   155.3501
 1411.5000    10.0121     2.4894     0.1014     0.0261   156.3775
 1412.0000    10.0008     2.4902     0.0998     0.0280   157.3661
 1412.5000     9.9899     2.4959     0.0976     0.0319   156.1925
 1413.0000     9.9790     2.5013     0.0958     0.0357   153.4822
 1413.5000     9.9681     2.5057     0.0902     0.0335   150.7640
 1414.0000     9.9569     2.5145     0.0816     0.0360   149.5644
 1414.5000     9.9591     2.5264     0.0705     0.0467   151.1682
 1415.0000     9.9646     2.5517     0.0571     0.0692   153.0881
 1415.5000     9.9701     2.5653     0.0555     0.0924   153.1269
 1416.0000     9.9756     2.5397     0.0779     0.0957   153.3405
 1416.5000     9.9810     2.5163     0.0912     0.0470   157.6641
 1417.0000     9.9865     2.5112     0.0952     0.0324   162.1226
 1417.5000     9.9920     2.5055     0.0992     0.0250   165.6945
 1418.0000    10.0159     2.5063     0.1030     0.0253   165.3050
 1418.5000    10.0523     2.5107     0.0886     0.0325   163.6405
 1419.0000    10.0383     2.5151     0.0919     0.0396   162.0125
 1419.5000    10.0218     2.5166     0.0903     0.0466   160.3842
 1420.0000    10.0054     2.5313     0.0719     0.0577   159.0132
 1420.5000     9.9892     2.5363     0.0775     0.0729   157.9503
 1421.0000     9.9720     2.5254     0.0847     0.0710   156.8868
 1421.5000     9.9522     2.5118     0.0916     0.0626   155.8322
 1422.0000     9.9319     2.5013     0.0955     0.0520   155.1244
 1422.5000     9.9116     2.5022     0.0978     0.0381   155.1079
 1423.0000     9.8951     2.5038     0.0977     0.0349   157.8642
 1423.5000     9.9023     2.5055     0.0963     0.0362   162.3860
 1424.0000     9.9194     2.5102     0.0940     0.0377   165.5542
 1424.5000     9.9348     2.5155     0.0911     0.0391   163.9532
 1425.0000     9.9351     2.5164     0.0850     0.0410   162.6805
 1425.5000     9.9351     2.5213     0.0809     0.0439   162.6681
 1426.0000     9.9339     2.5273     0.0802     0.0467   162.1762
 1426.5000     9.9258     2.5242     0.0815     0.0496   158.6067
 1427.0000     9.9176     2.5188     0.0830     0.0505   155.0235
 1427.5000     9.9095     2.5193     0.0860     0.0512   151.6487
 1428.0000     9.9014     2.5119     0.0886     0.0519   151.8071
 1428.5000     9.8949     2.5127     0.0857     0.0550   153.1347
 1429.0000     9.8940     2.5163     0.0831     0.0583   153.0476
 1429.5000     9.9170     2.5198     0.0813     0.0615   152.0046
 1430.0000     9.9223     2.5232     0.0795     0.0648   152.3615
 1430.5000     9.9274     2.5266     0.0778     0.0656   152.1679
 1431.0000     9.9321     2.5296     0.0787     0.0650   150.4381
 1431.5000     9.9313     2.5261     0.0800     0.0644   148.8322
 1432.0000     9.9105     2.5214     0.0806     0.0640   149.5074
 1432.5000     9.8902     2.5213     0.0790     0.0701   153.2343
