~VERSION INFORMATION
 VERS.                2.0:   CWLS LOG ASCII STANDARD - VERSION 2.0
 WRAP.                 NO:   ONE LINE PER DEPTH STEP
~WELL INFORMATION
#MNEM.UNIT      DATA TYPE    INFORMATION
#----------   ------------   ------------------------------
 STRT.F           12.0000:   START DEPTH
 STOP.F          549.0000:   STOP DEPTH
 STEP.F            0.5000:   STEP LENGTH
 NULL.          -999.2500:   NO VALUE
 COMP. LAWRENCE/ALLISON INC:   COMPANY
 WELL.  58-64-1 SX 3 #3-3:   WELL
 FLD .             TEAPOT:   FIELD
 LOC .       S3 T38N R78W:   LOCATION
 CNTY.            NATRONA:   COUNTY
 STAT.            WYOMING:   STATE
 CTRY. UNITED STATES OF AMERICA:   COUNTRY
 SRVC.      Dresser Atlas:   SERVICE COMPANY
 DATE.        05-DEC-1984:   LOGDATE
 API .       490251117800:   API NUMBER
~CURVE INFORMATION
#MNEM.UNIT       API CODE    CURVE DESCRIPTION
#----------   ------------   ------------------------------
 DEPT.F                  :   
 RFOC.OHMM   07 220 04 00:   RESISTIVITY FOCUSED LOG
 RILD.OHMM   07 120 46 00:   INDUCTION LOG DEEP RESISTIVITY
 RILM.OHMM   07 120 44 00:   INDUCTION LOG MEDIUM RESISTIVITY
 SPR .MV     07 010 01 00:   SPONTANEOUS POTENTIAL
 CALD.IN     45 280 60 00:   CALIPER FROM DENSITY LOG
 CNC .DEC    42 890 03 00:   NEUTRON POROSITY SANDSTONE
 CORR.G/C3   45 356 01 00:   DENSITY CORRECTION
 DEN .G/C3   45 350 01 00:   COMPENSATED BULK DENSTIY
 GRD .GAPI   45 310 01 00:   GAMMA RAY FROM DENSITY LOG
 PORD.DEC    45 890 12 00:   POROSITY DENSITY SANDSTONE
 DT  .US/F   60 520 00 00:   INTERVAL TRANSIT TIME
~PARAMETER INFORMATION
#MNEM.UNIT          VALUE    DESCRIPTION
#----------   ------------   ------------------------------
 PD  .                 GL:   PERMANENT DATUM
 EPD .F              5188:   ELEVATION PERMANENT DATUM
 LMF .                 KB:   LOG MEASURED FROM
 DMF .                 KB:   DRILLING MEASURED FROM
 EGL .F              5188:   GROUND LEVEL
 DATE.         5-DEC-1984:   RUN DATE
 RUN .                  1:   RUN NUMBER
 DD  .F               556:   DEPTH DRILLER
 DL  .F               551:   DEPTH LOGGER
 BLI .F               549:   BOTTOM LOG INTERVAL
 CS  .IN            8.625:   CASING SIZE
 CBD .F                20:   CASING BOTTOM DRILLER
 CBL .F                20:   CASING BOTTOM LOGGER
 BS  .IN            7.875:   BIT SIZE
 BSD .F               556:   BIT SIZE AT DEPTH
 DFT .          KCL WATER:   DRILLING FLUID TYPE
 MSS .           FLOWLINE:   MUD SAMPLE SOURCE
 RMS .OHMM            .36:   RESISTIVITY MUD SAMPLE
 MST .F                70:   MUD SAMPLE TEMPERATURE
 RMF .OHMM            .26:   RESISTIVITY MUD FILTRATE SAMPLE
 MFST.F                70:   MUD FILTRATE SAMPLE TEMPERATURE
 RMC .OHMM            .46:   RESISTIVITY MUD CAKE
 MCST.F                70:   MUD CAKE SAMPLE TEMPERATURE
 MFSS.               CALC:   MUD FILTRATE SAMPLE SOURCE
 MCSS.               CALC:   MUD CAKE SAMPLE SOURCE
 RMB .OHMM            .29:   RESISTIVITY MUD AT BHT
 BHT .F                85:   BOTTOM HOLE TEMPERATURE
 TCS .HRS               3:   TIME CURCULATED STOPPED
 MRT .F               100:   MAXIMUM RECORDED TEMPERATURE
 LUN .               6274:   LOGGING UNIT NUMBER
 LUL .               GLTE:   LOGGING UNIT LOCATION
 ENGI.             RAUTIO:   RECORDING ENGINEER
 WITN.       GROOMS/LUERS:   WITNESSED BY
 CLNT.            A2DTECH:   CLIENT CODE
 ORIG.         2.5" PRINT:   ORIGIN OF DATA
 UWI .       490251117800:   UNIQUE WELL ID
 DICO. A2D Technologies, Inc.:   DIGITIZING COMPANY
~OTHER INFORMATION
~A   DEPT     RFOC       RILD       RILM        SPR       CALD        CNC       CORR        DEN         GRD      PORD         DT   
# ...
  469.5000    11.1231    10.0056    10.2323   -59.5334     8.0375     0.2576     0.0343     2.5487   112.4103     0.0781    93.4985
  470.0000    10.9649    10.0023    10.2280   -59.5441     8.0376     0.2587     0.0405     2.5502   112.6849     0.0776    93.6502
  470.5000    10.9603     9.9996    10.2237   -59.5547     8.0377     0.2558     0.0467     2.5487   114.2401     0.0794    93.8018
  471.0000    10.8043     9.9969    10.0783   -59.5653     8.0379     0.2523     0.0546     2.5470   115.4225     0.0817    93.9533
  471.5000    10.7998    10.1341    10.0741   -59.5780     8.0380     0.2501     0.0632     2.5419   115.4117     0.0842    94.1049
  472.0000    10.7953    10.1314     9.9307   -59.2827     8.0381     0.2526     0.0510     2.5362   116.6186     0.0871    94.2565
  472.5000    10.7908    10.1286     9.7894   -59.2950     8.0382     0.2576     0.0389     2.5331   117.8256     0.0884    94.1064
  473.0000    10.7863    10.1258     9.9225   -59.3055     8.0384     0.2625     0.0328     2.5319   117.2088     0.0896    93.9563
  473.5000    10.7818    10.1230     9.9183   -59.3159     8.0385     0.2631     0.0266     2.5319   114.1604     0.0902    93.6554
  474.0000    10.9291     9.9804     9.9142   -59.3264     8.0386     0.2567     0.0327     2.5340   108.0725     0.0890    93.5053
  474.5000    10.9237     9.8398     9.8448   -59.3369     8.0387     0.2469     0.0447     2.5349   105.6320     0.0860    93.5061
  475.0000    10.9192     9.7012     9.7690   -59.3474     8.0389     0.2457     0.0629     2.5372   105.0152     0.0842    93.6576
  475.5000    10.9146     9.5645     9.6300   -59.3579     8.0390     0.2475     0.0625     2.5403   105.6142     0.0836    93.8092
  476.0000    10.8397     9.4298     9.4930   -59.3683     8.0391     0.2512     0.0440     2.5379   107.6231     0.0861    93.9608
  476.5000    10.7548     9.2970     9.2843   -59.3788     8.0392     0.2554     0.0324     2.5318   111.8693     0.0892    94.1124
  477.0000    10.5262     9.1622     9.1492   -59.3893     8.0394     0.2645     0.0330     2.5257   114.8348     0.0911    94.4148
  477.5000    10.3066     8.9048     8.9672   -59.3998     8.0395     0.2724     0.0400     2.5257   115.3051     0.0929    94.7210
  478.0000    10.0020     8.5350     8.7175   -59.4144     8.0396     0.2772     0.0484     2.5242   112.6687     0.0942    95.0478
  478.5000     9.3736     8.2822     8.5935   -59.7249     8.0397     0.2748     0.0527     2.5227   111.1844     0.0949    96.1071
  479.0000     8.1249     7.9199     8.3543   -59.7579     8.0399     0.2724     0.0565     2.5226   112.1479     0.0955    97.1870
  479.5000     7.8987     7.4633     8.0094   -60.3541     8.0400     0.2712     0.0564     2.5196   114.9271     0.0960    98.4075
  480.0000     7.8596     6.7764     7.5728   -60.7092     8.0401     0.2781     0.0471     2.5165   118.3384     0.0965    99.2861
  480.5000     7.8927     6.2247     6.7723   -61.9944     8.0402     0.2923     0.0346     2.5103   120.8258     0.0995    99.8499
  481.0000     7.8889     5.6195     6.1413   -63.2391     8.0404     0.3038     0.0199     2.5021   123.7492     0.1051   100.1790
  481.5000     7.6693     4.3908     5.4922   -64.0441     8.0405     0.3153     0.0138     2.4563   124.9561     0.1267   100.8075
  482.0000     7.0521     3.0828     3.1468   -63.6737     8.0406     0.3513     0.0198     2.4104   121.2998     0.1529   102.8665
  482.5000     5.8829     2.8399     2.8536   -63.3713     8.0407     0.4116     0.0319     2.3646   118.8593     0.1792   105.3721
  483.0000     4.5777     2.8938     2.8524   -62.6697     8.0409     0.4337     0.0379     2.3187   116.4188     0.2054   110.9678
  483.5000     3.3228     2.9758     2.8912   -61.7503     8.0410     0.4112     0.0439     2.2729   114.5862     0.2316   117.1539
  484.0000     2.9715     3.0601     2.9716   -60.1094     8.0411     0.3760     0.0469     2.2539   112.7536     0.2483   124.3441
  484.5000     3.0969     3.1670     3.0970   -59.2426     8.0412     0.3195     0.0437     2.2903   111.5207     0.2382   128.8107
  485.0000     3.4123     3.3037     3.2276   -59.2553     8.0414     0.2920     0.0248     2.3631   111.6008     0.1966   130.4299
  485.5000     4.5052     3.5199     3.4587   -58.9620     8.0415     0.2812     0.0067     2.4367   114.7691     0.1549   127.7516
  486.0000     6.1160     3.9682     3.9230   -58.6687     8.0416     0.2775    -0.0058     2.4632   117.8968     0.1226   120.3690
  486.5000     6.1991     4.9071     4.7057   -58.5203     8.0417     0.2812    -0.0139     2.4556   117.0204     0.1049   110.8130
  487.0000     6.2848     6.3480     5.4909   -58.3860     8.0419     0.2819    -0.0032     2.4594   112.0183     0.1007   103.5942
  487.5000     6.5600     7.3958     6.8771   -57.9154     8.0420     0.2777     0.0133     2.4856   107.4215     0.1014   100.7215
  488.0000     7.5514     8.1501     7.8670   -57.4954     8.0421     0.2741     0.0277     2.5032   107.9148     0.1034    99.8673
  488.5000     8.1848     8.3781     8.2043   -57.2021     8.0423     0.2780     0.0401     2.5095   113.7417     0.1027    99.4090
  489.0000     8.4152     8.4931     8.4017   -56.9105     8.0424     0.2840     0.0525     2.5117   118.1256     0.1001    99.0297
  489.5000     8.5325     8.6097     8.3979   -56.6171     8.0425     0.2862     0.0522     2.5132   116.8521     0.0989    98.4925
  490.0000     8.6316     8.7279     8.3944   -56.3222     8.0426     0.2807     0.0342     2.5162   117.5058     0.0977    98.2705
  490.5000     8.6277     8.6047     8.2750   -56.0289     8.0428     0.2748     0.0221     2.5162   118.7143     0.0977    98.5342
  491.0000     8.6241     8.4834     8.1295   -55.7356     8.0429     0.2730     0.0129     2.5177   118.7039     0.0990    99.1118
  491.5000     8.6497     8.4811     8.0112   -55.1392     8.0430     0.2784     0.0250     2.5177   119.3029     0.0990    99.5650
  492.0000     8.7381     8.4788     7.9268   -54.5418     8.0431     0.2824     0.0371     2.5177   121.1177     0.0990    99.8674
  492.5000     8.7340     8.2439     7.7798   -54.5523     8.0433     0.2852     0.0431     2.5162   121.1088     0.0990   100.0190
  493.0000     8.8532     8.1277     7.7028   -53.9549     8.0434     0.2798     0.0400     2.5131   120.4920     0.0984   100.1705
  493.5000     8.7267     8.0132     7.6996   -53.9653     8.0435     0.2777     0.0309     2.5101   119.8753     0.0979   100.1713
  494.0000     8.6025     8.0110     7.6964   -54.2798     8.0436     0.2774     0.0247     2.5084   121.1145     0.0998   100.4737
  494.5000     8.4801     8.0064     7.6932   -54.5942     8.0438     0.2837     0.0187     2.5070   124.1611     0.1022   100.4744
  495.0000     8.4766     7.8960     7.6900   -54.9088     8.0439     0.2901     0.0186     2.5103   126.0081     0.1034   100.6260
  495.5000     8.4730     7.9024     7.6868   -54.9191     8.0440     0.2968     0.0222     2.5137   127.1346     0.1025   100.4759
  496.0000     8.5249     8.0022     7.7912   -54.6257     8.0441     0.2976     0.0314     2.5176   124.1094     0.0985   100.4767
  496.5000     8.5846     7.9999     7.8429   -54.6368     8.0443     0.2914     0.0385     2.5100   122.2523     0.0968   100.1758
  497.0000     8.5810     7.9977     7.8363   -54.6474     8.0444     0.2878     0.0457     2.4997   123.6697     0.1039   100.1765
  497.5000     8.2109     7.9534     7.6156   -54.6581     8.0445     0.2842     0.0372     2.4935   124.6674     0.1089   100.1773
  498.0000     7.6707     7.5605     7.5647   -54.3636     8.0446     0.2818     0.0217     2.4917   123.4975     0.1102   100.4797
  498.5000     7.6243     7.5584     7.6669   -54.3014     8.0448     0.2817     0.0138     2.4932   121.2999     0.1096   100.7821
  499.0000     7.9904     7.6625     7.6637   -54.0806     8.0449     0.2831     0.0075     2.4956   119.7751     0.1081   100.7828
  499.5000     8.5625     7.7677     7.7679   -54.0927     8.0450     0.2801     0.0031     2.4993   118.5484     0.1066   100.7836
