~VERSION INFORMATION
 VERS.                2.0:   CWLS LOG ASCII STANDARD - VERSION 2.0
 WRAP.                 NO:   ONE LINE PER DEPTH STEP
~WELL INFORMATION
#MNEM.UNIT      DATA TYPE    INFORMATION
#----------   ------------   ------------------------------
 STRT.F           20.0000:   START DEPTH
 STOP.F          632.0000:   STOP DEPTH
 STEP.F            0.5000:   STEP LENGTH
 NULL.          -999.2500:   NO VALUE
 COMP. FENIX & SCISSON INC:   COMPANY
 WELL.    58 SX 34 #34-34:   WELL
 FLD .             TEAPOT:   FIELD
 LOC .      S34 T39N R78W:   LOCATION
 CNTY.            NATRONA:   COUNTY
 STAT.            WYOMING:   STATE
 CTRY. UNITED STATES OF AMERICA:   COUNTRY
 SRVC.            Unknown:   SERVICE COMPANY
 DATE.        30-JAN-1979:   LOGDATE
 API .       490251077300:   API NUMBER
~CURVE INFORMATION
#MNEM.UNIT       API CODE    CURVE DESCRIPTION
#----------   ------------   ------------------------------
 DEPT.F                  :   
 SPR .MV     05 010 01 00:   SPONTANEOUS POTENTIAL FROM RES.
 SN  .OHMM   05 040 16 00:   SHORT NORMAL 16"
 ILD .OHMM   05 120 46 00:   INDUCTION LOG DEEP
 CALD.IN     45 280 60 00:   CALIPER
 CORR.G/C3   45 356 01 00:   DENSITY CORRECTION
 RHOB.G/C3   45 350 01 00:   BULK DENSITY
 GRD .GAPI   45 310 01 00:   GAMMA RAY FROM DENSITY LOG
 DPHI.DEC    45 890 12 00:   DENSITY POROSITY SANDSTONE
~PARAMETER INFORMATION
#MNEM.UNIT          VALUE    DESCRIPTION
#----------   ------------   ------------------------------
 PD  .                 GL:   PERMANENT DATUM
 LMF .                 KB:   LOG MEASURED FROM
 DAPD.F                 4:   FEET ABOVE PERMANENT DATUM
 DMF .                 KB:   DRILLING MEASURED FROM
 DATE.            1-30-79:   RUN DATE
 RUN .                  1:   RUN NUMBER
 DD  .F               635:   DEPTH DRILLER
 DL  .F               632:   DEPTH LOGGER
 BLI .F               626:   BOTTOM LOG INTERVAL
 TLI .F                35:   TOP LOG INTERVAL
 CS  .IN            8.625:   CASING SIZE
 CBD .F                40:   CASING BOTTOM DRILLER
 CBL .F                35:   CASING BOTTOM LOGGER
 BS  .IN            7.875:   BIT SIZE
 BSD .F               635:   BIT SIZE AT DEPTH
 DFT .                KCL:   DRILLING FLUID TYPE
 DFD .                8.9:   DRILLING FLUID DENSITY
 DFV .                230:   DRILLING FLUID VISCOSITY
 DFPH.                  8:   DRILLING FLUID PH
 DFL .                 30:   DRILLING FLUID LOSS
 MSS .           FLOWLINE:   MUD SAMPLE SOURCE
 RMS .OHMM            .18:   RESISTIVITY MUD SAMPLE
 MST .F                62:   MUD SAMPLE TEMPERATURE
 RMF .OHMM            .14:   RESISTIVITY MUD FILTRATE SAMPLE
 MFST.F                59:   MUD FILTRATE SAMPLE TEMPERATURE
 RMC .OHMM            .24:   RESISTIVITY MUD CAKE
 MCST.F                60:   MUD CAKE SAMPLE TEMPERATURE
 MFSS.           MEASURED:   MUD FILTRATE SAMPLE SOURCE
 MCSS.           MEASURED:   MUD CAKE SAMPLE SOURCE
 RMB .OHMM            .17:   RESISTIVITY MUD AT BHT
 BHT .F                70:   BOTTOM HOLE TEMPERATURE
 TCS .HRS               4:   TIME CURCULATED STOPPED
 MRT .F                70:   MAXIMUM RECORDED TEMPERATURE
 LUN .               3006:   LOGGING UNIT NUMBER
 LUL .             CASPER:   LOGGING UNIT LOCATION
 ENGI.            ROLLINS:   RECORDING ENGINEER
 WITN.              AMEND:   WITNESSED BY
 CLNT.            A2DTECH:   CLIENT CODE
 ORIG.         2.5" PRINT:   ORIGIN OF DATA
 UWI .       490251077300:   UNIQUE WELL ID
 DICO. A2D Technologies, Inc.:   DIGITIZING COMPANY
~OTHER INFORMATION
~A   DEPT      SPR         SN        ILD       CALD       CORR       RHOB         GRD      DPHI   
# ...
  303.5000   -51.3881     6.8769     7.9141     7.9696     0.0321     2.4683   112.5773     0.1243
  304.0000   -51.7178     6.8884     7.8813     7.9881     0.0321     2.4765   111.0278     0.1213
  304.5000   -52.0557     6.9000     7.8486     8.0041     0.0322     2.4762   110.5258     0.1197
  305.0000   -52.3712     6.9117     7.8160     8.0489     0.0322     2.4758   110.4187     0.1197
  305.5000   -52.6606     6.9245     7.7836     8.1424     0.0321     2.4748   108.4797     0.1175
  306.0000   -52.9580     6.8249     7.7513     8.2206     0.0322     2.4786   108.0602     0.1157
  306.5000   -53.2572     6.7172     7.6436     8.2324     0.0322     2.4853   108.8608     0.1137
  307.0000   -53.5543     6.6115     7.5118     8.2456     0.0308     2.4967   110.1816     0.1107
  307.5000   -53.8511     6.5076     7.3823     8.2466     0.0266     2.5084   111.4788     0.1057
  308.0000   -54.1511     6.4054     7.2551     8.2463     0.0196     2.5196   112.2176     0.1014
  308.5000   -54.4531     6.3123     7.1876     8.2459     0.0118     2.4967   109.5741     0.1084
  309.0000   -54.6762     6.2835     7.0415     8.2452     0.0109     2.4730   107.0137     0.1198
  309.5000   -54.6751     6.2413     6.9081     8.2256     0.0099     2.4542   108.1817     0.1315
  310.0000   -54.6892     6.1973     6.7772     8.2045     0.0089     2.4435   109.9470     0.1367
  310.5000   -54.6692     6.0921     6.6488     8.1847     0.0081     2.4262   111.8979     0.1420
  311.0000   -54.6465     5.9123     6.5228     8.1670     0.0080     2.4098   113.1658     0.1474
  311.5000   -53.8648     5.7376     6.3993     8.1890     0.0079     2.4077   113.2576     0.1527
  312.0000   -53.0132     5.5208     6.2780     8.2106     0.0085     2.4044   110.3515     0.1578
  312.5000   -52.1279     5.2630     6.1248     8.2253     0.0100     2.3967   105.3128     0.1637
  313.0000   -51.2540     5.0172     5.8949     8.2771     0.0112     2.3909   105.4803     0.1677
  313.5000   -50.6130     4.6693     5.5104     8.2282     0.0157     2.3750   105.6535     0.1725
  314.0000   -50.6144     4.3079     4.8749     8.1607     0.0262     2.3551   106.1114     0.1812
  314.5000   -50.6026     3.9746     4.3122     8.0835     0.0378     2.2997   106.4949     0.1933
  315.0000   -50.6058     3.6670     3.8145     8.0410     0.0494     2.2599   106.7973     0.2054
  315.5000   -50.6080     3.3833     3.3743     8.0462     0.0610     2.2489   106.3108     0.2175
  316.0000   -50.6070     3.1215     2.9849     8.1062     0.0725     2.2370   105.4679     0.2296
  316.5000   -50.6087     2.8799     2.6798     8.1831     0.0841     2.2321   103.8476     0.2417
  317.0000   -50.6094     2.7186     2.5402     8.2634     0.0957     2.2326   102.2731     0.2477
  317.5000   -50.6098     2.6818     2.4870     8.2863     0.1010     2.2421   100.6735     0.2522
  318.0000   -50.6098     2.6316     2.4890     8.2829     0.0870     2.2726    98.9962     0.2507
  318.5000   -50.6098     2.6810     2.5700     8.2806     0.0630     2.3711    98.7530     0.2466
  319.0000   -50.6099     2.7993     2.6532     8.2790     0.0493     2.3827    99.7642     0.2295
  319.5000   -50.6101     3.0803     2.6810     8.2767     0.0456     2.3969   100.1891     0.1968
  320.0000   -50.6109     3.3894     3.0745     8.2746     0.0411     2.4248   106.3633     0.1642
  320.5000   -50.6105     3.7295     3.5829     8.2725     0.0364     2.4432   111.1303     0.1446
  321.0000   -50.6106     4.1038     4.1753     8.2703     0.0320     2.4455   110.9237     0.1415
  321.5000   -50.6137     4.5157     4.8628     8.2682     0.0281     2.4473   110.9560     0.1387
  322.0000   -50.6080     5.0472     5.1327     8.2661     0.0266     2.4484   111.2230     0.1372
  322.5000   -50.6026     5.2532     5.4163     8.2640     0.0253     2.4488   111.0663     0.1372
  323.0000   -50.3406     5.4372     5.7493     8.2619     0.0240     2.4489   113.0459     0.1373
  323.5000   -50.0364     5.5393     5.8573     8.2599     0.0227     2.4489   118.2011     0.1373
  324.0000   -49.7259     5.4776     5.8980     8.2578     0.0214     2.4488   119.3095     0.1383
  324.5000   -49.4223     5.4227     5.9546     8.2557     0.0200     2.4487   120.1727     0.1390
  325.0000   -49.1137     5.3684     5.9673     8.2536     0.0181     2.4467   121.2088     0.1390
  325.5000   -48.8036     5.3146     5.9341     8.2515     0.0163     2.4446   122.6824     0.1417
  326.0000   -48.5818     5.2614     5.7866     8.2495     0.0192     2.4418   124.2872     0.1462
  326.5000   -48.6005     5.2087     5.6428     8.2474     0.0223     2.4396   124.4898     0.1507
  327.0000   -48.6138     5.1565     5.5025     8.2453     0.0246     2.4232   123.2926     0.1552
  327.5000   -48.6330     5.0931     5.3658     8.2432     0.0255     2.3999   122.5220     0.1596
  328.0000   -48.6514     5.0258     5.2324     8.2411     0.0265     2.3894   122.0605     0.1622
  328.5000   -48.6687     4.9595     5.1024     8.2391     0.0276     2.4005   124.4705     0.1614
  329.0000   -48.6869     4.8941     4.9542     8.2370     0.0286     2.4096   122.6370     0.1574
  329.5000   -48.7048     4.8295     4.9542     8.2349     0.0297     2.4183   119.6553     0.1529
  330.0000   -48.7226     4.7658     4.9558     8.2328     0.0307     2.4263   116.4060     0.1474
  330.5000   -48.7402     4.7029     4.9517     8.2307     0.0318     2.4336   113.2870     0.1411
  331.0000   -48.7579     4.6856     4.9521     8.2287     0.0328     2.4424   110.8243     0.1341
  331.5000   -48.7755     4.8212     5.0947     8.2266     0.0339     2.4523   110.8170     0.1341
  332.0000   -48.7932     4.9701     5.2479     8.2245     0.0349     2.4576   111.6598     0.1341
  332.5000   -48.8108     5.1235     5.4058     8.2224     0.0360     2.4610   112.5268     0.1333
  333.0000   -48.8284     5.2815     5.5685     8.2203     0.0346     2.4633   113.5014     0.1334
  333.5000   -48.8461     5.4441     5.7361     8.2182     0.0327     2.4637   115.0679     0.1336
  334.0000   -48.8641     5.6113     5.9089     8.2161     0.0308     2.4643   117.3656     0.1338
  334.5000   -48.8819     5.7835     6.0869     8.2140     0.0290     2.4648   119.6834     0.1340
  335.0000   -48.9001     5.9653     6.2703     8.2120     0.0265     2.4626   121.2382     0.1347
  335.5000   -48.9184     6.1935     6.4592     8.2095     0.0234     2.4603   121.6196     0.1358
  336.0000   -48.9343     6.3099     6.6538     8.2083     0.0204     2.4578   121.5052     0.1365
  336.5000   -48.9547     6.2605     6.8542     8.2069     0.0174     2.4555   121.3989     0.1380
  337.0000   -48.9741     6.2009     7.0551     8.2350     0.0144     2.4514   121.3014     0.1393
  337.5000   -48.9115     6.1419     7.0551     8.2663     0.0121     2.4466   121.3132     0.1406
  338.0000   -48.5651     6.0834     7.0091     8.2972     0.0121     2.4421   122.2947     0.1424
  338.5000   -48.2278     6.0255     6.8670     8.3250     0.0120     2.4371   123.2824     0.1448
  339.0000   -47.8742     5.9682     6.7277     8.3156     0.0120     2.4364   122.6332     0.1470
  339.5000   -47.7279     5.9114     6.5912     8.3068     0.0120     2.4358   121.5338     0.1478
  340.0000   -47.6354     5.8551     6.4575     8.2963     0.0120     2.4352   120.4737     0.1488
  340.5000   -47.5381     5.7994     6.3265     8.2865     0.0120     2.4346   119.4525     0.1498
  341.0000   -47.4364     5.7493     6.1982     8.2766     0.0129     2.4308   118.3932     0.1510
  341.5000   -47.3382     5.6010     6.0724     8.2665     0.0160     2.4261   117.3657     0.1516
  342.0000   -47.2396     5.4686     5.9673     8.2568     0.0190     2.4192   116.4344     0.1519
  342.5000   -47.1396     5.3469     5.7964     8.2462     0.0222     2.4100   117.1468     0.1575
  343.0000   -47.0415     5.2302     5.6515     8.2386     0.0253     2.4006   117.6120     0.1632
  343.5000   -46.9529     5.1160     5.5102     8.2305     0.0283     2.3911   117.1199     0.1710
