~VERSION INFORMATION
 VERS.                2.0:   CWLS LOG ASCII STANDARD - VERSION 2.0
 WRAP.                 NO:   ONE LINE PER DEPTH STEP
~WELL INFORMATION
#MNEM.UNIT      DATA TYPE    INFORMATION
#----------   ------------   ------------------------------
 STRT.F           40.0000:   START DEPTH
 STOP.F          821.0000:   STOP DEPTH
 STEP.F            0.5000:   STEP LENGTH
 NULL.          -999.2500:   NO VALUE
 COMP. FENIX & SCISSON INC:   COMPANY
 WELL. NPR 3 -68 SX #68-27:   WELL
 FLD .             TEAPOT:   FIELD
 LOC .      S27 T39N R78W:   LOCATION
 CNTY.            NATRONA:   COUNTY
 STAT.            WYOMING:   STATE
 CTRY. UNITED STATES OF AMERICA:   COUNTRY
 SRVC.           BIRDWELL:   SERVICE COMPANY
 DATE.        11-SEP-1978:   LOGDATE
 API .       490251069500:   API NUMBER
~CURVE INFORMATION
#MNEM.UNIT       API CODE    CURVE DESCRIPTION
#----------   ------------   ------------------------------
 DEPT.F                  :   
 SPR .MV     05 010 01 00:   SPONTANEOUS POTENTIAL FROM RES.
 SN  .OHMM   05 040 16 00:   SHORT NORMAL 16"
 ILD .OHMM   05 120 46 00:   INDUCTION LOG DEEP
 GRD .GAPI   45 310 01 00:   GAMMA RAY FROM DENSITY LOG
 CALD.IN     45 280 60 00:   CALIPER
 RHOB.G/C3   45 350 01 00:   BULK DENSITY
 CORR.G/C3   45 356 01 00:   DENSITY CORRECTION
 DPHI.DEC    45 890 12 00:   DENSITY POROSITY SANDSTONE
~PARAMETER INFORMATION
#MNEM.UNIT          VALUE    DESCRIPTION
#----------   ------------   ------------------------------
 PD  .                 GL:   PERMANENT DATUM
 EPD .F              5032:   ELEVATION PERMANENT DATUM
 LMF .                 GL:   LOG MEASURED FROM
 DAPD.F                 4:   FEET ABOVE PERMANENT DATUM
 DMF .                 GL:   DRILLING MEASURED FROM
 EKB .F              5036:   KELLING BUSHING
 EGL .F              5032:   GROUND LEVEL
 DATE.            9-11-78:   RUN DATE
 RUN .                  1:   RUN NUMBER
 DD  .F               820:   DEPTH DRILLER
 DL  .F               822:   DEPTH LOGGER
 BLI .F               818:   BOTTOM LOG INTERVAL
 TLI .F                40:   TOP LOG INTERVAL
 CS  .IN            8.625:   CASING SIZE
 CBD .F                40:   CASING BOTTOM DRILLER
 CBL .F                40:   CASING BOTTOM LOGGER
 BS  .IN            7.875:   BIT SIZE
 BSD .F               820:   BIT SIZE AT DEPTH
 DFT .                KCL:   DRILLING FLUID TYPE
 DFD .                8.6:   DRILLING FLUID DENSITY
 DFV .                 34:   DRILLING FLUID VISCOSITY
 DFPH.                  9:   DRILLING FLUID PH
 DFL .                  8:   DRILLING FLUID LOSS
 MSS .           FLOWLINE:   MUD SAMPLE SOURCE
 RMS .OHMM            .24:   RESISTIVITY MUD SAMPLE
 MST .F                62:   MUD SAMPLE TEMPERATURE
 RMF .OHMM            .18:   RESISTIVITY MUD FILTRATE SAMPLE
 MFST.F                64:   MUD FILTRATE SAMPLE TEMPERATURE
 RMC .OHMM             .3:   RESISTIVITY MUD CAKE
 MCST.F                66:   MUD CAKE SAMPLE TEMPERATURE
 MFSS.               MEAS:   MUD FILTRATE SAMPLE SOURCE
 MCSS.               MEAS:   MUD CAKE SAMPLE SOURCE
 RMB .OHMM            .22:   RESISTIVITY MUD AT BHT
 BHT .F                68:   BOTTOM HOLE TEMPERATURE
 TCS .HRS               1:   TIME CURCULATED STOPPED
 MRT .F                68:   MAXIMUM RECORDED TEMPERATURE
 LUN .               3006:   LOGGING UNIT NUMBER
 LUL .               CASP:   LOGGING UNIT LOCATION
 ENGI.            POINTER:   RECORDING ENGINEER
 WITN.              AMEND:   WITNESSED BY
 CLNT.            A2DTECH:   CLIENT CODE
 ORIG.           5" PRINT:   ORIGIN OF DATA
 UWI .       490251069500:   UNIQUE WELL ID
 DICO. A2D Technologies, Inc.:   DIGITIZING COMPANY
~OTHER INFORMATION
~A   DEPT       SPR        SN        ILD         GRD        CALD     RHOB       CORR       DPHI   
# ...
  769.0000   -46.2995     9.9935    10.2644    96.1780     7.6214     2.4613     0.0079     0.1302
  769.5000   -46.3227     9.9114    10.1609    96.9018     7.6507     2.4613     0.0075     0.1343
  770.0000   -46.3458     9.8300    10.0584    99.2364     7.6797     2.4619     0.0077     0.1358
  770.5000   -46.3689     9.7492     9.9569   101.1741     7.7087     2.4619     0.0081     0.1364
  771.0000   -46.3921     9.6689     9.8565   102.4142     7.7377     2.4613     0.0085     0.1379
  771.5000   -46.4152     9.5904     9.7570   100.4769     7.7755     2.4609     0.0089     0.1394
  772.0000   -46.4383     9.4997     9.6586    99.5875     7.8195     2.4649     0.0093     0.1404
  772.5000   -46.4614     9.4097     9.5612   101.1755     7.8635     2.4811     0.0097     0.1356
  773.0000   -46.4846     9.3203     9.4919   102.2594     7.9075     2.4967     0.0100     0.1248
  773.5000   -46.5077     9.2316     9.2554    99.3397     7.9517     2.5117     0.0104     0.1114
  774.0000   -46.5309     9.1438     8.9951    95.8890     7.9967     2.5059     0.0108     0.1052
  774.5000   -46.5542     9.0651     8.7421    94.9764     8.0319     2.4964     0.0112     0.1091
  775.0000   -46.5764     8.8223     8.4962    99.8243     8.0450     2.4874     0.0115     0.1116
  775.5000   -46.5550     8.6063     8.2572   103.8064     8.0583     2.4851     0.0132     0.1142
  776.0000   -46.4192     8.3956     8.0250   107.8976     8.0704     2.4789     0.0197     0.1211
  776.5000   -46.2817     8.1901     7.7935   102.0592     8.0705     2.4588     0.0258     0.1340
  777.0000   -45.9863     7.9896     7.5240   100.4145     8.0491     2.4521     0.0320     0.1414
  777.5000   -45.3703     7.7940     7.2638   103.5108     8.0215     2.4594     0.0381     0.1455
  778.0000   -45.3532     7.6032     7.0126   106.7769     7.9938     2.4708     0.0442     0.1394
  778.5000   -45.3241     7.4018     6.7531   109.1510     7.9660     2.4823     0.0503     0.1303
  779.0000   -45.2927     7.4043     6.8306   104.7570     7.9383     2.4940     0.0565     0.1234
  779.5000   -45.2611     7.4031     6.9796   100.8785     7.9104     2.5077     0.0604     0.1142
  780.0000   -45.2291     7.7608     7.2044    99.3167     7.8908     2.5227     0.0625     0.1049
  780.5000   -45.1897     8.0321     7.1951   100.4383     7.8690     2.5375     0.0646     0.0944
  781.0000   -45.5283     8.4785     7.6237   108.0091     7.8915     2.5503     0.0631     0.0836
  781.5000   -45.9794     8.9516     7.5964   112.6068     7.9357     2.5473     0.0589     0.0832
  782.0000   -46.4336     9.4505     8.4193   112.2839     7.9798     2.5374     0.0547     0.0916
  782.5000   -46.8988     9.9770     9.3227   108.9039     8.0243     2.5276     0.0513     0.0977
  783.0000   -47.0192    10.3513    10.0274   107.6565     8.0682     2.5186     0.0519     0.1037
  783.5000   -47.0542    10.4622    10.3170   114.4387     8.0704     2.5132     0.0707     0.1088
  784.0000   -47.0867    10.5744    10.2836   116.4889     8.0587     2.5107     0.1011     0.1097
  784.5000   -47.1200    10.6000    10.2398   116.6067     8.0392     2.5106     0.1296     0.1099
  785.0000   -47.1528    10.5791    10.1990   116.0278     8.0197     2.5350     0.1321     0.1088
  785.5000   -47.1758    10.5613    10.1587   114.4857     7.9999     2.5453     0.1085     0.1009
  786.0000   -47.6567    10.5436    10.1185   106.7223     7.9800     2.5464     0.0824     0.0935
  786.5000   -48.2702    10.5259    10.0786    83.8748     7.9484     2.5410     0.0572     0.0856
  787.0000   -48.4431    10.5083    10.0384    88.0414     7.9629     2.5355     0.0445     0.0871
  787.5000   -48.6242    10.4906    10.0307    93.2518     7.9824     2.5301     0.0312     0.0891
  788.0000   -48.8028    10.4730    10.0306    98.8100     8.0017     2.5247     0.0175     0.0914
  788.5000   -48.9816    10.4554    10.0307    99.7231     8.0211     2.5192     0.0154     0.0941
  789.0000   -49.1604    10.4379    10.0307   101.6726     8.0302     2.5170     0.0156     0.0968
  789.5000   -49.3390    10.4206    10.0307   106.2773     7.9866     2.5160     0.0133     0.0995
  790.0000   -49.5179    10.4074    10.0302   108.0316     7.9091     2.5113     0.0111     0.1022
  790.5000   -49.6999    10.3614    10.0028   104.1386     7.8321     2.5055     0.0057     0.1061
  791.0000   -50.0140    10.2875     9.9370    99.9665     7.7663     2.4996     0.0035     0.1108
  791.5000   -50.5238    10.2147     9.8716    96.0452     7.7087     2.4942     0.0036     0.1155
  792.0000   -50.5954    10.1423     9.8067    95.8586     7.6800     2.4936     0.0048     0.1202
  792.5000   -50.5648    10.0705     9.7422   109.2029     7.6499     2.4948     0.0060     0.1220
  793.0000   -50.5332     9.9992     9.6781   117.5392     7.6202     2.4960     0.0073     0.1143
  793.5000   -50.5026     9.9284     9.5700   117.5977     7.5911     2.4968     0.0085     0.1162
  794.0000   -50.4721     9.8581     9.4557   113.8748     7.5700     2.4915     0.0098     0.1203
  794.5000   -50.4416     9.7883     9.3424   112.7815     7.5651     2.4803     0.0110     0.1258
  795.0000   -50.4111     9.7190     9.2305   117.7858     7.5504     2.4693     0.0122     0.1327
  795.5000   -50.3806     9.6502     9.1489   116.2743     7.5496     2.4582     0.0135     0.1407
  796.0000   -50.3502     9.5818     9.1013   116.7923     7.5544     2.4472     0.0147     0.1496
  796.5000   -50.3197     9.5140     9.0568   118.5701     7.6202     2.4490     0.0159     0.1491
  797.0000   -50.2892     9.4441     9.0126   117.0812     7.7075     2.4568     0.0172     0.1469
  797.5000   -50.2576     9.3439     8.9685   109.9977     7.7945     2.4645     0.0184     0.1420
  798.0000   -50.2235     9.2449     8.9247   101.6782     7.8817     2.4722     0.0196     0.1371
  798.5000   -50.2299     9.1468     8.8810    96.9384     7.9686     2.4800     0.0209     0.1305
  799.0000   -50.8201     9.0498     8.8376    98.0015     8.0535     2.4914     0.0221     0.1237
  799.5000   -51.4044     8.9850     8.7944    98.7668     8.0749     2.5069     0.0235     0.1168
  800.0000   -51.9623     8.9860     8.7514    98.7941     8.0897     2.5218     0.0214     0.1099
  800.5000   -52.0284     8.9032     8.7086   101.0681     8.0865     2.5363     0.0194     0.1036
  801.0000   -52.0478     8.8755     8.6660   103.6808     8.0546     2.5433     0.0165     0.0970
  801.5000   -52.0690     8.8415     8.6236   103.6076     8.0224     2.5450     0.0135     0.0950
  802.0000   -52.0913     8.8074     8.5782   104.7802     7.9906     2.5451     0.0105     0.0928
  802.5000   -52.1137     8.7735     8.5593   111.7383     7.9626     2.5439     0.0076     0.0906
  803.0000   -52.1361     8.7398     8.5234   118.5434     7.9424     2.5423     0.0082     0.0914
  803.5000   -52.1586     8.7062     8.4876   118.5598     7.9221     2.5277     0.0091     0.0998
  804.0000   -52.1812     8.6727     8.4520   115.2743     7.9019     2.4919     0.0132     0.1083
  804.5000   -52.2046     8.6575     8.3447   112.5497     7.8815     2.4532     0.0218     0.1402
  805.0000   -52.1557     8.4997     8.0971   111.0478     7.8613     2.4172     0.0308     0.1676
  805.5000   -52.0907     8.2937     7.7964   116.0087     7.8420     2.4309     0.0400     0.1707
  806.0000   -52.0256     7.9372     7.5068   113.5032     7.8836     2.4563     0.0449     0.1637
  806.5000   -51.9605     7.5959     7.2280   108.5184     8.0035     2.4780     0.0454     0.1489
  807.0000   -51.8957     7.2693     6.8785   106.9981     8.1033     2.4823     0.0413     0.1342
  807.5000   -51.8297     7.1364     6.8117   110.2607     7.9905     2.5496     0.0370     0.1196
  808.0000   -51.8490     7.1364     6.8219   109.2902     7.8753     2.5479     0.0325     0.1089
  808.5000   -51.9222     7.4352     6.6837   107.7900     7.8880     2.5420     0.0314     0.0949
  809.0000   -52.0233     7.9695     6.7531   107.2934     7.9254     2.5358     0.0328     0.0876
