~VERSION INFORMATION
 VERS.                2.0:   CWLS LOG ASCII STANDARD - VERSION 2.0
 WRAP.                 NO:   ONE LINE PER DEPTH STEP
~WELL INFORMATION
#MNEM.UNIT      DATA TYPE    INFORMATION
#----------   ------------   ------------------------------
 STRT.F            8.0000:   START DEPTH
 STOP.F          598.0000:   STOP DEPTH
 STEP.F            0.5000:   STEP LENGTH
 NULL.          -999.2500:   NO VALUE
 COMP. FENIX & SCISSON INC:   COMPANY
 WELL.    16-SX-11 #16-11:   WELL
 FLD .             TEAPOT:   FIELD
 LOC .      S11 T38N R78W:   LOCATION
 CNTY.            NATRONA:   COUNTY
 STAT.            WYOMING:   STATE
 CTRY. UNITED STATES OF AMERICA:   COUNTRY
 SRVC.            Unknown:   SERVICE COMPANY
 DATE.        13-DEC-1978:   LOGDATE
 API .       490251078400:   API NUMBER
~CURVE INFORMATION
#MNEM.UNIT       API CODE    CURVE DESCRIPTION
#----------   ------------   ------------------------------
 DEPT.F                  :   
 RHOB.G/C3   45 350 01 00:   BULK DENSITY
 CORR.G/C3   45 356 01 00:   DENSITY CORRECTION
 SN  .OHMM   05 040 16 00:   SHORT NORMAL 16"
 ILD .OHMM   05 120 46 00:   INDUCTION LOG DEEP
 SPR .MV     05 010 01 00:   SPONTANEOUS POTENTIAL FROM RES.
 DPHI.DEC    45 890 12 00:   DENSITY POROSITY SANDSTONE
 CALD.IN     45 280 60 00:   CALIPER
 GRD .GAPI   45 310 01 00:   GAMMA RAY FROM DENSITY LOG
~PARAMETER INFORMATION
#MNEM.UNIT          VALUE    DESCRIPTION
#----------   ------------   ------------------------------
 PD  .                 GL:   PERMANENT DATUM
 EPD .F              5209:   ELEVATION PERMANENT DATUM
 LMF .                 KB:   LOG MEASURED FROM
 DAPD.F                 4:   FEET ABOVE PERMANENT DATUM
 DMF .                 KB:   DRILLING MEASURED FROM
 EKB .F              5213:   KELLING BUSHING
 EGL .F              5209:   GROUND LEVEL
 DATE.           12-13-78:   RUN DATE
 RUN .                  1:   RUN NUMBER
 DD  .F               590:   DEPTH DRILLER
 DL  .F               598:   DEPTH LOGGER
 BLI .F               591:   BOTTOM LOG INTERVAL
 TLI .F                40:   TOP LOG INTERVAL
 CS  .IN            8.625:   CASING SIZE
 CBD .F                40:   CASING BOTTOM DRILLER
 CBL .F                25:   CASING BOTTOM LOGGER
 BS  .IN            7.875:   BIT SIZE
 BSD .F               590:   BIT SIZE AT DEPTH
 DFT .                KCL:   DRILLING FLUID TYPE
 DFD .                8.8:   DRILLING FLUID DENSITY
 DFV .                 37:   DRILLING FLUID VISCOSITY
 DFPH.                8.9:   DRILLING FLUID PH
 MSS .           FLOWLINE:   MUD SAMPLE SOURCE
 RMS .OHMM             .3:   RESISTIVITY MUD SAMPLE
 MST .F                56:   MUD SAMPLE TEMPERATURE
 RMF .OHMM            .26:   RESISTIVITY MUD FILTRATE SAMPLE
 MFST.F                66:   MUD FILTRATE SAMPLE TEMPERATURE
 RMC .OHMM            .24:   RESISTIVITY MUD CAKE
 MCST.F                66:   MUD CAKE SAMPLE TEMPERATURE
 MFSS.           MEASURED:   MUD FILTRATE SAMPLE SOURCE
 MCSS.           MEASURED:   MUD CAKE SAMPLE SOURCE
 RMB .OHMM            .29:   RESISTIVITY MUD AT BHT
 BHT .F                58:   BOTTOM HOLE TEMPERATURE
 TCS .HRS               3:   TIME CURCULATED STOPPED
 MRT .F                58:   MAXIMUM RECORDED TEMPERATURE
 LUN .               2958:   LOGGING UNIT NUMBER
 LUL .             CASPER:   LOGGING UNIT LOCATION
 ENGI.            ROLLINS:   RECORDING ENGINEER
 WITN.         RICHARDSON:   WITNESSED BY
 CLNT.            A2DTECH:   CLIENT CODE
 ORIG.       2", 5" PRINT:   ORIGIN OF DATA
 UWI .       490251078400:   UNIQUE WELL ID
 DICO. A2D Technologies, Inc.:   DIGITIZING COMPANY
~OTHER INFORMATION
~A    DEPT    RHOB       CORR         SN        ILD        SPR       DPHI       CALD         GRD  
# ...
  413.0000     2.4995     0.0065    10.0064     9.8977   -22.3247     0.1174     7.9204   101.5886
  413.5000     2.4996     0.0068     9.9067    10.2117   -21.9255     0.1172     7.9207   101.0289
  414.0000     2.5029     0.0109     9.7675    10.6222   -21.0898     0.1174     7.9211   101.3744
  414.5000     2.5064     0.0149     9.9226    10.6152   -20.3536     0.1137     7.9214   100.8960
  415.0000     2.5099     0.0181    10.1928    10.9138   -20.1820     0.1090     7.9218   101.4703
  415.5000     2.5127     0.0179    10.4703    11.0152   -19.9555     0.1053     7.9221   103.2336
  416.0000     2.5122     0.0134    10.7554    11.2209   -19.0745     0.1063     7.9225   102.3665
  416.5000     2.5033     0.0088    11.0482    11.8610   -18.0298     0.1120     7.9228   100.6439
  417.0000     2.4946     0.0042    11.5757    13.0929   -17.7408     0.1177     7.9232   103.1432
  417.5000     2.4918    -0.0004    12.4991    15.0882   -17.0740     0.1188     7.9074   106.3655
  418.0000     2.4895    -0.0031    13.5009    17.3875   -15.7484     0.1190     7.8760   109.2403
  418.5000     2.4790    -0.0047    14.5919    20.0372   -14.8197     0.1247     7.8451   106.3429
  419.0000     2.4642    -0.0055    15.7711    23.0751   -13.9782     0.1334     7.8260   102.1789
  419.5000     2.4446    -0.0027    16.9395    24.9668   -13.1365     0.1421     7.8475    97.5601
  420.0000     2.4053     0.0000    17.5348    25.5713   -12.3541     0.1605     7.8686    89.5256
  420.5000     2.3669     0.0027    18.1510    25.5538   -12.1700     0.1840     7.8895    74.4953
  421.0000     2.3287     0.0091    18.6599    25.7912   -12.0060     0.2075     7.9036    66.4641
  421.5000     2.2996     0.0201    18.6675    24.9099   -11.8403     0.2310     7.9034    60.3443
  422.0000     2.2988     0.0300    18.6756    24.2690   -11.6739     0.2433     7.9034    54.9827
  422.5000     2.3091     0.0306    18.6837    23.8731   -11.5078     0.2371     7.9034    49.8989
  423.0000     2.3289     0.0310    18.6918    23.4837   -11.3569     0.2278     7.9034    49.7352
  423.5000     2.3369     0.0314    18.6999    23.2967   -11.0573     0.2168     7.9035    54.0082
  424.0000     2.3359     0.0321    18.7081    23.7053   -10.7093     0.2140     7.9030    59.2710
  424.5000     2.3335     0.0250    18.7162    24.3374   -10.3585     0.2171     7.8882    64.4538
  425.0000     2.3278     0.0150    18.7243    24.9863   -10.0032     0.2199     7.8728    66.9065
  425.5000     2.3222     0.0090    18.7325    25.6529    -9.9625     0.2227     7.8620    68.9572
  426.0000     2.3186     0.0068    18.7406    26.3371   -10.0210     0.2255     7.8583    69.7680
  426.5000     2.3135     0.0046    18.7487    27.0415   -10.0807     0.2287     7.8546    70.4042
  427.0000     2.3071     0.0060    18.7569    27.3586   -10.1385     0.2341     7.8509    68.9386
  427.5000     2.2990     0.0126    18.7650    27.4990   -10.1404     0.2395     7.8472    67.2035
  428.0000     2.2872     0.0191    18.7732    27.5159   -10.1379     0.2449     7.8435    65.4725
  428.5000     2.2866     0.0258    18.7813    25.2000   -10.1500     0.2484     7.8380    64.1340
  429.0000     2.2939     0.0265    18.7895    23.7373   -10.6164     0.2481     7.8325    64.1296
  429.5000     2.2988     0.0268    18.7977    22.2346   -11.1174     0.2455     7.8270    64.5328
  430.0000     2.3020     0.0272    18.8058    22.2343   -11.6113     0.2412     7.8216    64.9278
  430.5000     2.3272     0.0276    18.8141    23.0783   -11.9534     0.2320     7.8161    64.8935
  431.0000     2.3544     0.0281    18.8221    23.4591   -11.9470     0.2153     7.8106    64.3136
  431.5000     2.3814     0.0214    18.8337    23.8225   -11.9479     0.1961     7.8052    64.1019
  432.0000     2.3994     0.0127    18.7684    24.1910   -11.9478     0.1760     7.7997    64.9631
  432.5000     2.3952     0.0038    18.6681    24.6339   -11.9477     0.1752     7.7942    69.4289
  433.0000     2.3821    -0.0016    18.5690    25.1736   -12.0400     0.1837     7.7886    71.5699
  433.5000     2.3603    -0.0047    18.4701    25.7251   -12.2210     0.1911     7.7875    72.1989
  434.0000     2.3377    -0.0059    18.3718    26.2726   -12.3502     0.2002     7.8232    72.2975
  434.5000     2.3151    -0.0024    18.2739    25.9411   -12.4372     0.2179     7.8586    72.3452
  435.0000     2.2925     0.0014    18.1766    25.5459   -12.5601     0.2356     7.8788    70.7305
  435.5000     2.2700     0.0052    18.0798    25.2491   -12.6849     0.2534     7.8611    67.4972
  436.0000     2.2608     0.0090    17.9835    25.0856   -12.8097     0.2645     7.8447    64.1091
  436.5000     2.2675     0.0127    17.8878    23.9432   -12.9344     0.2636     7.8650    63.5397
  437.0000     2.2919     0.0165    17.7925    22.8656   -13.0592     0.2534     7.8880    66.3447
  437.5000     2.3175     0.0180    17.6978    22.6593   -13.1804     0.2373     7.9040    68.8167
  438.0000     2.3425     0.0180    17.6035    22.7980   -13.2997     0.2212     7.9049    69.5975
  438.5000     2.3665     0.0180    17.5098    23.1507   -13.4142     0.2051     7.9061    70.6938
  439.0000     2.3778     0.0180    17.4903    23.5088   -13.5192     0.1946     7.9072    70.9197
  439.5000     2.3775     0.0181    17.4903    23.7316   -13.9803     0.1928     7.9083    70.6021
  440.0000     2.3770     0.0191    17.4903    22.7310   -14.3448     0.1919     7.9095    71.3580
  440.5000     2.3816     0.0202    17.4903    21.7914   -14.7103     0.1909     7.9106    71.7548
  441.0000     2.4018     0.0212    17.2014    20.9878   -15.0717     0.1792     7.9117    69.5563
  441.5000     2.4295     0.0203    16.8356    20.6681   -15.3715     0.1651     7.9129    68.4764
  442.0000     2.4567     0.0113    16.4777    20.3533   -15.4548     0.1463     7.9140    73.0041
  442.5000     2.4778     0.0026    16.1273    20.0421   -15.5473     0.1275     7.9152    73.3337
  443.0000     2.4778    -0.0042    15.7844    19.6269   -15.6401     0.1298     7.9163    72.5598
  443.5000     2.4428    -0.0027    15.4488    19.2203   -15.7330     0.1419     7.9174    73.4136
  444.0000     2.4158    -0.0012    15.3222    18.8235   -15.8258     0.1645     7.9186    75.3803
  444.5000     2.3887     0.0000    15.2635    18.4901   -15.9187     0.1870     7.9197    78.2764
  445.0000     2.3617     0.0005    15.2050    18.7465   -16.0116     0.2022     7.9209    81.3065
  445.5000     2.3514     0.0010    15.1468    18.9750   -16.1035     0.2086     7.9220    84.3518
  446.0000     2.3479     0.0015    15.0848    19.2063   -16.1656     0.2113     7.9232    85.0736
  446.5000     2.3506     0.0020    15.0848    19.3631   -16.1645     0.2108     7.9209    81.9650
  447.0000     2.3531     0.0025    15.0847    19.2645   -16.1647     0.2100     7.9180    78.4084
  447.5000     2.3551     0.0030    15.0848    19.1848   -16.1647     0.2067     7.9151    74.8427
  448.0000     2.3558     0.0035    15.0848    19.4118   -16.1646     0.2041     7.9123    72.9488
  448.5000     2.3534     0.0038    15.0848    19.6617   -16.1644     0.2032     7.9094    73.5796
  449.0000     2.3509     0.0068    15.0848    19.9180   -16.1611     0.2079     7.9066    75.2777
  449.5000     2.3514     0.0080    15.0848    20.0979   -16.3414     0.2096     7.9040    76.7599
  450.0000     2.3534     0.0093    15.0848    19.8886   -16.5883     0.2108     7.8934    76.7745
  450.5000     2.3553     0.0097    15.0849    19.6634   -16.8365     0.2024     7.8823    77.1947
  451.0000     2.3566     0.0087    15.0855    19.4438   -17.0846     0.2024     7.8714    81.4387
  451.5000     2.3514     0.0077    15.0850    19.2268   -17.3326     0.2033     7.8706    82.4457
  452.0000     2.3397     0.0066    14.9567    19.0124   -17.5805     0.2109     7.8950    83.8656
  452.5000     2.3071     0.0067    14.8181    18.7982   -17.8285     0.2244     7.9189    85.8277
  453.0000     2.2743     0.0119    14.6808    18.6316   -18.0764     0.2432     7.9429    85.5247
