~VERSION INFORMATION
 VERS.                2.0:   CWLS LOG ASCII STANDARD - VERSION 2.0
 WRAP.                 NO:   ONE LINE PER DEPTH STEP
~WELL INFORMATION
#MNEM.UNIT      DATA TYPE    INFORMATION
#----------   ------------   ------------------------------
 STRT.F            0.0000:   START DEPTH
 STOP.F         2240.0000:   STOP DEPTH
 STEP.F            0.5000:   STEP LENGTH
 NULL.          -999.2500:   NO VALUE
 COMP.   FLUOR DANIEL INC:   COMPANY
 WELL. NAVAL PETROLEUM RESERVE 3 SX 62 #16-3:   WELL
 FLD .             TEAPOT:   FIELD
 LOC .       S3 T38N R78W:   LOCATION
 CNTY.            NATRONA:   COUNTY
 STAT.            WYOMING:   STATE
 CTRY. UNITED STATES OF AMERICA:   COUNTRY
 SRVC.            Unknown:   SERVICE COMPANY
 DATE.        19-SEP-1992:   LOGDATE
 API .       490251127300:   API NUMBER
~CURVE INFORMATION
#MNEM.UNIT       API CODE    CURVE DESCRIPTION
#----------   ------------   ------------------------------
 DEPT.F                  :   
 GR  .GAPI   81 310 01 00:   GAMMA RAY
 ROP .MIN/FT 91 810 01 00:   RATE OF DRILLING PENETRATION
 TGAS.UNITS  91 830 01 00:   TOTAL GAS FROM HOTWIRE
~PARAMETER INFORMATION
#MNEM.UNIT          VALUE    DESCRIPTION
#----------   ------------   ------------------------------
 PD  .                 GL:   PERMANENT DATUM
 EPD .F              5144:   ELEVATION PERMANENT DATUM
 LMF .                 KB:   LOG MEASURED FROM
 DAPD.F                10:   FEET ABOVE PERMANENT DATUM
 DMF .                 KB:   DRILLING MEASURED FROM
 EKB .F              5154:   KELLING BUSHING
 EDF .F              5152:   DRILLING FLOOR
 EGL .F              5144:   GROUND LEVEL
 DATE.            9-19-92:   RUN DATE
 RUN .                  1:   RUN NUMBER
 DD  .F               560:   DEPTH DRILLER
 DL  .F               520:   DEPTH LOGGER
 BLI .F               520:   BOTTOM LOG INTERVAL
 BS  .IN             8.75:   BIT SIZE
 BSD .F               560:   BIT SIZE AT DEPTH
 DFT . OIL WATER (TENSLEEP CRUDE):   DRILLING FLUID TYPE
 TCS .HRS            1200:   TIME CURCULATED STOPPED
 LUL .           GILLETTE:   LOGGING UNIT LOCATION
 ENGI.          L. GOENES:   RECORDING ENGINEER
 WITN.              HARDY:   WITNESSED BY
 CLNT.            A2DTECH:   CLIENT CODE
 ORIG.           5" PRINT:   ORIGIN OF DATA
 UWI .       490251127300:   UNIQUE WELL ID
 DICO. A2D Technologies, Inc.:   DIGITIZING COMPANY
~OTHER INFORMATION
~A    DEPT       GR       ROP       TGAS   
# ...
 1820.0000  -999.2500  -999.2500  -999.2500
 1820.5000  -999.2500  -999.2500  -999.2500
 1821.0000  -999.2500  -999.2500  -999.2500
 1821.5000  -999.2500  -999.2500  -999.2500
 1822.0000  -999.2500  -999.2500  -999.2500
 1822.5000  -999.2500  -999.2500  -999.2500
 1823.0000  -999.2500  -999.2500  -999.2500
 1823.5000  -999.2500  -999.2500  -999.2500
 1824.0000  -999.2500  -999.2500  -999.2500
 1824.5000  -999.2500  -999.2500  -999.2500
 1825.0000  -999.2500  -999.2500  -999.2500
 1825.5000  -999.2500  -999.2500  -999.2500
 1826.0000  -999.2500     0.8340     2.6250
 1826.5000  -999.2500     0.8797     2.6250
 1827.0000  -999.2500     0.9254     2.6250
 1827.5000  -999.2500     0.9612     2.6250
 1828.0000  -999.2500     1.0047     2.6250
 1828.5000  -999.2500     0.9893     2.6250
 1829.0000  -999.2500     0.9433     2.6250
 1829.5000  -999.2500     0.9051     2.6250
 1830.0000  -999.2500     0.9132     2.6250
 1830.5000  -999.2500     0.9244     2.6250
 1831.0000  -999.2500     0.9273     2.6250
 1831.5000  -999.2500     0.9173     2.6250
 1832.0000  -999.2500     0.9081     2.6250
 1832.5000  -999.2500     0.8924     2.6250
 1833.0000  -999.2500     0.9065     2.6250
 1833.5000  -999.2500     0.9645     2.6250
 1834.0000  -999.2500     1.0706     2.6250
 1834.5000  -999.2500     1.1769     2.6250
 1835.0000  -999.2500     1.2829     2.6250
 1835.5000  -999.2500     1.3893     2.6250
 1836.0000  -999.2500     1.4995     2.6250
 1836.5000  -999.2500     1.5455     2.6250
 1837.0000  -999.2500     1.5505     2.6250
 1837.5000  -999.2500     1.5558     2.6250
 1838.0000  -999.2500     1.6441     2.6250
 1838.5000  -999.2500     1.7446     2.6250
 1839.0000  -999.2500     1.8459     2.6250
 1839.5000  -999.2500     1.9464     2.6250
 1840.0000  -999.2500     1.9506     2.6250
 1840.5000  -999.2500     1.8114     2.6250
 1841.0000  -999.2500     1.6768     2.6250
 1841.5000  -999.2500     1.5419     2.6250
 1842.0000  -999.2500     1.4170     2.6250
 1842.5000  -999.2500     1.8929     2.6250
 1843.0000  -999.2500     2.1121     2.6250
 1843.5000  -999.2500     2.3119     2.6250
 1844.0000  -999.2500     2.4583     2.6250
 1844.5000  -999.2500     2.1747     2.6250
 1845.0000  -999.2500     1.9583     2.6250
 1845.5000  -999.2500     1.6765     2.6250
 1846.0000  -999.2500     1.3989     2.6250
 1846.5000  -999.2500     1.1646     2.6250
 1847.0000  -999.2500     1.3666     2.6250
 1847.5000  -999.2500     1.5755     2.6250
 1848.0000  -999.2500     1.6679     2.6250
 1848.5000  -999.2500     1.7570     2.6250
 1849.0000  -999.2500     1.8465     2.6250
 1849.5000  -999.2500     1.9369     2.6251
 1850.0000  -999.2500     1.9910     2.6246
 1850.5000  -999.2500     1.9939     2.6103
 1851.0000  -999.2500     1.9957     2.5954
 1851.5000  -999.2500     1.9974     2.5805
 1852.0000  -999.2500     1.9994     2.5657
 1852.5000  -999.2500     2.0015     2.5508
 1853.0000  -999.2500     2.0031     2.5360
 1853.5000  -999.2500     2.0044     2.5212
 1854.0000  -999.2500     1.9332     2.5063
 1854.5000  -999.2500     1.7584     2.4915
 1855.0000  -999.2500     1.5843     2.4767
 1855.5000  -999.2500     1.4110     2.4618
 1856.0000  -999.2500     1.2545     2.4470
 1856.5000  -999.2500     1.2022     2.4321
 1857.0000  -999.2500     1.1291     2.4173
 1857.5000  -999.2500     1.0732     2.4023
 1858.0000  -999.2500     1.1473     2.3869
 1858.5000  -999.2500     1.2676     2.3770
 1859.0000  -999.2500     1.3877     2.5045
 1859.5000  -999.2500     1.5341     2.6427
 1860.0000  -999.2500     1.4796     2.7797
 1860.5000  -999.2500     1.3813     2.8776
 1861.0000  -999.2500     1.2819     2.9154
 1861.5000  -999.2500     1.2172     2.9594
 1862.0000  -999.2500     1.3133     3.0035
 1862.5000  -999.2500     1.4753     3.0475
 1863.0000  -999.2500     1.6367     3.0913
 1863.5000  -999.2500     1.7990     3.1261
 1864.0000  -999.2500     1.8428     3.1248
 1864.5000  -999.2500     1.7719     3.1148
 1865.0000  -999.2500     1.6932     3.0726
 1865.5000  -999.2500     1.6057     3.0314
 1866.0000  -999.2500     1.6042     2.9903
 1866.5000  -999.2500     1.6645     2.9492
 1867.0000  -999.2500     1.7180     2.9081
 1867.5000  -999.2500     1.7713     2.8669
 1868.0000  -999.2500     1.8181     2.8258
 1868.5000  -999.2500     1.7815     2.7847
 1869.0000  -999.2500     1.7396     2.7435
 1869.5000  -999.2500     1.6980     2.7021
 1870.0000  -999.2500     1.6734     2.6610
 1870.5000  -999.2500     1.7043     2.6385
 1871.0000  -999.2500     1.7191     2.7484
 1871.5000  -999.2500     1.7307     2.8598
 1872.0000  -999.2500     1.7446     2.9705
 1872.5000  -999.2500     1.7973     3.0824
 1873.0000  -999.2500     1.8568     3.1155
 1873.5000  -999.2500     1.9168     3.1013
 1874.0000  -999.2500     1.9479     3.0866
 1874.5000  -999.2500     1.7269     3.0717
 1875.0000  -999.2500     1.5396     3.0570
 1875.5000  -999.2500     1.3747     3.0422
 1876.0000  -999.2500     1.3025     3.0274
 1876.5000  -999.2500     1.2966     3.0127
 1877.0000  -999.2500     1.3763     2.9979
 1877.5000  -999.2500     1.4543     2.9831
 1878.0000  -999.2500     1.5131     2.9684
 1878.5000  -999.2500     1.4058     2.9536
 1879.0000  -999.2500     1.3004     2.9388
 1879.5000  -999.2500     1.1960     2.9241
 1880.0000  -999.2500     1.0924     2.9093
 1880.5000  -999.2500     1.0173     2.8945
 1881.0000  -999.2500     1.0883     2.8792
 1881.5000  -999.2500     1.1669     2.8701
 1882.0000  -999.2500     1.2459     2.8595
 1882.5000  -999.2500     1.2177     2.8490
 1883.0000  -999.2500     1.1596     2.8386
 1883.5000  -999.2500     1.1007     2.8281
 1884.0000  -999.2500     1.0448     2.8176
 1884.5000  -999.2500     1.0498     2.8071
 1885.0000  -999.2500     1.0566     2.7966
 1885.5000  -999.2500     1.0552     2.7861
 1886.0000  -999.2500     1.0136     2.7756
 1886.5000  -999.2500     0.9702     2.7652
 1887.0000  -999.2500     0.9266     2.7547
 1887.5000  -999.2500     0.8803     2.7442
 1888.0000  -999.2500     0.8691     2.7337
 1888.5000  -999.2500     0.8797     2.7232
 1889.0000  -999.2500     0.9450     2.7127
 1889.5000  -999.2500     1.0154     2.7022
 1890.0000  -999.2500     1.0857     2.6917
 1890.5000  -999.2500     1.1561     2.6813
 1891.0000  -999.2500     1.2271     2.6708
 1891.5000  -999.2500     1.2988     2.6603
 1892.0000  -999.2500     1.2917     2.6496
 1892.5000  -999.2500     1.2324     2.6385
 1893.0000  -999.2500     1.1728     2.6294
 1893.5000  -999.2500     1.1148     2.6708
 1894.0000  -999.2500     1.0662     2.8650
 1894.5000  -999.2500     1.1996     3.2948
 1895.0000  -999.2500     1.3906     3.9664
 1895.5000  -999.2500     1.4837     4.6431
 1896.0000  -999.2500     1.6220     5.3134
 1896.5000  -999.2500     1.7622     5.8956
 1897.0000  -999.2500     1.9009     5.8922
 1897.5000  -999.2500     2.0211     5.9078
 1898.0000  -999.2500     1.8925     5.9257
 1898.5000  -999.2500     1.7573     5.9425
 1899.0000  -999.2500     1.6688     5.9595
 1899.5000  -999.2500     1.5692     5.9765
 1900.0000  -999.2500     1.4246     5.9935
 1900.5000  -999.2500     1.2752     6.0105
 1901.0000  -999.2500     1.2674     6.0275
 1901.5000  -999.2500     1.2685     6.0445
 1902.0000  -999.2500     1.2698     6.0615
 1902.5000  -999.2500     1.2316     6.0786
 1903.0000  -999.2500     1.1916     6.0958
 1903.5000  -999.2500     1.1509     6.1124
 1904.0000  -999.2500     1.1323     6.0972
 1904.5000  -999.2500     1.2554     5.9663
 1905.0000  -999.2500     1.3937     5.7297
 1905.5000  -999.2500     1.5322     5.0953
 1906.0000  -999.2500     1.6658     4.4751
 1906.5000  -999.2500     1.7096     4.1573
 1907.0000  -999.2500     1.3443     3.8178
 1907.5000  -999.2500     1.0561     3.4789
 1908.0000  -999.2500     0.7588     3.1421
 1908.5000  -999.2500     0.6797     2.8664
 1909.0000  -999.2500     0.6651     2.8747
 1909.5000  -999.2500     0.6534     2.8770
 1910.0000  -999.2500     0.6439     2.8859
 1910.5000  -999.2500     0.7059     2.8952
