~VERSION INFORMATION
 VERS.                2.0:   CWLS LOG ASCII STANDARD - VERSION 2.0
 WRAP.                 NO:   ONE LINE PER DEPTH STEP
~WELL INFORMATION
#MNEM.UNIT      DATA TYPE    INFORMATION
#----------   ------------   ------------------------------
 STRT.F           41.0000:   START DEPTH
 STOP.F          468.0000:   STOP DEPTH
 STEP.F            0.1000:   STEP LENGTH
 NULL.          -999.2500:   NO VALUE
 COMP.       F D SERV INC:   COMPANY
 WELL. NAVAL PETROLEUM RESERVE 3 SX-1 #53-1-10:   WELL
 FLD .             TEAPOT:   FIELD
 LOC .      S10 T38N R78W:   LOCATION
 CNTY.            NATRONA:   COUNTY
 STAT.            WYOMING:   STATE
 CTRY. UNITED STATES OF AMERICA:   COUNTRY
 SRVC.     Atlas Wireline:   SERVICE COMPANY
 DATE.        22-DEC-1992:   LOGDATE
 API .       490252256900:   API NUMBER
~CURVE INFORMATION
#MNEM.UNIT       API CODE    CURVE DESCRIPTION
#----------   ------------   ------------------------------
 DEPT.F                  :   
 GRR .GAPI   07 310 01 00:   GAMMA RAY
 RILD.OHMM   07 120 46 00:   INDUCTION LOG DEEP RESISTIVITY
 RILM.OHMM   07 120 44 00:   RESITIVITY LONG MEDIUM
~PARAMETER INFORMATION
#MNEM.UNIT          VALUE    DESCRIPTION
#----------   ------------   ------------------------------
 PD  .                 GL:   PERMANENT DATUM
 EPD .F              5185:   ELEVATION PERMANENT DATUM
 LMF .                 KB:   LOG MEASURED FROM
 DAPD.F                10:   FEET ABOVE PERMANENT DATUM
 DMF .                 KB:   DRILLING MEASURED FROM
 EKB .F              5195:   KELLING BUSHING
 EDF .F              5194:   DRILLING FLOOR
 EGL .F              5185:   GROUND LEVEL
 DATE.        22-DEC-1992:   RUN DATE
 RUN .                  1:   RUN NUMBER
 DD  .F               475:   DEPTH DRILLER
 DL  .F               472:   DEPTH LOGGER
 BLI .F               470:   BOTTOM LOG INTERVAL
 CS  .IN            8.625:   CASING SIZE
 CBL .F                80:   CASING BOTTOM LOGGER
 BS  .IN            7.875:   BIT SIZE
 BSD .F               475:   BIT SIZE AT DEPTH
 DFT .        AIR DRILLED:   DRILLING FLUID TYPE
 LUN .            HL 6321:   LOGGING UNIT NUMBER
 LUL .       RCK, SPRINGS:   LOGGING UNIT LOCATION
 ENGI.      JOHN THOMPSON:   RECORDING ENGINEER
 WITN.          G. STRONG:   WITNESSED BY
 CLNT.            A2DTECH:   CLIENT CODE
 ORIG.           5" PRINT:   ORIGIN OF DATA
 UWI .       490252256900:   UNIQUE WELL ID
 DICO. A2D Technologies, Inc.:   DIGITIZING COMPANY
~OTHER INFORMATION
~A   DEPT      GRR       RILD       RILM   
# ...
   77.4000   138.1080  -999.2500  -999.2500
   77.5000   138.3586  -999.2500  -999.2500
   77.6000   138.6589  -999.2500  -999.2500
   77.7000   138.8598  -999.2500  -999.2500
   77.8000   138.9651  -999.2500  -999.2500
   77.9000   138.9666  -999.2500  -999.2500
   78.0000   138.9317  -999.2500  -999.2500
   78.1000   138.6663  -999.2500  -999.2500
   78.2000   138.4366  -999.2500  -999.2500
   78.3000   138.1891  -999.2500  -999.2500
   78.4000   137.5749  -999.2500  -999.2500
   78.5000   136.5802  -999.2500  -999.2500
   78.6000   135.6255  -999.2500  -999.2500
   78.7000   135.3371  -999.2500  -999.2500
   78.8000   135.3384  -999.2500  -999.2500
   78.9000   135.4935  -999.2500  -999.2500
   79.0000   135.8432  -999.2500  -999.2500
   79.1000   136.3876  -999.2500  -999.2500
   79.2000   137.1655  -999.2500  -999.2500
   79.3000   138.1243  -999.2500  -999.2500
   79.4000   139.6769  -999.2500  -999.2500
   79.5000   141.0303  -999.2500  -999.2500
   79.6000   141.7999  -999.2500  -999.2500
   79.7000   142.0505  -999.2500  -999.2500
   79.8000   142.3340  -999.2500  -999.2500
   79.9000   142.5517  -999.2500  -999.2500
   80.0000   142.6404    11.5721    21.9504
   80.1000   142.7493    10.8367    22.2189
   80.2000   142.9469    10.4412    22.3405
   80.3000   142.9484    10.2484    22.0143
   80.4000   142.9499    10.1435    20.8229
   80.5000   142.9514    10.0684    18.8903
   80.6000   142.9530     9.9853    16.8444
   80.7000   142.8701     9.8863    14.9489
   80.8000   142.6225     9.8307    14.2582
   80.9000   142.3507     9.7647    13.6562
   81.0000   142.1274     9.7205    13.2268
   81.1000   142.0501     9.6338    12.8808
   81.2000   142.1673     9.5251    12.6539
   81.3000   142.3566     9.4099    12.5860
   81.4000   142.3581     9.2385    12.5155
   81.5000   142.3599     9.0469    12.4820
   81.6000   142.5627     8.8435    12.4620
   81.7000   142.6662     8.6680    12.3974
   81.8000   142.6677     8.5338    12.3986
   81.9000   142.7074     8.4375    12.3995
   82.0000   142.9743     8.3253    12.3558
   82.1000   142.9757     8.2869    12.3156
   82.2000   143.1557     8.2686    12.2896
   82.3000   143.4063     8.2871    12.1473
   82.4000   143.5872     8.3275    12.0811
   82.5000   143.5888     8.3281    11.9622
   82.6000   143.5905     8.4186    11.8275
   82.7000   143.5918     8.5159    11.6737
   82.8000   143.4379     8.7144    11.4705
   82.9000   143.1904     9.0330    11.1795
   83.0000   142.9891     9.3940    11.0154
   83.1000   143.5046     9.7118    10.8295
   83.2000   143.2570     9.9004    10.6467
   83.3000   142.9940    10.1299    10.4667
   83.4000   142.5285    10.3884    10.2877
   83.5000   142.0319    10.6784    10.2307
   83.6000   141.5353    10.9366    10.1734
   83.7000   141.0387    11.0574    10.1164
   83.8000   140.5578    11.0916    10.0784
   83.9000   140.2719    11.0600    10.0731
   84.0000   140.2731    10.9978    10.0102
   84.1000   140.4307    10.9270    10.0110
   84.2000   140.7828    10.7150    10.0118
   84.3000   141.3296    10.5609    10.0127
   84.4000   142.1002    10.3824    10.0135
   84.5000   142.8270    10.1832    10.0143
   84.6000   143.7631     9.9537    10.0152
   84.7000   144.6279     9.7225    10.0160
   84.8000   145.2196     9.4068    10.0491
   84.9000   145.4702     9.1684    10.0877
   85.0000   145.7513     9.0157    10.0885
   85.1000   145.9714     8.9295    10.0894
   85.2000   146.2220     8.8793    10.0902
   85.3000   146.3627     8.8227    10.1304
   85.4000   146.3642     8.7797    10.1624
   85.5000   146.3657     8.7304    10.1632
   85.6000   146.1171     8.7024    10.1641
   85.7000   145.6739     8.7030    10.1649
   85.8000   145.1773     8.7036    10.1658
   85.9000   144.4203     8.7533    10.1666
   86.0000   143.1441     8.8041    10.1675
   86.1000   141.5191     8.8828    10.1604
   86.2000   139.9314     8.9521    10.0987
   86.3000   138.7072     8.9580    10.0995
   86.4000   137.3580     9.0160    10.1003
   86.5000   135.9666     9.0165    10.1012
   86.6000   135.5945     9.0514    10.1020
   86.7000   134.2006     9.0808    10.1028
   86.8000   131.9013     9.0815    10.1038
   86.9000   129.3565     9.0821    10.1045
   87.0000   127.5721     9.0310    10.1054
   87.1000   127.3306     9.0203    10.1062
   87.2000   127.2716     9.0209    10.0983
   87.3000   127.2731     9.0041    10.0378
   87.4000   127.2747     8.9595    10.0386
   87.5000   127.3015     8.9602    10.0192
   87.6000   127.5814     8.9608     9.9916
   87.7000   127.8026     8.9614     9.9640
   87.8000   128.2187     8.9620     9.9364
   87.9000   128.9406     8.9506     9.9041
   88.0000   130.5616     8.9010     9.8814
   88.1000   134.2767     8.9017     9.8541
   88.2000   135.5236     8.9023     9.8160
   88.3000   136.5735     8.9029     9.7609
   88.4000   137.4288     8.9035     9.7033
   88.5000   138.0015     8.9042     9.7041
   88.6000   138.2185     8.9048     9.6648
   88.7000   138.2202     8.9054     9.6384
   88.8000   138.2215     8.9060     9.6392
   88.9000   138.2231     8.9066     9.6364
   89.0000   138.2246     8.9073     9.5741
   89.1000   138.2261     8.9079     9.6211
   89.2000   138.2276     8.9086     9.6424
   89.3000   138.2294     8.9091     9.6432
   89.4000   138.4358     8.9097     9.6440
   89.5000   138.8371     8.9104     9.6449
   89.6000   139.2405     8.9110     9.6988
   89.7000   139.4492     8.9116     9.7138
   89.8000   139.4508     8.9597     9.7292
   89.9000   139.4522     8.9752     9.7578
   90.0000   139.2716     8.9758     9.7887
   90.1000   138.7687     8.9764     9.8534
   90.2000   138.1695     8.9770     9.8542
   90.3000   137.8844     8.9778     9.8911
   90.4000   137.0321     8.9783     9.9247
   90.5000   136.8199     8.9789     9.9255
   90.6000   136.4134     8.9795     9.9263
   90.7000   136.0214     8.9717     9.9271
   90.8000   135.8741     8.9185     9.9280
   90.9000   136.1290     8.9191     9.9594
   91.0000   136.6201     8.9197     9.9990
   91.1000   137.1198     8.9203     9.9998
   91.2000   138.2992     8.9209    10.0008
   91.3000   140.1257     8.9184    10.0015
   91.4000   142.0113     8.8603    10.0023
   91.5000   143.1185     8.8608    10.0032
   91.6000   143.3416     8.8615    10.0040
   91.7000   143.5922     8.8621    10.0049
   91.8000   143.7299     8.8627    10.0057
   91.9000   143.6145     8.8633    10.0065
   92.0000   143.1017     8.8639    10.0074
   92.1000   141.6089     8.8645    10.0082
   92.2000   138.7252     8.8652    10.0090
   92.3000   137.2199     8.8507    10.0100
   92.4000   136.8826     8.8048    10.0107
   92.5000   136.3505     8.8055    10.0115
   92.6000   135.5479     8.8061    10.0124
   92.7000   135.0892     8.8067    10.0132
   92.8000   134.9439     8.8073    10.0140
   92.9000   134.9454     8.8079    10.0149
   93.0000   135.0804     8.8085    10.0157
   93.1000   135.5677     8.8091    10.0166
   93.2000   135.8606     8.8097    10.0174
   93.3000   136.0689     8.8104    10.0182
   93.4000   136.4720     8.8110    10.0191
   93.5000   136.9717     8.8116    10.0199
   93.6000   137.5150     8.8123    10.0207
   93.7000   138.2960     8.8128    10.0216
   93.8000   139.0124     8.7807    10.0084
   93.9000   139.7611     8.7528     9.9537
   94.0000   140.3804     8.7535     9.9546
   94.1000   140.7299     8.7541     9.9554
   94.2000   140.7108     8.7547     9.9562
   94.3000   140.4296     8.7553     9.9365
   94.4000   140.0004     8.7559     9.8807
   94.5000   139.5038     8.7565     9.8211
   94.6000   138.9008     8.7571     9.8218
   94.7000   138.1031     8.7578     9.7834
   94.8000   137.0986     8.7583     9.7286
   94.9000   136.1136     8.7590     9.6885
   95.0000   135.5033     8.7596     9.6893
   95.1000   135.0067     8.7489     9.6902
   95.2000   134.6768     8.7000     9.6457
   95.3000   134.7072     8.7006     9.5916
   95.4000   134.9835     8.6623     9.5379
   95.5000   135.4320     8.6136     9.4844
