~VERSION INFORMATION
 VERS.                2.0:   CWLS LOG ASCII STANDARD - VERSION 2.0
 WRAP.                 NO:   ONE LINE PER DEPTH STEP
~WELL INFORMATION
#MNEM.UNIT      DATA TYPE    INFORMATION
#----------   ------------   ------------------------------
 STRT.F            4.0000:   START DEPTH
 STOP.F          614.0000:   STOP DEPTH
 STEP.F            0.1000:   STEP LENGTH
 NULL.          -999.2500:   NO VALUE
 COMP.   FLUOR DANIEL INC:   COMPANY
 WELL.     63-4 X 3 #63-3:   WELL
 FLD .          N.P.R. #3:   FIELD
 LOC .       S3 T38N R78W:   LOCATION
 CNTY.            NATRONA:   COUNTY
 STAT.            WYOMING:   STATE
 CTRY. UNITED STATES OF AMERICA:   COUNTRY
 SRVC.      Western Atlas:   SERVICE COMPANY
 DATE.        01-JUN-1995:   LOGDATE
 API .       490252271300:   API NUMBER
~CURVE INFORMATION
#MNEM.UNIT       API CODE    CURVE DESCRIPTION
#----------   ------------   ------------------------------
 DEPT.F                  :   
 GRR .GAPI   07 310 01 00:   GAMMA RAY
 RILD.OHMM   07 120 46 00:   INDUCTION LOG DEEP RESISTIVITY
 RILM.OHMM   07 120 44 00:   INDUCTION LOG MEDIUM RESISTIVITY
~PARAMETER INFORMATION
#MNEM.UNIT          VALUE    DESCRIPTION
#----------   ------------   ------------------------------
 PD  .                 GL:   PERMANENT DATUM
 EPD .F              5173:   ELEVATION PERMANENT DATUM
 LMF .                 KB:   LOG MEASURED FROM
 DAPD.F                10:   FEET ABOVE PERMANENT DATUM
 DMF .                 KB:   DRILLING MEASURED FROM
 EKB .F              5183:   KELLING BUSHING
 EDF .F              5182:   DRILLING FLOOR
 EGL .F              5173:   GROUND LEVEL
 DATE.        01-JUN-1995:   RUN DATE
 RUN .                  1:   RUN NUMBER
 DD  .F               626:   DEPTH DRILLER
 DL  .F               622:   DEPTH LOGGER
 BLI .F               614:   BOTTOM LOG INTERVAL
 TLI .F                95:   TOP LOG INTERVAL
 CS  .IN            9.625:   CASING SIZE
 CBD .F                95:   CASING BOTTOM DRILLER
 CBL .F                95:   CASING BOTTOM LOGGER
 BS  .IN             8.75:   BIT SIZE
 BSD .F               626:   BIT SIZE AT DEPTH
 DFT .                AIR:   DRILLING FLUID TYPE
 MRT .F               147:   MAXIMUM RECORDED TEMPERATURE
 LUN .            HL 6530:   LOGGING UNIT NUMBER
 LUL .             CASPER:   LOGGING UNIT LOCATION
 ENGI.        VERN RAUTIO:   RECORDING ENGINEER
 WITN.        STEVE HARDY:   WITNESSED BY
 CLNT.            A2DTECH:   CLIENT CODE
 ORIG.           5" PRINT:   ORIGIN OF DATA
 UWI .       490252271300:   UNIQUE WELL ID
 DICO. A2D Technologies, Inc.:   DIGITIZING COMPANY
~OTHER INFORMATION
~A    DEPT       GRR     RILD       RILM   
# ...
  167.8000   118.6329     7.6516     7.5718
  167.9000   117.9192     7.6519     7.5724
  168.0000   117.3696     7.6522     7.5731
  168.1000   116.5497     7.6526     7.5737
  168.2000   116.5502     7.6529     7.5743
  168.3000   116.3429     7.6532     7.5750
  168.4000   116.0825     7.6535     7.5756
  168.5000   115.9487     7.6538     7.5762
  168.6000   116.0354     7.6694     7.5768
  168.7000   116.2516     7.7078     7.5775
  168.8000   116.2570     7.7081     7.5781
  168.9000   116.5545     7.7085     7.5788
  169.0000   117.0055     7.7087     7.5794
  169.1000   117.5282     7.7091     7.5800
  169.2000   118.1949     7.7094     7.5806
  169.3000   118.8752     7.7281     7.5812
  169.4000   119.4607     7.7637     7.5819
  169.5000   120.2444     7.7640     7.5825
  169.6000   121.0836     7.7644     7.5832
  169.7000   121.5693     7.7647     7.5838
  169.8000   122.0919     7.7650     7.5844
  169.9000   122.4533     7.7943     7.6098
  170.0000   122.5943     7.8197     7.6383
  170.1000   122.5949     7.8201     7.6390
  170.2000   122.5955     7.8275     7.6396
  170.3000   122.5961     7.8752     7.6403
  170.4000   122.5968     7.8756     7.6826
  170.5000   122.3781     7.8759     7.6946
  170.6000   121.9390     7.9087     7.7226
  170.7000   121.5555     7.9314     7.7493
  170.8000   121.1978     7.9495     7.7499
  170.9000   120.6763     7.9873     7.7506
  171.0000   120.1549     7.9906     7.7512
  171.1000   119.5844     8.0436     7.7520
  171.2000   119.1119     8.0439     7.7898
  171.3000   118.3946     8.0806     7.8070
  171.4000   117.6121     8.1006     7.8076
  171.5000   116.9442     8.1009     7.8083
  171.6000   116.4967     8.1013     7.8089
  171.7000   116.2029     8.1016     7.8096
  171.8000   115.6670     8.1020     7.8103
  171.9000   115.6677     8.1588     7.8109
  172.0000   115.6682     8.1591     7.8115
  172.1000   115.6688     8.1594     7.8122
  172.2000   115.6694     8.1846     7.8484
  172.3000   115.7613     8.2169     7.9328
  172.4000   115.9722     8.2269     7.9810
  172.5000   115.9729     8.2748     8.0342
  172.6000   115.9735     8.2752     8.0348
  172.7000   116.2045     8.2755     8.0354
  172.8000   116.2763     8.3121     8.0644
  172.9000   116.2769     8.3339     8.0926
  173.0000   116.3861     8.3342     8.0932
  173.1000   116.5798     8.3346     8.0939
  173.2000   116.5804     8.3349     8.0946
  173.3000   116.5810     8.3353     8.1415
  173.4000   116.3338     8.3356     8.1521
  173.5000   116.2805     8.3359     8.1528
  173.6000   115.9481     8.3363     8.1769
  173.7000   115.5525     8.3126     8.2108
  173.8000   115.2068     8.2793     8.2115
  173.9000   114.6853     8.2797     8.2122
  174.0000   114.1639     8.2800     8.2129
  174.1000   113.5693     8.2804     8.2135
  174.2000   113.1210     8.2807     8.2142
  174.3000   112.9671     8.2810     8.2149
  174.4000   113.1109     8.2542     8.2338
  174.5000   113.3726     8.2245     8.2733
  174.6000   113.6342     8.2131     8.2740
  174.7000   113.8958     8.1643     8.0489
  174.8000   114.1768     8.1121     8.0495
  174.9000   114.6609     8.1124     8.0501
  175.0000   115.1835     8.1128     8.0508
  175.1000   115.8666     8.1131     8.0313
  175.2000   116.7702     8.1134     7.9966
  175.3000   117.7357     8.1138     7.9923
  175.4000   118.5195     8.1069     7.9428
  175.5000   119.3092     8.0583     7.9434
  175.6000   120.2149     8.0587     7.9068
  175.7000   120.8706     8.0590     7.8900
  175.8000   121.2988     8.0593     7.8906
  175.9000   121.5604     8.0597     7.8913
  176.0000   121.8220     8.0600     7.8919
  176.1000   122.0836     8.0603     7.8926
  176.2000   122.3300     8.0607     7.8389
  176.3000   122.3307     8.0610     7.8395
  176.4000   122.0955     8.0613     7.8401
  176.5000   121.6400     8.0617     7.8408
  176.6000   121.1185     8.0620     7.8414
  176.7000   120.4832     8.0624     7.8517
  176.8000   119.7007     8.0627     7.8971
  176.9000   118.9182     8.0570     7.8434
  177.0000   118.1116     8.0076     7.8440
  177.1000   117.5090     8.0080     7.8447
  177.2000   116.8724     8.0083     7.8453
  177.3000   116.4334     8.0086     7.8460
  177.4000   116.0418     8.0089     7.8466
  177.5000   115.6109     8.0093     7.8473
  177.6000   115.4002     8.0096     7.8480
  177.7000   115.4009     8.0099     7.8486
  177.8000   115.4016     8.0103     7.8128
  177.9000   115.6318     7.9684     7.7958
  178.0000   115.8934     7.9555     7.7964
  178.1000   116.1550     7.9558     7.7829
  178.2000   116.4167     7.9562     7.7438
  178.3000   116.6112     7.9565     7.7446
  178.4000   116.6649     7.9520     7.6919
  178.5000   117.2157     7.9022     7.6924
  178.6000   117.2163     7.9025     7.6623
  178.7000   117.2169     7.9028     7.6407
  178.8000   117.2175     7.9031     7.6413
  178.9000   117.2181     7.9035     7.6419
  179.0000   117.1343     7.8885     7.6408
  179.1000   116.8738     7.8494     7.5906
  179.2000   116.6134     7.8498     7.5911
  179.3000   116.3156     7.7958     7.5591
  179.4000   115.6452     7.7961     7.5400
  179.5000   114.8627     7.7637     7.5224
  179.6000   114.0802     7.7176     7.4893
  179.7000   113.3995     7.6896     7.4859
  179.8000   112.8169     7.6791     7.4389
  179.9000   112.0754     7.6370     7.4395
  180.0000   111.7949     7.6374     7.4059
  180.1000   111.7955     7.5955     7.3624
  180.2000   112.1967     7.5503     7.3191
  180.3000   112.5597     7.5055     7.2761
  180.4000   112.8213     7.4812     7.2393
  180.5000   113.1614     7.4815     7.2400
  180.6000   113.6463     7.4819     7.1908
  180.7000   113.9107     7.4822     7.1560
  180.8000   114.5147     7.4308     7.1423
  180.9000   114.9504     7.4310     7.1213
  181.0000   115.4731     7.4012     7.0795
  181.1000   115.9957     7.3803     7.0457
  181.2000   116.5185     7.3644     7.0464
  181.3000   116.9860     7.3206     6.9985
  181.4000   117.2331     7.2794     6.9990
  181.5000   116.9322     7.2798     6.9698
  181.6000   116.9327     7.2800     6.9519
  181.7000   116.7391     7.2803     6.9360
  181.8000   116.7859     7.2550     6.9051
  181.9000   117.2736     7.2306     6.9090
  182.0000   117.9125     7.2309     6.9542
  182.1000   118.2377     7.2312     6.9548
  182.2000   119.0480     7.2315     6.9872
  182.3000   119.6520     7.2318     7.0297
  182.4000   120.2872     7.2321     7.0724
  182.5000   121.0709     7.2324     7.1215
  182.6000   121.9849     7.2327     7.1529
  182.7000   122.9400     7.2330     7.1689
  182.8000   123.6747     7.2415     7.2038
  182.9000   124.2058     7.2840     7.2044
  183.0000   125.0861     7.2843     7.2051
  183.1000   125.5443     7.2846     7.2056
  183.2000   125.6905     7.2849     7.2062
  183.3000   125.6911     7.3100     7.2068
  183.4000   125.6917     7.3362     7.2251
  183.5000   125.5596     7.3478     7.2580
  183.6000   125.0123     7.3879     7.2586
  183.7000   124.1853     7.3883     7.2593
  183.8000   123.2012     7.4305     7.2599
  183.9000   121.9521     7.4403     7.2605
  184.0000   120.4828     7.4406     7.2879
  184.1000   118.9172     7.4623     7.3322
  184.2000   116.7658     7.4931     7.3635
  184.3000   113.6311     7.4934     7.3704
  184.4000   111.8166     7.4937     7.4158
  184.5000   111.2188     7.4941     7.4166
  184.6000   110.7737     7.4943     7.4171
  184.7000   110.6166     7.5262     7.4474
  184.8000   110.6172     7.5472     7.4698
  184.9000   110.5168     7.5651     7.4704
  185.0000   110.3167     7.6109     7.4797
  185.1000   110.3173     7.6536     7.5236
  185.2000   110.3180     7.6540     7.5243
  185.3000   110.0784     7.6967     7.5248
  185.4000   109.6185     7.7079     7.5578
  185.5000   109.0970     7.7082     7.5783
  185.6000   108.3391     7.7085     7.5789
  185.7000   107.3731     7.7227     7.5906
  185.8000   106.6646     7.7695     7.6328
  185.9000   106.4006     7.8173     7.6335
