~VERSION INFORMATION
 VERS.                2.0:   CWLS LOG ASCII STANDARD - VERSION 2.0
 WRAP.                 NO:   ONE LINE PER DEPTH STEP
~WELL INFORMATION
#MNEM.UNIT      DATA TYPE    INFORMATION
#----------   ------------   ------------------------------
 STRT.F            0.0000:   START DEPTH
 STOP.F          448.0000:   STOP DEPTH
 STEP.F            0.5000:   STEP LENGTH
 NULL.          -999.2500:   NO VALUE
 COMP.       F D SERV INC:   COMPANY
 WELL.  65-1 SX-10 #65-10:   WELL
 FLD .             TEAPOT:   FIELD
 LOC .      S10 T38N R78W:   LOCATION
 CNTY.            NATRONA:   COUNTY
 STAT.            WYOMING:   STATE
 CTRY. UNITED STATES OF AMERICA:   COUNTRY
 SRVC.     Atlas Wireline:   SERVICE COMPANY
 DATE.        09-APR-1992:   LOGDATE
 API .       490252252700:   API NUMBER
~CURVE INFORMATION
#MNEM.UNIT       API CODE    CURVE DESCRIPTION
#----------   ------------   ------------------------------
 DEPT.F                  :   
 GRR .GAPI   07 310 01 00:   GAMMA RAY
 SPR .MV     07 010 01 00:   SPONTANEOUS POTENTIAL
 RILD.OHMM   07 120 46 00:   INDUCTION LOG DEEP RESISTIVITY
 RILM.OHMM   07 120 44 00:   INDUCTION LOG MEDIUM RESISTIVITY
 RFOC.OHMM   07 220 04 00:   RESISTIVITY FOCUSED LOG
~PARAMETER INFORMATION
#MNEM.UNIT          VALUE    DESCRIPTION
#----------   ------------   ------------------------------
 PD  .                 GL:   PERMANENT DATUM
 EPD .F              5192:   ELEVATION PERMANENT DATUM
 LMF .                 KB:   LOG MEASURED FROM
 DAPD.F                10:   FEET ABOVE PERMANENT DATUM
 DMF .                 KB:   DRILLING MEASURED FROM
 EKB .F              5202:   KELLING BUSHING
 EDF .F              5201:   DRILLING FLOOR
 EGL .F              5192:   GROUND LEVEL
 DATE.        09-APR-1992:   RUN DATE
 RUN .                  1:   RUN NUMBER
 DD  .F               450:   DEPTH DRILLER
 DL  .F               450:   DEPTH LOGGER
 BLI .F               448:   BOTTOM LOG INTERVAL
 CS  .IN            8.625:   CASING SIZE
 CBD .F               133:   CASING BOTTOM DRILLER
 CBL .F               135:   CASING BOTTOM LOGGER
 BS  .IN            7.875:   BIT SIZE
 BSD .F               450:   BIT SIZE AT DEPTH
 DFT .          CHEM. GEL:   DRILLING FLUID TYPE
 DFD .               12.7:   DRILLING FLUID DENSITY
 DFV .                 47:   DRILLING FLUID VISCOSITY
 DFPH.                  9:   DRILLING FLUID PH
 DFL .                9.2:   DRILLING FLUID LOSS
 MSS .            MUDTANK:   MUD SAMPLE SOURCE
 RMS .OHMM           3.14:   RESISTIVITY MUD SAMPLE
 MST .F                75:   MUD SAMPLE TEMPERATURE
 RMF .OHMM           1.79:   RESISTIVITY MUD FILTRATE SAMPLE
 MFST.F                75:   MUD FILTRATE SAMPLE TEMPERATURE
 RMC .OHMM           4.47:   RESISTIVITY MUD CAKE
 MCST.F                75:   MUD CAKE SAMPLE TEMPERATURE
 MFSS.               MEAS:   MUD FILTRATE SAMPLE SOURCE
 MCSS.               MEAS:   MUD CAKE SAMPLE SOURCE
 RMB .OHMM           2.14:   RESISTIVITY MUD AT BHT
 BHT .F               110:   BOTTOM HOLE TEMPERATURE
 TCS .HRS               2:   TIME CURCULATED STOPPED
 MRT .F               110:   MAXIMUM RECORDED TEMPERATURE
 LUN .            HL-6274:   LOGGING UNIT NUMBER
 LUL .             CASPER:   LOGGING UNIT LOCATION
 ENGI.             RAUTIO:   RECORDING ENGINEER
 WITN.        GARY STRONG:   WITNESSED BY
 CLNT.            A2DTECH:   CLIENT CODE
 ORIG.           5" PRINT:   ORIGIN OF DATA
 UWI .       490252252700:   UNIQUE WELL ID
 DICO. A2D Technologies, Inc.:   DIGITIZING COMPANY
~OTHER INFORMATION
~A    DEPT     GRR        SPR       RILD       RILM       RFOC   
# ...
  366.0000    69.8352   -50.0850    13.5334    12.8118    12.2265
  366.5000    70.3858   -50.2481    13.5249    12.8075    12.3051
  367.0000    69.4699   -50.2601    13.5165    12.8040    12.1230
  367.5000    68.2028   -50.2721    13.5081    12.8004    12.0296
  368.0000    66.7326   -50.2841    13.4997    12.7969    12.0204
  368.5000    69.1302   -49.9940    13.4914    12.7939    12.0958
  369.0000    70.0219   -49.7019    13.4830    12.7898    12.2561
  369.5000    70.3141   -50.0181    13.4746    12.7862    12.3328
  370.0000    70.0010   -50.0302    13.3724    12.7827    12.3231
  370.5000    70.5915   -49.7399    13.2711    12.7791    12.2282
  371.0000    72.6850   -49.6008    13.2628    12.7756    12.0495
  371.5000    71.7694   -49.4618    13.2546    12.6832    12.0358
  372.0000    69.6490   -49.1460    13.2462    12.6797    11.6847
  372.5000    68.4322   -48.4314    13.2379    12.5003    11.3694
  373.0000    68.7245   -47.8362    13.2296    12.4099    11.4538
  373.5000    69.6132   -48.3044    13.2196    12.4065    11.6734
  374.0000    69.3000   -48.6185    13.2114    12.3167    11.7463
  374.5000    68.6857   -49.5368    13.1112    12.1425    11.6535
  375.0000    69.5773   -49.6999    12.8312    12.0547    11.5637
  375.5000    72.5774   -49.7119    12.8233    12.0514    11.3155
  376.0000    75.2763   -49.7239    12.7261    12.0480    11.2283
  376.5000    78.8788   -49.5818    12.8093    11.9609    11.1418
  377.0000    82.7825   -48.9926    12.7994    11.9575    10.9790
  377.5000    84.8795   -48.8536    12.7914    11.9542    10.9707
  378.0000    82.4574   -48.5605    12.7835    12.0346    11.0391
  378.5000    76.4214   -48.4214    12.7755    12.0313    11.2662
  379.0000    73.0962   -47.9832    12.7676    12.0280    11.4158
  379.5000    71.2770   -47.5421    12.7597    12.0246    11.4870
  380.0000    71.2651   -47.2490    12.7517    12.0213    11.5587
  380.5000    70.9418   -46.8078    12.7438    12.0180    11.5477
  381.0000    71.2611   -46.6687    12.7359    12.0146    11.5389
  381.5000    73.3976   -46.6837    12.7280    12.0113    11.2128
  382.0000    75.1727   -47.1489    12.7201    12.0079    11.1264
  382.5000    75.1205   -47.3120    12.6236    12.0046    11.1179
  383.0000    74.2024   -47.1729    12.6086    12.0012    11.1095
  383.5000    73.5881   -46.8798    12.3461    11.9144    11.1010
  384.0000    72.6725   -46.7432    12.3384    11.9111    11.0925
  384.5000    72.0581   -47.0579    12.3291    11.9077    11.0840
  385.0000    72.6486   -47.5231    12.3215    11.8209    11.0755
  385.5000    75.0463   -47.5351    12.3138    11.6537    11.0670
  386.0000    75.0344   -47.3958    12.3061    11.6505    11.0569
  386.5000    73.8176   -47.1059    12.2128    11.5662    10.9716
  387.0000    73.2032   -46.9668    12.1203    11.3233    10.8114
  387.5000    72.5889   -46.8278    11.9446    11.2414    10.7280
  388.0000    72.8781   -46.5377    11.6081    11.0824    10.4248
  388.5000    73.4716   -46.8520    11.2811    10.9257    10.2011
  389.0000    74.6615   -47.1903    10.9634    10.6962    10.1225
  389.5000    76.7579   -47.4804    10.8045    10.6189     9.9053
  390.0000    78.5532   -47.8349    10.5737    10.3958     9.8978
  390.5000    76.1316   -48.7130    10.2759    10.3206     9.8902
  391.0000    74.3125   -48.8761     9.9864    10.1039     9.7458
  391.5000    75.8065   -48.5885     9.7051     9.8917     9.3391
  392.0000    79.7103   -48.1473     9.4317     9.8201     9.1387
  392.5000    83.3128   -47.5521     8.8513     9.4805     9.0682
  393.0000    85.4092   -47.1139     8.0177     8.7772     8.9983
  393.5000    84.4937   -47.1259     7.1095     7.5252     8.8053
  394.0000    83.5781   -46.9839     6.1160     6.5883     8.7374
  394.5000    83.2650   -46.9989     5.3474     6.0149     8.5499
  395.0000    84.1566   -47.0109     4.8371     5.6077     8.0796
  395.5000    85.9818   -47.0229     4.5713     5.4517     6.1073
  396.0000    91.1607   -47.0349     4.5373     5.5273     5.6124
  396.5000    95.3253   -47.0469     5.0349     5.6423     5.8910
  397.0000    95.1324   -46.9048     5.9091     5.9233     6.2907
  397.5000    87.6606   -46.7658     6.5580     6.5756     8.7746
  398.0000    79.2627   -47.0829     7.0283     7.2996    10.4848
  398.5000    78.0459   -47.8502     8.0213     8.0471     9.9755
  399.0000    78.3352   -47.7111     9.2834     8.7480     9.4268
  399.5000    79.5280   -47.7231     9.6764     9.2480     9.4874
  400.0000    80.5305   -47.1309     9.9445     9.5073     9.6134
  400.5000    81.6018   -46.5387     9.9366     9.5589     9.4077
  401.0000    80.9622   -46.0975    10.1386     9.7120     9.4679
  401.5000    81.2349   -44.7500    10.2028     9.9193     9.5284
  402.0000    81.5060   -44.3058    10.4136    10.1129     9.6563
  402.5000    81.4756   -44.7740    10.6997    10.3243     9.7180
  403.0000    80.2308   -44.9371    10.9189    10.4668     9.7785
  403.5000    78.0798   -45.7547    11.2208    10.6120    10.0491
  404.0000    76.8675   -46.5285    11.3710    10.8338    10.5472
  404.5000    78.0362   -46.3912    11.6040    11.1371    10.7621
  405.0000    79.5125   -46.1122    11.8463    11.4496    10.8308
  405.5000    80.3939   -45.8285    12.2545    11.8534    11.0531
  406.0000    78.8507   -45.8470    12.7684    12.1868    11.5314
  406.5000    77.6162   -45.8655    13.3060    12.7931    11.7550
  407.0000    77.8877   -46.9413    14.0615    13.2442    11.6643
  407.5000    80.2677   -47.1110    14.8599    13.9041    11.4157
  408.0000    82.3464   -46.6566    15.5943    14.3944    11.7334
  408.5000    83.8228   -46.3925    16.1378    15.1182    12.0562
  409.0000    85.0053   -46.4155    16.7002    15.6445    12.0488
  409.5000    82.5586   -46.1319    17.2829    16.0835    11.8745
  410.0000    80.1192   -46.1503    17.8846    16.7662    11.6214
  410.5000    80.6920   -46.3199    18.3791    17.3575    11.6143
  411.0000    83.3731   -46.4894    19.2841    17.8445    11.6884
  411.5000    83.3358   -46.2057    19.6825    17.9661    11.9341
  412.0000    77.4897   -45.9221    19.5289    18.0873    12.4583
  412.5000    71.7620   -45.4874    18.9776    18.0815    12.6858
  413.0000    70.0000   -45.1888    18.3135    17.5789    12.5880
  413.5000    70.2729   -44.7482    16.8289    16.9714    12.3196
  414.0000    72.0430   -43.7347    15.7924    16.4997    11.9732
  414.5000    73.8205   -44.5084    15.1334    15.7085    11.6365
  415.0000    75.8993   -45.1311    14.6889    15.1656    11.5485
  415.5000    75.8696   -45.7538    14.0905    14.5396    11.6222
  416.0000    75.2375   -45.7722    13.8855    14.2345    12.0274
  416.5000    76.1189   -45.4886    13.8761    13.8268    12.1068
  417.0000    79.0938   -45.5070    13.5789    13.4541    11.8461
  417.5000    81.7749   -45.2234    13.1957    13.1545    11.8387
  418.0000    82.0539   -45.0906    13.0037    12.8049    12.0801
  418.5000    79.6071   -45.5627    12.7252    12.3624    12.2442
  419.0000    76.8666   -45.5809    12.3650    12.1030    11.8153
  419.5000    75.6321   -45.1462    12.0167    11.7666    11.4831
  420.0000    75.9036   -45.0182    11.9231    11.6817    11.2383
  420.5000    76.1751   -45.0366    11.6678    11.5167    11.0757
  421.0000    75.5430   -44.7484    11.3385    11.4336    10.7643
  421.5000    77.4775   -44.4647    11.2518    11.3511    10.6086
  422.0000    81.1991   -43.8789    11.2442    11.1130    10.6763
  422.5000    83.8803   -43.9020    11.2365    11.1101    10.8955
  423.0000    82.9470   -43.7694    11.1507    11.0299    10.8885
  423.5000    82.9173   -43.9389    10.9884    10.7985    10.5074
  424.0000    83.7912   -44.4209    10.8184    10.7957    10.2834
  424.5000    84.0702   -44.5808    10.5964    10.6432    10.1347
  425.0000    84.0361   -44.1454    10.3680    10.4929     9.9881
  425.5000  -999.2500   -44.0174    10.2172    10.4035     9.9125
  426.0000  -999.2500   -44.0359    10.0685    10.1980     9.9064
  426.5000  -999.2500   -44.0543    10.0617    10.1954     9.9004
