~VERSION INFORMATION
 VERS.                2.0:   CWLS LOG ASCII STANDARD - VERSION 2.0
 WRAP.                 NO:   ONE LINE PER DEPTH STEP
~WELL INFORMATION
#MNEM.UNIT      DATA TYPE    INFORMATION
#----------   ------------   ------------------------------
 STRT.F            0.0000:   START DEPTH
 STOP.F          523.0000:   STOP DEPTH
 STEP.F            0.1000:   STEP LENGTH
 NULL.          -999.2500:   NO VALUE
 COMP.       F D SERV INC:   COMPANY
 WELL. NAVAL PETROLEUM RESERVE 3 SX-3 #87-3:   WELL
 FLD .             TEAPOT:   FIELD
 LOC .       S3 T38N R78W:   LOCATION
 CNTY.            NATRONA:   COUNTY
 STAT.            WYOMING:   STATE
 CTRY. UNITED STATES OF AMERICA:   COUNTRY
 SRVC.      Western Atlas:   SERVICE COMPANY
 DATE.        22-NOV-1992:   LOGDATE
 API .       490252254300:   API NUMBER
~CURVE INFORMATION
#MNEM.UNIT       API CODE    CURVE DESCRIPTION
#----------   ------------   ------------------------------
 DEPT.F                  :   
 GRR .GAPI   07 310 01 00:   GAMMA RAY
 RILD.OHMM   07 120 46 00:   INDUCTION LOG DEEP RESISTIVITY
 RILM.OHMM   07 120 44 00:   INDUCTION LOG MEDIUM RESISTIVITY
~PARAMETER INFORMATION
#MNEM.UNIT          VALUE    DESCRIPTION
#----------   ------------   ------------------------------
 PD  .                 GL:   PERMANENT DATUM
 EPD .F              5129:   ELEVATION PERMANENT DATUM
 LMF .                 KB:   LOG MEASURED FROM
 DAPD.F                10:   FEET ABOVE PERMANENT DATUM
 DMF .                 KB:   DRILLING MEASURED FROM
 EKB .F              5139:   KELLING BUSHING
 EDF .F              5138:   DRILLING FLOOR
 EGL .F              5129:   GROUND LEVEL
 DATE.        22-NOV-1992:   RUN DATE
 RUN .                  1:   RUN NUMBER
 DD  .F               530:   DEPTH DRILLER
 DL  .F               531:   DEPTH LOGGER
 BLI .F               530:   BOTTOM LOG INTERVAL
 TLI .F                58:   TOP LOG INTERVAL
 CS  .IN            8.625:   CASING SIZE
 CBD .F                58:   CASING BOTTOM DRILLER
 CBL .F                58:   CASING BOTTOM LOGGER
 BS  .IN            7.875:   BIT SIZE
 BSD .F               530:   BIT SIZE AT DEPTH
 DFT .           AIR FOAM:   DRILLING FLUID TYPE
 MRT .F                73:   MAXIMUM RECORDED TEMPERATURE
 LUN .            HL-6274:   LOGGING UNIT NUMBER
 LUL .             CASPER:   LOGGING UNIT LOCATION
 ENGI.       P. RASMUSSEN:   RECORDING ENGINEER
 WITN.          G. STRONG:   WITNESSED BY
 CLNT.            A2DTECH:   CLIENT CODE
 ORIG.           5" PRINT:   ORIGIN OF DATA
 UWI .       490252254300:   UNIQUE WELL ID
 DICO. A2D Technologies, Inc.:   DIGITIZING COMPANY
~OTHER INFORMATION
~A    DEPT      GRR      RILD       RILM   
# ...
   54.6000    98.2021  -999.2500  -999.2500
   54.7000    98.1991  -999.2500  -999.2500
   54.8000    98.1961  -999.2500  -999.2500
   54.9000    98.2001  -999.2500  -999.2500
   55.0000    98.4414  -999.2500  -999.2500
   55.1000    98.8769  -999.2500  -999.2500
   55.2000    99.2258  -999.2500  -999.2500
   55.3000    99.6260  -999.2500  -999.2500
   55.4000   100.3119  -999.2500  -999.2500
   55.5000   100.5878  -999.2500  -999.2500
   55.6000   100.5852  -999.2500  -999.2500
   55.7000   100.8858  -999.2500  -999.2500
   55.8000   101.3716  -999.2500  -999.2500
   55.9000   101.8943  -999.2500  -999.2500
   56.0000   102.6845  -999.2500  -999.2500
   56.1000   102.9060  -999.2500  -999.2500
   56.2000   102.9804  -999.2500  -999.2500
   56.3000   102.8677  -999.2500  -999.2500
   56.4000   102.7249  -999.2500  -999.2500
   56.5000   102.9713  -999.2500  -999.2500
   56.6000   102.9684  -999.2500  -999.2500
   56.7000   102.9653  -999.2500  -999.2500
   56.8000   103.2116  -999.2500  -999.2500
   56.9000   103.6974  -999.2500  -999.2500
   57.0000   104.1930  -999.2500  -999.2500
   57.1000   105.0643  -999.2500  -999.2500
   57.2000   106.0474  -999.2500  -999.2500
   57.3000   107.6848  -999.2500  -999.2500
   57.4000   109.5541  -999.2500  -999.2500
   57.5000   111.3844  -999.2500  -999.2500
   57.6000   114.2786  -999.2500  -999.2500
   57.7000   117.1728  -999.2500  -999.2500
   57.8000   120.0670  -999.2500  -999.2500
   57.9000   122.9612  -999.2500  -999.2500
   58.0000   125.8553  9905.9023  9854.4561
   58.1000   129.4421  9905.9023  9823.1396
   58.2000   132.3876  9845.4375  9782.9834
   58.3000   134.1023  9435.0889  9741.5625
   58.4000   135.8455  6640.1328  9121.9365
   58.5000   137.2911  4114.8491  7751.8394
   58.6000   137.8358  1826.0090     6.4682
   58.7000   137.9499     9.3418     4.7267
   58.8000   137.8751     4.4194     4.4196
   58.9000   137.6273     3.3391     4.2902
   59.0000   137.3390     2.9888     4.2300
   59.1000   136.5162     2.4709     4.1817
   59.2000   135.3836     2.2609     4.1380
   59.3000   134.5247     2.1837     4.1374
   59.4000   134.3131     2.1592     4.1779
   59.5000   134.3105     2.1606     4.3521
   59.6000   135.2096     2.1738     4.5949
   59.7000   136.0195     2.2193     4.9023
   59.8000   136.5278     2.3444     5.5420
   59.9000   136.7708     2.5605     6.2969
   60.0000   137.0136     2.8513     7.1833
   60.1000   137.5016     3.1693     7.7707
   60.2000   137.6120     3.3929     8.0799
   60.3000   137.6096     3.8720     8.5359
   60.4000   137.6072     4.2935     9.7418
   60.5000   137.6048     4.7211     9.9759
   60.6000   137.6021     5.3671    10.2627
   60.7000   137.6000     5.9210    10.6048
   60.8000   137.5976     6.5838    11.0435
   60.9000   137.4022     7.3212    11.5905
   61.0000   136.7883     9.8654    12.5603
   61.1000   135.4786    13.6013    13.5121
   61.2000   134.5593    14.8911    15.9543
   61.3000   132.3654    16.8251    19.7591
   61.4000   130.8300    17.5435    22.6948
   61.5000   130.6425    17.9704    25.6448
   61.6000   130.6402    17.9590    31.3634
   61.7000   130.6377    17.5366    36.2761
   61.8000   130.8283    15.6843    38.7266
   61.9000   130.9345    14.8864    39.4964
   62.0000   131.0930    13.5351    38.9442
   62.1000   131.5812    11.7534    35.9162
   62.2000   132.1336    10.1613    32.7974
   62.3000   132.9840     9.8229    29.5846
   62.4000   133.9631     9.6243    26.3162
   62.5000   134.8417     9.5346    23.7255
   62.6000   135.4867     9.4255    21.2044
   62.7000   135.7417     9.3175    19.5865
   62.8000   136.4391     9.2107    16.8605
   62.9000   136.8189     9.0976    13.9773
   63.0000   137.1825     8.9537    13.1303
   63.1000   137.6064     8.8009    12.3108
   63.2000   137.8656     8.6744    11.5501
   63.3000   138.7434     8.5622    10.9196
   63.4000   139.1357     8.4158    10.6306
   63.5000   139.9055     8.2465    10.6295
   63.6000   140.9688     8.0935    10.6282
   63.7000   142.2500     7.9101    10.6271
   63.8000   144.1614     7.7307    10.7166
   63.9000   145.0282     7.5819    10.8380
   64.0000   145.8462     7.5810    10.9239
   64.1000   146.2661     7.5802    10.9313
   64.2000   146.2153     7.6103    11.0747
   64.3000   145.9595     7.6530    11.1270
   64.4000   145.4825     7.6959    11.1892
   64.5000   144.6275     7.7369    11.2266
   64.6000   143.6436     7.7358    11.2042
   64.7000   142.6596     7.7718    11.0686
   64.8000   141.6521     7.7884    10.9498
   64.9000   139.9115     7.8392    10.7378
   65.0000   138.7029     7.9659    10.5529
   65.1000   138.0972     8.0617    10.4168
   65.2000   138.0062     8.4628    10.2369
   65.3000   137.7907     8.7973     9.9627
   65.4000   137.7880     9.1026     9.7799
   65.5000   137.7858     9.4027     9.5589
   65.6000   137.7834     9.6952     9.3615
   65.7000   137.8896    10.4980     9.2233
   65.8000   138.1848    10.5471     9.2221
   65.9000   138.6811    10.5692     9.2212
   66.0000   138.9201    10.5446     9.2202
   66.1000   139.1631    10.4935     9.2191
   66.2000   139.4060    10.4923     9.2182
   66.3000   139.6489    10.3786     9.2171
   66.4000   139.9081    10.3022     9.2160
   66.5000   140.4762    10.2719     9.2150
   66.6000   140.4742    10.2543     9.2140
   66.7000   140.4718    10.1947     9.1956
   66.8000   140.6544    10.1262     9.1480
   66.9000   141.1428    10.0289     9.1468
   67.0000   141.6710     9.9489     9.1459
   67.1000   141.6688     9.8005     9.1449
   67.2000   142.0043     9.6691     9.1215
   67.3000   142.4924     9.4396     9.0793
   67.4000   142.9244     9.2359     9.0783
   67.5000   143.1674     9.0268     9.0773
   67.6000   143.6559     8.7224     9.0374
   67.7000   143.9550     8.3851     9.0122
   67.8000   144.4632     8.2072     9.0112
   67.9000   145.1968     8.2062     9.0102
   68.0000   145.9105     8.2054     9.0091
   68.1000   146.4708     8.2635     8.9646
   68.2000   147.0961     8.3379     8.9446
   68.3000   147.8300     8.3761     8.9436
   68.4000   148.3705     8.3750     8.9426
   68.5000   148.5735     8.4201     8.9416
   68.6000   148.5706     8.4317     8.9406
   68.7000   148.5683     8.4809     8.9396
   68.8000   148.3930     8.5626     8.9386
   68.9000   148.0287     8.6105     8.9376
   69.0000   147.4148     8.6659     8.9367
   69.1000   146.4431     8.7074     8.9355
   69.2000   146.1953     8.7880     8.8930
   69.3000   145.5615     8.8669     8.8716
   69.4000   144.0027     8.9072     8.8705
   69.5000   141.9528     8.9060     8.8622
   69.6000   140.3057     8.8560     8.8069
   69.7000   139.1924     8.8047     8.7600
   69.8000   137.0591     8.7537     8.7093
   69.9000   135.8577     8.7029     8.6821
   70.0000   135.5656     8.6564     8.6812
   70.1000   135.5632     8.6553     8.6802
   70.2000   135.5607     8.6545     8.6792
   70.3000   136.0248     8.6221     8.6391
   70.4000   136.3362     8.5722     8.6170
   70.5000   136.5792     8.5131     8.6161
   70.6000   136.8864     8.4129     8.6151
   70.7000   137.4638     8.4119     8.6140
   70.8000   141.2773     8.4110     8.6131
   70.9000   142.6551     8.3847     8.6121
   71.0000   144.0885     8.3507     8.6112
   71.1000   145.0594     8.3498     8.6103
   71.2000   145.4917     8.3488     8.6093
   71.3000   145.1871     8.3479     8.6083
   71.4000   145.1849     8.3470     8.6074
   71.5000   145.1825     8.3461     8.6064
   71.6000   145.0755     8.3452     8.6055
   71.7000   144.8760     8.3442     8.6045
   71.8000   144.8735     8.3433     8.6034
   71.9000   144.8712     8.3424     8.6026
   72.0000   144.8688     8.3415     8.6016
   72.1000   144.9911     8.3556     8.6007
   72.2000   145.1656     8.3980     8.5997
   72.3000   145.1632     8.3968     8.5987
   72.4000   145.1603     8.3960     8.5978
   72.5000   145.1584     8.4264     8.5968
   72.6000   145.1560     8.4945     8.5959
   72.7000   145.1535     8.5807     8.6089
