~VERSION INFORMATION
 VERS.                2.0:   CWLS LOG ASCII STANDARD - VERSION 2.0
 WRAP.                 NO:   ONE LINE PER DEPTH STEP
~WELL INFORMATION
#MNEM.UNIT      DATA TYPE    INFORMATION
#----------   ------------   ------------------------------
 STRT.F           18.0000:   START DEPTH
 STOP.F          647.0000:   STOP DEPTH
 STEP.F            0.5000:   STEP LENGTH
 NULL.          -999.2500:   NO VALUE
 COMP. FENIX & SCISSON INC:   COMPANY
 WELL. NAVAL PETROLEUM RESERVE 3 SX-1 #82-15:   WELL
 FLD .        TEAPOT DOME:   FIELD
 LOC .      S15 T38N R78W:   LOCATION
 CNTY.            NATRONA:   COUNTY
 STAT.            WYOMING:   STATE
 CTRY. UNITED STATES OF AMERICA:   COUNTRY
 SRVC.            Unknown:   SERVICE COMPANY
 DATE.        15-MAR-1979:   LOGDATE
 API .       490251076500:   API NUMBER
~CURVE INFORMATION
#MNEM.UNIT       API CODE    CURVE DESCRIPTION
#----------   ------------   ------------------------------
 DEPT.F                  :   
 SPR .MV     05 010 01 00:   SPONTANEOUS POTENTIAL FROM RES.
 SN  .OHMM   05 040 16 00:   SHORT NORMAL 16"
 IL  .OHMM   05 120 00 00:   INDUCTION LOG
 CALD.IN     45 280 60 00:   CALIPER
 GRD .GAPI   45 310 01 00:   GAMMA RAY FROM DENSITY LOG
 RHOB.G/C3   45 350 01 00:   BULK DENSITY
 DPHI.DEC    45 890 12 00:   DENSITY POROSITY SANDSTONE
 CORR.G/C3   45 356 01 00:   DENSITY CORRECTION
~PARAMETER INFORMATION
#MNEM.UNIT          VALUE    DESCRIPTION
#----------   ------------   ------------------------------
 PD  .                 GL:   PERMANENT DATUM
 EPD .F              5249:   ELEVATION PERMANENT DATUM
 LMF .                 KB:   LOG MEASURED FROM
 DAPD.F                 4:   FEET ABOVE PERMANENT DATUM
 DMF .                 KB:   DRILLING MEASURED FROM
 EKB .F              5253:   KELLING BUSHING
 EGL .F              5249:   GROUND LEVEL
 DATE.            1-15-79:   RUN DATE
 RUN .                  1:   RUN NUMBER
 DD  .F               670:   DEPTH DRILLER
 DL  .F               647:   DEPTH LOGGER
 BLI .F               640:   BOTTOM LOG INTERVAL
 TLI .F                30:   TOP LOG INTERVAL
 CS  .IN            8.625:   CASING SIZE
 CBD .F                40:   CASING BOTTOM DRILLER
 CBL .F                34:   CASING BOTTOM LOGGER
 BS  .IN            7.875:   BIT SIZE
 BSD .F               670:   BIT SIZE AT DEPTH
 DFT .                KCL:   DRILLING FLUID TYPE
 DFD .                8.9:   DRILLING FLUID DENSITY
 DFV .                 44:   DRILLING FLUID VISCOSITY
 DFPH.                8.5:   DRILLING FLUID PH
 DFL .               14.8:   DRILLING FLUID LOSS
 MSS .           FLOWLINE:   MUD SAMPLE SOURCE
 RMS .OHMM            .26:   RESISTIVITY MUD SAMPLE
 MST .F                61:   MUD SAMPLE TEMPERATURE
 RMF .OHMM            .25:   RESISTIVITY MUD FILTRATE SAMPLE
 MFST.F                60:   MUD FILTRATE SAMPLE TEMPERATURE
 RMC .OHMM             .2:   RESISTIVITY MUD CAKE
 MCST.F                60:   MUD CAKE SAMPLE TEMPERATURE
 MFSS.           MEASURED:   MUD FILTRATE SAMPLE SOURCE
 MCSS.           MEASURED:   MUD CAKE SAMPLE SOURCE
 RMB .OHMM            .27:   RESISTIVITY MUD AT BHT
 BHT .F                58:   BOTTOM HOLE TEMPERATURE
 TCS .HRS               5:   TIME CURCULATED STOPPED
 MRT .F                58:   MAXIMUM RECORDED TEMPERATURE
 LUN .               3006:   LOGGING UNIT NUMBER
 LUL .             CASPER:   LOGGING UNIT LOCATION
 ENGI.            ROLLINS:   RECORDING ENGINEER
 WITN.              AMEND:   WITNESSED BY
 CLNT.            A2DTECH:   CLIENT CODE
 ORIG.         2.5" PRINT:   ORIGIN OF DATA
 UWI .       490251076500:   UNIQUE WELL ID
 DICO. A2D Technologies, Inc.:   DIGITIZING COMPANY
~OTHER INFORMATION
~A   DEPT      SPR         SN         IL       CALD         GRD      RHOB       DPHI       CORR   
# ...
   58.5000   -60.1970     7.1640     8.7010     8.4370    92.7640     2.3610     0.1860     0.0520
   59.0000   -59.8530     7.5060     9.2620     8.4020    94.1950     2.3690     0.1780     0.0490
   59.5000   -59.5100     7.8470     9.7000     8.4070    95.1580     2.3840     0.1760     0.0380
   60.0000   -59.1670     8.1890    10.1370     8.4120    96.0360     2.3960     0.1860     0.0400
   60.5000   -58.8240     8.5310    10.5750     8.4200    94.1430     2.3870     0.1950     0.0410
   61.0000   -58.4790     8.8730    11.0120     8.4260    92.4290     2.3720     0.2050     0.0410
   61.5000   -58.1400     9.1370    11.4500     8.4320    90.4990     2.3590     0.2020     0.0390
   62.0000   -57.7890     9.3240    11.8870     8.4380    90.0070     2.3550     0.1990     0.0370
   62.5000   -57.4580     9.5110    12.3240     8.4440    90.4590     2.3560     0.2000     0.0350
   63.0000   -57.0860     9.6980    12.7620     8.4500    88.6080     2.3550     0.2040     0.0340
   63.5000   -56.9930     9.8850    13.0820     8.4570    86.5340     2.3510     0.2090     0.0340
   64.0000   -56.9090    10.0720    13.1940     8.4630    85.7450     2.3470     0.2110     0.0400
   64.5000   -56.8370    10.2600    13.3210     8.4690    86.3470     2.3470     0.2080     0.0480
   65.0000   -56.7540    10.4830    13.4470     8.4750    89.4370     2.3470     0.2040     0.0540
   65.5000   -56.6780    10.5130    13.5740     8.4810    92.1320     2.3530     0.1960     0.0540
   66.0000   -56.5990    10.5500    13.7010     8.4880    95.1170     2.3640     0.1880     0.0550
   66.5000   -56.5210    10.5870    13.8280     8.4940    98.6580     2.3750     0.1790     0.0560
   67.0000   -56.4420    10.6240    13.9540     8.5000   102.5690     2.3880     0.1810     0.0560
   67.5000   -56.3670    10.6610    14.0810     8.5060   104.1780     2.3860     0.1850     0.0570
   68.0000   -56.2800    10.6980    14.2080     8.5120   100.6570     2.3820     0.1880     0.0570
   68.5000   -56.2860    10.7350    14.3350     8.5190    96.6450     2.3780     0.1920     0.0580
   69.0000   -56.3700    10.7720    14.4620     8.5190    92.5260     2.3740     0.1960     0.0580
   69.5000   -56.4430    10.8090    14.5880     8.5170    88.9610     2.3700     0.1960     0.0580
   70.0000   -56.5180    10.8470    14.7150     8.5150    86.5980     2.3660     0.1930     0.0590
   70.5000   -56.5940    10.8840    14.8420     8.5130    85.8590     2.3700     0.1900     0.0590
   71.0000   -56.6690    10.9210    14.9080     8.5110    86.4940     2.3750     0.1870     0.0590
   71.5000   -56.7440    10.9580    14.9420     8.5090    88.8110     2.3810     0.1860     0.0590
   72.0000   -56.8200    10.9950    14.9760     8.5080    91.8960     2.3810     0.1870     0.0600
   72.5000   -56.8950    11.0320    15.0100     8.5060    94.8050     2.3810     0.1870     0.0600
   73.0000   -56.9710    11.0690    15.0440     8.5040    95.8260     2.3810     0.1870     0.0600
   73.5000   -57.0460    11.1060    15.0770     8.5020    96.0160     2.3820     0.1870     0.0600
   74.0000   -57.1220    11.1440    15.1110     8.5000    94.9430     2.3820     0.1870     0.0610
   74.5000   -57.1970    11.1810    15.1450     8.4990    95.1530     2.3820     0.1880     0.0610
   75.0000   -57.2720    11.2180    15.1790     8.4970    96.8910     2.3820     0.1870     0.0610
   75.5000   -57.3480    11.2550    15.2130     8.4950    98.2520     2.3830     0.1860     0.0620
   76.0000   -57.4240    11.2920    15.2470     8.4930    97.2830     2.3830     0.1860     0.0620
   76.5000   -57.5000    11.3290    15.2800     8.4910    95.5470     2.3830     0.1850     0.0610
   77.0000   -57.5740    11.3660    15.3140     8.4900    94.8010     2.3840     0.1830     0.0520
   77.5000   -57.6550    11.4030    15.3480     8.4880    94.7470     2.3890     0.1790     0.0440
   78.0000   -57.7230    11.4400    15.3800     8.4860    93.9510     2.3930     0.1750     0.0350
   78.5000   -57.8060    11.4780    15.4110     8.4840    93.2080     2.3980     0.1780     0.0440
   79.0000   -57.9000    11.5150    15.4400     8.4830    93.2070     2.4000     0.1840     0.0540
   79.5000   -58.2850    11.5520    15.2960     8.4800    91.9090     2.3940     0.1900     0.0650
   80.0000   -58.6350    11.5900    15.1680     8.4920    89.5340     2.3840     0.1940     0.0660
   80.5000   -58.9940    11.6260    15.0390     8.5300    88.2320     2.3730     0.1850     0.0660
   81.0000   -59.8060    11.6630    14.9090     8.5640    88.8600     2.3780     0.1770     0.0660
   81.5000   -60.8240    11.7010    14.7780     8.6030    89.7850     2.3910     0.1760     0.0720
   82.0000   -61.8260    11.6010    14.6510     8.6360    89.8130     2.4010     0.1810     0.0770
   82.5000   -62.8260    11.4520    14.5210     8.6750    88.8630     2.3970     0.1890     0.0820
   83.0000   -63.8300    11.3030    14.3910     8.6330    87.5120     2.3850     0.1960     0.0850
   83.5000   -64.8310    11.1540    14.0570     8.5780    90.9680     2.3730     0.1940     0.0790
   84.0000   -65.8400    11.0050    13.6150     8.5240    94.2240     2.3690     0.1930     0.0730
   84.5000   -66.7320    10.8560    13.1730     8.4640    92.3740     2.3690     0.1980     0.0660
   85.0000   -67.2570    10.6780    12.7310     8.4570    89.9820     2.3660     0.2040     0.0620
   85.5000   -67.7490    10.4980    12.2890     8.5030    89.1020     2.3590     0.2040     0.0620
   86.0000   -68.2140    10.2760    11.8470     8.5420    88.6120     2.3540     0.1970     0.0590
   86.5000   -68.7120    10.0530    11.4050     8.5830    88.3410     2.3580     0.1910     0.0500
   87.0000   -68.8240     9.8310    10.9230     8.6230    88.9440     2.3610     0.1870     0.0410
   87.5000   -68.9200     9.5300    10.4270     8.6640    92.0520     2.3790     0.1850     0.0340
   88.0000   -68.9980     9.1720     9.9310     8.6810    95.0580     2.3840     0.1810     0.0330
   88.5000   -69.1020     8.8150     9.4340     8.6800    96.9150     2.3900     0.1760     0.0310
   89.0000   -69.1350     8.4570     8.9380     8.6690    97.0450     2.3990     0.1700     0.0300
   89.5000   -69.0630     8.0990     8.4420     8.6290    97.3960     2.4090     0.1650     0.0290
   90.0000   -69.0030     7.7410     7.9460     8.5900    98.9620     2.4180     0.1590     0.0270
   90.5000   -68.9370     7.3830     7.5580     8.5450   102.8820     2.4280     0.1540     0.0260
   91.0000   -68.8730     6.9840     7.3180     8.5190   106.7180     2.4370     0.1490     0.0250
   91.5000   -68.8080     6.8070     7.0790     8.5170   111.0810     2.4460     0.1480     0.0240
   92.0000   -68.7440     6.6070     6.8390     8.5660   113.5490     2.4470     0.1480     0.0220
   92.5000   -68.6790     6.3680     6.5990     8.7020   113.0600     2.4470     0.1480     0.0220
   93.0000   -68.6150     6.2520     6.3680     8.8300   113.0980     2.4440     0.1520     0.0230
   93.5000   -68.5500     6.2520     6.3810     8.8290   113.9620     2.4380     0.1570     0.0230
   94.0000   -68.4850     6.2560     6.3990     8.8200   114.8330     2.4330     0.1600     0.0230
   94.5000   -68.4210     6.2630     6.4170     8.8070   113.6610     2.4290     0.1590     0.0240
   95.0000   -68.3560     6.2710     6.4360     8.7980   112.6520     2.4310     0.1570     0.0240
   95.5000   -68.2910     6.2780     6.4540     8.7860   111.9370     2.4330     0.1560     0.0240
   96.0000   -68.2270     6.2860     6.4730     8.7750   111.3130     2.4350     0.1540     0.0250
   96.5000   -68.1620     6.2940     6.4910     8.7670   110.0760     2.4340     0.1550     0.0250
   97.0000   -68.0970     6.3010     6.5100     8.7320   108.6540     2.4340     0.1570     0.0250
   97.5000   -68.0350     6.3090     6.5280     8.6680   109.2770     2.4330     0.1570     0.0260
   98.0000   -67.9650     6.3160     6.5470     8.6080   108.7140     2.4320     0.1580     0.0260
   98.5000   -67.9680     6.3240     6.5650     8.5470   107.2300     2.4320     0.1580     0.0310
