~VERSION INFORMATION
 VERS.                2.0:   CWLS LOG ASCII STANDARD - VERSION 2.0
 WRAP.                 NO:   ONE LINE PER DEPTH STEP
~WELL INFORMATION
#MNEM.UNIT      DATA TYPE    INFORMATION
#----------   ------------   ------------------------------
 STRT.F           10.5000:   START DEPTH
 STOP.F          604.0000:   STOP DEPTH
 STEP.F            0.5000:   STEP LENGTH
 NULL.          -999.2500:   NO VALUE
 COMP. FENIX & SCISSON INC:   COMPANY
 WELL.  NPR 3 #87 S 10-10:   WELL
 FLD .             TEAPOT:   FIELD
 LOC .      S10 T38N R78W:   LOCATION
 CNTY.            NATRONA:   COUNTY
 STAT.            WYOMING:   STATE
 CTRY. UNITED STATES OF AMERICA:   COUNTRY
 SRVC.           BIRDWELL:   SERVICE COMPANY
 DATE.        11-DEC-1978:   LOGDATE
 API .       490251075400:   API NUMBER
~CURVE INFORMATION
#MNEM.UNIT       API CODE    CURVE DESCRIPTION
#----------   ------------   ------------------------------
 DEPT.F                  :   
 SPR .MV     05 010 01 00:   SPONTANEOUS POTENTIAL FROM RES.
 SN  .OHMM   05 040 16 00:   SHORT NORMAL 16"
 IL  .OHMM   05 120 00 00:   INDUCTION LOG
 CALD.IN     45 280 60 00:   CALIPER
 GRD .GAPI   45 310 01 00:   GAMMA RAY FROM DENSITY LOG
 RHOB.G/C3   45 350 01 00:   BULK DENSITY
 DPHI.DEC    45 890 12 00:   DENSITY POROSITY SANDSTONE
 CORR.G/C3   45 356 01 00:   DENSITY CORRECTION
~PARAMETER INFORMATION
#MNEM.UNIT          VALUE    DESCRIPTION
#----------   ------------   ------------------------------
 PD  .                 GL:   PERMANENT DATUM
 LMF .                 KB:   LOG MEASURED FROM
 DAPD.F                 4:   FEET ABOVE PERMANENT DATUM
 DMF .                 KB:   DRILLING MEASURED FROM
 DATE.           12-11-78:   RUN DATE
 RUN .                  1:   RUN NUMBER
 DD  .F               600:   DEPTH DRILLER
 DL  .F               602:   DEPTH LOGGER
 BLI .F               596:   BOTTOM LOG INTERVAL
 TLI .F                60:   TOP LOG INTERVAL
 CBD .F                40:   CASING BOTTOM DRILLER
 CBL .F                35:   CASING BOTTOM LOGGER
 BS  .IN            7.875:   BIT SIZE
 BSD .F               600:   BIT SIZE AT DEPTH
 DFT .                KCC:   DRILLING FLUID TYPE
 DFD .                8.7:   DRILLING FLUID DENSITY
 DFV .                 39:   DRILLING FLUID VISCOSITY
 DFPH.               10.5:   DRILLING FLUID PH
 DFL .                 10:   DRILLING FLUID LOSS
 MSS .           FLOWLINE:   MUD SAMPLE SOURCE
 RMS .OHMM              1:   RESISTIVITY MUD SAMPLE
 MST .F                62:   MUD SAMPLE TEMPERATURE
 RMF .OHMM            .85:   RESISTIVITY MUD FILTRATE SAMPLE
 MFST.F                58:   MUD FILTRATE SAMPLE TEMPERATURE
 RMC .OHMM             .8:   RESISTIVITY MUD CAKE
 MCST.F                66:   MUD CAKE SAMPLE TEMPERATURE
 MFSS.           MEASURED:   MUD FILTRATE SAMPLE SOURCE
 MCSS.           MEASURED:   MUD CAKE SAMPLE SOURCE
 BHT .F                72:   BOTTOM HOLE TEMPERATURE
 TCS .HRS               3:   TIME CURCULATED STOPPED
 MRT .F                72:   MAXIMUM RECORDED TEMPERATURE
 LUN .               2958:   LOGGING UNIT NUMBER
 LUL .             CASPER:   LOGGING UNIT LOCATION
 ENGI.            ROLLINS:   RECORDING ENGINEER
 WITN.           DINSMORE:   WITNESSED BY
 CLNT.            A2DTECH:   CLIENT CODE
 ORIG.       2", 5" PRINT:   ORIGIN OF DATA
 UWI .       490251075400:   UNIQUE WELL ID
 DICO. A2D Technologies, Inc.:   DIGITIZING COMPANY
~OTHER INFORMATION
~A   DEPT      SPR         SN         IL       CALD        GRD       RHOB       DPHI       CORR   
# ...
   91.5000   -19.9500  -999.2500     7.0500     8.4400   113.5960     2.4330     0.1560     0.0070
   92.0000   -19.9690  -999.2500     7.0220     8.4370   113.3400     2.4340     0.1550     0.0070
   92.5000   -19.9880  -999.2500     6.9950     8.4340   112.9760     2.4350     0.1550     0.0070
   93.0000   -20.0070  -999.2500     6.9670     8.4310   112.5720     2.4360     0.1540     0.0070
   93.5000   -20.0260  -999.2500     6.9520     8.4270   114.3530     2.4390     0.1530     0.0080
   94.0000   -20.0440  -999.2500     7.2910     8.4240   115.7140     2.4410     0.1520     0.0080
   94.5000   -20.0640  -999.2500     7.5560     8.4210   113.4860     2.4440     0.1500     0.0090
   95.0000   -20.0830  -999.2500     7.7070     8.4180   113.1530     2.4450     0.1480     0.0100
   95.5000   -20.0760  -999.2500     7.7330     8.4150   115.3630     2.4440     0.1490     0.0110
   96.0000   -19.5940  -999.2500     7.7580     8.4120   114.9570     2.4420     0.1500     0.0120
   96.5000   -19.1160  -999.2500     7.7840     8.4090   113.8370     2.4380     0.1520     0.0240
   97.0000   -18.6370  -999.2500     7.8100     8.4060   111.9510     2.4350     0.1540     0.0360
   97.5000   -18.0870  -999.2500     7.8380     8.4020   110.0290     2.4350     0.1560     0.0490
   98.0000   -17.2870  -999.2500     7.7600     8.3920   108.0810     2.4420     0.1570     0.0470
   98.5000   -16.9400  -999.2500     7.6720     8.3630   108.3330     2.4500     0.1480     0.0430
   99.0000   -17.7580  -999.2500     7.5850     8.3010   111.2100     2.4560     0.1410     0.0300
   99.5000   -14.8230     0.2250     7.4970     8.2390   114.4580     2.4550     0.1400     0.0170
  100.0000   -15.3560     0.2960     7.4090     8.1780   117.8070     2.4480     0.1430     0.0130
  100.5000   -15.7500     0.3790     7.3480     8.1170   117.8420     2.4390     0.1580     0.0120
  101.0000   -16.1190     0.6910     7.4700     8.0630   115.1670     2.4310     0.1570     0.0110
  101.5000   -16.2660     0.6760     7.5640     8.0710   112.4840     2.4360     0.1560     0.0100
  102.0000   -16.2010     3.2590     7.6580     8.0790   110.8060     2.4430     0.1520     0.0090
  102.5000   -16.1380     7.3920     7.7520     8.0860   110.6700     2.4500     0.1460     0.0080
  103.0000   -16.0740     7.5300     7.8450     8.0940   111.9860     2.4560     0.1420     0.0080
  103.5000   -16.0080     7.6690     7.9390     8.1080   113.5340     2.4530     0.1420     0.0080
  104.0000   -15.9370     7.8070     8.0330     8.2310   113.6350     2.4510     0.1450     0.0080
  104.5000   -15.7240     7.9450     8.1330     8.3390   113.0670     2.4520     0.1450     0.0090
  105.0000   -15.0580     8.0830     8.1330     8.3440   111.1430     2.4520     0.1440     0.0090
  105.5000   -14.4070     8.2220     8.1330     8.3470   109.6950     2.4530     0.1440     0.0090
  106.0000   -13.7360     8.4110     8.1330     8.3500   109.5720     2.4560     0.1430     0.0090
  106.5000   -13.6800     8.6420     8.1330     8.3530   109.4280     2.4610     0.1390     0.0090
  107.0000   -13.6590     8.8700     8.1330     8.3550   109.2790     2.4660     0.1350     0.0070
  107.5000   -13.6390     9.1700     8.1320     8.3580   109.1290     2.4710     0.1330     0.0060
  108.0000   -13.6180     9.1420     8.1310     8.3610   108.9850     2.4720     0.1330     0.0050
  108.5000   -13.5970     9.0940     8.1330     8.3640   109.3600     2.4640     0.1370     0.0030
  109.0000   -13.5760     9.0460     7.8880     8.3670   109.8050     2.4520     0.1440     0.0020
  109.5000   -13.5550     8.9970     7.7310     8.3700   109.9110     2.4410     0.1510     0.0030
  110.0000   -13.5340     8.9490     7.5750     8.3730   108.8030     2.4360     0.1540     0.0050
  110.5000   -13.5130     8.8420     7.4160     8.3760   107.7880     2.4350     0.1550     0.0070
  111.0000   -13.4920     8.6390     7.4160     8.3790   108.4190     2.4370     0.1540     0.0090
  111.5000   -13.4710     8.4370     7.4160     8.3800   111.2660     2.4390     0.1530     0.0140
  112.0000   -13.4500     8.2340     7.4160     8.3530   114.4470     2.4440     0.1520     0.0180
  112.5000   -13.4290     8.0320     7.4160     8.3250   115.5570     2.4510     0.1480     0.0230
  113.0000   -13.4080     7.8380     7.4160     8.2980   117.5350     2.4570     0.1450     0.0230
  113.5000   -13.3870     7.9020     7.5410     8.2700   117.9960     2.4590     0.1420     0.0230
  114.0000   -13.3660     7.9550     7.6650     8.2490   114.6070     2.4600     0.1390     0.0230
  114.5000   -13.3450     8.0070     7.7890     8.2300   111.4230     2.4620     0.1360     0.0230
  115.0000   -13.3240     8.0600     7.9110     8.2110   110.7890     2.4680     0.1330     0.0230
  115.5000   -13.3030     8.1130     7.9110     8.1920   108.4710     2.4720     0.1310     0.0220
  116.0000   -13.2830     8.3800     7.9110     8.1730   107.6370     2.4710     0.1310     0.0220
  116.5000   -13.2620     8.7750     7.9110     8.1620   108.2470     2.4700     0.1310     0.0220
  117.0000   -13.2410     8.9270     7.9110     8.1620   106.5370     2.4640     0.1340     0.0220
  117.5000   -13.2200     8.9390     7.9110     8.1620   102.3070     2.4600     0.1370     0.0210
  118.0000   -13.1990     8.9510     7.9110     8.1620   100.6580     2.4600     0.1380     0.0200
  118.5000   -13.1780     8.9640     7.9110     8.1620   101.5040     2.4600     0.1400     0.0190
  119.0000   -13.1570     8.9760     7.9110     8.1630   102.3380     2.4540     0.1430     0.0180
  119.5000   -13.1360     8.9880     7.9110     8.1800   101.9960     2.4490     0.1470     0.0170
  120.0000   -13.1160     9.0000     7.9110     8.2680   102.1290     2.4470     0.1480     0.0160
  120.5000   -13.1180     9.0620     7.9110     8.3550   107.7350     2.4490     0.1470     0.0150
  121.0000   -13.1870     9.1320     7.9110     8.4390   112.7500     2.4570     0.1410     0.0150
  121.5000   -13.2530     9.1700     7.9110     8.4700   115.5450     2.4620     0.1370     0.0140
  122.0000   -13.3200     9.1700     7.9110     8.4890   115.2480     2.4590     0.1360     0.0110
  122.5000   -13.3870     9.1700     7.9110     8.5030   114.8020     2.4550     0.1420     0.0070
  123.0000   -13.4530     9.1700     7.9110     8.5170   116.0790     2.4510     0.1450     0.0040
  123.5000   -13.5200     9.1700     7.9110     8.5310   115.2850     2.4480     0.1470     0.0040
  124.0000   -13.5870     9.0980     7.9110     8.5440   113.2300     2.4480     0.1470     0.0040
  124.5000   -13.6530     8.9940     7.9110     8.5580   113.5850     2.4480     0.1470     0.0050
  125.0000   -13.7200     8.8910     7.9230     8.5650   114.0330     2.4500     0.1470     0.0050
  125.5000   -13.7870     8.7870     7.9480     8.5690   112.5640     2.4530     0.1450     0.0050
  126.0000   -13.8530     8.6630     7.9720     8.5740   107.0400     2.4540     0.1420     0.0070
  126.5000   -13.9200     8.5300     7.9970     8.5780   107.6260     2.4530     0.1430     0.0090
  127.0000   -13.9860     8.4390     8.0220     8.5830   111.9180     2.4520     0.1440     0.0110
  127.5000   -14.0490     8.4780     8.0460     8.5880   110.2740     2.4540     0.1440     0.0130
  128.0000   -14.0370     8.5080     8.0610     8.5920   107.8230     2.4610     0.1440     0.0150
  128.5000   -13.7940     8.5370     8.0660     8.5970   109.3730     2.4670     0.1350     0.0140
  129.0000   -13.5570     8.5670     8.0720     8.6010   109.2780     2.4710     0.1330     0.0130
  129.5000   -13.3130     8.5970     8.0770     8.5990   108.4810     2.4730     0.1320     0.0120
  130.0000   -13.3280     8.6270     8.0820     8.5970   108.7240     2.4740     0.1300     0.0100
  130.5000   -13.3680     8.6560     8.0880     8.5950   114.5690     2.4730     0.1300     0.0110
  131.0000   -13.4080     8.6760     8.0930     8.5930   119.1780     2.4660     0.1340     0.0140
  131.5000   -13.4480     8.6760     8.0990     8.5910   120.4410     2.4590     0.1410     0.0170
