~VERSION INFORMATION
 VERS.                2.0:   CWLS LOG ASCII STANDARD - VERSION 2.0
 WRAP.                 NO:   ONE LINE PER DEPTH STEP
~WELL INFORMATION
#MNEM.UNIT      DATA TYPE    INFORMATION
#----------   ------------   ------------------------------
 STRT.F           30.0000:   START DEPTH
 STOP.F          440.0000:   STOP DEPTH
 STEP.F            0.5000:   STEP LENGTH
 NULL.          -999.2500:   NO VALUE
 COMP. FENIX & SCISSON INC:   COMPANY
 WELL.    54 SX 10 #54-10:   WELL
 FLD .             TEAPOT:   FIELD
 LOC .      S10 T38N R78W:   LOCATION
 CNTY.            NATRONA:   COUNTY
 STAT.            WYOMING:   STATE
 CTRY. UNITED STATES OF AMERICA:   COUNTRY
 SRVC.            Unknown:   SERVICE COMPANY
 DATE.        10-NOV-1978:   LOGDATE
 API .       490251072800:   API NUMBER
~CURVE INFORMATION
#MNEM.UNIT       API CODE    CURVE DESCRIPTION
#----------   ------------   ------------------------------
 DEPT.F                  :   
 CALD.IN     45 280 60 00:   CALIPER
 GRD .GAPI   45 310 01 00:   GAMMA RAY FROM DENSITY LOG
 DPHI.DEC    45 890 12 00:   DENSITY POROSITY SANDSTONE
 RHOB.G/C3   45 350 01 00:   BULK DENSITY
 CORR.G/C3   45 356 01 00:   DENSITY CORRECTION
 SPR .MV     05 010 01 00:   SPONTANEOUS POTENTIAL FROM RES.
 ILD .OHMM   05 120 46 00:   INDUCTION LOG DEEP
 SN  .OHMM   05 040 16 00:   SHORT NORMAL 16"
~PARAMETER INFORMATION
#MNEM.UNIT          VALUE    DESCRIPTION
#----------   ------------   ------------------------------
 PD  .                 GL:   PERMANENT DATUM
 EPD .F              5196:   ELEVATION PERMANENT DATUM
 LMF .                 KB:   LOG MEASURED FROM
 DAPD.F                 4:   FEET ABOVE PERMANENT DATUM
 DMF .                 KB:   DRILLING MEASURED FROM
 EKB .F              5200:   KELLING BUSHING
 EGL .F              5196:   GROUND LEVEL
 DATE.           11-10-78:   RUN DATE
 RUN .                  1:   RUN NUMBER
 DD  .F               435:   DEPTH DRILLER
 DL  .F               442:   DEPTH LOGGER
 BLI .F               436:   BOTTOM LOG INTERVAL
 TLI .F                50:   TOP LOG INTERVAL
 CS  .IN            8.625:   CASING SIZE
 CBD .F                40:   CASING BOTTOM DRILLER
 CBL .F                50:   CASING BOTTOM LOGGER
 BS  .IN            7.875:   BIT SIZE
 BSD .F               435:   BIT SIZE AT DEPTH
 DFT .            SEA MUD:   DRILLING FLUID TYPE
 DFD .                8.7:   DRILLING FLUID DENSITY
 DFV .                 34:   DRILLING FLUID VISCOSITY
 DFPH.                 10:   DRILLING FLUID PH
 MSS .            MUD PIT:   MUD SAMPLE SOURCE
 RMS .OHMM             .4:   RESISTIVITY MUD SAMPLE
 MST .F                57:   MUD SAMPLE TEMPERATURE
 RMF .OHMM            .34:   RESISTIVITY MUD FILTRATE SAMPLE
 MFST.F                64:   MUD FILTRATE SAMPLE TEMPERATURE
 RMC .OHMM            .44:   RESISTIVITY MUD CAKE
 MCST.F                60:   MUD CAKE SAMPLE TEMPERATURE
 MFSS.            MUD PIT:   MUD FILTRATE SAMPLE SOURCE
 MCSS.            MUD PIT:   MUD CAKE SAMPLE SOURCE
 RMB .OHMM            .36:   RESISTIVITY MUD AT BHT
 BHT .F                72:   BOTTOM HOLE TEMPERATURE
 TCS .HRS               1:   TIME CURCULATED STOPPED
 MRT .F                70:   MAXIMUM RECORDED TEMPERATURE
 LUN .               3006:   LOGGING UNIT NUMBER
 LUL .               CASP:   LOGGING UNIT LOCATION
 ENGI.             MILLER:   RECORDING ENGINEER
 WITN.           DINSMORE:   WITNESSED BY
 CLNT.            A2DTECH:   CLIENT CODE
 ORIG.           5" PRINT:   ORIGIN OF DATA
 UWI .       490251072800:   UNIQUE WELL ID
 DICO. A2D Technologies, Inc.:   DIGITIZING COMPANY
~OTHER INFORMATION
~A   DEPT     CALD         GRD      DPHI       RHOB       CORR        SPR        ILD         SN   
# ...
  151.5000     7.9716   104.9058     0.1216     2.4678     0.0592   -38.9230     6.3390     6.6304
  152.0000     7.9232   105.6430     0.1190     2.4839     0.0649   -39.0572     6.3894     7.0737
  152.5000     7.8745   106.2748     0.1195     2.4874     0.0675   -39.1913     6.6272     7.5465
  153.0000     7.8393   105.8436     0.1204     2.4878     0.0628   -39.3254     6.8819     8.0509
  153.5000     7.8177   105.4230     0.1236     2.4864     0.0479   -39.4597     7.1464     8.4666
  154.0000     7.7962   105.0520     0.1287     2.4827     0.0331   -39.5942     7.4205     8.5446
  154.5000     7.7746   108.1137     0.1337     2.4740     0.0184   -39.7279     7.7053     8.6214
  155.0000     7.7537   112.3198     0.1369     2.4655     0.0056   -39.7437     7.8291     8.6989
  155.5000     7.7345   113.7954     0.1386     2.4590     0.0079   -39.7426     7.8864     8.7770
  156.0000     7.6782   112.2488     0.1403     2.4541     0.0114   -39.7284     7.9442     8.8559
  156.5000     7.6187   109.6459     0.1420     2.4526     0.0149   -40.4104     8.0024     8.9355
  157.0000     7.6163   107.0618     0.1436     2.4510     0.0184   -41.3041     8.0610     9.0158
  157.5000     7.6221   104.9462     0.1441     2.4494     0.0198   -42.1986     8.1201     9.0968
  158.0000     7.6282   103.3303     0.1436     2.4486     0.0196   -42.9161     8.1797     9.1785
  158.5000     7.6364   101.7451     0.1431     2.4481     0.0194   -42.9069     8.2391     9.2610
  159.0000     7.6474   102.3045     0.1426     2.4477     0.0192   -43.0518     8.2474     9.3442
  159.5000     7.6584   105.8245     0.1436     2.4473     0.0190   -43.0839     8.2557     9.4413
  160.0000     7.6694   109.2333     0.1466     2.4470     0.0188   -42.8180     8.2640     9.4247
  160.5000     7.6804   111.5150     0.1496     2.4437     0.0186   -42.5548     8.2723     9.3991
  161.0000     7.6915   112.4527     0.1517     2.4400     0.0184   -42.2937     8.2806     9.3736
  161.5000     7.7025   113.4060     0.1534     2.4362     0.0182   -42.0325     8.2889     9.3481
  162.0000     7.7135   114.3683     0.1538     2.4338     0.0180   -41.7650     8.2972     9.3227
  162.5000     7.7249   114.9015     0.1518     2.4322     0.0184   -41.7459     8.3056     9.2974
  163.0000     7.7527   110.9985     0.1441     2.4318     0.0197   -41.7842     8.3139     9.2722
  163.5000     7.8026   107.0855     0.1333     2.4399     0.0209   -41.8232     8.2905     9.2470
  164.0000     7.8521   105.8895     0.1226     2.4531     0.0211   -41.8634     8.2599     9.2219
  164.5000     7.8998   105.1701     0.1119     2.4662     0.0172   -41.8949     8.2294     9.1968
  165.0000     7.9752   104.4617     0.1011     2.4794     0.0140   -42.3138     8.1991     9.1719
  165.5000     7.9946   103.9095     0.0904     2.4923     0.0152   -42.8817     8.1688     9.1470
  166.0000     8.0152   104.2488     0.0763     2.5129     0.0165   -43.4562     8.1387     9.1221
  166.5000     8.0357   105.0302     0.0832     2.5356     0.0178   -44.0352     8.1086     9.0703
  167.0000     8.0562   105.5288     0.0931     2.5508     0.0190   -44.1940     8.0787     8.9528
  167.5000     8.0767   105.8825     0.1031     2.5410     0.0195   -44.0557     8.0489     8.8369
  168.0000     8.0886   106.2294     0.1137     2.5239     0.0181   -43.9115     8.0189     8.7224
  168.5000     8.0885   106.4062     0.1167     2.5066     0.0167   -43.7666     7.8598     8.6095
  169.0000     8.0885   105.8671     0.1200     2.4947     0.0153   -43.6207     7.6553     8.4980
  169.5000     8.0885   106.2067     0.1232     2.4869     0.0139   -43.5041     7.4555     8.3879
  170.0000     8.0885   109.2924     0.1262     2.4828     0.0125   -43.7594     7.2612     8.2793
  170.5000     8.0884   112.4848     0.1270     2.4789     0.0111   -44.0136     7.0719     8.0184
  171.0000     8.0906   113.3576     0.1278     2.4750     0.0097   -44.2653     6.8883     7.6784
  171.5000     8.0939   111.8480     0.1314     2.4714     0.0083   -44.5168     6.7059     7.3528
  172.0000     8.0973   110.3229     0.1358     2.4701     0.0073   -44.7682     6.4926     7.0411
  172.5000     8.1006   109.6807     0.1402     2.4629     0.0064   -45.0207     6.2121     6.7429
  173.0000     8.1040   109.4755     0.1447     2.4540     0.0055   -45.2733     5.9460     6.4562
  173.5000     8.1074   110.4041     0.1598     2.4451     0.0046   -45.5152     5.6780     6.0987
  174.0000     8.1107   111.5581     0.1752     2.4332     0.0037   -45.2515     5.1208     5.6039
  174.5000     8.1141   112.0115     0.1915     2.4066     0.0028   -44.3320     4.5917     5.1506
  175.0000     8.1174   110.5279     0.2113     2.3807     0.0021   -43.4364     4.1172     4.7340
  175.5000     8.1208   110.3225     0.2311     2.3422     0.0061   -42.5349     3.6917     4.3511
  176.0000     8.1242   111.5997     0.2509     2.3007     0.0103   -41.6239     3.3230     3.9991
  176.5000     8.1277   112.6680     0.2679     2.2590     0.0145   -40.6783     3.1677     3.6756
  177.0000     8.1230   111.3467     0.2700     2.2424     0.0187   -39.7388     2.9797     3.3783
  177.5000     8.1164   107.2238     0.2556     2.2390     0.0220   -37.8755     2.9865     3.1896
  178.0000     8.1098   104.1462     0.2221     2.2766     0.0186   -35.0507     2.9971     3.1453
  178.5000     8.1032   104.1777     0.1885     2.3167     0.0145   -34.0384     3.0065     3.1440
  179.0000     8.0966   104.2485     0.1690     2.3570     0.0105   -34.0186     3.1684     3.5263
  179.5000     8.0904   104.3472     0.1528     2.3970     0.0103   -34.0217     3.5494     3.9480
  180.0000     8.0633   104.8567     0.1363     2.4195     0.0108   -34.0237     3.9772     4.4202
  180.5000     8.0312   106.9420     0.1303     2.4386     0.0113   -34.0237     4.4559     4.9489
  181.0000     7.9990   108.9972     0.1260     2.4550     0.0117   -34.0237     4.9921     5.5408
  181.5000     7.9668   113.1616     0.1221     2.4681     0.0122   -34.0237     5.4666     6.2036
  182.0000     7.9346   113.5231     0.1221     2.4784     0.0127   -34.0237     5.8063     7.0606
  182.5000     7.9024   114.5753     0.1220     2.4809     0.0132   -34.0237     6.0289     7.0452
  183.0000     7.8705   116.7651     0.1226     2.4810     0.0136   -34.0238     6.0983     7.0220
  183.5000     7.8472   117.2616     0.1238     2.4802     0.0141   -34.0247     6.1615     6.9967
  184.0000     7.8409   117.6778     0.1291     2.4780     0.0146   -34.0185     6.0810     6.9803
  184.5000     7.8343   118.0979     0.1344     2.4722     0.0150   -33.8943     5.9696     6.9573
  185.0000     7.8319   118.5039     0.1393     2.4647     0.0155   -33.7702     5.8603     6.9335
  185.5000     7.8375   120.1381     0.1503     2.4560     0.0160   -33.6469     5.7530     6.8996
  186.0000     7.8430   122.1183     0.1613     2.4423     0.0165   -33.5237     5.6476     6.7087
  186.5000     7.8484   124.0897     0.1730     2.4279     0.0169   -33.4006     5.5892     6.5230
  187.0000     7.8659   125.5807     0.1710     2.4133     0.0174   -33.2774     5.5275     6.3425
  187.5000     7.8871   125.8961     0.1643     2.3998     0.0179   -33.1539     5.4665     6.1670
  188.0000     7.9084   125.2015     0.1572     2.4074     0.0178   -33.0295     5.4060     5.9964
  188.5000     7.9298   122.7002     0.1501     2.4172     0.0176   -32.9079     5.3460     5.9418
  189.0000     7.9510   119.6283     0.1430     2.4269     0.0174   -32.9392     5.3277     6.2686
  189.5000     7.9697   116.8044     0.1364     2.4367     0.0173   -33.4102     5.6042     6.5000
  190.0000     7.9693   116.2781     0.1321     2.4473     0.0171   -33.9526     5.8263     6.7400
  190.5000     7.9692   118.2974     0.1276     2.4585     0.0170   -35.2035     6.0572     6.9888
  191.0000     7.9692   120.1972     0.1254     2.4694     0.0168   -36.4618     6.2972     7.2468
  191.5000     7.9685   121.9030     0.1211     2.4729     0.0167   -37.7173     6.5468     7.5143
