~VERSION INFORMATION
 VERS.                2.0:   CWLS LOG ASCII STANDARD - VERSION 2.0
 WRAP.                 NO:   ONE LINE PER DEPTH STEP
~WELL INFORMATION
#MNEM.UNIT      DATA TYPE    INFORMATION
#----------   ------------   ------------------------------
 STRT.F          390.0000:   START DEPTH
 STOP.F         2628.0000:   STOP DEPTH
 STEP.F            0.5000:   STEP LENGTH
 NULL.          -999.2500:   NO VALUE
 COMP. FENIX & SCISSON INC:   COMPANY
 WELL.    25 SHX 11 #3-11:   WELL
 FLD .             TEAPOT:   FIELD
 LOC .      S11 T38N R78W:   LOCATION
 CNTY.            NATRONA:   COUNTY
 STAT.            WYOMING:   STATE
 CTRY. UNITED STATES OF AMERICA:   COUNTRY
 SRVC.              Welex:   SERVICE COMPANY
 DATE.        15-MAY-1980:   LOGDATE
 API .       490251081900:   API NUMBER
~CURVE INFORMATION
#MNEM.UNIT       API CODE    CURVE DESCRIPTION
#----------   ------------   ------------------------------
 DEPT.F                  :   
 CALD.IN     45 280 60 00:   CALIPER
 GRD .GAPI   45 310 01 00:   GAMMA RAY FROM DENSITY LOG
 RHOB.G/C3   45 350 01 00:   BULK DENSITY
 DPHI.DEC    45 890 12 00:   DENSITY POROSITY SANDSTONE
 CORR.G/C3   45 356 01 00:   DENSITY CORRECTION
~PARAMETER INFORMATION
#MNEM.UNIT          VALUE    DESCRIPTION
#----------   ------------   ------------------------------
 PD  .                 GL:   PERMANENT DATUM
 EPD .F              5163:   ELEVATION PERMANENT DATUM
 LMF .                 KB:   LOG MEASURED FROM
 DAPD.F                10:   FEET ABOVE PERMANENT DATUM
 DMF .                 KB:   DRILLING MEASURED FROM
 EKB .F              5173:   KELLING BUSHING
 EGL .F              5163:   GROUND LEVEL
 DATE.            5-15-80:   RUN DATE
 RUN .                  1:   RUN NUMBER
 DD  .F              2625:   DEPTH DRILLER
 DL  .F              2630:   DEPTH LOGGER
 BLI .F              2628:   BOTTOM LOG INTERVAL
 TLI .F               400:   TOP LOG INTERVAL
 CS  .IN            9.625:   CASING SIZE
 CBD .F               645:   CASING BOTTOM DRILLER
 BS  .IN             8.75:   BIT SIZE
 BSD .F              2625:   BIT SIZE AT DEPTH
 DFT .        AIR DRILLED:   DRILLING FLUID TYPE
 TCS .HRS               2:   TIME CURCULATED STOPPED
 MRT .F               116:   MAXIMUM RECORDED TEMPERATURE
 ENGI.            BENTSEN:   RECORDING ENGINEER
 WITN.           DINSMORE:   WITNESSED BY
 CLNT.            A2DTECH:   CLIENT CODE
 ORIG.           5" PRINT:   ORIGIN OF DATA
 UWI .       490251081900:   UNIQUE WELL ID
 DICO. A2D Technologies, Inc.:   DIGITIZING COMPANY
~OTHER INFORMATION
~A   DEPT     CALD         GRD      RHOB       DPHI       CORR   
# ...
  634.0000  -999.2500    57.4169  -999.2500  -999.2500  -999.2500
  634.5000  -999.2500    57.4244  -999.2500  -999.2500  -999.2500
  635.0000  -999.2500    57.4190  -999.2500  -999.2500  -999.2500
  635.5000  -999.2500    57.4472  -999.2500  -999.2500  -999.2500
  636.0000  -999.2500    58.3170  -999.2500  -999.2500  -999.2500
  636.5000  -999.2500    59.2349  -999.2500  -999.2500  -999.2500
  637.0000  -999.2500    60.1524  -999.2500  -999.2500  -999.2500
  637.5000  -999.2500    61.0339  -999.2500  -999.2500  -999.2500
  638.0000  -999.2500    61.1587  -999.2500  -999.2500  -999.2500
  638.5000  -999.2500    61.6703  -999.2500  -999.2500  -999.2500
  639.0000  -999.2500    62.1796  -999.2500  -999.2500  -999.2500
  639.5000  -999.2500    62.6958  -999.2500  -999.2500  -999.2500
  640.0000  -999.2500    63.1799  -999.2500  -999.2500  -999.2500
  640.5000  -999.2500    63.8270  -999.2500  -999.2500  -999.2500
  641.0000  -999.2500    64.8153  -999.2500  -999.2500  -999.2500
  641.5000  -999.2500    67.1164  -999.2500  -999.2500  -999.2500
  642.0000  -999.2500    69.9118  -999.2500  -999.2500  -999.2500
  642.5000  -999.2500    73.2053  -999.2500  -999.2500  -999.2500
  643.0000  -999.2500    76.4655  -999.2500  -999.2500  -999.2500
  643.5000  -999.2500    79.7145  -999.2500  -999.2500  -999.2500
  644.0000  -999.2500    83.0026  -999.2500  -999.2500  -999.2500
  644.5000     9.2794    84.2885  -999.2500  -999.2500  -999.2500
  645.0000     9.4666    84.7788     2.2888     0.1542     0.2680
  645.5000     9.6523    85.2429     2.3454     0.1318     0.2989
  646.0000     9.7931    85.3085     2.3871     0.1093     0.3194
  646.5000     9.9914    85.0453     2.4094     0.0913     0.2796
  647.0000    10.5876    84.6688     2.4405     0.0688     0.2374
  647.5000    11.1733    84.2888     2.4704     0.0503     0.1953
  648.0000    11.6364    84.0927     2.4558     0.0611     0.1540
  648.5000    11.6537    84.0892     2.4372     0.0728     0.1291
  649.0000    11.6430    83.8925     2.4232     0.0790     0.1240
  649.5000    11.6309    83.0583     2.4241     0.0795     0.1317
  650.0000    11.6194    82.2595     2.4248     0.0784     0.1409
  650.5000    11.6079    81.4544     2.4234     0.0782     0.1499
  651.0000    11.5964    81.0722     2.4164     0.0821     0.1585
  651.5000    11.5850    81.7416     2.4096     0.0876     0.1617
  652.0000    11.5672    82.5056     2.4024     0.0907     0.1652
  652.5000    11.5641    82.9753     2.3889     0.1003     0.1663
  653.0000    11.6201    83.3369     2.3595     0.1128     0.1490
  653.5000    11.7609    83.6917     2.3161     0.1381     0.1257
  654.0000    11.8069    84.3817     2.2729     0.1635     0.1020
  654.5000    11.7228    85.1890     2.2332     0.1904     0.0875
  655.0000    11.6319    85.9220     2.2220     0.2016     0.1059
  655.5000    11.6126    85.9058     2.2024     0.2123     0.1253
  656.0000    11.6117    85.7923     2.1718     0.2196     0.1456
  656.5000    11.5729    85.6615     2.1948     0.2173     0.1811
  657.0000    11.3793    85.2716     2.2280     0.2024     0.2183
  657.5000    11.1999    84.3073     2.2182     0.1989     0.2357
  658.0000    10.9573    83.2410     2.2319     0.2004     0.1558
  658.5000    10.2563    82.1632     2.2343     0.1987     0.1233
  659.0000    10.0341    81.4518     2.2323     0.1974     0.1177
  659.5000    10.0277    81.0314     2.2562     0.1843     0.1075
  660.0000    10.0074    80.7618     2.2910     0.1615     0.0932
  660.5000     9.8721    81.3797     2.3422     0.1235     0.0674
  661.0000     9.7360    82.0461     2.3826     0.1032     0.0410
  661.5000     9.6007    82.7303     2.4096     0.0878     0.0243
  662.0000     9.4635    82.7742     2.4328     0.0724     0.0353
  662.5000     9.3635    82.5879     2.4336     0.0693     0.0368
  663.0000     9.3290    83.3369     2.4256     0.0766     0.0266
  663.5000     9.3099    84.1407     2.4242     0.0786     0.0228
  664.0000     9.2926    84.9484     2.4289     0.0719     0.0274
  664.5000     9.2567    85.1902     2.4425     0.0653     0.0390
  665.0000     9.2430    84.8931     2.4558     0.0588     0.0508
  665.5000     9.2279    84.7647     2.4425     0.0675     0.0468
  666.0000     9.2130    85.2411     2.4238     0.0778     0.0356
  666.5000     9.1980    85.7078     2.4357     0.0718     0.0473
  667.0000     9.1833    86.7794     2.4490     0.0645     0.0597
  667.5000     9.1826    86.8848     2.4462     0.0636     0.0693
  668.0000     9.1827    86.9781     2.4515     0.0613     0.0756
  668.5000     9.1827    87.0781     2.4306     0.0705     0.0775
  669.0000     9.1827    87.1791     2.4092     0.0814     0.0616
  669.5000     9.1827    87.2810     2.4066     0.0899     0.0681
  670.0000     9.1827    87.3796     2.4021     0.0895     0.0738
  670.5000     9.1827    87.8276     2.3790     0.1084     0.0680
  671.0000     9.1841    88.5038     2.3478     0.1288     0.0683
  671.5000     9.1926    88.6190     2.3117     0.1492     0.0566
  672.0000     9.2010    88.5883     2.3101     0.1517     0.0694
  672.5000     9.2094    89.4208     2.3281     0.1415     0.1160
  673.0000     9.2177    88.5791     2.3489     0.1303     0.1776
  673.5000     9.2386    87.7724     2.3768     0.1098     0.2399
  674.0000     9.2877    87.1083     2.4040     0.0851     0.3022
  674.5000     9.5298    87.3822     2.4081     0.0959     0.3202
  675.0000     9.9056    88.0650     2.3633     0.1122     0.2655
  675.5000    10.2805    88.7345     2.3278     0.1338     0.2288
  676.0000    10.5499    89.4044     2.3184     0.1444     0.2026
  676.5000    10.6303    89.8473     2.3332     0.1343     0.2058
  677.0000    10.4201    90.1035     2.3191     0.1452     0.1821
  677.5000     9.9103    90.3384     2.3479     0.1307     0.1764
  678.0000     9.6253    90.7794     2.3805     0.1087     0.2303
  678.5000     9.4255    90.4642     2.3858     0.1034     0.2114
  679.0000     9.3997    89.9982     2.3879     0.1013     0.1471
  679.5000     9.2716    89.5757     2.4030     0.0918     0.0771
  680.0000     9.1328    90.0921     2.4120     0.0855     0.0411
  680.5000     9.0616    90.6389     2.3973     0.0936     0.0253
  681.0000     9.0600    91.0711     2.3854     0.0996     0.0189
  681.5000     9.0562    91.0078     2.3874     0.1021     0.0216
  682.0000     9.0521    90.7557     2.3908     0.0991     0.0272
  682.5000     9.0479    90.4446     2.3932     0.0984     0.0324
  683.0000     9.0437    90.0300     2.4007     0.0937     0.0385
  683.5000     9.0395    89.5231     2.4044     0.0919     0.0351
  684.0000     9.0353    88.7182     2.4094     0.0831     0.0312
  684.5000     9.0311    87.4936     2.4273     0.0770     0.0452
  685.0000     9.0269    86.5815     2.4295     0.0758     0.0425
  685.5000     9.0227    86.8084     2.4209     0.0810     0.0360
  686.0000     9.0186    87.2619     2.4281     0.0788     0.0310
  686.5000     9.0144    87.2008     2.4296     0.0754     0.0331
  687.0000     9.0102    86.1708     2.4280     0.0760     0.0349
  687.5000     9.0060    85.9354     2.4161     0.0813     0.0294
  688.0000     9.0018    87.4997     2.4265     0.0822     0.0235
  688.5000     8.9976    88.6542     2.4393     0.0694     0.0483
  689.0000     8.9934    88.2142     2.4471     0.0641     0.0568
  689.5000     8.9892    87.2669     2.4353     0.0701     0.0553
  690.0000     8.9850    86.3263     2.4373     0.0697     0.0511
  690.5000     8.9801    85.3913     2.4438     0.0645     0.0543
  691.0000     8.9722    84.7883     2.4518     0.0596     0.0625
  691.5000     8.9644    85.2844     2.4520     0.0608     0.0666
  692.0000     8.9567    85.7660     2.4518     0.0588     0.0697
  692.5000     8.9489    85.5204     2.4368     0.0705     0.0584
  693.0000     8.9412    84.9603     2.4491     0.0649     0.0586
  693.5000     8.9335    84.3883     2.4625     0.0560     0.0762
  694.0000     8.9257    84.1092     2.4662     0.0512     0.0895
  694.5000     8.9180    83.7677     2.4537     0.0584     0.0824
