~VERSION INFORMATION
 VERS.                2.0:   CWLS LOG ASCII STANDARD - VERSION 2.0
 WRAP.                 NO:   ONE LINE PER DEPTH STEP
~WELL INFORMATION
#MNEM.UNIT      DATA TYPE    INFORMATION
#----------   ------------   ------------------------------
 STRT.F           38.0000:   START DEPTH
 STOP.F          483.5000:   STOP DEPTH
 STEP.F            0.5000:   STEP LENGTH
 NULL.          -999.2500:   NO VALUE
 COMP. FENIX & SCISSON INC:   COMPANY
 WELL.    43 SX 10 #43-10:   WELL
 FLD .             TEAPOT:   FIELD
 LOC .      S10 T38N R78W:   LOCATION
 CNTY.            NATRONA:   COUNTY
 STAT.            WYOMING:   STATE
 CTRY. UNITED STATES OF AMERICA:   COUNTRY
 SRVC.            Unknown:   SERVICE COMPANY
 DATE.        12-NOV-1978:   LOGDATE
 API .       490251072700:   API NUMBER
~CURVE INFORMATION
#MNEM.UNIT       API CODE    CURVE DESCRIPTION
#----------   ------------   ------------------------------
 DEPT.F                  :   
 SPR .MV     05 010 01 00:   SPONTANEOUS POTENTIAL FROM RES.
 SN  .OHMM   05 040 16 00:   SHORT NORMAL 16"
 IL  .OHMM   05 120 00 00:   INDUCTION LOG
 GRD .GAPI   45 310 01 00:   GAMMA RAY FROM DENSITY LOG
 CALD.IN     45 280 60 00:   CALIPER
 DEN .G/C3   45 350 01 00:   COMPENSATED BULK DENSTIY
 DPHI.DEC    45 890 12 00:   DENSITY POROSITY SANDSTONE
 CORR.G/C3   45 356 01 00:   DENSITY CORRECTION
~PARAMETER INFORMATION
#MNEM.UNIT          VALUE    DESCRIPTION
#----------   ------------   ------------------------------
 PD  .                 GL:   PERMANENT DATUM
 EPD .F              5193:   ELEVATION PERMANENT DATUM
 LMF .                 KB:   LOG MEASURED FROM
 DAPD.F                 4:   FEET ABOVE PERMANENT DATUM
 DMF .                 KB:   DRILLING MEASURED FROM
 EKB .F              5197:   KELLING BUSHING
 EGL .F              5193:   GROUND LEVEL
 DATE.           11-12-78:   RUN DATE
 RUN .                  1:   RUN NUMBER
 DD  .F               480:   DEPTH DRILLER
 DL  .F               485:   DEPTH LOGGER
 BLI .F               479:   BOTTOM LOG INTERVAL
 TLI .F                50:   TOP LOG INTERVAL
 CS  .IN            8.625:   CASING SIZE
 CBD .F                40:   CASING BOTTOM DRILLER
 CBL .F                45:   CASING BOTTOM LOGGER
 BS  .IN            7.875:   BIT SIZE
 BSD .F               480:   BIT SIZE AT DEPTH
 DFT .            SEA MUD:   DRILLING FLUID TYPE
 DFD .                8.7:   DRILLING FLUID DENSITY
 DFV .                 36:   DRILLING FLUID VISCOSITY
 DFPH.               10.5:   DRILLING FLUID PH
 MSS .            MUD PIT:   MUD SAMPLE SOURCE
 RMS .OHMM            .42:   RESISTIVITY MUD SAMPLE
 MST .F                52:   MUD SAMPLE TEMPERATURE
 RMF .OHMM            .42:   RESISTIVITY MUD FILTRATE SAMPLE
 MFST.F                52:   MUD FILTRATE SAMPLE TEMPERATURE
 RMC .OHMM            .48:   RESISTIVITY MUD CAKE
 MCST.F                54:   MUD CAKE SAMPLE TEMPERATURE
 MFSS.               MEAS:   MUD FILTRATE SAMPLE SOURCE
 MCSS.               MEAS:   MUD CAKE SAMPLE SOURCE
 RMB .OHMM            .34:   RESISTIVITY MUD AT BHT
 BHT .F                71:   BOTTOM HOLE TEMPERATURE
 TCS .HRS               3:   TIME CURCULATED STOPPED
 MRT .F                71:   MAXIMUM RECORDED TEMPERATURE
 LUN .               3006:   LOGGING UNIT NUMBER
 LUL .               CASP:   LOGGING UNIT LOCATION
 ENGI.             MILLER:   RECORDING ENGINEER
 WITN.           DINSMORE:   WITNESSED BY
 CLNT.            A2DTECH:   CLIENT CODE
 ORIG.       2", 5" PRINT:   ORIGIN OF DATA
 UWI .       490251072700:   UNIQUE WELL ID
 DICO. A2D Technologies, Inc.:   DIGITIZING COMPANY
~OTHER INFORMATION
~A   DEPT      SPR         SN         IL         GRD      CALD        DEN       DPHI       CORR   
# ...
  119.0000   -35.9995    10.1766     9.6861    85.7327     8.5064     2.4521     0.1381     0.0689
  119.5000   -36.1526    10.1641     9.6398    85.8313     8.5077     2.4564     0.1343     0.0598
  120.0000   -36.1555    10.1516     9.5937    86.1471     8.5089     2.4527     0.1360     0.0545
  120.5000   -36.1557    10.1391     9.5425    85.3518     8.5102     2.4500     0.1390     0.0546
  121.0000   -36.1554    10.1266     9.4834    84.3008     8.5115     2.4505     0.1400     0.0550
  121.5000   -36.1554    10.1143     9.4246    84.6473     8.5128     2.4509     0.1391     0.0570
  122.0000   -36.1554    10.0037     9.3661    84.9674     8.5138     2.4510     0.1381     0.0591
  122.5000   -36.1560     9.8355     9.3080    85.2938     8.4992     2.4510     0.1376     0.0611
  123.0000   -36.1278     9.6700     9.2503    84.9082     8.4550     2.4509     0.1376     0.0626
  123.5000   -36.0921     9.5074     9.1362    84.3556     8.4110     2.4483     0.1398     0.0624
  124.0000   -36.0562     9.3474     8.9581    86.3609     8.3784     2.4425     0.1418     0.0622
  124.5000   -36.0204     9.1902     8.7826    88.9467     8.4849     2.4447     0.1415     0.0620
  125.0000   -35.9846     9.0355     8.6109    90.5472     8.5764     2.4486     0.1389     0.0618
  125.5000   -35.9526     8.8827     8.4426    88.9525     8.5745     2.4527     0.1360     0.0616
  126.0000   -35.9375     8.7213     8.3301    87.9808     8.5743     2.4543     0.1354     0.0614
  126.5000   -35.9222     8.7239     8.3534    87.0530     8.5743     2.4558     0.1347     0.0612
  127.0000   -35.9068     8.7564     8.3712    87.5945     8.5743     2.4573     0.1338     0.0610
  127.5000   -35.8914     8.8020     8.3889    87.5093     8.5743     2.4588     0.1325     0.0608
  128.0000   -35.8759     8.8478     8.4072    87.3089     8.5743     2.4602     0.1312     0.0606
  128.5000   -35.8605     8.8938     8.4769    87.0947     8.5743     2.4617     0.1304     0.0616
  129.0000   -35.8451     8.9400     8.5491    87.5768     8.5743     2.4634     0.1299     0.0635
  129.5000   -35.8297     8.9865     8.6219    88.1668     8.5710     2.4659     0.1289     0.0655
  130.0000   -35.8143     9.0332     8.6953    88.7608     8.5521     2.4692     0.1271     0.0674
  130.5000   -35.7988     9.0801     8.7694    88.7247     8.4931     2.4732     0.1252     0.0685
  131.0000   -35.7832     9.1273     8.8441    88.7230     8.4340     2.4736     0.1245     0.0681
  131.5000   -35.7682     9.1533     8.9010    89.4541     8.4308     2.4731     0.1246     0.0678
  132.0000   -35.7743     9.1754     8.9357    88.9072     8.5081     2.4726     0.1246     0.0674
  132.5000   -35.8500     9.1975     8.9705    88.3527     8.5732     2.4721     0.1247     0.0671
  133.0000   -35.9227     9.2198     9.0054    89.1279     8.5746     2.4725     0.1248     0.0668
  133.5000   -35.9953     9.2420     9.0509    90.4896     8.5744     2.4743     0.1233     0.0665
  134.0000   -36.0679     9.2644     9.0474    92.4930     8.5743     2.4789     0.1214     0.0650
  134.5000   -36.1405     9.2867     9.0428    92.7031     8.5743     2.4808     0.1196     0.0614
  135.0000   -36.2131     9.3092     9.0382    91.7190     8.5743     2.4776     0.1225     0.0577
  135.5000   -36.2857     9.3317     9.0336    90.5975     8.5743     2.4714     0.1252     0.0564
  136.0000   -36.3583     9.3542     9.0290    90.4494     8.5743     2.4679     0.1279     0.0561
  136.5000   -36.4309     9.3771     9.0243    90.3620     8.5743     2.4683     0.1288     0.0558
  137.0000   -36.5036     9.3907     9.0197    90.2712     8.5743     2.4751     0.1239     0.0555
  137.5000   -36.5767     9.3612     9.0151    90.4549     8.5743     2.4790     0.1200     0.0552
  138.0000   -36.6510     9.3400     9.0105    91.0762     8.5743     2.4671     0.1295     0.0549
  138.5000   -36.7069     9.3188     9.0058    91.1304     8.5743     2.4533     0.1368     0.0545
  139.0000   -36.8214     9.2976     9.0012    89.1957     8.5743     2.4454     0.1435     0.0556
  139.5000   -36.4024     9.2764     8.9966    85.6994     8.5770     2.4416     0.1452     0.0571
  140.0000   -36.0069     9.2554     8.9920    83.2224     8.5848     2.4436     0.1437     0.0587
  140.5000   -35.7537     9.2343     8.9874    80.7781     8.5924     2.4520     0.1388     0.0602
  141.0000   -35.7574     9.2133     8.9828    79.3121     8.6002     2.4605     0.1321     0.0600
  141.5000   -35.7568     9.1924     8.9782    79.3475     8.6078     2.4698     0.1264     0.0592
  142.0000   -35.7570     9.1715     8.9738    80.3824     8.6110     2.4760     0.1230     0.0584
  142.5000   -35.7570     9.1506     8.9690    83.8864     8.5939     2.4801     0.1205     0.0576
  143.0000   -35.7570     9.1298     8.8475    85.7443     8.5771     2.4763     0.1234     0.0569
  143.5000   -35.7570     9.1091     8.6839    86.1613     8.5725     2.4701     0.1263     0.0576
  144.0000   -35.7570     9.0884     8.5234    85.3926     8.5703     2.4690     0.1279     0.0592
  144.5000   -35.7570     9.0677     8.3658    84.5913     8.5681     2.4690     0.1273     0.0609
  145.0000   -35.7570     9.0471     8.3121    84.1107     8.5660     2.4690     0.1268     0.0626
  145.5000   -35.7570     9.0266     8.2887    84.3037     8.5638     2.4690     0.1267     0.0643
  146.0000   -35.7570     9.0060     8.2657    84.7487     8.5617     2.4688     0.1265     0.0633
  146.5000   -35.7570     8.9856     8.2426    85.2002     8.5595     2.4679     0.1268     0.0613
  147.0000   -35.7570     8.9651     8.2196    85.6523     8.5573     2.4671     0.1277     0.0593
  147.5000   -35.7570     8.9448     8.1966    85.9064     8.5556     2.4670     0.1284     0.0572
  148.0000   -35.7570     8.9245     8.1737    85.3476     8.5295     2.4670     0.1284     0.0565
  148.5000   -35.7570     8.9039     8.1509    84.9017     8.4933     2.4667     0.1311     0.0567
  149.0000   -35.7579     8.8870     8.1281    85.5319     8.4567     2.4598     0.1342     0.0605
  149.5000   -35.7630     8.7551     8.1054    86.1538     8.4200     2.4530     0.1373     0.0643
  150.0000   -35.5506     8.6106     7.9628    86.9641     8.3833     2.4467     0.1403     0.0680
  150.5000   -35.3222     8.4674     7.8082    88.4946     8.3442     2.4439     0.1428     0.0711
  151.0000   -35.1435     8.3267     7.6566    90.0023     8.3949     2.4411     0.1440     0.0725
  151.5000   -35.1027     8.1884     7.5079    90.9109     8.4771     2.4409     0.1448     0.0739
  152.0000   -35.0587     8.0524     7.3214    90.9477     8.5163     2.4423     0.1435     0.0774
  152.5000   -35.0154     7.8803     7.3304    90.8509     8.5196     2.4470     0.1416     0.0849
  153.0000   -34.9737     7.8809     7.3430    90.5919     8.4306     2.4555     0.1354     0.0962
  153.5000   -34.7919     7.9265     7.3556    89.9987     8.2600     2.4639     0.1289     0.0934
  154.0000   -34.5646     7.9892     7.3682    88.7798     8.2016     2.4681     0.1269     0.0831
  154.5000   -34.3365     8.0521     7.3808    85.8385     8.2787     2.4657     0.1301     0.0736
  155.0000   -34.1109     8.1155     7.4240    83.6614     8.3749     2.4633     0.1312     0.0647
  155.5000   -33.9619     8.1794     7.5278    82.4636     8.4694     2.4648     0.1312     0.0634
  156.0000   -33.9639     8.2438     7.7038    81.2701     8.5539     2.4669     0.1291     0.0633
  156.5000   -33.9594     8.3088     8.1028    80.5132     8.5549     2.4691     0.1271     0.0664
  157.0000   -34.1596     8.3742     8.0658    83.2345     8.5545     2.4712     0.1255     0.0646
  157.5000   -34.4077     8.4402     8.0168    85.1602     8.5545     2.4734     0.1241     0.0627
  158.0000   -34.5635     8.5066     7.9681    85.8473     8.5545     2.4727     0.1245     0.0609
  158.5000   -34.5615     8.5736     7.9198    86.0869     8.5545     2.4687     0.1286     0.0590
  159.0000   -34.5619     8.6430     7.8717    86.0901     8.5545     2.4661     0.1296     0.0574
