~VERSION INFORMATION
 VERS.                2.0:   CWLS LOG ASCII STANDARD - VERSION 2.0
 WRAP.                 NO:   ONE LINE PER DEPTH STEP
~WELL INFORMATION
#MNEM.UNIT      DATA TYPE    INFORMATION
#----------   ------------   ------------------------------
 STRT.F           20.0000:   START DEPTH
 STOP.F          930.0000:   STOP DEPTH
 STEP.F            0.5000:   STEP LENGTH
 NULL.          -999.2500:   NO VALUE
 COMP. FENIX & SCISSON INC:   COMPANY
 WELL.     NPR 3 #45-S-14:   WELL
 FLD .        TEAPOT DOME:   FIELD
 LOC .      S14 T38N R78W:   LOCATION
 CNTY.            NATRONA:   COUNTY
 STAT.            WYOMING:   STATE
 CTRY. UNITED STATES OF AMERICA:   COUNTRY
 SRVC.           BIRDWELL:   SERVICE COMPANY
 DATE.        02-JAN-1979:   LOGDATE
 API .       490251076200:   API NUMBER
~CURVE INFORMATION
#MNEM.UNIT       API CODE    CURVE DESCRIPTION
#----------   ------------   ------------------------------
 DEPT.F                  :   
 GRD .GAPI   45 310 01 00:   GAMMA RAY FROM DENSITY LOG
 CALD.IN     45 280 60 00:   CALIPER
 RHOB.G/C3   45 350 01 00:   BULK DENSITY
 DPHI.DEC    45 890 12 00:   DENSITY POROSITY SANDSTONE
 CORR.G/C3   45 356 01 00:   DENSITY CORRECTION
~PARAMETER INFORMATION
#MNEM.UNIT          VALUE    DESCRIPTION
#----------   ------------   ------------------------------
 PD  .                 GL:   PERMANENT DATUM
 EPD .F              5261:   ELEVATION PERMANENT DATUM
 LMF .                 KB:   LOG MEASURED FROM
 DAPD.F                 4:   FEET ABOVE PERMANENT DATUM
 DMF .                 KB:   DRILLING MEASURED FROM
 EKB .F              5265:   KELLING BUSHING
 EGL .F              5261:   GROUND LEVEL
 DATE.             1-7-79:   RUN DATE
 RUN .                  1:   RUN NUMBER
 DD  .F               969:   DEPTH DRILLER
 DL  .F               928:   DEPTH LOGGER
 BLI .F               928:   BOTTOM LOG INTERVAL
 TLI .F                20:   TOP LOG INTERVAL
 CS  .IN            8.625:   CASING SIZE
 CBD .F                40:   CASING BOTTOM DRILLER
 CBL .F                46:   CASING BOTTOM LOGGER
 BS  .IN            7.875:   BIT SIZE
 BSD .F               969:   BIT SIZE AT DEPTH
 DFT .                KCL:   DRILLING FLUID TYPE
 DFD .                8.8:   DRILLING FLUID DENSITY
 DFV .                 42:   DRILLING FLUID VISCOSITY
 DFPH.                9.2:   DRILLING FLUID PH
 DFL .                 10:   DRILLING FLUID LOSS
 MSS .           FLOWLINE:   MUD SAMPLE SOURCE
 RMS .OHMM            .95:   RESISTIVITY MUD SAMPLE
 MST .F                60:   MUD SAMPLE TEMPERATURE
 RMF .OHMM            1.7:   RESISTIVITY MUD FILTRATE SAMPLE
 MFST.F                60:   MUD FILTRATE SAMPLE TEMPERATURE
 RMC .OHMM            1.6:   RESISTIVITY MUD CAKE
 MCST.F                60:   MUD CAKE SAMPLE TEMPERATURE
 MFSS.           MEASURED:   MUD FILTRATE SAMPLE SOURCE
 MCSS.           MEASURED:   MUD CAKE SAMPLE SOURCE
 RMB .OHMM            .98:   RESISTIVITY MUD AT BHT
 BHT .F                58:   BOTTOM HOLE TEMPERATURE
 TCS .HRS               4:   TIME CURCULATED STOPPED
 MRT .F                58:   MAXIMUM RECORDED TEMPERATURE
 LUN .               3006:   LOGGING UNIT NUMBER
 LUL .             CASPER:   LOGGING UNIT LOCATION
 ENGI.            ROLLINS:   RECORDING ENGINEER
 WITN.           DINSMORE:   WITNESSED BY
 CLNT.            A2DTECH:   CLIENT CODE
 ORIG.           5" PRINT:   ORIGIN OF DATA
 UWI .       490251076200:   UNIQUE WELL ID
 DICO. A2D Technologies, Inc.:   DIGITIZING COMPANY
~OTHER INFORMATION
~A   DEPT      GRD         CALD     RHOB       DPHI       CORR   
# ...
  447.0000   103.4680     7.8500     2.4440     0.1400     0.0320
  447.5000   102.7390     7.8500     2.4420     0.1420     0.0320
  448.0000   102.4330     7.8500     2.4410     0.1440     0.0330
  448.5000    99.8570     7.8470     2.4390     0.1440     0.0320
  449.0000    99.2810     7.8410     2.4390     0.1430     0.0310
  449.5000    99.3980     7.8350     2.4390     0.1420     0.0300
  450.0000   100.2650     7.8310     2.4390     0.1470     0.0290
  450.5000   101.8940     7.8320     2.4330     0.1570     0.0280
  451.0000   103.0960     7.8340     2.4130     0.1700     0.0290
  451.5000   101.7060     7.8350     2.4030     0.1650     0.0350
  452.0000   101.4610     7.8360     2.4010     0.1590     0.0490
  452.5000   101.2670     7.8380     2.4130     0.1530     0.0680
  453.0000   101.1470     7.8390     2.4270     0.1460     0.0870
  453.5000   103.8040     7.8410     2.4440     0.1370     0.1040
  454.0000   107.5170     7.8420     2.4600     0.1260     0.1110
  454.5000   107.0380     7.8430     2.4690     0.1150     0.1170
  455.0000   100.7490     7.8450     2.4860     0.1040     0.1150
  455.5000    97.2000     7.8460     2.5070     0.0880     0.1130
  456.0000    96.5180     7.8480     2.5260     0.0950     0.1060
  456.5000    96.8660     7.8490     2.5260     0.1090     0.1070
  457.0000    98.3630     7.8500     2.5060     0.1220     0.1020
  457.5000   105.0810     7.8420     2.4790     0.1320     0.0900
  458.0000   111.8900     7.8330     2.4460     0.1410     0.0790
  458.5000   114.0960     7.8150     2.4400     0.1580     0.0710
  459.0000   113.3200     7.7900     2.4190     0.1810     0.0720
  459.5000   107.9290     7.7280     2.3930     0.1780     0.0800
  460.0000   100.9500     7.6550     2.3840     0.1530     0.1230
  460.5000   102.1210     7.7070     2.4000     0.1240     0.1600
  461.0000   105.0500     7.7480     2.4560     0.1110     0.1570
  461.5000   108.0590     7.7340     2.4950     0.1070     0.1400
  462.0000   111.4320     7.7220     2.4960     0.1080     0.1240
  462.5000   112.0110     7.7120     2.4940     0.1120     0.1170
  463.0000   110.0510     7.7820     2.4910     0.1170     0.1270
  463.5000   110.0710     7.8490     2.4830     0.1230     0.1370
  464.0000   110.4610     7.8420     2.4730     0.1340     0.1340
  464.5000   110.8610     7.8320     2.4640     0.1330     0.1380
  465.0000   110.6760     7.8240     2.4620     0.1290     0.1480
  465.5000   109.3630     7.8150     2.4680     0.1230     0.1480
  466.0000   109.3850     7.8040     2.4750     0.1140     0.1470
  466.5000   111.7250     7.7890     2.4820     0.1110     0.1390
  467.0000   112.0720     7.7740     2.4860     0.1170     0.1260
  467.5000   111.7280     7.7590     2.4860     0.1290     0.1020
  468.0000   110.6230     7.7520     2.4750     0.1390     0.0790
  468.5000   109.8660     7.7580     2.4520     0.1460     0.0730
  469.0000   109.7360     7.7640     2.4410     0.1470     0.0720
  469.5000   111.0040     7.7690     2.4400     0.1480     0.0710
  470.0000   112.8530     7.7750     2.4400     0.1410     0.0710
  470.5000   112.7160     7.7810     2.4450     0.1340     0.0700
  471.0000   110.3370     7.7860     2.4510     0.1310     0.0690
  471.5000   104.9790     7.7920     2.4520     0.1330     0.0640
  472.0000   107.0430     7.7980     2.4520     0.1350     0.0530
  472.5000   108.6500     7.8030     2.4510     0.1350     0.0440
  473.0000   105.0590     7.8090     2.4510     0.1340     0.0370
  473.5000   101.0610     7.8100     2.4500     0.1330     0.0310
  474.0000    97.0350     7.8100     2.4500     0.1380     0.0320
  474.5000    95.5310     7.8100     2.4490     0.1420     0.0330
  475.0000    97.6100     7.8100     2.4470     0.1440     0.0340
  475.5000   101.5540     7.8040     2.4460     0.1430     0.0350
  476.0000   102.8960     7.7590     2.4470     0.1420     0.0360
  476.5000   101.5460     7.7130     2.4480     0.1420     0.0370
  477.0000    99.0920     7.6700     2.4490     0.1400     0.0380
  477.5000    98.2240     7.6620     2.4500     0.1380     0.0390
  478.0000    97.4920     7.6540     2.4500     0.1390     0.0380
  478.5000    98.9760     7.6470     2.4510     0.1400     0.0380
  479.0000   103.4840     7.6400     2.4500     0.1390     0.0350
  479.5000   107.6610     7.6320     2.4500     0.1390     0.0310
  480.0000   109.0880     7.6250     2.4510     0.1380     0.0270
  480.5000   109.7280     7.6170     2.4510     0.1390     0.0260
  481.0000   109.1180     7.6100     2.4510     0.1390     0.0260
  481.5000   107.4710     7.6390     2.4510     0.1400     0.0250
  482.0000   105.9510     7.6700     2.4510     0.1390     0.0250
  482.5000   107.3450     7.6410     2.4510     0.1390     0.0240
  483.0000   108.2460     7.6110     2.4500     0.1400     0.0240
  483.5000   107.4990     7.6400     2.4500     0.1410     0.0230
  484.0000   107.3320     7.6630     2.4510     0.1420     0.0230
  484.5000   107.6910     7.5660     2.4500     0.1410     0.0240
  485.0000   108.1200     8.0750     2.4510     0.1410     0.0240
  485.5000   109.5680     7.8320     2.4520     0.1360     0.0250
  486.0000   110.1610     7.8290     2.4560     0.1320     0.0260
  486.5000   109.9150     7.8260     2.4590     0.1280     0.0260
  487.0000   107.4710     7.8220     2.4600     0.1270     0.0270
  487.5000   104.4630     7.8190     2.4610     0.1310     0.0270
  488.0000   106.3680     7.8160     2.4560     0.1370     0.0280
  488.5000   109.9490     7.8120     2.4530     0.1410     0.0280
  489.0000   113.0850     7.8090     2.4510     0.1410     0.0290
  489.5000   112.8930     7.8060     2.4520     0.1380     0.0320
  490.0000   112.4380     7.8030     2.4530     0.1300     0.0370
  490.5000   111.1080     7.8000     2.4570     0.1270     0.0430
  491.0000   109.0050     7.7970     2.4600     0.1270     0.0450
  491.5000   106.9370     7.7940     2.4610     0.1330     0.0450
  492.0000   106.7260     7.7900     2.4610     0.1400     0.0390
  492.5000   109.4790     7.7740     2.4560     0.1500     0.0340
  493.0000   109.8510     7.7570     2.4350     0.1600     0.0290
  493.5000   110.3640     7.7400     2.4120     0.1710     0.0310
  494.0000   112.0660     7.7670     2.3910     0.1790     0.0470
  494.5000   112.6180     7.8140     2.3850     0.1720     0.0750
  495.0000   110.5970     7.8200     2.3930     0.1430     0.1190
  495.5000   108.9610     7.8280     2.4200     0.1310     0.1560
  496.0000   110.2950     7.8320     2.4520     0.1250     0.1530
  496.5000   113.8400     7.8340     2.4670     0.1230     0.1510
  497.0000   115.3180     7.8370     2.4700     0.1220     0.1490
  497.5000   116.4730     7.8390     2.4700     0.1250     0.1470
  498.0000   119.0560     7.8420     2.4700     0.1290     0.1450
  498.5000   123.1420     7.8440     2.4700     0.1310     0.1460
  499.0000   123.9980     7.8470     2.4690     0.1290     0.1470
  499.5000   122.6090     7.8500     2.4680     0.1250     0.1520
  500.0000   115.8550     7.8490     2.4750     0.1180     0.1600
  500.5000   113.0730     7.8460     2.4850     0.1110     0.1690
  501.0000   110.3530     7.8430     2.4940     0.1040     0.1680
  501.5000   107.4780     7.8400     2.4970     0.1070     0.1630
  502.0000   104.5140     7.8380     2.4950     0.1120     0.1580
  502.5000   101.7000     7.8350     2.4910     0.1160     0.1520
  503.0000   100.5990     7.8320     2.4840     0.1180     0.1470
  503.5000   100.8350     7.8170     2.4790     0.1210     0.1420
  504.0000   102.8910     7.7640     2.4740     0.1250     0.1360
  504.5000   106.5550     7.7120     2.4700     0.1270     0.1300
  505.0000   107.1470     7.6850     2.4700     0.1260     0.1280
  505.5000   101.9590     7.6770     2.4700     0.1260     0.1270
  506.0000    97.7260     7.6690     2.4700     0.1260     0.1250
  506.5000    99.4920     7.6600     2.4700     0.1300     0.1270
  507.0000   102.0180     7.6520     2.4700     0.1260     0.1300
  507.5000   104.7380     7.6610     2.4700     0.1190     0.1330
