~VERSION INFORMATION
 VERS.                2.0:   CWLS LOG ASCII STANDARD - VERSION 2.0
 WRAP.                 NO:   ONE LINE PER DEPTH STEP
~WELL INFORMATION
#MNEM.UNIT      DATA TYPE    INFORMATION
#----------   ------------   ------------------------------
 STRT.F            2.0000:   START DEPTH
 STOP.F          602.0000:   STOP DEPTH
 STEP.F            0.1000:   STEP LENGTH
 NULL.          -999.2500:   NO VALUE
 COMP.       F D SERV INC:   COMPANY
 WELL.    63-1 SX-3 #63-3:   WELL
 FLD .             TEAPOT:   FIELD
 LOC .       S3 T38N R78W:   LOCATION
 CNTY.            NATRONA:   COUNTY
 STAT.            WYOMING:   STATE
 CTRY. UNITED STATES OF AMERICA:   COUNTRY
 SRVC.     Atlas Wireline:   SERVICE COMPANY
 DATE.        20-APR-1992:   LOGDATE
 API .       490252251300:   API NUMBER
~CURVE INFORMATION
#MNEM.UNIT       API CODE    CURVE DESCRIPTION
#----------   ------------   ------------------------------
 DEPT.F                  :   
 GRR .GAPI   07 310 01 00:   GAMMA RAY
 RILD.OHMM   07 120 46 00:   INDUCTION LOG DEEP RESISTIVITY
 RILM.OHMM   07 120 44 00:   INDUCTION LOG MEDIUM RESISTIVITY
~PARAMETER INFORMATION
#MNEM.UNIT          VALUE    DESCRIPTION
#----------   ------------   ------------------------------
 PD  .                 GL:   PERMANENT DATUM
 EPD .F              5176:   ELEVATION PERMANENT DATUM
 LMF .                 KB:   LOG MEASURED FROM
 DAPD.F                 5:   FEET ABOVE PERMANENT DATUM
 DMF .                 KB:   DRILLING MEASURED FROM
 EKB .F              5181:   KELLING BUSHING
 EDF .F              5180:   DRILLING FLOOR
 EGL .F              5176:   GROUND LEVEL
 DATE.        20-APR-1992:   RUN DATE
 RUN .                  1:   RUN NUMBER
 DD  .F               608:   DEPTH DRILLER
 DL  .F               608:   DEPTH LOGGER
 BLI .F               602:   BOTTOM LOG INTERVAL
 CS  .IN            8.625:   CASING SIZE
 CBD .F                48:   CASING BOTTOM DRILLER
 CBL .F                50:   CASING BOTTOM LOGGER
 BS  .IN            7.875:   BIT SIZE
 BSD .F               608:   BIT SIZE AT DEPTH
 DFT .                AIR:   DRILLING FLUID TYPE
 TCS .HRS               2:   TIME CURCULATED STOPPED
 MRT .F                85:   MAXIMUM RECORDED TEMPERATURE
 LUN .           HL- 6274:   LOGGING UNIT NUMBER
 LUL .             CASPER:   LOGGING UNIT LOCATION
 ENGI.             RAUTIO:   RECORDING ENGINEER
 WITN.        GARY STRONG:   WITNESSED BY
 CLNT.            A2DTECH:   CLIENT CODE
 ORIG.           5" PRINT:   ORIGIN OF DATA
 UWI .       490252251300:   UNIQUE WELL ID
 DICO. A2D Technologies, Inc.:   DIGITIZING COMPANY
~OTHER INFORMATION
~A    DEPT      GRR      RILD       RILM   
# ...
  220.4000   117.1692     7.8116     7.7639
  220.5000   117.2911     7.8400     7.7651
  220.6000   117.2219     7.8463     7.8181
  220.7000   116.9768     7.8948     7.8542
  220.8000   116.6916     7.8947     7.8728
  220.9000   116.6926     7.8946     7.8726
  221.0000   116.5430     7.8945     7.8788
  221.1000   116.2023     7.8944     7.9276
  221.2000   115.5904     7.8943     7.9275
  221.3000   114.2842     7.8941     7.9589
  221.4000   113.3605     7.8940     7.9829
  221.5000   112.0241     7.8940     7.9828
  221.6000   110.7885     7.8938     7.9826
  221.7000   109.8044     7.8937     7.9825
  221.8000   108.8401     7.8936     7.9824
  221.9000   108.2584     7.8935     7.9823
  222.0000   107.6561     7.8934     7.9822
  222.1000   107.2099     7.8933     7.9821
  222.2000   107.2361     7.8932     7.9820
  222.3000   107.8006     7.8931     7.9819
  222.4000   108.8677     7.8929     7.9817
  222.5000   109.3213     7.8928     7.9817
  222.6000   110.1569     7.8927     7.9704
  222.7000   110.9123     7.8926     7.9258
  222.8000   111.5271     7.9003     7.9257
  222.9000   112.5133     7.9478     7.9256
  223.0000   113.5003     7.9476     7.9255
  223.1000   114.2906     7.9143     7.9254
  223.2000   115.0309     7.8921     7.9314
  223.3000   115.6858     7.8920     7.9807
  223.4000   116.2096     7.8951     7.9806
  223.5000   117.0258     7.9471     7.9805
  223.6000   117.6902     7.9858     7.9804
  223.7000   118.2647     8.0026     7.9803
  223.8000   118.7589     8.0213     7.9802
  223.9000   119.3083     8.0673     7.9801
  224.0000   120.0483     8.1150     7.9800
  224.1000   120.2957     8.1149     7.9799
  224.2000   120.3523     8.1148     7.9797
  224.3000   120.3536     8.1393     7.9796
  224.4000   120.3548     8.1715     7.9795
  224.5000   120.3308     8.1754     7.9794
  224.6000   120.0557     8.2286     7.9793
  224.7000   119.8405     8.2285     7.9792
  224.8000   119.4344     8.2284     7.9791
  224.9000   119.1541     8.2283     7.9790
  225.0000   119.0548     8.2282     7.9788
  225.1000   118.5533     8.2281     8.0151
  225.2000   118.5544     8.3212     8.0610
  225.3000   118.1835     8.3437     8.0908
  225.4000   117.6920     8.3436     8.1027
  225.5000   117.2006     8.3435     8.2044
  225.6000   116.7089     8.3482     8.2043
  225.7000   116.1474     8.4018     8.2364
  225.8000   115.5148     8.4017     8.2835
  225.9000   114.9329     8.4335     8.3195
  226.0000   114.5420     8.4604     8.3201
  226.1000   114.3419     8.4709     8.3677
  226.2000   114.3433     8.5196     8.4155
  226.3000   114.5808     8.5684     8.4637
  226.4000   114.8283     8.5791     8.5122
  226.5000   115.2016     8.5790     8.5608
  226.6000   115.8365     8.5955     8.6144
  226.7000   116.7927     8.6448     8.6590
  226.8000   117.3673     8.6995     8.7426
  226.9000   117.3683     8.6994     8.7966
  227.0000   117.2187     8.7670     8.7965
  227.1000   117.0691     8.8216     8.7963
  227.2000   117.0703     8.8215     8.7962
  227.3000   117.0716     8.8221     8.7961
  227.4000   117.0727     8.8727     8.7960
  227.5000   117.0739     8.8831     8.8133
  227.6000   116.9544     8.8829     8.8574
  227.7000   116.7746     8.9007     8.8573
  227.8000   116.7759     8.9450     8.9029
  227.9000   116.7773     8.9449     8.9191
  228.0000   117.1805     8.9448     8.9190
  228.1000   117.6744     8.9093     8.9189
  228.2000   118.1682     8.8583     8.9194
  228.3000   118.6623     8.8202     8.9704
  228.4000   119.1965     8.8171     8.9811
  228.5000   119.6501     8.6974     9.0101
  228.6000   120.4857     8.6973     9.0438
  228.7000   121.2411     8.6972     9.0437
  228.8000   121.7352     8.6788     9.0435
  228.9000   122.2289     8.6290     8.9971
  229.0000   122.7230     8.5760     8.9457
  229.1000   123.0208     8.5759     8.9176
  229.2000   123.2683     8.5758     8.9057
  229.3000   123.6013     8.5282     8.8548
  229.4000   124.0651     8.4564     8.8043
  229.5000   124.3380     8.4541     8.7934
  229.6000   124.5602     8.3972     8.7933
  229.7000   124.8078     8.3576     8.7590
  229.8000   125.0555     8.3385     8.6710
  229.9000   125.2477     8.3384     8.6708
  230.0000   125.2489     8.3383     8.5825
  230.1000   125.4963     8.3381     8.5503
  230.2000   125.7439     8.3380     8.5281
  230.3000   125.7200     8.3035     8.4794
  230.4000   125.4749     8.2797     8.4312
  230.5000   125.2548     8.2796     8.4311
  230.6000   125.2563     8.2766     8.3933
  230.7000   124.8249     8.2216     8.3454
  230.8000   124.3333     8.2215     8.3138
  230.9000   123.7362     8.2214     8.3137
  231.0000   123.0991     8.2213     8.3135
  231.1000   122.8489     8.2212     8.3134
  231.2000   122.8501     8.2211     8.3133
  231.3000   122.8513     8.2209     8.3132
  231.4000   122.8524     8.2557     8.3131
  231.5000   122.7783     8.3030     8.3130
  231.6000   122.5330     8.3364     8.3128
  231.7000   122.2530     8.3363     8.3127
  231.8000   122.2540     8.3361     8.3126
  231.9000   122.2552     8.3360     8.3125
  232.0000   122.2564     8.3359     8.3124
  232.1000   122.2576     8.3358     8.3122
  232.2000   122.2589     8.3357     8.3121
  232.3000   122.2600     8.3356     8.3120
  232.4000   122.2612     8.2891     8.3119
  232.5000   122.1367     8.2772     8.3118
  232.6000   121.9620     8.2772     8.3117
  232.7000   121.9481     8.2623     8.3115
  232.8000   121.6629     8.2192     8.3114
  232.9000   121.6639     8.2191     8.3113
  233.0000   121.5143     8.2190     8.3112
  233.1000   121.2691     8.2189     8.3111
  233.2000   120.9840     8.2188     8.3110
  233.3000   120.4622     8.2187     8.2687
  233.4000   120.4633     8.2185     8.2215
  233.5000   120.1126     8.2184     8.1953
  233.6000   119.5005     8.2183     8.1952
  233.7000   118.7627     8.2182     8.1951
  233.8000   118.0548     8.2181     8.1949
  233.9000   118.6596     8.2180     8.1948
  234.0000   119.8673     8.2178     8.1947
  234.1000   121.0549     8.2177     8.1946
  234.2000   122.0414     8.2176     8.1945
  234.3000   122.9931     8.2175     8.1944
  234.4000   123.7938     8.2174     8.1943
  234.5000   124.2474     8.2173     8.1941
  234.6000   124.5703     8.2171     8.1940
  234.7000   124.7023     8.2170     8.1939
  234.8000   124.6432     8.2170     8.1938
  234.9000   124.3981     8.2168     8.1937
  235.0000   124.1528     8.2167     8.1936
  235.1000   123.5157     8.2166     8.1935
  235.2000   123.0593     8.2165     8.1933
  235.3000   122.7287     8.2486     8.1932
  235.4000   122.2674     8.2739     8.1931
  235.5000   121.9971     8.2738     8.1930
  235.6000   123.1038     8.2737     8.1929
  235.7000   124.5029     8.2735     8.1723
  235.8000   125.3188     8.2734     8.1356
  235.9000   125.3755     8.2733     8.1355
  236.0000   125.6229     8.2732     8.1353
  236.1000   125.3778     8.2666     8.1352
  236.2000   125.3237     8.2153     8.1352
  236.3000   125.3249     8.2152     8.1350
  236.4000   125.3261     8.2151     8.1397
  236.5000   125.3273     8.2150     8.1918
  236.6000   125.3287     8.2149     8.1917
  236.7000   125.1135     8.2132     8.1916
  236.8000   124.8683     8.1574     8.1915
  236.9000   124.7288     8.1573     8.1914
  237.0000   124.6295     8.1572     8.1913
  237.1000   124.1279     8.1570     8.1911
  237.2000   124.1291     8.1498     8.1552
  237.3000   123.7582     8.1000     8.1339
  237.4000   123.2667     8.0998     8.1187
  237.5000   122.6999     8.0997     8.0770
  237.6000   121.9213     8.0996     8.0769
  237.7000   120.5154     8.0995     8.0768
  237.8000   119.4604     8.0994     8.0767
  237.9000   119.9446     8.0993     8.0566
  238.0000   120.9211     8.0992     8.0299
  238.1000   121.2140     8.0991     8.0763
  238.2000   121.7280     8.0990     8.0762
  238.3000   121.7291     8.0911     8.0761
  238.4000   121.7303     8.0423     8.0760
  238.5000   121.6058     8.0421     8.0759
