~VERSION INFORMATION
 VERS.                2.0:   CWLS LOG ASCII STANDARD - VERSION 2.0
 WRAP.                 NO:   ONE LINE PER DEPTH STEP
~WELL INFORMATION
#MNEM.UNIT      DATA TYPE    INFORMATION
#----------   ------------   ------------------------------
 STRT.F           30.0000:   START DEPTH
 STOP.F          770.5000:   STOP DEPTH
 STEP.F            0.5000:   STEP LENGTH
 NULL.          -999.2500:   NO VALUE
 COMP. FENIX & SCISSON INC:   COMPANY
 WELL. TEAPOT DOME 63 SX 34 #63-34:   WELL
 FLD .             TEAPOT:   FIELD
 LOC .      S34 T39N R78W:   LOCATION
 CNTY.            NATRONA:   COUNTY
 STAT.            WYOMING:   STATE
 CTRY. UNITED STATES OF AMERICA:   COUNTRY
 SRVC.           BIRDWELL:   SERVICE COMPANY
 DATE.        18-AUG-1978:   LOGDATE
 API .       490251070300:   API NUMBER
~CURVE INFORMATION
#MNEM.UNIT       API CODE    CURVE DESCRIPTION
#----------   ------------   ------------------------------
 DEPT.F                  :   
 SPR .MV     05 010 01 00:   SPONTANEOUS POTENTIAL
 SN  .OHMM   05 040 16 00:   SHORT NORMAL 16'
 ILD .OHMM   05 120 46 00:   INDUCTION LOG DEEP RESISTIVITY
 CALD.IN     45 280 60 00:   CALIPER
 GRD .GAPI   45 310 01 00:   GAMMA RAY FROM DENSITY LOG
 RHOB.G/C3   45 350 01 00:   BULK DENSITY
 DPHI.DEC    45 890 12 00:   DENSITY POROSITY SANDSTONE
 CORR.G/C3   45 356 01 00:   DENSITY CORRECTION
~PARAMETER INFORMATION
#MNEM.UNIT          VALUE    DESCRIPTION
#----------   ------------   ------------------------------
 PD  .                 GL:   PERMANENT DATUM
 EPD .F              5063:   ELEVATION PERMANENT DATUM
 LMF .                 KB:   LOG MEASURED FROM
 DAPD.F                 4:   FEET ABOVE PERMANENT DATUM
 DMF .                 KB:   DRILLING MEASURED FROM
 EKB .F              5067:   KELLING BUSHING
 EGL .F              5063:   GROUND LEVEL
 DATE.          8-18-1978:   RUN DATE
 RUN .                  1:   RUN NUMBER
 DD  .F               760:   DEPTH DRILLER
 DL  .F               770:   DEPTH LOGGER
 BLI .F               763:   BOTTOM LOG INTERVAL
 TLI .F                40:   TOP LOG INTERVAL
 CS  .IN            8.625:   CASING SIZE
 CBD .F                40:   CASING BOTTOM DRILLER
 CBL .F                40:   CASING BOTTOM LOGGER
 BS  .IN            7.875:   BIT SIZE
 BSD .F               760:   BIT SIZE AT DEPTH
 DFT .            MUD KCL:   DRILLING FLUID TYPE
 DFL .               10.6:   DRILLING FLUID LOSS
 MSS .          FLOW LINE:   MUD SAMPLE SOURCE
 RMS .OHMM             .2:   RESISTIVITY MUD SAMPLE
 MST .F                56:   MUD SAMPLE TEMPERATURE
 RMF .OHMM             .2:   RESISTIVITY MUD FILTRATE SAMPLE
 MFST.F                64:   MUD FILTRATE SAMPLE TEMPERATURE
 RMC .OHMM            .36:   RESISTIVITY MUD CAKE
 MCST.F                64:   MUD CAKE SAMPLE TEMPERATURE
 MFSS.               MEAS:   MUD FILTRATE SAMPLE SOURCE
 MCSS.               MEAS:   MUD CAKE SAMPLE SOURCE
 TCS .HRS               3:   TIME CURCULATED STOPPED
 MRT .F                72:   MAXIMUM RECORDED TEMPERATURE
 LUN .               3006:   LOGGING UNIT NUMBER
 LUL .               CASP:   LOGGING UNIT LOCATION
 ENGI.           REYNOLDS:   RECORDING ENGINEER
 WITN.              AMEND:   WITNESSED BY
 CLNT.            A2DTECH:   CLIENT CODE
 ORIG.           5" PRINT:   ORIGIN OF DATA
 UWI .       490251070300:   UNIQUE WELL ID
 DICO. A2D Technologies, Inc.:   DIGITIZING COMPANY
~OTHER INFORMATION
~A   DEPT      SPR         SN        ILD       CALD         GRD      RHOB       DPHI       CORR   
# ...
  475.5000   -77.2288     6.4002     4.8335     7.1213    94.0643     2.4623     0.1269     0.0178
  476.0000   -77.3528     6.4807     4.8190     7.1227    92.8856     2.4598     0.1218     0.0187
  476.5000   -77.4428     6.5464     4.7459     7.1240    91.4732     2.4640     0.1158     0.0196
  477.0000   -77.5356     6.5464     4.7021     7.1253    91.3359     2.4679     0.1218     0.0205
  477.5000   -77.6295     6.5464     4.7073     7.1267    91.8741     2.4636     0.1333     0.0215
  478.0000   -77.7227     6.5464     4.7208     7.1278    92.8738     2.4472     0.1357     0.0239
  478.5000   -77.8187     6.5465     4.7344     7.1285    92.9452     2.4404     0.1450     0.0264
  479.0000   -77.7295     6.5465     4.7455     7.1333    93.7411     2.4241     0.1575     0.0337
  479.5000   -77.5186     6.5454     4.6393     7.1599    96.0664     2.4031     0.1604     0.0493
  480.0000   -77.3059     6.5475     4.5514     7.2593    98.2523     2.4121     0.1550     0.0425
  480.5000   -77.0929     6.2988     4.4228     7.6527   100.4267     2.4231     0.1419     0.0558
  481.0000   -76.8801     6.1248     4.2861     7.2006   101.4250     2.4170     0.1365     0.0859
  481.5000   -76.6674     5.9557     4.1537     7.1211    99.0300     2.4337     0.1509     0.0006
  482.0000   -76.4546     5.7915     4.0218     7.1297    93.4984     2.4040     0.1404     0.0594
  482.5000   -76.2415     5.6317     3.9982     7.1303    88.0880     2.4505     0.1433     0.0251
  483.0000   -76.0289     5.4764     3.9677     7.1300    80.8066     2.4311     0.1388     0.0031
  483.5000   -75.8341     5.3254     3.9375     7.1300    82.6279     2.4432     0.1306     0.0114
  484.0000   -75.7541     5.2024     3.9124     7.1304    88.3178     2.4547     0.1226     0.0195
  484.5000   -75.6711     5.2865     4.0580     7.1144    93.3049     2.4614     0.1210     0.0199
  485.0000   -75.5878     5.3988     4.1874     7.0923    93.0216     2.4625     0.1202     0.0235
  485.5000   -75.5053     5.5135     4.3209     7.0700    90.7065     2.4687     0.1163     0.0291
  486.0000   -75.4501     5.6307     4.4713     7.0477    88.7333     2.4750     0.1112     0.0347
  486.5000   -75.4510     5.7559     4.6506     7.0256    88.5082     2.4814     0.1062     0.0404
  487.0000   -75.4509     5.9216     4.8371     7.0093    88.9566     2.4877     0.1034     0.0457
  487.5000   -75.4509     6.1004     5.0310     7.0114    89.3957     2.4940     0.1022     0.0441
  488.0000   -75.4509     6.2846     5.2024     7.0447    89.4809     2.4967     0.1069     0.0422
  488.5000   -75.4509     6.4744     5.2132     7.0768    87.8542     2.4889     0.1128     0.0403
  489.0000   -75.4509     6.6699     5.2332     7.1086    86.0033     2.4795     0.1186     0.0399
  489.5000   -75.4509     6.8714     5.2507     7.1414    86.0441     2.4700     0.1245     0.0399
  490.0000   -75.4509     7.1766     5.2504     7.1491    90.6380     2.4605     0.1273     0.0406
  490.5000   -75.4509     7.1393     5.2505     7.1480    94.2490     2.4556     0.1248     0.0448
  491.0000   -75.4509     7.0651     5.2509     7.1466    96.0746     2.4586     0.1214     0.0490
  491.5000   -75.4509     6.9932     5.2486     7.1452    92.3462     2.4615     0.1236     0.0494
  492.0000   -75.4511     6.9176     5.2044     7.1438    90.5222     2.4603     0.1249     0.0487
  492.5000   -75.4514     6.8284     5.1404     7.1424    89.7138     2.4587     0.1226     0.0483
  493.0000   -75.4494     6.7340     5.0569     7.1410    89.4999     2.4627     0.1194     0.0408
  493.5000   -75.3329     6.6408     4.9687     7.1397    89.4985     2.4642     0.1271     0.0316
  494.0000   -74.9535     6.5490     4.8455     7.1383    89.5851     2.4458     0.1410     0.0225
  494.5000   -74.5783     6.4584     4.7159     7.1369    90.5880     2.4258     0.1537     0.0250
  495.0000   -74.2044     6.3691     4.5894     7.1355    91.9403     2.4171     0.1456     0.0341
  495.5000   -73.8278     6.2811     4.4679     7.1342    92.9282     2.4288     0.1346     0.0416
  496.0000   -73.6506     6.1942     4.4090     7.1328    92.9324     2.4449     0.1237     0.0400
  496.5000   -73.6473     6.1086     4.4544     7.1314    92.6065     2.4612     0.1128     0.0430
  497.0000   -73.6470     6.0241     4.4955     7.1300    90.3287     2.4774     0.1093     0.0458
  497.5000   -73.6473     5.9168     4.5369     7.1287    85.3368     2.4891     0.1125     0.0357
  498.0000   -73.6473     6.0139     4.5787     7.1273    85.3251     2.4809     0.1168     0.0257
  498.5000   -73.6473     6.1534     4.6209     7.1259    91.8465     2.4640     0.1206     0.0230
  499.0000   -73.6473     6.2876     4.6900     7.1245    95.8651     2.4606     0.1212     0.0203
  499.5000   -73.6471     6.4749     4.9975     7.1231    96.0607     2.4612     0.1210     0.0177
  500.0000   -73.6473     6.6678     5.3252     7.1218    95.4604     2.4621     0.1218     0.0150
  500.5000   -73.6495     6.8665     5.4973     7.1204    94.7338     2.4623     0.1244     0.0124
  501.0000   -73.7680     7.0710     5.4876     7.1190    94.0070     2.4578     0.1247     0.0100
  501.5000   -74.0121     7.2017     5.4801     7.1176    93.2840     2.4564     0.1212     0.0092
  502.0000   -74.2545     7.2527     5.4727     7.1163    92.5621     2.4646     0.1194     0.0083
  502.5000   -74.4979     7.3041     5.4652     7.1149    91.9035     2.4639     0.1227     0.0075
  503.0000   -74.7412     7.3098     5.4578     7.1135    91.8673     2.4607     0.1266     0.0066
  503.5000   -74.9855     7.3098     5.4504     7.1121    92.1363     2.4574     0.1285     0.0065
  504.0000   -75.2313     7.3098     5.4429     7.1108    93.1524     2.4593     0.1228     0.0087
  504.5000   -75.4302     7.3098     5.4355     7.1125    94.2128     2.4624     0.1210     0.0109
  505.0000   -75.0604     7.3098     5.4281     7.1179    93.8265     2.4656     0.1197     0.0131
  505.5000   -74.6938     7.3098     5.4207     7.1233    92.8465     2.4665     0.1184     0.0153
  506.0000   -74.6365     7.3098     5.4134     7.1287    92.0782     2.4646     0.1169     0.0155
  506.5000   -74.5848     7.3098     5.4060     7.1340    93.7885     2.4634     0.1155     0.0149
  507.0000   -74.5351     7.3098     5.3986     7.1394    95.7650     2.4695     0.1174     0.0144
  507.5000   -74.4846     7.3098     5.3913     7.1448    96.9286     2.4683     0.1218     0.0169
  508.0000   -74.4539     7.3099     5.3839     7.1500    95.8038     2.4648     0.1145     0.0236
  508.5000   -74.5813     7.3093     5.3766     7.1540    94.5371     2.4731     0.1078     0.0298
  509.0000   -74.7073     7.3112     5.3693     7.1578    94.0609     2.4806     0.1086     0.0301
  509.5000   -74.8329     7.2370     5.3620     7.1616    95.2495     2.4806     0.1185     0.0261
  510.0000   -74.9583     7.1800     5.3547     7.1655    96.6242     2.4667     0.1299     0.0215
  510.5000   -75.0453     7.1235     5.3478     7.1700    98.0062     2.4477     0.1414     0.0166
  511.0000   -74.8873     7.0674     5.1510     7.1500    99.2469     2.4285     0.1562     0.0200
  511.5000   -74.7309     7.0117     4.9716     7.1251    99.7823     2.4090     0.1513     0.0250
  512.0000   -74.5755     6.8813     4.7981     7.1271   100.3472     2.4220     0.1478     0.0260
  512.5000   -74.4204     6.6652     4.6314     7.2408   100.8745     2.4226     0.1384     0.0235
  513.0000   -74.2652     6.4558     4.5742     7.5468   100.7500     2.4401     0.1245     0.0204
  513.5000   -74.1100     6.2531     4.5742     7.0459    99.0686     2.4630     0.1521     0.0163
  514.0000   -73.9549     6.0567     4.5742     7.0550    96.4023     2.4340     0.1539     0.0168
  514.5000   -73.7997     6.0266     4.5742     7.0592    93.7397     2.4075     0.1592     0.0177
  515.0000   -73.6444     6.1173     4.5742     7.0620    93.4890     2.3996     0.1645     0.0185
  515.5000   -73.4893     6.1810     4.5749     7.0675    93.6326     2.3915     0.1696     0.0194
