~VERSION INFORMATION
 VERS.                2.0:   CWLS LOG ASCII STANDARD - VERSION 2.0
 WRAP.                 NO:   ONE LINE PER DEPTH STEP
~WELL INFORMATION
#MNEM.UNIT      DATA TYPE    INFORMATION
#----------   ------------   ------------------------------
 STRT.F         1304.0000:   START DEPTH
 STOP.F         2900.0000:   STOP DEPTH
 STEP.F            0.5000:   STEP LENGTH
 NULL.          -999.2500:   NO VALUE
 COMP.   FLUOR DANIEL INC:   COMPANY
 WELL. NAVAL PETROLEUM RESERVE 3 SHX- #18-14:   WELL
 FLD .             TEAPOT:   FIELD
 LOC .      S14 T38N R78W:   LOCATION
 CNTY.            NATRONA:   COUNTY
 STAT.            WYOMING:   STATE
 CTRY. UNITED STATES OF AMERICA:   COUNTRY
 SRVC.            Unknown:   SERVICE COMPANY
 DATE.        17-APR-1995:   LOGDATE
 API .       490252270800:   API NUMBER
~CURVE INFORMATION
#MNEM.UNIT       API CODE    CURVE DESCRIPTION
#----------   ------------   ------------------------------
 DEPT.F                  :   
 ROP .FT/HR  91 810 01 00:   RAT OF DRILLING PENETRATION
 TGAS.TC/CC  91 830 01 00:   TOTAL GAS UNIT
~PARAMETER INFORMATION
#MNEM.UNIT          VALUE    DESCRIPTION
#----------   ------------   ------------------------------
 EKB .F              5271:   KELLING BUSHING
 EGL .F              5281:   GROUND LEVEL
 DATE.        17-APR-1995:   RUN DATE
 RUN .                  1:   RUN NUMBER
 BLI .F              2900:   BOTTOM LOG INTERVAL
 TLI .F              1310:   TOP LOG INTERVAL
 WITN.     C.TOWER/R.HUSK:   WITNESSED BY
 CLNT.            A2DTECH:   CLIENT CODE
 ORIG.           5" PRINT:   ORIGIN OF DATA
 UWI .       490252270800:   UNIQUE WELL ID
 DICO. A2D Technologies, Inc.:   DIGITIZING COMPANY
~OTHER INFORMATION
~A  DEPT         ROP     TGAS   
# ...
 1790.0000     0.8889    52.2267
 1790.5000     0.8899    52.4172
 1791.0000     0.8911    52.4191
 1791.5000     0.8922    52.2318
 1792.0000     0.8933    52.0449
 1792.5000     0.8944    52.0472
 1793.0000     0.8955    52.2377
 1793.5000     0.8966    52.0509
 1794.0000     0.8977    52.2415
 1794.5000     0.8988    52.0546
 1795.0000     0.8999    52.2456
 1795.5000     0.9010    52.2474
 1796.0000     0.6192    52.2493
 1796.5000     0.6195    52.2511
 1797.0000     0.6198    52.2529
 1797.5000     0.6201    52.2548
 1798.0000     0.6204    52.2566
 1798.5000     0.6207    52.2585
 1799.0000     0.6209    52.2604
 1799.5000     0.6212    52.2626
 1800.0000     0.6219    52.4527
 1800.5000     0.6250    52.4157
 1801.0000     0.6280    52.3816
 1801.5000     0.6310    52.3474
 1802.0000     0.6341    52.3132
 1802.5000     0.6371    52.2790
 1803.0000     0.6402    52.2449
 1803.5000     0.6432    52.4132
 1804.0000     0.6462    52.4075
 1804.5000     0.6497    52.4019
 1805.0000     0.6520    52.3952
 1805.5000     0.6546    52.3897
 1806.0000     0.6573    52.7629
 1806.5000     0.6599    52.7560
 1807.0000     0.6626    52.7504
 1807.5000     0.6652    52.7449
 1808.0000     0.6679    52.7394
 1808.5000     0.6548    52.7339
 1809.0000     0.6401    52.7259
 1809.5000     0.6392    52.1566
 1810.0000     0.6384    51.5838
 1810.5000     0.6375    50.8236
 1811.0000     0.6366    50.6293
 1811.5000     0.6357    50.4351
 1812.0000     0.6349    50.4296
 1812.5000     0.6340    50.4241
 1813.0000     0.6331    50.2299
 1813.5000     0.6322    50.1968
 1814.0000     0.6314    50.0301
 1814.5000     0.6305    50.0245
 1815.0000     0.6296    50.0439
 1815.5000     0.6287    50.2022
 1816.0000     0.6278    50.0066
 1816.5000     0.6270    50.0011
 1817.0000     0.6261    49.9962
 1817.5000     0.6252    49.9900
 1818.0000     0.6243    49.9845
 1818.5000     0.6235    49.9790
 1819.0000     0.6226    49.9734
 1819.5000     0.6217    49.9679
 1820.0000     0.8472    49.9623
 1820.5000     0.8464    49.9566
 1821.0000     0.8456    49.9499
 1821.5000     0.8449    49.9444
 1822.0000     0.8441    50.1289
 1822.5000     0.8433    50.3121
 1823.0000     0.8425    50.1170
 1823.5000     0.8417    49.9223
 1824.0000     0.8410    50.1057
 1824.5000     0.8402    50.1000
 1825.0000     0.8394    50.1887
 1825.5000     0.8386    50.2775
 1826.0000     0.7910    49.8932
 1826.5000     0.7815    49.8877
 1827.0000     0.7721    49.8822
 1827.5000     0.7815    49.8766
 1828.0000     0.7815    49.8711
 1828.5000     0.6764    49.8656
 1829.0000     0.6576    49.8600
 1829.5000     0.6497    49.8545
 1830.0000     0.6497    49.8491
 1830.5000     0.6403    49.8434
 1831.0000     0.6403    49.8280
 1831.5000     0.6403    49.6423
 1832.0000     0.6497    49.8264
 1832.5000     0.6403    49.8199
 1833.0000     0.6497    49.8144
 1833.5000     0.6497    49.8089
 1834.0000     0.6403    49.8033
 1834.5000     0.6403    49.7978
 1835.0000     0.6403    49.9809
 1835.5000     0.6403    50.0111
 1836.0000     0.6403    50.0548
 1836.5000     0.6403    50.0984
 1837.0000     0.6403    50.1466
 1837.5000     0.6403    50.1410
 1838.0000     0.6403    49.9468
 1838.5000     0.6403    49.7526
 1839.0000     0.6403    49.5584
 1839.5000     0.6403    49.3642
 1840.0000     0.6215    48.9811
 1840.5000     0.5848    48.9744
 1841.0000     0.5862    49.1589
 1841.5000     0.5876    49.3421
 1842.0000     0.5890    49.3352
 1842.5000     0.5905    49.3296
 1843.0000     0.5919    49.3241
 1843.5000     0.5932    49.5086
 1844.0000     0.5932    49.5017
 1844.5000     0.6026    49.6849
 1845.0000     0.6026    49.4906
 1845.5000     0.6026    49.3755
 1846.0000     0.6026    49.2895
 1846.5000     0.6026    49.2840
 1847.0000     0.6026    49.4685
 1847.5000     0.6026    49.6517
 1848.0000     0.6026    49.8348
 1848.5000     0.6026    50.0180
 1849.0000     0.6026    49.6337
 1849.5000     0.6026    49.6282
 1850.0000     0.6028    49.6226
 1850.5000     0.6055    49.6208
 1851.0000     0.6081    49.6189
 1851.5000     0.6107    49.6170
 1852.0000     0.6133    49.6151
 1852.5000     0.6159    49.6132
 1853.0000     0.6185    49.6113
 1853.5000     0.6211    49.6094
 1854.0000     0.6237    49.7963
 1854.5000     0.6264    49.6053
 1855.0000     0.6290    49.6035
 1855.5000     0.6316    49.6016
 1856.0000     0.6342    49.5998
 1856.5000     0.6347    49.7871
 1857.0000     0.6329    49.7848
 1857.5000     0.6311    49.5943
 1858.0000     0.6293    49.5924
 1858.5000     0.6275    49.5906
 1859.0000     0.6257    49.5887
 1859.5000     0.6239    49.5864
 1860.0000     0.6221    49.5846
 1860.5000     0.6203    49.5828
 1861.0000     0.6184    49.5809
 1861.5000     0.6166    49.5791
 1862.0000     0.6148    49.5772
 1862.5000     0.6130    49.7642
 1863.0000     0.6112    49.5736
 1863.5000     0.6094    49.7604
 1864.0000     0.6076    49.5698
 1864.5000     0.6058    49.5676
 1865.0000     0.6040    49.5657
 1865.5000     0.6022    49.3752
 1866.0000     0.6003    49.1852
 1866.5000     0.5985    49.3720
 1867.0000     0.5967    49.5588
 1867.5000     0.5949    49.5565
 1868.0000     0.5931    49.5547
 1868.5000     0.5913    49.5528
 1869.0000     0.5895    49.5258
 1869.5000     0.6068    49.3600
 1870.0000     0.6629    49.3582
 1870.5000     0.6625    49.1677
 1871.0000     0.6621    49.3545
 1871.5000     0.6618    49.3527
 1872.0000     0.6614    49.1621
 1872.5000     0.6610    49.1603
 1873.0000     0.6606    49.3472
 1873.5000     0.6603    49.1566
 1874.0000     0.6599    49.1547
 1874.5000     0.6595    49.3416
 1875.0000     0.6591    49.1506
 1875.5000     0.6588    49.3379
 1876.0000     0.6584    49.5243
 1876.5000     0.6580    49.5225
 1877.0000     0.6576    49.5206
 1877.5000     0.6573    49.5188
 1878.0000     0.6569    49.5170
 1878.5000     0.6565    49.5151
 1879.0000     0.6561    49.7020
 1879.5000     0.6557    49.6996
 1880.0000     0.6564    49.5091
 1880.5000     0.6585    49.5073
 1881.0000     0.6606    49.5054
 1881.5000     0.6627    49.5036
 1882.0000     0.7856    49.5018
 1882.5000     0.7853    49.4999
 1883.0000     0.7849    49.4981
 1883.5000     0.7845    49.4962
 1884.0000     0.7748    49.4943
 1884.5000     0.7744    49.4921
 1885.0000     0.7750    49.4903
 1885.5000     0.7831    49.6776
 1886.0000     0.7826    49.4866
 1886.5000     0.7817    49.4847
 1887.0000     0.7808    49.4829
 1887.5000     0.7799    49.4811
 1888.0000     0.7790    49.4792
 1888.5000     0.7781    49.2887
 1889.0000     0.7772    49.4755
 1889.5000     0.7763    49.2846
 1890.0000     0.7754    49.2830
 1890.5000     0.7745    49.2809
 1891.0000     0.7736    49.2790
 1891.5000     0.7727    49.4663
 1892.0000     0.7718    49.4640
 1892.5000     0.7709    49.2735
 1893.0000     0.7700    49.4604
 1893.5000     0.7691    49.4585
 1894.0000     0.7682    49.4566
 1894.5000     0.7673    49.2657
 1895.0000     0.7664    49.2327
 1895.5000     0.7655    49.0738
 1896.0000     0.7646    49.2604
 1896.5000     0.7637    49.4475
 1897.0000     0.7628    49.4452
 1897.5000     0.7619    49.4433
 1898.0000     0.7610    49.6302
 1898.5000     0.7601    49.8170
 1899.0000     0.7592    49.8151
 1899.5000     0.7583    49.8129
 1900.0000     0.7574    49.8115
 1900.5000     0.7565    49.8114
 1901.0000     0.7556    49.8114
 1901.5000     0.7547    49.8114
 1902.0000     0.7657    49.8113
 1902.5000     0.8202    49.8113
 1903.0000     0.8109    49.8113
 1903.5000     0.8111    49.8113
 1904.0000     0.8113    49.8113
 1904.5000     0.8115    50.0000
 1905.0000     0.8117    50.0000
 1905.5000     0.8119    50.0000
 1906.0000     0.8121    50.0000
 1906.5000     0.8122    50.0000
 1907.0000     0.8124    49.8113
 1907.5000     0.8126    49.8113
 1908.0000     0.8128    49.9463
 1908.5000     0.8130    50.0000
 1909.0000     0.8132    50.0000
 1909.5000     0.8134    49.8113
 1910.0000     0.8136    49.8113
 1910.5000     0.8137    50.0000
 1911.0000     0.8139    50.1107
