~VERSION INFORMATION
 VERS.                2.0:   CWLS LOG ASCII STANDARD - VERSION 2.0
 WRAP.                 NO:   ONE LINE PER DEPTH STEP
~WELL INFORMATION
#MNEM.UNIT      DATA TYPE    INFORMATION
#----------   ------------   ------------------------------
 STRT.F            0.0000:   START DEPTH
 STOP.F          550.0000:   STOP DEPTH
 STEP.F            0.1000:   STEP LENGTH
 NULL.          -999.2500:   NO VALUE
 COMP.       F D SERV INC:   COMPANY
 WELL. NAVAL PETROLEUM RESERVE 3 SX-3 #77-4-3:   WELL
 FLD .          N.P.R. #3:   FIELD
 LOC .       S3 T38N R78W:   LOCATION
 CNTY.            NATRONA:   COUNTY
 STAT.            WYOMING:   STATE
 CTRY. UNITED STATES OF AMERICA:   COUNTRY
 SRVC.      Western Atlas:   SERVICE COMPANY
 DATE.        28-OCT-1992:   LOGDATE
 API .       490252255100:   API NUMBER
~CURVE INFORMATION
#MNEM.UNIT       API CODE    CURVE DESCRIPTION
#----------   ------------   ------------------------------
 DEPT.F                  :   
 GRR .GAPI   07 310 01 00:   GAMMA RAY FROM RESISTIVITY
 RILD.OHMM   07 120 46 00:   DEEP INDUCTION RESISTIVITY
 RILM.OHMM   07 120 44 00:   INDUCTION LOG MEDIUM RESISTIVITY
~PARAMETER INFORMATION
#MNEM.UNIT          VALUE    DESCRIPTION
#----------   ------------   ------------------------------
 PD  .                 GL:   PERMANENT DATUM
 EPD .F              5160:   ELEVATION PERMANENT DATUM
 LMF .                 KB:   LOG MEASURED FROM
 DAPD.F                10:   FEET ABOVE PERMANENT DATUM
 DMF .                 KB:   DRILLING MEASURED FROM
 EKB .F              5170:   KELLING BUSHING
 EDF .F              5169:   DRILLING FLOOR
 EGL .F              5160:   GROUND LEVEL
 DATE.        28-OCT-1992:   RUN DATE
 RUN .                  1:   RUN NUMBER
 DD  .F               555:   DEPTH DRILLER
 DL  .F               558:   DEPTH LOGGER
 BLI .F               550:   BOTTOM LOG INTERVAL
 CS  .IN            8.625:   CASING SIZE
 CBD .F                54:   CASING BOTTOM DRILLER
 CBL .F                54:   CASING BOTTOM LOGGER
 BS  .IN            7.875:   BIT SIZE
 BSD .F               555:   BIT SIZE AT DEPTH
 DFT .           AIR FOAM:   DRILLING FLUID TYPE
 TCS .HRS               1:   TIME CURCULATED STOPPED
 MRT .F                65:   MAXIMUM RECORDED TEMPERATURE
 LUN .            HL-6274:   LOGGING UNIT NUMBER
 LUL .             CASPER:   LOGGING UNIT LOCATION
 ENGI.             RAUTIO:   RECORDING ENGINEER
 WITN.     BRUCE ANDERSON:   WITNESSED BY
 CLNT.            A2DTECH:   CLIENT CODE
 ORIG.           5" PRINT:   ORIGIN OF DATA
 UWI .       490252255100:   UNIQUE WELL ID
 DICO. A2D Technologies, Inc.:   DIGITIZING COMPANY
~OTHER INFORMATION
~A    DEPT      GRR      RILD       RILM   
# ...
  109.2000   134.7915     8.8629     8.4496
  109.3000   135.6685     8.9137     8.4502
  109.4000   136.4423     8.9251     8.4506
  109.5000   136.7150     8.9253     8.4825
  109.6000   137.2763     8.9254     8.5106
  109.7000   137.7148     8.9255     8.5110
  109.8000   138.2147     8.9257     8.5115
  109.9000   138.4882     8.9258     8.5121
  110.0000   138.4894     8.9259     8.5521
  110.1000   138.4906     8.9260     8.5724
  110.2000   138.4921     8.9261     8.5729
  110.3000   138.2888     8.9263     8.5734
  110.4000   138.0407     8.9264     8.5739
  110.5000   137.7925     8.9265     8.5743
  110.6000   137.4985     8.9266     8.5748
  110.7000   136.9873     8.9268     8.5753
  110.8000   136.2610     8.9269     8.5757
  110.9000   135.5142     8.9270     8.5762
  111.0000   134.6304     8.9272     8.5767
  111.1000   133.5501     8.9273     8.5772
  111.2000   132.3046     8.9274     8.5777
  111.3000   130.9524     8.9066     8.5535
  111.4000   129.5855     8.8656     8.5191
  111.5000   128.7915     8.8658     8.5196
  111.6000   128.2941     8.8659     8.5201
  111.7000   127.9360     8.8660     8.5205
  111.8000   127.9372     8.8661     8.5210
  111.9000   127.9385     8.8663     8.5215
  112.0000   128.3666     8.8664     8.5219
  112.1000   128.7057     8.8665     8.5224
  112.2000   129.0643     8.8666     8.5230
  112.3000   129.5641     8.8668     8.5234
  112.4000   130.0640     8.8669     8.4939
  112.5000   130.5640     8.8670     8.4652
  112.6000   131.0639     8.8671     8.4563
  112.7000   131.4175     8.8673     8.4074
  112.8000   131.7615     8.8226     8.4079
  112.9000   132.2614     8.8400     8.4083
  113.0000   132.7856     8.8676     8.3816
  113.1000   133.0240     8.8678     8.3509
  113.2000   133.4590     8.8679     8.3514
  113.3000   133.9589     8.8680     8.3519
  113.4000   134.3799     8.8681     8.3075
  113.5000   134.6566     8.8682     8.2948
  113.6000   135.2098     8.8477     8.2707
  113.7000   135.2109     8.8069     8.2237
  113.8000   135.3821     8.8070     8.1815
  113.9000   135.5154     8.8072     8.1820
  114.0000   135.5166     8.7682     8.1408
  114.1000   135.5178     8.7463     8.1261
  114.2000   135.5192     8.7287     8.1266
  114.3000   135.5202     8.6787     8.1150
  114.4000   135.3660     8.6256     8.0711
  114.5000   135.2206     8.6257     8.0716
  114.6000   135.1718     8.5902     8.0332
  114.7000   134.9209     8.5410     8.0164
  114.8000   135.1686     8.4921     7.9976
  114.9000   135.2254     8.4434     7.9617
  115.0000   135.3676     8.3893     7.9621
  115.1000   135.5299     8.3894     7.9626
  115.2000   135.6020     8.3573     7.9269
  115.3000   136.1366     8.3095     7.9082
  115.4000   136.3698     8.2736     7.9087
  115.5000   136.6203     8.2720     7.9018
  115.6000   137.1239     8.2164     7.8547
  115.7000   137.9469     8.1776     7.8551
  115.8000   138.9035     8.1308     7.8221
  115.9000   139.4672     8.1031     7.8015
  116.0000   139.4683     8.0942     7.7875
  116.1000   139.3047     8.0470     7.7432
  116.2000   139.0566     8.0471     7.6949
  116.3000   138.6900     8.0116     7.6953
  116.4000   137.9496     7.9657     7.6651
  116.5000   137.3597     7.9361     7.6428
  116.6000   136.9547     7.9298     7.6312
  116.7000   136.4572     7.8812     7.5906
  116.8000   136.0572     7.8813     7.5911
  116.9000   135.7643     7.8490     7.5915
  117.0000   135.2508     7.8268     7.5919
  117.1000   135.0107     7.8270     7.5733
  117.2000   134.7625     7.8232     7.5401
  117.3000   134.6501     7.7728     7.5405
  117.4000   134.6514     7.7729     7.5410
  117.5000   134.6828     7.7730     7.5413
  117.6000   134.9560     7.7529     7.5417
  117.7000   134.9571     7.7193     7.5422
  117.8000   135.1323     7.7194     7.5426
  117.9000   135.2616     7.7195     7.5430
  118.0000   135.3313     7.7196     7.5434
  118.1000   135.5819     7.7197     7.5438
  118.2000   135.8697     7.7198     7.5443
  118.3000   135.8707     7.7199     7.5447
  118.4000   135.8719     7.7201     7.5451
  118.5000   135.8731     7.7202     7.5456
  118.6000   135.8204     7.7546     7.5459
  118.7000   135.5734     7.7743     7.5464
  118.8000   135.5746     7.7745     7.5468
  118.9000   135.5758     7.7684     7.5472
  119.0000   135.5770     7.7207     7.5476
  119.1000   135.5782     7.7208     7.5481
  119.2000   135.5795     7.7209     7.5485
  119.3000   135.5807     7.7210     7.5489
  119.4000   135.5819     7.7211     7.5493
  119.5000   135.5831     7.7212     7.5497
  119.6000   135.5843     7.7214     7.5501
  119.7000   135.5855     7.7214     7.5506
  119.8000   135.5867     7.7216     7.5510
  119.9000   135.5880     7.7217     7.5514
  120.0000   135.5891     7.7218     7.5518
  120.1000   135.5903     7.7219     7.5522
  120.2000   135.5915     7.7220     7.5527
  120.3000   135.6560     7.7587     7.5531
  120.4000   135.9065     7.7762     7.5535
  120.5000   136.1996     7.7763     7.5539
  120.6000   136.4077     7.7764     7.5543
  120.7000   136.5039     7.7765     7.5611
  120.8000   136.6066     7.8205     7.6080
  120.9000   136.8328     7.8311     7.6084
  121.0000   136.9587     7.8312     7.6088
  121.1000   137.0846     7.8470     7.6319
  121.2000   137.1142     7.8862     7.6628
  121.3000   137.1154     7.8863     7.6675
  121.4000   137.0296     7.9285     7.7173
  121.5000   136.8156     7.9416     7.7176
  121.6000   136.8170     7.9649     7.7181
  121.7000   136.5873     8.0109     7.7185
  121.8000   136.3392     8.0534     7.7304
  121.9000   135.9658     8.0535     7.7733
  122.0000   135.5408     8.0942     7.7738
  122.1000   135.2926     8.1101     7.7742
  122.2000   135.0116     8.1102     7.8028
  122.3000   134.5801     8.1215     7.8293
  122.4000   134.2461     8.1671     7.8393
  122.5000   133.8872     8.1672     7.8849
  122.6000   133.3897     8.2059     7.8854
  122.7000   132.8975     8.2245     7.9218
  122.8000   132.6020     8.2435     7.9413
  122.9000   132.1994     8.2823     7.9588
  123.0000   131.8510     8.2824     7.9977
  123.1000   131.6028     8.2825     7.9982
  123.2000   131.3980     8.3192     7.9986
  123.3000   131.3994     8.3406     8.0333
  123.4000   131.1605     8.3408     8.0554
  123.5000   131.0997     8.3409     8.0558
  123.6000   131.2354     8.3410     8.0615
  123.7000   131.4860     8.3411     8.1130
  123.8000   131.7946     8.3755     8.1134
  123.9000   132.6152     8.3997     8.1139
  124.0000   133.0675     8.4139     8.1143
  124.1000   133.5674     8.4586     8.1148
  124.2000   134.0673     8.4587     8.1183
  124.3000   134.7017     8.4589     8.1725
  124.4000   135.6858     8.4911     8.1729
  124.5000   136.5500     8.5182     8.2038
  124.6000   136.9732     8.5183     8.2309
  124.7000   137.1565     8.5198     8.2421
  124.8000   137.0521     8.5782     8.2893
  124.9000   136.8040     8.5783     8.2898
  125.0000   136.5559     8.5784     8.2902
  125.1000   136.0584     8.5785     8.3193
  125.2000   135.5609     8.5786     8.3491
  125.3000   134.9196     8.5787     8.3495
  125.4000   134.1728     8.6271     8.3500
  125.5000   133.4260     8.6390     8.3505
  125.6000   132.6357     8.6391     8.3509
  125.7000   132.1672     8.6392     8.3514
  125.8000   131.6697     8.6328     8.3519
  125.9000   131.4308     8.5795     8.3523
  126.0000   131.4320     8.5796     8.3528
  126.1000   131.4332     8.5797     8.3092
  126.2000   131.4346     8.5798     8.2958
  126.3000   131.6560     8.5799     8.2962
  126.4000   131.9066     8.5801     8.2967
  126.5000   132.3867     8.5802     8.2971
  126.6000   133.0119     8.5803     8.2977
  126.7000   133.2532     8.5481     8.2981
  126.8000   133.2546     8.5210     8.2985
  126.9000   133.2556     8.5211     8.2990
  127.0000   132.9507     8.5212     8.2879
  127.1000   132.5535     8.5213     8.2423
  127.2000   132.3053     8.5214     8.2429
  127.3000   132.0520     8.5216     8.2824
