~VERSION INFORMATION
 VERS.                2.0:   CWLS LOG ASCII STANDARD - VERSION 2.0
 WRAP.                 NO:   ONE LINE PER DEPTH STEP
~WELL INFORMATION
#MNEM.UNIT      DATA TYPE    INFORMATION
#----------   ------------   ------------------------------
 STRT.F          390.0000:   START DEPTH
 STOP.F         2628.0000:   STOP DEPTH
 STEP.F            0.5000:   STEP LENGTH
 NULL.          -999.2500:   NO VALUE
 COMP. FENIX & SCISSON INC:   COMPANY
 WELL.    25 SHX 11 #3-11:   WELL
 FLD .             TEAPOT:   FIELD
 LOC .      S11 T38N R78W:   LOCATION
 CNTY.            NATRONA:   COUNTY
 STAT.            WYOMING:   STATE
 CTRY. UNITED STATES OF AMERICA:   COUNTRY
 SRVC.              Welex:   SERVICE COMPANY
 DATE.        15-MAY-1980:   LOGDATE
 API .       490251081900:   API NUMBER
~CURVE INFORMATION
#MNEM.UNIT       API CODE    CURVE DESCRIPTION
#----------   ------------   ------------------------------
 DEPT.F                  :   
 CALD.IN     45 280 60 00:   CALIPER
 GRD .GAPI   45 310 01 00:   GAMMA RAY FROM DENSITY LOG
 RHOB.G/C3   45 350 01 00:   BULK DENSITY
 DPHI.DEC    45 890 12 00:   DENSITY POROSITY SANDSTONE
 CORR.G/C3   45 356 01 00:   DENSITY CORRECTION
~PARAMETER INFORMATION
#MNEM.UNIT          VALUE    DESCRIPTION
#----------   ------------   ------------------------------
 PD  .                 GL:   PERMANENT DATUM
 EPD .F              5163:   ELEVATION PERMANENT DATUM
 LMF .                 KB:   LOG MEASURED FROM
 DAPD.F                10:   FEET ABOVE PERMANENT DATUM
 DMF .                 KB:   DRILLING MEASURED FROM
 EKB .F              5173:   KELLING BUSHING
 EGL .F              5163:   GROUND LEVEL
 DATE.            5-15-80:   RUN DATE
 RUN .                  1:   RUN NUMBER
 DD  .F              2625:   DEPTH DRILLER
 DL  .F              2630:   DEPTH LOGGER
 BLI .F              2628:   BOTTOM LOG INTERVAL
 TLI .F               400:   TOP LOG INTERVAL
 CS  .IN            9.625:   CASING SIZE
 CBD .F               645:   CASING BOTTOM DRILLER
 BS  .IN             8.75:   BIT SIZE
 BSD .F              2625:   BIT SIZE AT DEPTH
 DFT .        AIR DRILLED:   DRILLING FLUID TYPE
 TCS .HRS               2:   TIME CURCULATED STOPPED
 MRT .F               116:   MAXIMUM RECORDED TEMPERATURE
 ENGI.            BENTSEN:   RECORDING ENGINEER
 WITN.           DINSMORE:   WITNESSED BY
 CLNT.            A2DTECH:   CLIENT CODE
 ORIG.           5" PRINT:   ORIGIN OF DATA
 UWI .       490251081900:   UNIQUE WELL ID
 DICO. A2D Technologies, Inc.:   DIGITIZING COMPANY
~OTHER INFORMATION
~A   DEPT     CALD         GRD      RHOB       DPHI       CORR   
# ...
  756.0000     8.9424    88.0755     2.4637     0.0544     0.0624
  756.5000     8.9450    88.1817     2.4509     0.0611     0.0522
  757.0000     8.9484    88.8815     2.4469     0.0633     0.0508
  757.5000     8.9517    89.1447     2.4555     0.0592     0.0590
  758.0000     8.9550    88.7089     2.4413     0.0647     0.0547
  758.5000     8.9584    88.2904     2.4131     0.0819     0.0343
  759.0000     8.9614    87.8691     2.4005     0.0928     0.0208
  759.5000     8.9411    87.4450     2.4028     0.0914     0.0228
  760.0000     8.9239    87.3772     2.3960     0.0956     0.0201
  760.5000     8.9447    87.1029     2.4005     0.0948     0.0195
  761.0000     8.9652    86.2935     2.4123     0.0887     0.0243
  761.5000     8.9824    86.2865     2.4178     0.0843     0.0284
  762.0000     8.9808    87.3143     2.4063     0.0830     0.0210
  762.5000     8.9774    87.4908     2.4114     0.0851     0.0165
  763.0000     8.9741    86.9030     2.4189     0.0826     0.0223
  763.5000     8.9708    86.3075     2.4265     0.0774     0.0288
  764.0000     8.9676    86.2128     2.4234     0.0758     0.0349
  764.5000     8.9643    86.2060     2.4176     0.0812     0.0287
  765.0000     8.9580    86.1819     2.4173     0.0792     0.0291
  765.5000     8.9405    85.9558     2.4261     0.0774     0.0328
  766.0000     8.9234    84.7726     2.4385     0.0720     0.0372
  766.5000     8.9335    83.5920     2.4476     0.0645     0.0504
  767.0000     8.9500    82.4095     2.4491     0.0606     0.0529
  767.5000     8.9614    81.2560     2.4708     0.0511     0.0663
  768.0000     8.9553    81.0694     2.4841     0.0399     0.0777
  768.5000     8.9496    81.4253     2.4694     0.0474     0.0662
  769.0000     8.9437    82.5542     2.4728     0.0478     0.0530
  769.5000     8.9379    83.6700     2.4637     0.0514     0.0437
  770.0000     8.9322    84.7882     2.4529     0.0603     0.0372
  770.5000     8.9263    85.8934     2.4421     0.0578     0.0299
  771.0000     8.9174    86.6036     2.4365     0.0705     0.0247
  771.5000     8.8947    87.2984     2.4417     0.0681     0.0289
  772.0000     8.8892    87.9944     2.4526     0.0624     0.0371
  772.5000     8.9293    88.6995     2.4565     0.0576     0.0410
  773.0000     8.9692    88.9437     2.4479     0.0629     0.0399
  773.5000     8.9832    88.6789     2.4568     0.0563     0.0476
  774.0000     8.9607    88.3709     2.4606     0.0528     0.0492
  774.5000     8.9574    88.0648     2.4537     0.0617     0.0455
  775.0000     8.9545    88.0297     2.4613     0.0540     0.0476
  775.5000     8.9518    88.0320     2.4428     0.0641     0.0330
  776.0000     8.9490    88.0254     2.4480     0.0643     0.0381
  776.5000     8.9463    87.6025     2.4391     0.0693     0.0243
  777.0000     8.9435    87.1367     2.4462     0.0649     0.0328
  777.5000     8.9408    86.6713     2.4315     0.0734     0.0225
  778.0000     8.9380    86.2063     2.4498     0.0600     0.0379
  778.5000     8.9353    85.7414     2.4623     0.0536     0.0551
  779.0000     8.9326    85.2803     2.4422     0.0640     0.0545
  779.5000     8.9298    84.9946     2.4408     0.0675     0.0466
  780.0000     8.9270    85.1763     2.4481     0.0654     0.0544
  780.5000     8.9242    85.4574     2.4445     0.0641     0.0633
  781.0000     8.9220    85.7418     2.4502     0.0609     0.0650
  781.5000     8.9289    86.0275     2.4663     0.0530     0.0774
  782.0000     8.9358    86.3147     2.4728     0.0483     0.0875
  782.5000     8.9428    86.4816     2.4652     0.0472     0.0844
  783.0000     8.9497    85.8049     2.4593     0.0552     0.0697
  783.5000     8.9566    84.9509     2.4745     0.0460     0.0755
  784.0000     8.9636    85.6070     2.4804     0.0411     0.0884
  784.5000     8.9705    86.4812     2.4652     0.0528     0.0728
  785.0000     8.9773    86.1996     2.4513     0.0607     0.0573
  785.5000     8.9815    85.7559     2.4266     0.0746     0.0323
  786.0000     8.9797    85.3183     2.3985     0.0952     0.0001
  786.5000     8.9782    85.4757     2.3814     0.1044    -0.0141
  787.0000     8.9765    85.7834     2.3944     0.1019    -0.0011
  787.5000     8.9749    86.0907     2.4227     0.0822     0.0189
  788.0000     8.9733    86.3976     2.4404     0.0665     0.0385
  788.5000     8.9717    86.7044     2.4399     0.0713     0.0489
  789.0000     8.9701    87.0109     2.4519     0.0626     0.0488
  789.5000     8.9685    87.3207     2.4503     0.0608     0.0465
  790.0000     8.9669    87.4220     2.4662     0.0535     0.0588
  790.5000     8.9652    87.4584     2.4605     0.0508     0.0537
  791.0000     8.9636    87.4975     2.4499     0.0600     0.0424
  791.5000     8.9620    87.5367     2.4383     0.0685     0.0308
  792.0000     8.9604    87.5761     2.4499     0.0622     0.0256
  792.5000     8.9588    87.6155     2.4565     0.0584     0.0366
  793.0000     8.9572    87.6556     2.4210     0.0798     0.0171
  793.5000     8.9556    87.6948     2.4366     0.0692     0.0217
  794.0000     8.9539    87.6753     2.4571     0.0584     0.0391
  794.5000     8.9523    87.3073     2.4573     0.0556     0.0512
  795.0000     8.9507    86.9396     2.4492     0.0593     0.0430
  795.5000     8.9491    86.5687     2.4473     0.0613     0.0346
  796.0000     8.9475    86.2442     2.4575     0.0593     0.0446
  796.5000     8.9459    86.9345     2.4593     0.0548     0.0570
  797.0000     8.9443    87.6679     2.4510     0.0606     0.0549
  797.5000     8.9427    88.3927     2.4444     0.0661     0.0487
  798.0000     8.9418    88.9550     2.4448     0.0647     0.0590
  798.5000     8.9418    88.7493     2.4304     0.0712     0.0490
  799.0000     8.9417    88.4650     2.4105     0.0816     0.0380
  799.5000     8.9414    88.1708     2.4004     0.0952     0.0254
  800.0000     8.9436    87.8822     2.3946     0.0915     0.0171
  800.5000     8.9613    88.4551     2.3832     0.1005     0.0065
  801.0000     8.9624    89.2592     2.3695     0.1105    -0.0101
  801.5000     8.9326    90.0742     2.3604     0.1194    -0.0271
  802.0000     8.8908    90.4475     2.3714     0.1101    -0.0192
  802.5000     8.8841    90.4219     2.3862     0.1018    -0.0070
  803.0000     8.9046    90.3197     2.4011     0.0935     0.0056
  803.5000     8.9422    90.2148     2.4093     0.0886     0.0087
  804.0000     8.9619    89.9528     2.3920     0.0948    -0.0066
  804.5000     8.9541    89.3849     2.4109     0.0871    -0.0022
  805.0000     8.9436    88.8253     2.4375     0.0727     0.0188
  805.5000     8.9331    88.2546     2.4482     0.0633     0.0400
  806.0000     8.9228    88.4853     2.4538     0.0600     0.0335
  806.5000     8.9124    88.7912     2.4630     0.0536     0.0425
  807.0000     8.9020    87.9311     2.4594     0.0540     0.0446
  807.5000     8.8916    87.1252     2.4437     0.0593     0.0301
  808.0000     8.8818    87.7424     2.4435     0.0653     0.0208
  808.5000     8.8813    88.5088     2.4519     0.0608     0.0306
  809.0000     8.8934    89.2770     2.4663     0.0532     0.0455
  809.5000     8.9117    90.0809     2.4852     0.0387     0.0641
  810.0000     8.9214    90.6587     2.4874     0.0378     0.0793
  810.5000     8.9437    90.9973     2.4746     0.0466     0.0671
  811.0000     8.9314    90.7779     2.4621     0.0556     0.0545
  811.5000     8.8671    90.5829     2.4495     0.0641     0.0418
  812.0000     8.8312    90.5065     2.4371     0.0706     0.0355
  812.5000     8.8770    91.5452     2.4255     0.0758     0.0275
  813.0000     8.9206    92.2835     2.4239     0.0754     0.0253
  813.5000     8.9414    92.0269     2.4366     0.0720     0.0311
  814.0000     8.9415    91.7596     2.4253     0.0755     0.0264
  814.5000     8.9389    91.4872     2.4254     0.0746     0.0364
  815.0000     8.9363    91.3566     2.4329     0.0718     0.0422
  815.5000     8.9337    91.7764     2.4483     0.0637     0.0501
  816.0000     8.9311    92.3302     2.4391     0.0696     0.0498
  816.5000     8.9285    92.8871     2.4493     0.0632     0.0535
