~VERSION INFORMATION
 VERS.                2.0:   CWLS LOG ASCII STANDARD - VERSION 2.0
 WRAP.                 NO:   ONE LINE PER DEPTH STEP
~WELL INFORMATION
#MNEM.UNIT      DATA TYPE    INFORMATION
#----------   ------------   ------------------------------
 STRT.F            0.0000:   START DEPTH
 STOP.F         4535.0000:   STOP DEPTH
 STEP.F            0.5000:   STEP LENGTH
 NULL.          -999.2500:   NO VALUE
 COMP. LAWRENCE - ALLISON & ASSOCIATES:   COMPANY
 WELL.    NPR ##3 56-X-15:   WELL
 FLD .   TEAPOT NAVAL RES:   FIELD
 LOC .      S15 T38N R78W:   LOCATION
 CNTY.            NATRONA:   COUNTY
 STAT.            WYOMING:   STATE
 CTRY. UNITED STATES OF AMERICA:   COUNTRY
 SRVC.      Dresser Atlas:   SERVICE COMPANY
 DATE.        03-MAY-1984:   LOGDATE
 API .       490251095900:   API NUMBER
~CURVE INFORMATION
#MNEM.UNIT       API CODE    CURVE DESCRIPTION
#----------   ------------   ------------------------------
 DEPT.F                  :   
 CORR.G/C3   45 356 01 00:   DENSITY CORRECTION
 DEN .G/C3   45 350 01 00:   COMPENSATED BULK DENSTIY
 PORD.DEC    45 890 12 00:   POROSITY DENSITY SANDSTONE
 CNC .DEC    42 890 03 00:   NEUTRON POROSITY SANDSTONE
 GRR .GAPI   07 310 01 00:   GAMMA RAY
 CALR.IN     07 280 01 00:   CALIPER FROM RESISTIVITY
 SPR .MV     07 010 01 00:   SPONTANEOUS POTENTIAL
 RILD.OHMM   07 120 46 00:   INDUCTION LOG DEEP RESISTIVITY
 RILM.OHMM   07 120 44 00:   INDUCTION LOG MEDIUM RESISTIVITY
 RFOC.OHMM   07 220 04 00:   RESISTIVITY FOCUSED LOG
 AC  .US/F   60 520 00 00:   ACCOUSTIC
~PARAMETER INFORMATION
#MNEM.UNIT          VALUE    DESCRIPTION
#----------   ------------   ------------------------------
 PD  .                 GL:   PERMANENT DATUM
 EPD .F              5326:   ELEVATION PERMANENT DATUM
 LMF .                 KB:   LOG MEASURED FROM
 DAPD.F                12:   FEET ABOVE PERMANENT DATUM
 DMF .                 KB:   DRILLING MEASURED FROM
 EKB .F              5338:   KELLING BUSHING
 EDF .F              5337:   DRILLING FLOOR
 EGL .F              5326:   GROUND LEVEL
 DATE.        03-MAY-1984:   RUN DATE
 RUN .                  1:   RUN NUMBER
 DD  .F              4547:   DEPTH DRILLER
 DL  .F              4539:   DEPTH LOGGER
 BLI .F              4536:   BOTTOM LOG INTERVAL
 CS  .IN            8.625:   CASING SIZE
 CBD .F              1027:   CASING BOTTOM DRILLER
 CBL .F              1021:   CASING BOTTOM LOGGER
 BS  .IN            7.875:   BIT SIZE
 BSD .F              4547:   BIT SIZE AT DEPTH
 DFT .            KCL GEL:   DRILLING FLUID TYPE
 DFD .                9.1:   DRILLING FLUID DENSITY
 DFV .                 44:   DRILLING FLUID VISCOSITY
 DFPH.                  8:   DRILLING FLUID PH
 DFL .               14.5:   DRILLING FLUID LOSS
 MSS .           MUD TANK:   MUD SAMPLE SOURCE
 RMS .OHMM           0.56:   RESISTIVITY MUD SAMPLE
 MST .F                73:   MUD SAMPLE TEMPERATURE
 RMF .OHMM           0.42:   RESISTIVITY MUD FILTRATE SAMPLE
 MFST.F                73:   MUD FILTRATE SAMPLE TEMPERATURE
 RMC .OHMM           0.71:   RESISTIVITY MUD CAKE
 MCST.F                73:   MUD CAKE SAMPLE TEMPERATURE
 MFSS.               MEAS:   MUD FILTRATE SAMPLE SOURCE
 MCSS.               CALC:   MUD CAKE SAMPLE SOURCE
 RMB .OHMM           0.29:   RESISTIVITY MUD AT BHT
 BHT .F               141:   BOTTOM HOLE TEMPERATURE
 TCS .HRS             3.5:   TIME CURCULATED STOPPED
 MRT .F               125:   MAXIMUM RECORDED TEMPERATURE
 LUN .               6302:   LOGGING UNIT NUMBER
 LUL .               CODY:   LOGGING UNIT LOCATION
 ENGI.              GETTY:   RECORDING ENGINEER
 WITN.           JENNINGS:   WITNESSED BY
 CLNT.            A2DTECH:   CLIENT CODE
 ORIG.           5" PRINT:   ORIGIN OF DATA
 UWI .       490251095900:   UNIQUE WELL ID
 DICO. A2D Technologies, Inc.:   DIGITIZING COMPANY
~OTHER INFORMATION
~A    DEPT    CORR        DEN       PORD        CNC        GRR       CALR        SPR       RILD       RILM       RFOC         AC   
# ...
 2196.0000  -999.2500  -999.2500  -999.2500  -999.2500   108.2224     8.5936   -23.0871     6.9781     6.8813     7.1783  -999.2500
 2196.5000  -999.2500  -999.2500  -999.2500  -999.2500   104.8317     8.6066   -22.9413     6.9259     6.8789     7.2254  -999.2500
 2197.0000  -999.2500  -999.2500  -999.2500  -999.2500   104.0238     8.6201   -22.9229     6.8741     6.8765     7.2728  -999.2500
 2197.5000  -999.2500  -999.2500  -999.2500  -999.2500   106.1365     8.6045   -22.8001     6.9182     6.8742     7.2118  -999.2500
 2198.0000  -999.2500  -999.2500  -999.2500  -999.2500   106.4418     8.5889   -22.6555     6.9144     6.8718     7.1075  -999.2500
 2198.5000  -999.2500  -999.2500  -999.2500  -999.2500   101.9380     8.5732   -22.6600     7.0074     6.8695     7.0151  -999.2500
 2199.0000  -999.2500  -999.2500  -999.2500  -999.2500    99.8387     8.5576   -22.6645     7.0525     6.8671     7.0122  -999.2500
 2199.5000  -999.2500  -999.2500  -999.2500  -999.2500   100.1454     8.5420   -22.6689     7.0977     6.9608     7.0093  -999.2500
 2200.0000  -999.2500  -999.2500  -999.2500  -999.2500   102.5339     8.5263   -22.6537     7.1932     7.0069     7.0228  -999.2500
 2200.5000  -999.2500  -999.2500  -999.2500  -999.2500   106.1686     8.5408   -22.4297     7.1661     7.0512     7.2122  -999.2500
 2201.0000  -999.2500  -999.2500  -999.2500  -999.2500   106.4724     8.5402   -22.2279     7.1372     7.0988     7.3509  -999.2500
 2201.5000  -999.2500  -999.2500  -999.2500  -999.2500   106.1739     8.5395   -22.0808     7.0356     7.1460     7.3535  -999.2500
 2202.0000  -999.2500  -999.2500  -999.2500  -999.2500   105.8761     8.5540   -21.9336     6.8875     6.9950     7.3971  -999.2500
 2202.5000  -999.2500  -999.2500  -999.2500  -999.2500   108.2859     8.5534   -21.9373     6.7424     6.8005     7.3944  -999.2500
 2203.0000  -999.2500  -999.2500  -999.2500  -999.2500   109.4919     8.5528   -21.6392     6.5547     6.4303     7.3913  -999.2500
 2203.5000  -999.2500  -999.2500  -999.2500  -999.2500   107.9911     8.5522   -21.4921     6.3722     5.8727     7.3888  -999.2500
 2204.0000  -999.2500  -999.2500  -999.2500  -999.2500   102.2798     8.5364   -20.8952     6.2380     5.5916     6.1658  -999.2500
 2204.5000  -999.2500  -999.2500  -999.2500  -999.2500    99.8767     8.5208   -19.9973     6.1922     5.4362     5.2903  -999.2500
 2205.0000  -999.2500  -999.2500  -999.2500  -999.2500    99.8797     8.4901   -19.6992     6.2328     5.4290     5.0726  -999.2500
 2205.5000  -999.2500  -999.2500  -999.2500  -999.2500   104.3940     8.4294   -19.7029     6.3631     5.6628     5.3235  -999.2500
 2206.0000  -999.2500  -999.2500  -999.2500  -999.2500   106.8030     8.3536   -20.1564     6.5870     6.1099     6.6462  -999.2500
 2206.5000  -999.2500  -999.2500  -999.2500  -999.2500   107.7083     8.3079   -21.0602     6.7717     6.5467     7.4249  -999.2500
 2207.0000  -999.2500  -999.2500  -999.2500  -999.2500   106.7735     8.2772   -21.6638     6.9133     6.9661     7.6315  -999.2500
 2207.5000  -999.2500  -999.2500  -999.2500  -999.2500   104.3859     8.2465   -22.1172     7.0578     7.1594     7.6827  -999.2500
 2208.0000  -999.2500  -999.2500  -999.2500  -999.2500   104.4368     8.2159   -22.5707     7.2448     7.3580     7.7329  -999.2500
 2208.5000  -999.2500  -999.2500  -999.2500  -999.2500   112.0750     8.2153   -22.8739     7.3953     7.5098     7.7302  -999.2500
 2209.0000  -999.2500  -999.2500  -999.2500  -999.2500   113.4375     8.1996   -23.0271     7.4438     7.5067     7.7276  -999.2500
 2209.5000  -999.2500  -999.2500  -999.2500  -999.2500   108.3686     8.1990   -23.1802     7.2863     7.3953     7.7794  -999.2500
 2210.0000  -999.2500  -999.2500  -999.2500  -999.2500   104.1209     8.1984   -23.4835     6.9372     6.8911     7.8855  -999.2500
 2210.5000  -999.2500  -999.2500  -999.2500  -999.2500   102.6201     8.1978   -23.7868     6.5135     6.4272     7.8822  -999.2500
 2211.0000  -999.2500  -999.2500  -999.2500  -999.2500   102.3216     8.2123   -23.7898     6.1583     6.0380     7.5055  -999.2500
 2211.5000  -999.2500  -999.2500  -999.2500  -999.2500   104.4306     8.2117   -23.6278     6.1131     5.9153     6.7605  -999.2500
 2212.0000  -999.2500  -999.2500  -999.2500  -999.2500   107.7419     8.2111   -23.0048     6.0682     5.8313     6.0055  -999.2500
 2212.5000  -999.2500  -999.2500  -999.2500  -999.2500   108.9479     8.2257   -21.9472     6.1087     5.8696     5.5233  -999.2500
 2213.0000  -999.2500  -999.2500  -999.2500  -999.2500   106.5448     8.2249   -21.3993     6.1488     5.9984     5.7165  -999.2500
 2213.5000  -999.2500  -999.2500  -999.2500  -999.2500   105.9456     8.2395   -21.2521     6.2752     6.2424     6.2982  -999.2500
 2214.0000  -999.2500  -999.2500  -999.2500  -999.2500   106.8516     8.2087   -21.5561     6.5399     6.5507     7.1345  -999.2500
 2214.5000  -999.2500  -999.2500  -999.2500  -999.2500   107.4561     8.1930   -21.8594     6.8159     6.7332     7.5396  -999.2500
 2215.0000  -999.2500  -999.2500  -999.2500  -999.2500   107.7598     8.1774   -22.1627     7.1034     6.9200     7.6424  -999.2500
 2215.5000  -999.2500  -999.2500  -999.2500  -999.2500   108.0635     8.1618   -22.6161     7.3008     7.1113     7.4822  -999.2500
 2216.0000  -999.2500  -999.2500  -999.2500  -999.2500   103.8560     8.1612   -23.0695     7.4517     7.2580     7.3254  -999.2500
 2216.5000  -999.2500  -999.2500  -999.2500  -999.2500    97.5432     8.1606   -23.3728     7.5530     7.3565     7.2722  -999.2500
 2217.0000  -999.2500  -999.2500  -999.2500  -999.2500    94.2379     8.1600   -23.8262     7.6026     7.5083     7.4295  -999.2500
 2217.5000  -999.2500  -999.2500  -999.2500  -999.2500    95.1432     8.1594   -24.4298     7.7060     7.5583     7.6381  -999.2500
 2218.0000  -999.2500  -999.2500  -999.2500  -999.2500    96.6499     8.1588   -25.0334     7.7027     7.6608     7.7866  -999.2500
 2218.5000  -999.2500  -999.2500  -999.2500  -999.2500    96.3514     8.1432   -25.6370     7.5405     7.6568     7.8388  -999.2500
 2219.0000  -999.2500  -999.2500  -999.2500  -999.2500    98.7611     8.1426   -25.7901     7.5900     7.6007     7.7812  -999.2500
 2219.5000  -999.2500  -999.2500  -999.2500  -999.2500   105.3807     8.1420   -26.0934     7.6932     7.4927     7.6712  -999.2500
 2220.0000  -999.2500  -999.2500  -999.2500  -999.2500   112.0002     8.1564   -25.7953     7.5311     7.4378     7.4068  -999.2500
 2220.5000  -999.2500  -999.2500  -999.2500  -999.2500   113.2062     8.1708   -25.4987     7.3197     7.3321     7.2516  -999.2500
 2221.0000  -999.2500  -999.2500  -999.2500  -999.2500   111.7054     8.1871   -25.0512     7.1175     7.2280     7.1491  -999.2500
 2221.5000  -999.2500  -999.2500  -999.2500  -999.2500   108.0994     8.2019   -24.7539     7.0652     7.1750     7.0972  -999.2500
 2222.0000  -999.2500  -999.2500  -999.2500  -999.2500   108.4031     8.2292   -24.6060     7.1679     7.1720     7.0947  -999.2500
 2222.5000  -999.2500  -999.2500  -999.2500  -999.2500   111.1129     8.2285   -24.6097     7.3604     7.2197     7.1915  -999.2500
 2223.0000  -999.2500  -999.2500  -999.2500  -999.2500   110.8151     8.2279   -24.6127     7.4604     7.2670     7.2902  -999.2500
 2223.5000  -999.2500  -999.2500  -999.2500  -999.2500   109.3143     8.2273   -24.4655     7.3025     7.3649     7.4411  -999.2500
 2224.0000  -999.2500  -999.2500  -999.2500  -999.2500   107.5128     8.2418   -24.0181     7.2496     7.4656     7.4904  -999.2500
 2224.5000  -999.2500  -999.2500  -999.2500  -999.2500   106.0120     8.2411   -24.0210     7.5547     7.6196     7.5400  -999.2500
 2225.0000  -999.2500  -999.2500  -999.2500  -999.2500   104.5113     8.2557   -23.8739     7.7647     7.7760     7.6962  -999.2500
 2225.5000  -999.2500  -999.2500  -999.2500  -999.2500   102.9951     8.2549   -23.8769     7.8710     7.9365     7.9096  -999.2500
 2226.0000  -999.2500  -999.2500  -999.2500  -999.2500   101.7946     8.2543   -23.7297     7.9219     8.1002     8.1296  -999.2500
