~VERSION INFORMATION
 VERS.                2.0:   CWLS LOG ASCII STANDARD - VERSION 2.0
 WRAP.                 NO:   ONE LINE PER DEPTH STEP
~WELL INFORMATION
#MNEM.UNIT      DATA TYPE    INFORMATION
#----------   ------------   ------------------------------
 STRT.F            0.0000:   START DEPTH
 STOP.F          524.0000:   STOP DEPTH
 STEP.F            0.5000:   STEP LENGTH
 NULL.          -999.2500:   NO VALUE
 COMP.       F D SERV INC:   COMPANY
 WELL. NAVAL PETROLEUM RESERVE 3 SX-1 #83-2-10:   WELL
 FLD .             TEAPOT:   FIELD
 LOC .      S10 T38N R78W:   LOCATION
 CNTY.            NATRONA:   COUNTY
 STAT.            WYOMING:   STATE
 CTRY. UNITED STATES OF AMERICA:   COUNTRY
 SRVC.     Atlas Wireline:   SERVICE COMPANY
 DATE.        10-FEB-1993:   LOGDATE
 API .       490252258100:   API NUMBER
~CURVE INFORMATION
#MNEM.UNIT       API CODE    CURVE DESCRIPTION
#----------   ------------   ------------------------------
 DEPT.F                  :   
 RILM.OHMM   07 120 44 00:   RESITIVITY LONG MEDIUM
 RILD.OHMM   07 120 46 00:   INDUCTION LOG DEEP RESISTIVITY
 GRR .GAPI   07 310 01 00:   GAMMA RAY
 PORZ.DEC    45 890 12 00:   DENSITY POROSITY
 ZCOR.G/C3   45 356 01 00:   DENSITY CORRECTION
 ZDEN.G/C3   45 350 01 00:   BULK DENSITY
 NPHI.DEC    42 890 03 00:   NEUTRON POROSITY SANDSTONE
 C13 .IN     45 280 13 00:   CALIPER X
~PARAMETER INFORMATION
#MNEM.UNIT          VALUE    DESCRIPTION
#----------   ------------   ------------------------------
 PD  .                 GL:   PERMANENT DATUM
 EPD .F              5156:   ELEVATION PERMANENT DATUM
 LMF .                 KB:   LOG MEASURED FROM
 DAPD.F                10:   FEET ABOVE PERMANENT DATUM
 DMF .                 KB:   DRILLING MEASURED FROM
 EKB .F              5166:   KELLING BUSHING
 EDF .F              5165:   DRILLING FLOOR
 EGL .F              5156:   GROUND LEVEL
 DATE.        10-FEB-1993:   RUN DATE
 RUN .                  1:   RUN NUMBER
 DD  .F               525:   DEPTH DRILLER
 DL  .F               526:   DEPTH LOGGER
 BLI .F               518:   BOTTOM LOG INTERVAL
 CS  .IN            8.625:   CASING SIZE
 CBD .F                80:   CASING BOTTOM DRILLER
 CBL .F                81:   CASING BOTTOM LOGGER
 BS  .IN            7.875:   BIT SIZE
 BSD .F               525:   BIT SIZE AT DEPTH
 DFT .                AIR:   DRILLING FLUID TYPE
 MRT .F                70:   MAXIMUM RECORDED TEMPERATURE
 LUN .            HL 6274:   LOGGING UNIT NUMBER
 LUL .             CASPER:   LOGGING UNIT LOCATION
 ENGI.          V. RAUTIO:   RECORDING ENGINEER
 WITN.          G. STRONG:   WITNESSED BY
 CLNT.            A2DTECH:   CLIENT CODE
 ORIG.           5" PRINT:   ORIGIN OF DATA
 UWI .       490252258100:   UNIQUE WELL ID
 DICO. A2D Technologies, Inc.:   DIGITIZING COMPANY
~OTHER INFORMATION
~A    DEPT    RILM       RILD         GRR      PORZ       ZCOR       ZDEN       NPHI        C13   
# ...
  202.5000     7.6563     7.5828   143.2425     0.1125     0.0059     2.4634     0.3147     8.1213
  203.0000     7.6558     7.5821   144.4605     0.1134     0.0073     2.4634     0.3120     8.1508
  203.5000     7.6553     7.5817   145.0353     0.1137     0.0073     2.4626     0.3099     8.1656
  204.0000     7.6019     7.5288   140.4998     0.1140     0.0043     2.4611     0.3093     8.1651
  204.5000     7.4449     7.4248   139.2867     0.1152     0.0027     2.4574     0.3087     8.1495
  205.0000     7.3420     7.3221   142.5943     0.1176     0.0027     2.4550     0.3087     8.1340
  205.5000     7.1408     7.2209   144.9990     0.1188     0.0027     2.4543     0.3084     8.1035
  206.0000     6.9927     7.0719   145.5938     0.1170     0.0026     2.4588     0.3084     8.0879
  206.5000     6.7546     6.9261   143.4715     0.1140     0.0026     2.4633     0.3084     8.0875
  207.0000     6.5242     6.6841   136.8264     0.1131     0.0086     2.4656     0.3084     8.0870
  207.5000     6.2148     6.4171   135.3074     0.1122     0.0191     2.4670     0.3087     8.1017
  208.0000     5.8792     6.1556   135.6005     0.1119     0.0265     2.4670     0.3093     8.1011
  208.5000     5.4328     5.7832   136.1953     0.1116     0.0310     2.4640     0.3105     8.1159
  209.0000     4.7749     5.3188   137.9967     0.1113     0.0310     2.4571     0.3126     8.1154
  209.5000     4.6440     5.0345   140.4314     0.1174     0.0264     2.4406     0.3158     8.1148
  210.0000     4.7743     4.9994   138.5808     0.1336     0.0234     2.3895     0.3292     8.1144
  210.5000     4.9775     4.9991   131.6341     0.1541     0.0264     2.3789     0.3400     8.1140
  211.0000     5.2236     5.1037   128.6089     0.1631     0.0249     2.3884     0.3379     8.1135
  211.5000     5.5210     5.2517   131.0739     0.1559     0.0173     2.4188     0.3223     8.1131
  212.0000     5.8760     5.5837   139.1478     0.1424     0.0053     2.4466     0.3126     8.1126
  212.5000     6.1250     5.9424   142.1558     0.1231     0.0113     2.4579     0.3087     8.1121
  213.0000     6.3909     6.3680   143.9572     0.1153     0.0187     2.4647     0.3118     8.1117
  213.5000     6.6552     6.7785   143.0437     0.1120     0.0202     2.4684     0.3132     8.1113
  214.0000     6.8418     7.0641   140.9214     0.1108     0.0112     2.4661     0.3105     8.1108
  214.5000     7.0337     7.2120   139.1029     0.1111     0.0006     2.4638     0.3075     8.1103
  215.0000     7.2343     7.3628   137.8877     0.1123    -0.0054     2.4638     0.3093     8.1250
  215.5000     7.4336     7.4135   138.1808     0.1126    -0.0069     2.4638     0.3141     8.1245
  216.0000     7.5370     7.5240   139.4590     0.1120    -0.0040     2.4645     0.3153     8.1240
  216.5000     7.6947     7.6206   142.0831     0.1129    -0.0025     2.4653     0.3132     8.1236
  217.0000     7.7477     7.6732   144.1862     0.1150     0.0005     2.4637     0.3114     8.1081
  217.5000     7.8553     7.7795   144.7831     0.1153     0.0020     2.4607     0.3135     8.1228
  218.0000     7.9094     7.7812   144.1689     0.1113     0.0064     2.4667     0.3141     8.1222
  218.5000     7.9087     7.8870   143.2534     0.1033     0.0064     2.4750     0.3123     8.1218
  219.0000     7.9082     7.9413   143.5465     0.1003     0.0034     2.4841     0.3099     8.1214
  219.5000     7.9627     7.9959   143.5380     0.1000     0.0033     2.4870     0.3078     8.1209
  220.0000     8.0175     7.9953   141.7195     0.1015     0.0033     2.4840     0.3087     8.1356
  220.5000     8.0169     7.9946   135.6756     0.1018     0.0048     2.4817     0.3093     8.1501
  221.0000     8.0722     8.0497   136.2704     0.1000     0.0047     2.4825     0.3081     8.1496
  221.5000     8.1277     8.1051   138.9767     0.0979     0.0017     2.4862     0.3075     8.1341
  222.0000     8.1837     8.1045   141.6831     0.0970    -0.0028     2.4892     0.3072     8.1337
  222.5000     8.2399     8.1603   142.8812     0.1012    -0.0074     2.4899     0.3069     8.1332
  223.0000     8.3544     8.2165   142.2672     0.1036    -0.0104     2.4831     0.3066     8.1328
  223.5000     8.4704     8.2730   138.6387     0.1030    -0.0134     2.4786     0.3051     8.1324
  224.0000     8.5913     8.3300   128.3738     0.0892    -0.0105     2.4876     0.3027     8.1319
  224.5000     8.6473     8.4455   126.2536     0.0738    -0.0060     2.5109     0.3009     8.1163
  225.0000     8.5868     8.4448   131.0695     0.0660    -0.0135     2.5297     0.3009     8.1159
  225.5000     8.4681     8.4442   135.8875     0.0822    -0.0226     2.5417     0.3009     8.1306
  226.0000     8.4090     8.3854   138.2922     0.0925    -0.0166     2.5116     0.3015     8.1452
  226.5000     8.2926     8.2695   139.8120     0.1006    -0.0121     2.4928     0.3036     8.1447
  227.0000     8.1779     8.1519   140.9900     0.1009    -0.0106     2.4838     0.3066     8.1443
  227.5000     8.1209     8.0983   140.9793     0.1000    -0.0062     2.4837     0.3087     8.1437
  228.0000     8.1204     8.0978   140.6691     0.0991    -0.0002     2.4867     0.3051     8.1433
  228.5000     8.1763     8.0972   140.3589     0.0973     0.0043     2.4897     0.3033     8.1429
  229.0000     8.1756     8.0967   139.4432     0.0928     0.0118     2.4942     0.3018     8.1425
  229.5000     8.1187     8.0402   138.8314     0.0916     0.0177     2.4987     0.3018     8.1420
  230.0000     8.0064     7.8743   140.9344     0.0961     0.0192     2.4942     0.3018     8.1415
  230.5000     7.8411     7.6587   144.5460     0.1044     0.0177     2.4814     0.3024     8.1411
  231.0000     7.4176     7.1955   143.6320     0.1133     0.0116     2.4716     0.3060     8.1406
  231.5000     6.8252     6.7537   143.9254     0.1184     0.0026     2.4550     0.3105     8.1402
  232.0000     6.2802     6.3074   142.7080     0.1181     0.0059     2.4535     0.3181     8.1397
  232.5000     5.8188     5.8850   140.2862     0.1148     0.0176     2.4588     0.3211     8.1392
  233.0000     5.1258     5.3040   139.3726     0.1139     0.0115     2.4618     0.3244     8.1388
  233.5000     4.5649     4.7474   139.6658     0.1190    -0.0005     2.4550     0.3268     8.1384
  234.0000     4.1425     4.1907   138.4485     0.1354    -0.0082     2.4354     0.3328     8.1380
  234.5000     3.7075     3.8297   137.8366     0.1539    -0.0126     2.4053     0.3415     8.1374
  235.0000     3.3513     3.4041   137.5264     0.1678    -0.0156     2.3759     0.3524     8.1370
  235.5000     3.2113     3.0469   138.1190     0.1870    -0.0186     2.3481     0.3626     8.1366
  236.0000     2.9236     2.8594   141.1271     0.2159    -0.0170     2.3044     0.3764     8.1361
  236.5000     2.6810     2.6524   142.3273     0.2518    -0.0082     2.2592     0.3918     8.1356
  237.0000     2.6074     2.5798   140.5066     0.2734     0.0038     2.2186     0.3858     8.1202
  237.5000     2.7178     2.5975   126.9213     0.2777     0.0263     2.1915     0.3771     8.1196
  238.0000     2.9735     2.6703   123.8962     0.2503     0.0556     2.2216     0.3479     8.1344
  238.5000     3.2534     2.9216   123.2843     0.2114     0.0773     2.2720     0.3382     8.1339
  239.0000     3.5351     3.2864   126.8956     0.1762     0.0472     2.3434     0.3436     8.1334
  239.5000     3.9491     3.7744   136.8114     0.1535     0.0277     2.4089     0.3457     8.1329
  240.0000     4.6308     4.7431   146.4857     0.1076     0.0125     2.4585     0.3370     8.1325
  240.5000     5.1019     5.0193   149.1899     0.0965     0.0051     2.4834     0.3340     8.1321
  241.0000     5.4296     5.4094   149.4852     0.0920     0.0050     2.4961     0.3319     8.1315
  241.5000     5.7414     5.6777   149.1728     0.0872     0.0050     2.5032     0.3313     8.1311
  242.0000     5.9810     5.9593   149.1443     0.0863     0.0065     2.5074     0.3337     8.1307
  242.5000     6.1484     6.2117   150.3602     0.0860     0.0095     2.5066     0.3358     8.1302
