~VERSION INFORMATION
 VERS.                2.0:   CWLS LOG ASCII STANDARD - VERSION 2.0
 WRAP.                 NO:   ONE LINE PER DEPTH STEP
~WELL INFORMATION
#MNEM.UNIT      DATA TYPE    INFORMATION
#----------   ------------   ------------------------------
 STRT.F           32.0000:   START DEPTH
 STOP.F          688.5000:   STOP DEPTH
 STEP.F            0.5000:   STEP LENGTH
 NULL.          -999.2500:   NO VALUE
 COMP. FENIX & SCISSON INC:   COMPANY
 WELL.       NPR 3 #78-34:   WELL
 FLD .  TEAPOT DOME NPR-3:   FIELD
 LOC .      S34 T39N R78W:   LOCATION
 CNTY.            NATRONA:   COUNTY
 STAT.            WYOMING:   STATE
 CTRY. UNITED STATES OF AMERICA:   COUNTRY
 SRVC.           BIRDWELL:   SERVICE COMPANY
 DATE.        16-AUG-1978:   LOGDATE
 API .       490251070700:   API NUMBER
~CURVE INFORMATION
#MNEM.UNIT       API CODE    CURVE DESCRIPTION
#----------   ------------   ------------------------------
 DEPT.F                  :   
 SPR .MV     05 010 01 00:   SPONTANEOUS POTENTIAL
 SN  .OHMM   05 040 16 00:   SHORT NORMAL 16'
 ILD .OHMM   05 120 46 00:   INDUCTION LOG DEEP RESISTIVITY
 CALD.IN     45 280 60 00:   CALIPER
 GRD .GAPI   45 310 01 00:   GAMMA RAY FROM DENSITY LOG
 RHOB.G/C3   45 350 01 00:   BULK DENSITY
 DPHI.DEC    45 890 12 00:   DENSITY POROSITY SANDSTONE
 CORR.G/C3   45 356 01 00:   DENSITY CORRECTION
~PARAMETER INFORMATION
#MNEM.UNIT          VALUE    DESCRIPTION
#----------   ------------   ------------------------------
 PD  .                 GL:   PERMANENT DATUM
 EPD .F              5085:   ELEVATION PERMANENT DATUM
 LMF .                 KB:   LOG MEASURED FROM
 DAPD.F                 4:   FEET ABOVE PERMANENT DATUM
 DMF .                 KB:   DRILLING MEASURED FROM
 EKB .F              5089:   KELLING BUSHING
 EGL .F              5085:   GROUND LEVEL
 DATE.          8-16-1978:   RUN DATE
 RUN .                  1:   RUN NUMBER
 DD  .F               680:   DEPTH DRILLER
 DL  .F               688:   DEPTH LOGGER
 BLI .F               682:   BOTTOM LOG INTERVAL
 TLI .F                50:   TOP LOG INTERVAL
 CS  .IN            8.625:   CASING SIZE
 CBD .F                40:   CASING BOTTOM DRILLER
 BS  .IN            7.875:   BIT SIZE
 BSD .F               680:   BIT SIZE AT DEPTH
 DFT .                KCL:   DRILLING FLUID TYPE
 RMS .OHMM            .32:   RESISTIVITY MUD SAMPLE
 MST .F                64:   MUD SAMPLE TEMPERATURE
 RMF .OHMM             .3:   RESISTIVITY MUD FILTRATE SAMPLE
 MFST.F                76:   MUD FILTRATE SAMPLE TEMPERATURE
 RMC .OHMM            .16:   RESISTIVITY MUD CAKE
 MCST.F                64:   MUD CAKE SAMPLE TEMPERATURE
 MFSS.               MEAS:   MUD FILTRATE SAMPLE SOURCE
 MCSS.               MEAS:   MUD CAKE SAMPLE SOURCE
 TCS .HRS               1:   TIME CURCULATED STOPPED
 LUN .               3006:   LOGGING UNIT NUMBER
 LUL .               CASP:   LOGGING UNIT LOCATION
 ENGI.             MILLER:   RECORDING ENGINEER
 WITN.           MCGINLEY:   WITNESSED BY
 CLNT.            A2DTECH:   CLIENT CODE
 ORIG.           5" PRINT:   ORIGIN OF DATA
 UWI .       490251070700:   UNIQUE WELL ID
 DICO. A2D Technologies, Inc.:   DIGITIZING COMPANY
~OTHER INFORMATION
~A   DEPT      SPR         SN        ILD       CALD         GRD      RHOB       DPHI       CORR   
# ...
  275.0000   -33.3795     7.5811     6.6416     7.6865    85.9612     2.5535     0.0874     0.0993
  275.5000   -33.5196     7.5616     6.6054     7.6864    85.7533     2.5236     0.1032     0.0701
  276.0000   -33.6009     7.5422     6.5694     7.6954    85.5141     2.4977     0.1190     0.0666
  276.5000   -33.6531     7.5228     6.5336     7.7533    85.3754     2.4842     0.1301     0.0853
  277.0000   -33.7049     7.5035     6.4981     7.8020    85.8108     2.5093     0.1143     0.1038
  277.5000   -33.7555     7.4842     6.4865     7.7115    86.8308     2.5317     0.0962     0.1165
  278.0000   -33.8680     7.4649     6.5464     7.6188    87.6170     2.5350     0.0922     0.1179
  278.5000   -33.9940     7.4450     6.5562     7.5263    88.1148     2.5373     0.0894     0.1196
  279.0000   -34.1202     7.4458     6.6134     7.4882    88.8247     2.5397     0.0861     0.1182
  279.5000   -34.2464     7.4444     6.6678     7.5253    90.0303     2.5404     0.0846     0.1164
  280.0000   -34.3726     7.5902     6.7645     7.6210    91.2456     2.5385     0.0850     0.1146
  280.5000   -34.4978     7.6928     6.8579     7.7059    92.4689     2.5295     0.0920     0.1128
  281.0000   -34.5550     7.7964     6.9525     7.7155    93.7087     2.5199     0.1022     0.1109
  281.5000   -34.5208     7.9015     7.0459     7.7271    93.2873     2.5182     0.0960     0.1091
  282.0000   -34.4874     7.9402     7.0474     7.7391    91.8791     2.5322     0.0914     0.1094
  282.5000   -34.4538     7.9402     7.0507     7.7512    90.0271     2.5356     0.0862     0.1169
  283.0000   -34.4215     7.9402     7.0540     7.7632    90.1422     2.5417     0.0766     0.1243
  283.5000   -34.3868     7.9513     7.0574     7.7751    90.1703     2.5582     0.0650     0.1259
  284.0000   -34.2756     7.9633     7.0607     7.7873    88.8097     2.5717     0.0716     0.1157
  284.5000   -33.8640     7.9752     7.0641     7.7999    87.7445     2.5709     0.0826     0.0823
  285.0000   -33.4672     7.9871     7.0674     7.8280    87.8857     2.5410     0.0970     0.0498
  285.5000   -33.0714     7.9991     7.0708     7.8270    89.3383     2.5284     0.0934     0.0415
  286.0000   -32.7350     8.0110     7.0741     7.8127    91.1609     2.5282     0.0975     0.0366
  286.5000   -32.6232     8.0230     7.0774     7.7968    92.8171     2.5159     0.1052     0.0318
  287.0000   -32.5080     8.0350     7.0808     7.7808    92.3008     2.5056     0.1085     0.0278
  287.5000   -32.3924     8.0470     7.0841     7.7649    87.8621     2.5047     0.1075     0.0274
  288.0000   -32.2763     8.0590     7.0875     7.7488    83.4374     2.5040     0.1090     0.0269
  288.5000   -32.1668     8.0711     7.0909     7.7465    82.4721     2.5033     0.1083     0.0265
  289.0000   -32.1636     8.0831     7.0942     7.7465    82.2264     2.4995     0.1103     0.0260
  289.5000   -32.1642     8.0952     7.0976     7.7465    81.9583     2.4923     0.1165     0.0274
  290.0000   -32.1643     8.1073     7.1009     7.7465    81.6845     2.4848     0.1209     0.0294
  290.5000   -32.1643     8.1194     7.1043     7.7465    81.5597     2.4799     0.1241     0.0313
  291.0000   -32.1643     8.1316     7.1077     7.7465    82.2519     2.4765     0.1261     0.0356
  291.5000   -32.1643     8.1437     7.1110     7.7465    84.7488     2.4755     0.1268     0.0410
  292.0000   -32.1640     8.1559     7.1766     7.7458    87.2308     2.4758     0.1211     0.0465
  292.5000   -32.1645     8.1620     7.1766     7.7798    88.9078     2.4882     0.1138     0.0517
  293.0000   -32.1627     8.2223     7.2990     7.8249    89.2680     2.4952     0.1170     0.0519
  293.5000   -32.3872     8.3078     7.4368     7.8701    89.5529     2.4977     0.1097     0.0519
  294.0000   -32.7621     8.3942     7.5772     7.8658    89.8547     2.5054     0.1058     0.0519
  294.5000   -32.9725     8.4814     7.7202     7.8268    90.2641     2.5071     0.1067     0.0519
  295.0000   -32.9848     8.5695     7.8247     7.8575    90.6944     2.5039     0.1102     0.0518
  295.5000   -32.9979     8.6585     7.8856     7.8867    90.3152     2.5064     0.1122     0.0491
  296.0000   -33.0104     8.7485     7.9469     7.8752    87.5940     2.5131     0.1011     0.0461
  296.5000   -33.0233     8.8393     8.0088     7.8635    84.7318     2.5165     0.1008     0.0432
  297.0000   -33.0361     8.9312     8.0711     7.8520    81.9167     2.5165     0.1023     0.0402
  297.5000   -33.0490     9.0240     8.1339     7.8405    81.5939     2.5180     0.1038     0.0412
  298.0000   -33.0618     9.1177     8.1976     7.8288    84.4283     2.5229     0.0992     0.0427
  298.5000   -33.0747     9.2124     8.2376     7.8308    83.9142     2.5279     0.0942     0.0435
  299.0000   -33.0875     9.3081     8.2376     7.8431    83.3749     2.5328     0.0892     0.0411
  299.5000   -33.1004     9.4048     8.2376     7.8554    83.9019     2.5364     0.0866     0.0387
  300.0000   -33.1132     9.4554     8.2376     7.8656    84.4489     2.5354     0.0929     0.0363
  300.5000   -33.1261     9.4261     8.2376     7.8535    84.3914     2.5313     0.0954     0.0339
  301.0000   -33.1389     9.4034     8.2376     7.8415    82.5610     2.5326     0.0914     0.0320
  301.5000   -33.1518     9.3807     8.2376     7.8297    80.6324     2.5354     0.0914     0.0329
  302.0000   -33.1650     9.3581     8.2376     7.8179    79.6551     2.5383     0.0860     0.0337
  302.5000   -33.1572     9.3356     8.2376     7.8060    81.5310     2.5412     0.0834     0.0345
  303.0000   -33.1465     9.3131     8.2375     7.7942    81.7571     2.5368     0.0880     0.0353
  303.5000   -33.1357     9.2907     8.2282     7.7824    78.8044     2.5315     0.0916     0.0355
  304.0000   -33.1250     9.2683     8.2118     7.7705    76.1759     2.5266     0.0952     0.0326
  304.5000   -33.1143     9.2460     8.1955     7.7665    78.1053     2.5259     0.0940     0.0298
  305.0000   -33.1036     9.2237     8.1791     7.7664    80.4474     2.5251     0.0942     0.0269
  305.5000   -33.0930     9.2015     8.1628     7.7665    82.4270     2.5192     0.1030     0.0241
  306.0000   -33.0823     9.1793     8.1465     7.7665    81.7119     2.5144     0.1012     0.0213
  306.5000   -33.0716     9.1572     8.1303     7.7665    76.6356     2.5117     0.1009     0.0184
  307.0000   -33.0609     9.1351     8.1141     7.7665    73.9383     2.5090     0.1026     0.0180
  307.5000   -33.0502     9.1131     8.0979     7.7665    76.2871     2.5060     0.1114     0.0185
  308.0000   -33.0395     9.0912     8.0818     7.7665    77.8987     2.4958     0.1184     0.0208
  308.5000   -33.0288     9.0693     8.0657     7.7665    78.3277     2.4885     0.1175     0.0231
  309.0000   -33.0181     9.0474     8.0496     7.7665    79.0699     2.4918     0.1166     0.0237
  309.5000   -33.0075     9.0257     8.0336     7.7665    80.3232     2.4952     0.1158     0.0232
  310.0000   -32.9968     9.0039     8.0175     7.7665    80.7909     2.4903     0.1202     0.0226
  310.5000   -32.9861     8.9822     7.9935     7.7665    79.5022     2.4842     0.1222     0.0221
  311.0000   -32.9754     8.9606     7.9668     7.7665    78.2232     2.4818     0.1215     0.0215
  311.5000   -32.9647     8.9390     7.9402     7.7665    78.3838     2.4820     0.1210     0.0210
  312.0000   -32.9540     8.9174     7.9138     7.7665    79.4094     2.4823     0.1217     0.0204
  312.5000   -32.9433     8.8960     7.8874     7.7665    79.7913     2.4826     0.1230     0.0199
  313.0000   -32.9326     8.8746     7.8611     7.7665    80.0196     2.4829     0.1218     0.0194
  313.5000   -32.9220     8.8450     7.8349     7.7665    80.3164     2.4832     0.1218     0.0188
  314.0000   -32.9113     8.7514     7.8087     7.7665    80.8881     2.4834     0.1252     0.0183
  314.5000   -32.9006     8.6587     7.7563     7.7665    82.8071     2.4859     0.1201     0.0182
  315.0000   -32.8899     8.5671     7.6779     7.7665    85.7065     2.4889     0.1182     0.0187
