~VERSION INFORMATION
 VERS.                2.0:   CWLS LOG ASCII STANDARD - VERSION 2.0
 WRAP.                 NO:   ONE LINE PER DEPTH STEP
~WELL INFORMATION
#MNEM.UNIT      DATA TYPE    INFORMATION
#----------   ------------   ------------------------------
 STRT.F            7.0000:   START DEPTH
 STOP.F          549.0000:   STOP DEPTH
 STEP.F            0.5000:   STEP LENGTH
 NULL.          -999.2500:   NO VALUE
 COMP. LAWRENCE-ALLISON &AS:   COMPANY
 WELL. NPR 3 #51-62-SX-10-LP3:   WELL
 FLD .             TEAPOT:   FIELD
 LOC .      S10 T38N R78W:   LOCATION
 CNTY.            NATRONA:   COUNTY
 STAT.            WYOMING:   STATE
 CTRY. UNITED STATES OF AMERICA:   COUNTRY
 SRVC.      Dresser Atlas:   SERVICE COMPANY
 DATE.        10-DEC-1984:   LOGDATE
 API .       490251099500:   API NUMBER
~CURVE INFORMATION
#MNEM.UNIT       API CODE    CURVE DESCRIPTION
#----------   ------------   ------------------------------
 DEPT.F                  :   
 SPR .MV     07 010 01 00:   SPONTANEOUS POTENTIAL
 RILD.OHMM   07 120 46 00:   INDUCTION LOG DEEP RESISTIVITY
 RILM.OHMM   07 120 44 00:   INDUCTION LOG MEDIUM RESISTIVITY
 RFOC.OHMM   07 220 04 00:   RESISTIVITY FOCUSED LOG
 DT  .US/F   60 520 00 00:   INTERVAL TRANSIT TIME
 PORD.DEC    45 890 12 00:   POROSITY DENSITY SANDSTONE
 CNCF.DEC    42 890 03 00:   NEUTRON POROSITY SANDSTONE
 CALD.IN     45 280 60 00:   CALIPER FROM DENSITY LOG
 GRD .GAPI   45 310 01 00:   GAMMA RAY FROM DENSITY LOG
 CORR.G/C3   45 356 01 00:   DENSITY CORRECTION
 DEN .G/C3   45 350 01 00:   COMPENSATED BULK DENSTIY
~PARAMETER INFORMATION
#MNEM.UNIT          VALUE    DESCRIPTION
#----------   ------------   ------------------------------
 PD  .                 GL:   PERMANENT DATUM
 EPD .F              5179:   ELEVATION PERMANENT DATUM
 LMF .                 GL:   LOG MEASURED FROM
 DMF .                 GL:   DRILLING MEASURED FROM
 EGL .F              5179:   GROUND LEVEL
 DATE.        10-DEC-1984:   RUN DATE
 RUN .                  1:   RUN NUMBER
 DD  .F               554:   DEPTH DRILLER
 DL  .F               551:   DEPTH LOGGER
 BLI .F               549:   BOTTOM LOG INTERVAL
 TLI .F                20:   TOP LOG INTERVAL
 CS  .IN            8.625:   CASING SIZE
 CBD .F                20:   CASING BOTTOM DRILLER
 CBL .F                20:   CASING BOTTOM LOGGER
 BS  .IN            7.875:   BIT SIZE
 BSD .F               554:   BIT SIZE AT DEPTH
 DFT .         KCL- WATER:   DRILLING FLUID TYPE
 MSS .           MUD TANK:   MUD SAMPLE SOURCE
 RMS .OHMM           .168:   RESISTIVITY MUD SAMPLE
 MST .F                77:   MUD SAMPLE TEMPERATURE
 RMF .OHMM           .126:   RESISTIVITY MUD FILTRATE SAMPLE
 MFST.F                77:   MUD FILTRATE SAMPLE TEMPERATURE
 RMC .OHMM            .21:   RESISTIVITY MUD CAKE
 MCST.F                77:   MUD CAKE SAMPLE TEMPERATURE
 MFSS.               CALC:   MUD FILTRATE SAMPLE SOURCE
 MCSS.               CALC:   MUD CAKE SAMPLE SOURCE
 RMB .OHMM            .15:   RESISTIVITY MUD AT BHT
 BHT .F                85:   BOTTOM HOLE TEMPERATURE
 TCS .HRS             3.5:   TIME CURCULATED STOPPED
 MRT .F               100:   MAXIMUM RECORDED TEMPERATURE
 LUN .               6270:   LOGGING UNIT NUMBER
 LUL .                 FM:   LOGGING UNIT LOCATION
 ENGI.          E. GOVETT:   RECORDING ENGINEER
 WITN.             GROOMS:   WITNESSED BY
 CLNT.            A2DTECH:   CLIENT CODE
 ORIG.           5" PRINT:   ORIGIN OF DATA
 UWI .       490251099500:   UNIQUE WELL ID
 DICO. A2D Technologies, Inc.:   DIGITIZING COMPANY
~OTHER INFORMATION
~A    DEPT     SPR       RILD       RILM       RFOC         DT       PORD         CNCF     CALD        GRD       CORR        DEN   
# ...
   68.0000   -59.7801     9.0242     8.1184    10.9892   104.7577     0.1404     0.3067     7.5984    98.9236     0.0009     2.4493
   68.5000   -59.7757     9.1519     8.2915    11.2251   104.4555     0.1374     0.2923     7.6123    98.4632     0.0068     2.4485
   69.0000   -59.7713     9.1542     8.6462    11.5457   104.1532     0.1380     0.2950     7.6259    98.0013     0.0067     2.4476
   69.5000   -60.2122     9.1560     8.8921    11.7936   103.7006     0.1389     0.2963     7.6397    96.9398     0.0082     2.4469
   70.0000   -59.9108     9.2215     9.0197    11.9650   102.9472     0.1383     0.2872     7.6687    95.7301     0.0186     2.4521
   70.5000   -59.4613     9.4169     9.0227    12.0537   102.1939     0.1347     0.2760     7.6373    97.2227     0.0351     2.4611
   71.0000   -59.1602     9.6165     9.1515    11.5685   101.4405     0.1284     0.2751     7.6211    98.5672     0.0319     2.4702
   71.5000   -59.0064     9.8254     9.2822    11.2564   100.3864     0.1251     0.2727     7.6049    99.1620     0.0242     2.4701
   72.0000   -58.8546     9.9598     9.5479    11.2629    99.5578     0.1248     0.2724     7.6037    94.7899     0.0077     2.4731
   72.5000   -58.7018    10.0310     9.8865    11.4254    98.8044     0.1220     0.2833     7.6022    93.7306     0.0106     2.4791
   73.0000   -58.6973    10.3148    10.0974    11.6719    98.0510     0.1193     0.2815     7.6163    95.3736     0.0165     2.4821
   73.5000   -58.6920    10.5334    10.1709    12.0887    97.5984     0.1200     0.2763     7.6149    95.5173     0.0270     2.4790
   74.0000   -58.6876    10.9067    10.3879    12.2630    97.1458     0.1248     0.2759     7.6137    92.3483     0.0239     2.4707
   74.5000   -58.6832    11.3053    10.5362    12.2687    96.6932     0.1245     0.2800     7.6125    91.8882     0.0238     2.4729
   75.0000   -58.6788    11.7752    10.6138    12.3597    96.2405     0.1200     0.2763     7.6113    91.8793     0.0358     2.4827
   75.5000   -58.5260    12.1084    10.6173    12.7142    95.7127     0.1140     0.2699     7.6255    91.7200     0.0493     2.4924
   76.0000   -58.3733    12.2797    10.5467    12.8975    95.4105     0.1158     0.2675     7.6240    91.2600     0.0657     2.4939
   76.5000   -58.3689    12.2821    10.4051    13.0835    96.0105     0.1213     0.2648     7.6228    90.0481     0.0415     2.4788
   77.0000   -58.5139    12.3699    10.3374    13.1805    96.7609     0.1294     0.2664     7.6216    90.0391     0.0249     2.4697
   77.5000   -58.8063    12.3730    10.3410    12.8263    97.5112     0.1321     0.2740     7.6358    90.0301     0.0278     2.4606
   78.0000   -58.5040    12.3755    10.4171    12.5684    97.8857     0.1315     0.2755     7.6192    89.9205     0.0292     2.4598
   78.5000   -58.2029    12.3779    10.4205    12.4875    97.8842     0.1312     0.2673     7.6180    87.9072     0.0276     2.4598
   79.0000   -58.1985    12.2943    10.3512    12.4947    97.9579     0.1322     0.2661     7.6169    88.7983     0.0230     2.4598
   79.5000   -58.1941    12.0445    10.2840    12.5874    98.4075     0.1322     0.2816     7.6157    90.7443     0.0048     2.4590
   80.0000   -58.1897    11.6262    10.2875    12.6808    99.0075     0.1325     0.2849     7.6145    91.7902    -0.0043     2.4574
   80.5000   -58.3339    11.2437    10.1501    12.6866    99.3833     0.1325     0.2743     7.6133    89.2227    -0.0029     2.4565
   81.0000   -58.6261    11.2459     9.9447    12.4045    99.5333     0.1334     0.2698     7.6120    88.6123     0.0061     2.4535
   81.5000   -59.0667    11.4050     9.6762    11.9325    99.6082     0.1370     0.2737     7.6106    88.9041     0.0226     2.4512
   82.0000   -59.2107    11.4073     9.4150    11.6926    99.7534     0.1391     0.2752     7.6094    92.2035     0.0345     2.4475
   82.5000   -59.2063    11.4096     9.4192    11.5358    99.7519     0.1409     0.2740     7.6082    91.7434     0.0393     2.4422
   83.0000   -59.0534    11.2549     9.5534    11.4626    99.7504     0.1443     0.2725     7.6071    90.9826     0.0283     2.4331
   83.5000   -58.9006    11.1023     9.4251    11.5527    99.5897     0.1491     0.2683     7.5757    90.3722     0.0207     2.4270
   84.0000   -59.0447    10.9523     9.2977    11.9616    98.8802     0.1497     0.2625     7.5444    88.7092     0.0161     2.4285
   84.5000   -59.1876    10.9545     9.3662    12.2184    97.5316     0.1462     0.2628     7.5282    84.4897     0.0145     2.4360
   85.0000   -59.6283    11.0328     9.3693    12.3090    96.7995     0.1406     0.2789     7.5424    83.1274     0.0144     2.4495
   85.5000   -59.9206    11.1118     9.3725    12.4865    97.0298     0.1369     0.2859     7.5710    84.0208     0.0220     2.4563
   86.0000   -59.3227    11.1917     9.2473    12.3204    98.3877     0.1380     0.2852     7.6002    88.6735     0.0402     2.4464
   86.5000   -58.5765    11.1939     9.0602    11.8133    99.1381     0.1407     0.2788     7.6590    91.6721     0.0533     2.4411
   87.0000   -58.4237    11.2739     8.8156    11.4287    99.8884     0.1422     0.2740     7.6879    92.8662     0.0455     2.4388
   87.5000   -58.4193    11.2762     8.6372    11.2754   100.5636     0.1444     0.2716     7.6867    92.0676     0.0320     2.4365
   88.0000   -58.4149    11.2006     8.5212    11.2028   101.2388     0.1453     0.2705     7.6705    89.6799     0.0244     2.4387
   88.5000   -58.4105    11.1255     8.4068    11.2093   101.3881     0.1408     0.2753     7.6688    88.4786     0.0288     2.4515
   89.0000   -58.4061    10.9752     8.2373    11.0602   101.3110     0.1347     0.2826     7.6530    91.0239     0.0333     2.4590
   89.5000   -58.4017    10.8264     8.2400    10.9890   101.0088     0.1293     0.2890     7.6518    93.4210     0.0271     2.4650
   90.0000   -58.3973    10.6059     8.3000    10.9954   100.3306     0.1254     0.2911     7.6504    91.7579     0.0014     2.4687
   90.5000   -58.3929    10.4621     8.3028    11.2314    99.7276     0.1251     0.2784     7.6492    90.9971    -0.0017     2.4709
   91.0000   -58.3885    10.2424     8.3639    11.4725    99.5757     0.1242     0.2741     7.6480    90.9882     0.0028     2.4724
   91.5000   -58.5326    10.0403     8.3667    11.4778    99.7246     0.1242     0.2754     7.6468    90.9793     0.0117     2.4739
   92.0000   -58.9732     9.9730     8.4276    11.2379   100.4750     0.1264     0.2766     7.6456    91.5719     0.0282     2.4655
   92.5000   -59.2655    10.1146     8.4304    10.7211   100.6994     0.1321     0.2745     7.6598    92.4652     0.0387     2.4556
   93.0000   -58.9625    10.1166     8.4918    10.5773   100.6223     0.1402     0.2720     7.6734    93.3586     0.0446     2.4471
   93.5000   -58.5059    10.1186     8.4367    10.7310   100.3953     0.1433     0.2742     7.6722    92.7482     0.0475     2.4428
   94.0000   -58.0653    10.1211     8.3234    10.8106   100.0930     0.1409     0.2787     7.6863    90.9347     0.0384     2.4461
   94.5000   -57.7641    10.1231     8.3261    10.5918   100.4675     0.1373     0.2848     7.7002    90.9258     0.0262     2.4556
   95.0000   -57.9082     9.9170     8.2707    10.3086   101.2179     0.1339     0.2860     7.6987    90.9169     0.0216     2.4586
   95.5000   -57.9027     9.6479     8.2741    10.1013   101.6675     0.1318     0.2860     7.6975    90.9080     0.0185     2.4593
   96.0000   -58.1951     9.3214     8.4593    10.0363   102.1923     0.1325     0.2875     7.6964    90.7487     0.0139     2.4555
   96.5000   -58.4874     9.1316     8.7520    10.0421   101.8901     0.1346     0.3012     7.6952    90.7373     0.0108     2.4501
   97.0000   -58.6325     9.1973     8.9387    10.1166   100.9863     0.1386     0.3045     7.6789    91.0416     0.0122     2.4471
   97.5000   -58.6270     9.1992     8.8799    10.2697    99.7818     0.1388     0.3012     7.6769    91.3235     0.0182     2.4493
   98.0000   -58.4742     9.2010     8.9446    10.4116    98.2765     0.1336     0.2879     7.6314    90.3919     0.0256     2.4613
