~VERSION INFORMATION
 VERS.                2.0:   CWLS LOG ASCII STANDARD - VERSION 2.0
 WRAP.                 NO:   ONE LINE PER DEPTH STEP
~WELL INFORMATION
#MNEM.UNIT      DATA TYPE    INFORMATION
#----------   ------------   ------------------------------
 STRT.F            1.0000:   START DEPTH
 STOP.F          524.0000:   STOP DEPTH
 STEP.F            0.1000:   STEP LENGTH
 NULL.          -999.2500:   NO VALUE
 COMP.       F D SERV INC:   COMPANY
 WELL.    87-2 SX-3 #87-3:   WELL
 FLD .             TEAPOT:   FIELD
 LOC .       S3 T38N R78W:   LOCATION
 CNTY.            NATRONA:   COUNTY
 STAT.            WYOMING:   STATE
 CTRY. UNITED STATES OF AMERICA:   COUNTRY
 SRVC.     Atlas Wireline:   SERVICE COMPANY
 DATE.        20-OCT-1992:   LOGDATE
 API .       490252254700:   API NUMBER
~CURVE INFORMATION
#MNEM.UNIT       API CODE    CURVE DESCRIPTION
#----------   ------------   ------------------------------
 DEPT.F                  :   
 GRR .GAPI   07 310 01 00:   GAMMA RAY
 RILD.OHMM   07 120 46 00:   INDUCTION LOG DEEP RESISTIVITY
 RILM.OHMM   07 120 44 00:   INDUCTION LOG MEDIUM RESISTIVITY
~PARAMETER INFORMATION
#MNEM.UNIT          VALUE    DESCRIPTION
#----------   ------------   ------------------------------
 PD  .                 GL:   PERMANENT DATUM
 EPD .F              5124:   ELEVATION PERMANENT DATUM
 LMF .                 KB:   LOG MEASURED FROM
 DAPD.F                10:   FEET ABOVE PERMANENT DATUM
 DMF .                 KB:   DRILLING MEASURED FROM
 EKB .F              5134:   KELLING BUSHING
 EDF .F              5133:   DRILLING FLOOR
 EGL .F              5124:   GROUND LEVEL
 DATE.        20-OCT-1992:   RUN DATE
 RUN .                  1:   RUN NUMBER
 DD  .F               533:   DEPTH DRILLER
 DL  .F               532:   DEPTH LOGGER
 BLI .F               524:   BOTTOM LOG INTERVAL
 TLI .F                74:   TOP LOG INTERVAL
 CS  .IN            8.625:   CASING SIZE
 CBD .F                85:   CASING BOTTOM DRILLER
 CBL .F                74:   CASING BOTTOM LOGGER
 BS  .IN            7.875:   BIT SIZE
 BSD .F               533:   BIT SIZE AT DEPTH
 DFT .           AIR FOAM:   DRILLING FLUID TYPE
 TCS .HRS               3:   TIME CURCULATED STOPPED
 MRT .F                70:   MAXIMUM RECORDED TEMPERATURE
 LUN .            HL-6274:   LOGGING UNIT NUMBER
 LUL .             CASPER:   LOGGING UNIT LOCATION
 ENGI.             RAUTIO:   RECORDING ENGINEER
 WITN.        GARY STRONG:   WITNESSED BY
 CLNT.            A2DTECH:   CLIENT CODE
 ORIG.           5" PRINT:   ORIGIN OF DATA
 UWI .       490252254700:   UNIQUE WELL ID
 DICO. A2D Technologies, Inc.:   DIGITIZING COMPANY
~OTHER INFORMATION
~A    DEPT     GRR       RILD       RILM   
# ...
  328.6000    70.4558    24.5834    22.5824
  328.7000    70.3253    24.5838    22.4550
  328.8000    70.4899    24.5841    22.3282
  328.9000    71.2395    24.5845    22.1999
  329.0000    72.6858    24.5848    22.0769
  329.1000    73.9756    24.5851    22.0446
  329.2000    75.3265    24.5855    22.0443
  329.3000    76.7983    24.5726    22.0440
  329.4000    78.2633    24.4152    22.0437
  329.5000    79.4901    24.4155    22.0433
  329.6000    79.9433    24.4159    22.1416
  329.7000    80.0552    24.4162    22.1974
  329.8000    80.0571    24.4166    22.1971
  329.9000    80.0589    24.4169    22.1968
  330.0000    80.0610    24.4172    22.1964
  330.1000    79.8580    24.4176    22.3012
  330.2000    79.7608    24.4777    22.3516
  330.3000    79.7627    24.5892    22.3966
  330.4000    79.7645    24.5896    22.5231
  330.5000    79.7665    24.5899    22.6655
  330.6000    79.7681    24.5903    22.6652
  330.7000    79.7700    24.5906    22.6649
  330.8000    79.7718    24.5910    22.7163
  330.9000    79.7736    24.5922    22.8445
  331.0000    79.7756    24.7317    22.9831
  331.1000    79.7772    24.7642    23.1034
  331.2000    79.7791    24.7645    23.2339
  331.3000    79.7809    24.7649    23.3651
  331.4000    79.7313    24.7652    23.4970
  331.5000    79.4811    24.7656    23.6335
  331.6000    79.2449    24.7659    23.6332
  331.7000    79.0017    24.7663    23.6328
  331.8000    78.6375    24.8147    23.6325
  331.9000    78.2118    24.9553    23.6664
  332.0000    77.9687    25.1154    23.8000
  332.1000    77.7255    25.2390    23.9344
  332.2000    77.4823    25.3821    23.9640
  332.3000    77.2391    25.5260    24.1107
  332.4000    77.0695    25.6705    24.3423
  332.5000    77.0561    25.8280    24.4883
  332.6000    76.7700    25.9624    24.8154
  332.7000    76.5698    26.1096    25.1648
  332.8000    76.4698    26.2576    25.5945
  332.9000    76.3869    26.4371    26.0828
  333.0000    76.1698    26.7468    26.6604
  333.1000    76.1720    26.8935    27.1753
  333.2000    75.9608    27.0460    27.7156
  333.3000    75.7176    27.2753    28.2468
  333.4000    75.4744    27.5449    28.6646
  333.5000    75.2312    27.7036    28.9894
  333.6000    74.9671    28.0185    29.3463
  333.7000    74.7448    28.2122    29.4979
  333.8000    74.3360    28.3721    29.7784
  333.9000    73.9548    28.5821    30.0414
  334.0000    73.6144    28.8954    30.2110
  334.1000    72.8517    29.0873    30.3885
  334.2000    72.1480    29.3613    30.7197
  334.3000    71.4149    29.5954    30.8157
  334.4000    70.6816    29.8229    30.8994
  334.5000    70.0080    30.1413    31.0311
  334.6000    69.5198    30.3330    31.0315
  334.7000    69.0316    30.4840    31.2069
  334.8000    68.5434    30.6569    31.2475
  334.9000    68.0552    30.8306    31.2471
  335.0000    67.5670    31.0053    31.2467
  335.1000    67.0911    31.1937    31.2373
  335.2000    66.8022    31.3578    31.0280
  335.3000    66.4058    31.5355    30.8859
  335.4000    66.0581    31.7143    30.8109
  335.5000    65.7329    31.8940    30.8105
  335.6000    65.2682    32.0788    30.7935
  335.7000    64.9902    32.2565    30.5949
  335.8000    64.7817    32.4394    30.5945
  335.9000    64.5386    32.6233    30.5941
  336.0000    64.2954    32.8081    30.5937
  336.1000    64.0522    32.9939    30.5932
  336.2000    63.7853    33.1811    30.5928
  336.3000    63.5658    33.3692    30.7488
  336.4000    63.4853    33.4540    30.8066
  336.5000    63.3829    33.5138    30.8062
  336.6000    63.1851    33.7037    30.8384
  336.7000    63.1873    33.9256    31.0215
  336.8000    63.8859    33.9260    31.1877
  336.9000    64.7965    34.0418    31.2384
  337.0000    66.0091    34.1645    31.4051
  337.1000    67.5381    34.1892    31.6775
  337.2000    69.2662    34.4048    31.6770
  337.3000    70.2416    34.4052    31.8549
  337.4000    71.2234    34.5322    32.0348
  337.5000    72.0788    34.6471    32.2158
  337.6000    72.6798    34.6819    32.3977
  337.7000    72.9362    34.8907    32.5806
  337.8000    73.5263    35.0761    32.7646
  337.9000    73.7238    35.1359    32.9498
  338.0000    73.9707    35.1364    33.2417
  338.1000    74.1384    35.1815    33.5568
  338.2000    74.1608    35.3834    33.7462
  338.3000    74.4458    35.3839    33.9663
  338.4000    74.4473    35.3844    34.2925
  338.5000    74.4492    35.4873    34.6816
  338.6000    74.4510    35.6332    35.0748
  338.7000    74.4211    35.6409    35.4460
  338.8000    74.1513    35.8431    35.6680
  338.9000    74.1530    35.8842    36.0290
  339.0000    74.1548    35.9986    36.3032
  339.1000    74.0552    36.1364    36.5941
  339.2000    73.8120    36.1369    36.9354
  339.3000    73.5534    36.1375    36.9347
  339.4000    73.0963    36.1379    36.9343
  339.5000    72.7790    36.2633    36.7887
  339.6000    72.1984    36.3920    36.5811
  339.7000    70.9499    36.3925    36.4197
  339.8000    68.7066    36.3931    36.4192
  339.9000    66.5434    36.3935    36.2175
  340.0000    64.8864    36.5299    36.0132
  340.1000    63.6653    36.6494    35.8099
  340.2000    62.8173    36.6499    35.6078
  340.3000    62.3423    36.6504    35.4013
  340.4000    62.5958    36.6509    35.0037
  340.5000    63.0359    36.6514    34.4577
  340.6000    63.3930    36.7497    33.9829
  340.7000    63.6398    36.9091    33.7184
  340.8000    63.9044    36.9096    33.7041
  340.9000    64.4780    36.9101    33.4824
  341.0000    64.8883    36.9106    33.4820
  341.1000    65.3802    37.0200    33.4815
  341.2000    65.7846    37.1701    33.4811
  341.3000    66.1183    37.1706    33.4806
  341.4000    67.2184    37.1712    33.4801
  341.5000    67.8665    37.1716    33.4797
  341.6000    68.4464    37.1722    33.4792
  341.7000    69.3327    37.1727    33.4787
  341.8000    70.8045    37.1532    33.4782
  341.9000    72.3868    36.9153    33.4777
  342.0000    73.7482    36.9158    33.4773
  342.1000    75.0519    36.6597    33.3476
  342.2000    76.2788    36.2491    33.1594
  342.3000    77.5057    35.8427    33.0109
  342.4000    78.7691    35.4042    33.0105
  342.5000    79.7219    34.8669    32.6509
  342.6000    80.5245    34.4117    32.4171
  342.7000    81.1405    34.0262    32.1451
  342.8000    81.6324    33.6448    31.8288
  342.9000    82.1204    33.2516    31.6462
  343.0000    82.3673    33.0732    31.2908
  343.1000    82.6141    32.8878    31.0748
  343.2000    82.9929    32.8815    30.8994
  343.3000    83.4112    33.0222    30.7250
  343.4000    83.6880    33.0226    30.5620
  343.5000    84.5557    33.0231    30.5615
  343.6000    85.1618    33.1673    30.4197
  343.7000    85.8987    33.2553    30.3477
  343.8000    86.5510    33.2557    30.3473
  343.9000    87.0167    33.2562    30.3469
  344.0000    87.2961    33.2567    30.3464
  344.1000    87.5104    33.2571    30.1979
  344.2000    87.6030    33.2576    30.1341
  344.3000    87.7005    33.2580    30.1337
  344.4000    87.9099    33.2585    30.1333
  344.5000    87.6087    33.2590    30.1328
  344.6000    87.6103    33.2594    30.1325
  344.7000    87.6121    33.2599    30.1320
  344.8000    87.6140    33.2604    30.1316
  344.9000    87.5675    33.2608    30.0978
  345.0000    87.3142    33.2613    29.9208
  345.1000    87.3159    33.2618    29.9204
  345.2000    87.1413    33.1352    29.9200
  345.3000    87.0161    33.0314    29.9195
  345.4000    86.9585    33.0319    29.8782
  345.5000    86.7153    33.0323    29.7102
  345.6000    86.4720    32.6751    29.7098
  345.7000    86.2288    32.3094    29.5814
  345.8000    85.8566    32.0357    29.5019
  345.9000    85.3684    31.8108    29.4537
  346.0000    84.8802    31.4569    29.2873
  346.1000    84.2996    31.2806    29.0908
  346.2000    83.9038    30.9695    29.0905
  346.3000    83.2754    30.7158    28.9035
  346.4000    82.5420    30.5435    28.5783
  346.5000    81.8088    30.3610    28.2418
  346.6000    80.9702    29.9628    27.6991
  346.7000    80.5522    29.5477    27.3013
