~VERSION INFORMATION
 VERS.                2.0:   CWLS LOG ASCII STANDARD - VERSION 2.0
 WRAP.                 NO:   ONE LINE PER DEPTH STEP
~WELL INFORMATION
#MNEM.UNIT      DATA TYPE    INFORMATION
#----------   ------------   ------------------------------
 STRT.F           22.0000:   START DEPTH
 STOP.F          654.0000:   STOP DEPTH
 STEP.F            0.5000:   STEP LENGTH
 NULL.          -999.2500:   NO VALUE
 COMP. FENIX & SCISSON INC:   COMPANY
 WELL.     54 S 34 #54-34:   WELL
 FLD .             TEAPOT:   FIELD
 LOC .      S34 T39N R78W:   LOCATION
 CNTY.            NATRONA:   COUNTY
 STAT.            WYOMING:   STATE
 CTRY. UNITED STATES OF AMERICA:   COUNTRY
 SRVC.           BIRDWELL:   SERVICE COMPANY
 DATE.        22-AUG-1978:   LOGDATE
 API .       490251070100:   API NUMBER
~CURVE INFORMATION
#MNEM.UNIT       API CODE    CURVE DESCRIPTION
#----------   ------------   ------------------------------
 DEPT.F                  :   
 SPR .MV     05 010 01 00:   SPONTANEOUS POTENTIAL FROM RES.
 SN  .OHMM   05 040 16 00:   SHORT NORMAL 16"
 ILD .OHMM   05 120 46 00:   INDUCTION LOG DEEP
 CALD.IN     45 280 60 00:   CALIPER
 GRD .GAPI   45 310 01 00:   GAMMA RAY FROM DENSITY LOG
 DPHI.DEC    45 890 12 00:   DENSITY POROSITY SANDSTONE
 RHOB.G/C3   45 350 01 00:   BULK DENSITY
 CORR.G/C3   45 356 01 00:   DENSITY CORRECTION
~PARAMETER INFORMATION
#MNEM.UNIT          VALUE    DESCRIPTION
#----------   ------------   ------------------------------
 PD  .                 GL:   PERMANENT DATUM
 EPD .F              5085:   ELEVATION PERMANENT DATUM
 LMF .                 KB:   LOG MEASURED FROM
 DAPD.F                 4:   FEET ABOVE PERMANENT DATUM
 DMF .                 KB:   DRILLING MEASURED FROM
 EKB .F              5089:   KELLING BUSHING
 EGL .F              5085:   GROUND LEVEL
 DATE.            8-22-78:   RUN DATE
 RUN .                  1:   RUN NUMBER
 DD  .F               685:   DEPTH DRILLER
 DL  .F               653:   DEPTH LOGGER
 BLI .F               646:   BOTTOM LOG INTERVAL
 TLI .F                30:   TOP LOG INTERVAL
 CS  .IN            8.625:   CASING SIZE
 CBD .F                46:   CASING BOTTOM DRILLER
 CBL .F                46:   CASING BOTTOM LOGGER
 BS  .IN            7.875:   BIT SIZE
 BSD .F               685:   BIT SIZE AT DEPTH
 DFT .                KCL:   DRILLING FLUID TYPE
 DFD .                8.7:   DRILLING FLUID DENSITY
 DFV .                 33:   DRILLING FLUID VISCOSITY
 DFPH.                  9:   DRILLING FLUID PH
 MSS .           FLOWLINE:   MUD SAMPLE SOURCE
 RMS .OHMM            .18:   RESISTIVITY MUD SAMPLE
 MST .F                86:   MUD SAMPLE TEMPERATURE
 RMF .OHMM            .16:   RESISTIVITY MUD FILTRATE SAMPLE
 MFST.F                86:   MUD FILTRATE SAMPLE TEMPERATURE
 RMC .OHMM            .52:   RESISTIVITY MUD CAKE
 MCST.F                86:   MUD CAKE SAMPLE TEMPERATURE
 MFSS.               MEAS:   MUD FILTRATE SAMPLE SOURCE
 MCSS.               MEAS:   MUD CAKE SAMPLE SOURCE
 BHT .F                70:   BOTTOM HOLE TEMPERATURE
 TCS .HRS               2:   TIME CURCULATED STOPPED
 MRT .F                70:   MAXIMUM RECORDED TEMPERATURE
 LUN .               2958:   LOGGING UNIT NUMBER
 LUL .               CASP:   LOGGING UNIT LOCATION
 ENGI.           REYNOLDS:   RECORDING ENGINEER
 WITN.              AMEND:   WITNESSED BY
 CLNT.            A2DTECH:   CLIENT CODE
 ORIG.           5" PRINT:   ORIGIN OF DATA
 UWI .       490251070100:   UNIQUE WELL ID
 DICO. A2D Technologies, Inc.:   DIGITIZING COMPANY
~OTHER INFORMATION
~A   DEPT      SPR         SN        ILD       CALD         GRD      DPHI       RHOB       CORR   
# ...
  305.5000   -40.2450     8.1095     7.7284     7.6900    97.6012     0.0988     2.5168     0.0150
  306.0000   -40.2122     8.0802     7.6855     7.6900   100.7227     0.0964     2.5270     0.0151
  306.5000   -40.1794     8.0509     7.6428     7.6900   105.5546     0.1053     2.5165     0.0152
  307.0000   -40.1467     8.0219     7.6004     7.6900   106.6599     0.1135     2.5009     0.0153
  307.5000   -40.1139     7.9833     7.5582     7.6900   106.7854     0.1217     2.4846     0.0154
  308.0000   -40.0809     8.0025     7.5163     7.6900   104.6851     0.1223     2.4772     0.0155
  308.5000   -40.0482     8.0393     7.4870     7.6900   102.3054     0.1210     2.4790     0.0155
  309.0000   -40.0222     8.0763     7.5118     7.6900   102.5606     0.1219     2.4803     0.0156
  309.5000   -40.0459     8.1135     7.5951     7.6900   104.1004     0.1227     2.4775     0.0157
  310.0000   -40.0690     8.1508     7.6792     7.6900   105.0635     0.1224     2.4760     0.0158
  310.5000   -40.0920     8.1883     7.7643     7.6900   104.2673     0.1164     2.4854     0.0159
  311.0000   -40.1150     8.2260     7.8503     7.6900   103.6794     0.1107     2.4981     0.0160
  311.5000   -40.1380     8.2638     7.9373     7.6900   103.3342     0.1103     2.5004     0.0161
  312.0000   -40.1610     8.3019     8.0253     7.6900   101.3673     0.1116     2.4978     0.0161
  312.5000   -40.1840     8.3401     8.1142     7.6900    98.1635     0.1099     2.4985     0.0162
  313.0000   -40.2070     8.3785     8.2041     7.6900    97.9066     0.1092     2.5007     0.0163
  313.5000   -40.2300     8.4170     8.2950     7.6900    99.4394     0.1101     2.4989     0.0164
  314.0000   -40.2530     8.4363     8.3592     7.6900   101.6132     0.1109     2.4963     0.0165
  314.5000   -40.2760     8.4364     8.3319     7.6900   101.6404     0.1112     2.5006     0.0164
  315.0000   -40.2989     8.4363     8.3110     7.6900   101.4847     0.1069     2.5076     0.0162
  315.5000   -40.3219     8.4363     8.2901     7.6900   102.4149     0.1024     2.5141     0.0160
  316.0000   -40.3449     8.4363     8.2693     7.6900   104.9758     0.1020     2.5113     0.0159
  316.5000   -40.3679     8.4363     8.2485     7.6900   107.4930     0.1034     2.5081     0.0157
  317.0000   -40.3911     8.4363     8.2278     7.6900   109.1726     0.1051     2.5049     0.0155
  317.5000   -40.4158     8.4363     8.2071     7.6900   106.1063     0.1067     2.5029     0.0153
  318.0000   -40.4196     8.4363     8.1865     7.6900   101.9606     0.1080     2.5026     0.0151
  318.5000   -40.3259     8.4363     8.1659     7.6900    99.6883     0.1077     2.5022     0.0149
  319.0000   -39.7351     8.4363     8.1454     7.6900   100.0974     0.1072     2.5020     0.0148
  319.5000   -39.1362     8.4363     8.1249     7.6900   100.0723     0.1064     2.4997     0.0146
  320.0000   -39.0261     8.4363     8.1046     7.6900    99.3209     0.1108     2.4961     0.0144
  320.5000   -39.0388     8.4362     8.0842     7.6900    98.6989     0.1112     2.4941     0.0142
  321.0000   -38.8374     8.4370     8.0639     7.6900    98.7243     0.1112     2.4978     0.0140
  321.5000   -38.4714     8.4344     7.9841     7.6900    98.9240     0.1112     2.5002     0.0138
  322.0000   -38.0699     8.5161     8.1770     7.6900    99.1224     0.1136     2.4943     0.0137
  322.5000   -37.7128     8.5902     8.3286     7.6900    99.3225     0.1168     2.4873     0.0135
  323.0000   -37.4177     8.6645     8.4830     7.6900    99.6416     0.1200     2.4803     0.0133
  323.5000   -37.4242     8.7394     8.6402     7.6900   100.8005     0.1189     2.4830     0.0131
  324.0000   -37.4251     8.8150     8.8003     7.6900   101.9741     0.1144     2.4917     0.0129
  324.5000   -37.4247     8.8912     8.9635     7.6900   101.1659     0.1164     2.4847     0.0127
  325.0000   -37.4231     8.9681     9.1296     7.6900    97.7512     0.1180     2.4852     0.0125
  325.5000   -37.4352     9.0456     9.2988     7.6900    94.4165     0.1144     2.4911     0.0133
  326.0000   -37.7571     9.1238     9.4711     7.6900    94.1452     0.1139     2.4969     0.0144
  326.5000   -38.0921     9.2027     9.6467     7.6900    96.2515     0.1151     2.4912     0.0154
  327.0000   -38.4260     9.2821     9.7828     7.6900    98.3316     0.1189     2.4843     0.0164
  327.5000   -38.7589     9.3638     9.8203     7.6900    99.1518     0.1199     2.4830     0.0175
  328.0000   -39.0961     9.4488     9.8617     7.6900    99.2918     0.1172     2.4862     0.0185
  328.5000   -39.2271     9.5485     9.9824     7.6900    97.7553     0.1129     2.4916     0.0171
  329.0000   -38.9343     9.6493    10.1573     7.6900    95.7580     0.1086     2.4971     0.0155
  329.5000   -38.5821     9.7511    10.3353     7.6900    94.4370     0.1060     2.5026     0.0140
  330.0000   -38.2307     9.8539    10.5164     7.6900    91.0672     0.1056     2.5073     0.0126
  330.5000   -38.0615     9.9579    10.7007     7.6900    94.0186     0.1101     2.5013     0.0132
  331.0000   -38.1599    10.0640    10.8882     7.6900    98.8642     0.1146     2.4941     0.0140
  331.5000   -38.2550    10.1371    11.0810     7.6900   100.2682     0.1164     2.4878     0.0148
  332.0000   -38.3495    10.1371    11.2170     7.6900    94.7767     0.1164     2.4878     0.0156
  332.5000   -38.3893    10.1371    11.2140     7.6900    89.1954     0.1119     2.4949     0.0164
  333.0000   -38.2065    10.1371    11.2155     7.6900    83.9967     0.1061     2.5036     0.0163
  333.5000   -38.0282    10.1371    11.1433     7.6900    83.7896     0.1012     2.5114     0.0160
  334.0000   -37.8517    10.1372    11.0890     7.6900    85.9731     0.1038     2.5079     0.0157
  334.5000   -37.9007    10.1369    11.0348     7.6900    88.4559     0.1072     2.5039     0.0153
  335.0000   -38.2794    10.1362    10.9809     7.6900    90.9403     0.1108     2.4999     0.0150
  335.5000   -38.6488    10.1386    10.9272     7.6900    93.2086     0.1123     2.4958     0.0147
  336.0000   -39.0161    10.0352    10.8739     7.6900    93.8534     0.1143     2.4918     0.0157
  336.5000   -39.2327     9.9679    10.8207     7.6900    89.2201     0.1163     2.4878     0.0193
  337.0000   -39.2528     9.9010    10.7679     7.6900    87.5176     0.1184     2.4849     0.0228
  337.5000   -39.2749     9.8345    10.7153     7.6900    87.4982     0.1150     2.4897     0.0262
  338.0000   -39.2965     9.7685    10.6629     7.6900    87.5156     0.1105     2.4980     0.0275
  338.5000   -39.3182     9.7030    10.6108     7.6900    85.7963     0.1076     2.5051     0.0238
  339.0000   -39.3399     9.6378    10.5590     7.6900    84.0923     0.1084     2.5020     0.0204
  339.5000   -39.3618     9.5731    10.5074     7.6900    84.5085     0.1123     2.4953     0.0169
  340.0000   -39.3840     9.5089    10.4561     7.6900    86.7332     0.1164     2.4888     0.0132
  340.5000   -39.4047     9.4451    10.4203     7.6900    90.1188     0.1205     2.4823     0.0109
  341.0000   -39.3736     9.3817    10.3431     7.6900    93.5467     0.1228     2.4769     0.0104
  341.5000   -39.1553     9.3187    10.2579     7.6900    94.4758     0.1232     2.4760     0.0106
  342.0000   -38.9446     9.2562    10.1735     7.6900    92.9886     0.1201     2.4801     0.0112
  342.5000   -38.7350     9.1940    10.0897     7.6900    90.3935     0.1168     2.4879     0.0118
  343.0000   -38.6559     9.1323    10.0066     7.6900    88.6384     0.1132     2.4958     0.0124
  343.5000   -38.7275     9.0710     9.9243     7.6900    89.9615     0.1174     2.4925     0.0129
  344.0000   -38.8038     9.0101     9.8426     7.6900    91.6108     0.1236     2.4759     0.0135
  344.5000   -38.5720     8.9497     9.7615     7.6900    93.2714     0.1251     2.4721     0.0141
  345.0000   -38.2176     8.8896     9.6812     7.6900    94.7425     0.1268     2.4688     0.0145
  345.5000   -38.2493     8.8299     9.6015     7.6900    94.6821     0.1320     2.4611     0.0145
