~VERSION INFORMATION
 VERS.                2.0:   CWLS LOG ASCII STANDARD - VERSION 2.0
 WRAP.                 NO:   ONE LINE PER DEPTH STEP
~WELL INFORMATION
#MNEM.UNIT      DATA TYPE    INFORMATION
#----------   ------------   ------------------------------
 STRT.F           27.0000:   START DEPTH
 STOP.F          713.0000:   STOP DEPTH
 STEP.F            0.5000:   STEP LENGTH
 NULL.          -999.2500:   NO VALUE
 COMP. FENIX & SCISSON INC:   COMPANY
 WELL.       NPR 3 #44-34:   WELL
 FLD .        TEAPOT DOME:   FIELD
 LOC .      S34 T39N R78W:   LOCATION
 CNTY.            NATRONA:   COUNTY
 STAT.            WYOMING:   STATE
 CTRY. UNITED STATES OF AMERICA:   COUNTRY
 SRVC.           BIRDWELL:   SERVICE COMPANY
 DATE.        24-AUG-1978:   LOGDATE
 API .       490251070000:   API NUMBER
~CURVE INFORMATION
#MNEM.UNIT       API CODE    CURVE DESCRIPTION
#----------   ------------   ------------------------------
 DEPT.F                  :   
 SPR .MV     05 010 01 00:   SPONTANEOUS POTENTIAL FROM RES.
 ILD .OHMM   05 120 46 00:   INDUCTION LOG DEEP
 SN  .OHMM   05 040 16 00:   SHORT NORMAL 16"
 CALD.IN     45 280 60 00:   CALIPER
 GRD .GAPI   45 310 01 00:   GAMMA RAY FROM DENSITY LOG
 DEN .G/C3   45 350 01 00:   COMPENSATED BULK DENSTIY
 DPHI.DEC    45 890 12 00:   DENSITY POROSITY SANDSTONE
 CORR.G/C3   45 356 01 00:   DENSITY CORRECTION
~PARAMETER INFORMATION
#MNEM.UNIT          VALUE    DESCRIPTION
#----------   ------------   ------------------------------
 PD  .                 GL:   PERMANENT DATUM
 EPD .F              5124:   ELEVATION PERMANENT DATUM
 LMF .                 KB:   LOG MEASURED FROM
 DAPD.F                 4:   FEET ABOVE PERMANENT DATUM
 DMF .                 KB:   DRILLING MEASURED FROM
 EKB .F              5128:   KELLING BUSHING
 EGL .F              5124:   GROUND LEVEL
 DATE.            8-24-78:   RUN DATE
 RUN .                  1:   RUN NUMBER
 DD  .F               716:   DEPTH DRILLER
 DL  .F               713:   DEPTH LOGGER
 BLI .F               707:   BOTTOM LOG INTERVAL
 TLI .F                50:   TOP LOG INTERVAL
 CS  .IN            8.625:   CASING SIZE
 CBD .F                40:   CASING BOTTOM DRILLER
 BS  .IN            7.875:   BIT SIZE
 BSD .F               716:   BIT SIZE AT DEPTH
 DFT .            MUD KCL:   DRILLING FLUID TYPE
 DFD .                8.6:   DRILLING FLUID DENSITY
 DFV .                 34:   DRILLING FLUID VISCOSITY
 DFL .                7.4:   DRILLING FLUID LOSS
 MSS .          FLOW LINE:   MUD SAMPLE SOURCE
 RMS .OHMM            .18:   RESISTIVITY MUD SAMPLE
 MST .F                76:   MUD SAMPLE TEMPERATURE
 RMF .OHMM            .16:   RESISTIVITY MUD FILTRATE SAMPLE
 MFST.F                92:   MUD FILTRATE SAMPLE TEMPERATURE
 RMC .OHMM             .3:   RESISTIVITY MUD CAKE
 MCST.F                86:   MUD CAKE SAMPLE TEMPERATURE
 MFSS.               MEAS:   MUD FILTRATE SAMPLE SOURCE
 TCS .HRS               3:   TIME CURCULATED STOPPED
 MRT .F                72:   MAXIMUM RECORDED TEMPERATURE
 LUN .               2958:   LOGGING UNIT NUMBER
 LUL .               CASP:   LOGGING UNIT LOCATION
 ENGI.           REYNOLDS:   RECORDING ENGINEER
 WITN.              AMEND:   WITNESSED BY
 CLNT.            A2DTECH:   CLIENT CODE
 ORIG.           5" PRINT:   ORIGIN OF DATA
 UWI .       490251070000:   UNIQUE WELL ID
 DICO. A2D Technologies, Inc.:   DIGITIZING COMPANY
~OTHER INFORMATION
~A   DEPT      SPR        ILD         SN       CALD         GRD       DEN       DPHI       CORR   
# ...
  108.0000   -68.5161     8.3658     8.4215     8.8263    71.0866     2.4118     0.1614     0.0187
  108.5000   -68.5787     7.4616     8.4210     8.8728    69.6911     2.4325     0.1552     0.0158
  109.0000   -68.6728     6.6550     8.3374     8.9976    69.2686     2.4390     0.1533     0.0167
  109.5000   -69.0940     6.1673     8.2882     9.1236    68.8324     2.4384     0.1540     0.0182
  110.0000   -69.5204     6.1673     8.0577     9.2203    68.6958     2.4332     0.1635     0.0208
  110.5000   -69.9519     6.1667     7.6982     9.2297    69.7096     2.4162     0.1729     0.0290
  111.0000   -69.9688     6.1842     7.3548     9.2368    73.9398     2.3997     0.1824     0.0335
  111.5000   -69.9047     6.2194     7.0266     9.2311    78.0248     2.3862     0.1919     0.0318
  112.0000   -69.8482     6.2288     6.7131     9.2256    79.1701     2.3728     0.1999     0.0298
  112.5000   -69.2462     6.5156     6.4562     9.2202    80.6190     2.3700     0.1982     0.0277
  113.0000   -68.4560     6.9723     6.4562     9.1997    85.2572     2.3701     0.1931     0.0300
  113.5000   -67.6191     7.3973     6.7242     9.1735    86.1737     2.3758     0.1850     0.0331
  114.0000   -66.5819     8.2725     7.1976     9.1471    86.1791     2.4002     0.1802     0.0363
  114.5000   -65.6184     9.3558     7.7044     9.1210    85.9183     2.4057     0.1759     0.0393
  115.0000   -65.0290    10.6823     8.1857     9.1181    84.8106     2.4104     0.1735     0.0387
  115.5000   -64.4666    10.6938     8.6539     9.1182    82.9510     2.4129     0.1725     0.0378
  116.0000   -63.9052    10.7276     8.9109     9.1182    79.6397     2.4142     0.1690     0.0370
  116.5000   -63.3488    10.7615     9.1882     9.1184    78.4527     2.4138     0.1722     0.0362
  117.0000   -62.7784    10.9269     9.4749     9.1109    76.8257     2.4046     0.1776     0.0341
  117.5000   -62.2118    11.2606     9.6834     9.1005    73.9977     2.3954     0.1827     0.0260
  118.0000   -61.6430    11.6078     9.8558     9.0893    73.9601     2.3941     0.1822     0.0180
  118.5000   -61.0702    11.9650    10.0304     9.0804    75.7012     2.3941     0.1814     0.0098
  119.0000   -60.6999    12.3330    10.2083     8.9853    75.9354     2.3934     0.1817     0.0098
  119.5000   -60.3358    12.6252    10.3893     8.9277    76.5723     2.3890     0.1877     0.0105
  120.0000   -60.0492    12.7674    10.5736     8.8645    77.4157     2.3846     0.1936     0.0112
  120.5000   -59.9490    12.8539    10.7782     8.8171    77.6009     2.3739     0.1996     0.0121
  121.0000   -59.8434    12.9464    10.7587     8.8299    77.7405     2.3607     0.2051     0.0132
  121.5000   -59.7384    13.0741    10.7345     8.8431    74.2847     2.3510     0.2079     0.0144
  122.0000   -59.6333    13.1935    10.7104     8.8591    74.7967     2.3511     0.2107     0.0155
  122.5000   -59.5282    13.2326    10.6823     8.8750    75.1706     2.3508     0.2062     0.0148
  123.0000   -59.4231    13.2718    10.8037     8.8909    75.2601     2.3623     0.1965     0.0139
  123.5000   -59.3182    13.3074    10.9508     8.9069    77.4041     2.3751     0.1876     0.0129
  124.0000   -59.2138    13.4460    11.0807     8.9228    80.0714     2.3880     0.1848     0.0119
  124.5000   -59.1054    13.5737    11.0807     8.9376    83.3479     2.3920     0.1830     0.0110
  125.0000   -58.9176    13.6881    11.0807     8.9368    84.5592     2.3943     0.1812     0.0100
  125.5000   -58.5334    13.7371    11.0807     8.9357    84.5119     2.3966     0.1803     0.0090
  126.0000   -58.1130    13.7876    11.0807     8.9346    81.9985     2.3965     0.1803     0.0081
  126.5000   -57.6911    13.8927    11.0806     8.9335    81.4915     2.3955     0.1823     0.0081
  127.0000   -57.2702    14.0249    11.0806     8.9325    78.9170     2.3941     0.1871     0.0096
  127.5000   -56.8465    14.0779    11.0912     8.9314    76.9140     2.3891     0.1920     0.0111
  128.0000   -56.6757    14.1035    11.1573     8.9303    77.5955     2.3749     0.1954     0.0137
  128.5000   -56.6735    14.1292    11.2235     8.9292    79.4238     2.3714     0.1963     0.0166
  129.0000   -56.6995    14.1550    11.2901     8.9282    81.2612     2.3705     0.1984     0.0199
  129.5000   -56.7257    14.1808    11.3572     8.9271    82.0952     2.3649     0.2018     0.0214
  130.0000   -56.7515    14.3261    11.4249     8.9260    79.3631     2.3574     0.2057     0.0215
  130.5000   -56.7772    14.5212    11.4938     8.9250    76.3671     2.3509     0.2075     0.0215
  131.0000   -56.8031    14.7173    11.4944     8.9239    74.6913     2.3546     0.2025     0.0215
  131.5000   -56.8291    14.7173    11.4941     8.9228    74.6011     2.3606     0.1941     0.0216
  132.0000   -56.8542    14.7173    11.4941     8.9218    74.4272     2.3740     0.1858     0.0220
  132.5000   -56.8388    14.7173    11.4941     8.9207    73.5032     2.3872     0.1774     0.0224
  133.0000   -56.7181    14.7173    11.4941     8.9196    71.9521     2.3999     0.1759     0.0229
  133.5000   -56.5993    14.7173    11.4941     8.9185    70.9300     2.4039     0.1777     0.0233
  134.0000   -56.4801    14.7174    11.4941     8.9178    75.5726     2.4013     0.1806     0.0237
  134.5000   -56.3616    14.7177    11.4941     8.9178    80.4165     2.3955     0.1845     0.0241
  135.0000   -56.2730    14.7204    11.4941     8.9178    80.3447     2.3842     0.1922     0.0246
  135.5000   -56.2748    14.6143    11.4941     8.9178    73.4346     2.3681     0.2011     0.0250
  136.0000   -56.2748    14.5010    11.4941     8.9179    72.3241     2.3521     0.2072     0.0255
  136.5000   -56.2749    14.4346    11.4941     8.9177    74.7721     2.3501     0.2099     0.0216
  137.0000   -56.2747    14.3953    11.4940     8.9142    75.4538     2.3498     0.2107     0.0171
  137.5000   -56.2730    14.3553    11.4936     8.9106    76.7730     2.3495     0.2107     0.0134
  138.0000   -56.2782    14.3154    11.5080     8.9069    80.3091     2.3488     0.2091     0.0135
  138.5000   -56.4284    14.2755    11.5247     8.9033    83.7737     2.3617     0.2010     0.0135
  139.0000   -56.7308    14.2357    11.5412     8.8999    84.1564     2.3864     0.1829     0.0135
  139.5000   -57.0035    14.1859    11.5578     8.9056    82.0123     2.3998     0.1743     0.0133
  140.0000   -57.2647    14.1881    11.5746     8.9222    77.4012     2.4063     0.1817     0.0131
  140.5000   -57.2726    13.9192    11.5999     8.9388    72.7445     2.3939     0.1912     0.0129
  141.0000   -57.2709    13.7013    11.5298     8.9556    72.0570     2.3749     0.2006     0.0128
  141.5000   -57.2702    13.4395    11.3890     8.9555    75.2906     2.3556     0.2065     0.0126
  142.0000   -57.2723    13.1770    11.2480     8.9524    79.1669     2.3540     0.2074     0.0124
  142.5000   -57.3968    13.0659    11.1088     8.9494    80.1201     2.3540     0.2071     0.0122
  143.0000   -57.7506    13.0659    11.0807     8.9464    81.9420     2.3579     0.2030     0.0121
  143.5000   -58.0923    13.0659    10.9901     8.9434    84.2660     2.3622     0.1999     0.0119
  144.0000   -58.6120    13.0659    10.8491     8.9404    84.7093     2.3631     0.2004     0.0117
  144.5000   -59.1331    13.0684    10.7407     8.9377    81.9898     2.3631     0.2011     0.0115
  145.0000   -59.6756    12.7703    10.6627     8.9457    79.6953     2.3631     0.2011     0.0136
  145.5000   -60.2132    12.3664    10.5849     8.9587    78.8555     2.3632     0.2003     0.0168
  146.0000   -60.7514    11.1812    10.3692     8.9719    87.3687     2.3733     0.1949     0.0201
  146.5000   -61.2541    10.1027    10.1567     8.9761    91.9273     2.3847     0.1873     0.0215
  147.0000   -61.4219     9.1283     9.9486     8.9637    92.5840     2.3917     0.1800     0.0215
  147.5000   -61.5854     8.1914     9.5592     8.9512    93.5229     2.3961     0.1792     0.0215
  148.0000   -62.0690     7.7058     9.1653     8.9385    94.1868     2.4069     0.1697     0.0194
