~VERSION INFORMATION
 VERS.                2.0:   CWLS LOG ASCII STANDARD - VERSION 2.0
 WRAP.                 NO:   ONE LINE PER DEPTH STEP
~WELL INFORMATION
#MNEM.UNIT      DATA TYPE    INFORMATION
#----------   ------------   ------------------------------
 STRT.F           19.0000:   START DEPTH
 STOP.F         1200.0000:   STOP DEPTH
 STEP.F            0.5000:   STEP LENGTH
 NULL.          -999.2500:   NO VALUE
 COMP.       INTEX OIL CO:   COMPANY
 WELL.     NPR 3 #73 S-14:   WELL
 FLD .             TEAPOT:   FIELD
 LOC .      S14 T38N R78W:   LOCATION
 CNTY.            NATRONA:   COUNTY
 STAT.            WYOMING:   STATE
 CTRY. UNITED STATES OF AMERICA:   COUNTRY
 SRVC.       Schlumberger:   SERVICE COMPANY
 DATE.        24-AUG-1966:   LOGDATE
 API .       490250970900:   API NUMBER
~CURVE INFORMATION
#MNEM.UNIT       API CODE    CURVE DESCRIPTION
#----------   ------------   ------------------------------
 DEPT.F                  :   
 SPR .MV     05 010 01 00:   SPONTANEOUS POTENTIAL FROM RES.
 ILD .OHMM   05 120 46 00:   INDUCTION LOG DEEP
 ASN .OHMM   05 041 16 00:   AMPLIFIED SHORT NORMAL 16"
 CILD.MMHO   05 110 46 00:   CONDUCTIVITY INDUCTION LOG DEEP
 CALD.IN     45 280 60 00:   CALIPER
 GRD .GAPI   45 310 01 00:   GAMMA RAY FROM DENSITY LOG
 CORR.G/C3   45 356 01 00:   DENSITY CORRECTION
 RHOB.G/C3   45 350 01 00:   BULK DENSITY
 DPHI.DEC    45 890 12 00:   DENSITY POROSITY SANDSTONE
~PARAMETER INFORMATION
#MNEM.UNIT          VALUE    DESCRIPTION
#----------   ------------   ------------------------------
 PD  .                 GL:   PERMANENT DATUM
 EPD .F              5274:   ELEVATION PERMANENT DATUM
 LMF .                 KB:   LOG MEASURED FROM
 DAPD.F                 5:   FEET ABOVE PERMANENT DATUM
 DMF .                 KB:   DRILLING MEASURED FROM
 EKB .F              5279:   KELLING BUSHING
 EGL .F              5274:   GROUND LEVEL
 DATE.            8-24-66:   RUN DATE
 RUN .                  1:   RUN NUMBER
 DD  .F              1200:   DEPTH DRILLER
 DL  .F              1200:   DEPTH LOGGER
 BLI .F              1199:   BOTTOM LOG INTERVAL
 TLI .F                86:   TOP LOG INTERVAL
 CS  .IN            8.625:   CASING SIZE
 CBD .F                10:   CASING BOTTOM DRILLER
 BS  .IN             6.75:   BIT SIZE
 BSD .F              1200:   BIT SIZE AT DEPTH
 DFT .                GEL:   DRILLING FLUID TYPE
 DFD .               10.1:   DRILLING FLUID DENSITY
 DFV .                 60:   DRILLING FLUID VISCOSITY
 MSS .          FLOW LINE:   MUD SAMPLE SOURCE
 RMS .OHMM            1.8:   RESISTIVITY MUD SAMPLE
 MST .F                67:   MUD SAMPLE TEMPERATURE
 RMF .OHMM            1.4:   RESISTIVITY MUD FILTRATE SAMPLE
 MFST.F                77:   MUD FILTRATE SAMPLE TEMPERATURE
 MFSS.                  M:   MUD FILTRATE SAMPLE SOURCE
 RMB .OHMM            1.1:   RESISTIVITY MUD AT BHT
 BHT .F               112:   BOTTOM HOLE TEMPERATURE
 TCS .HRS               1:   TIME CURCULATED STOPPED
 MRT .F               112:   MAXIMUM RECORDED TEMPERATURE
 LUN .               4507:   LOGGING UNIT NUMBER
 LUL .               CSPR:   LOGGING UNIT LOCATION
 ENGI.            MANGOLD:   RECORDING ENGINEER
 WITN.                MAY:   WITNESSED BY
 CLNT.            A2DTECH:   CLIENT CODE
 ORIG.           5" PRINT:   ORIGIN OF DATA
 UWI .       490250970900:   UNIQUE WELL ID
 DICO. A2D Technologies, Inc.:   DIGITIZING COMPANY
~OTHER INFORMATION
~A   DEPT      SPR        ILD        ASN       CILD       CALD         GRD        CORR     RHOB       DPHI   
# ...
  493.5000   -54.5210     6.0590     6.1060   147.8750     7.2330    94.8160     0.0240     2.4270     0.1310
  494.0000   -54.8780     6.2340     6.2670   143.3670     7.2410    96.4510     0.0210     2.4260     0.1290
  494.5000   -54.4920     6.4040     6.4500   139.3610     7.2490    98.0230     0.0310     2.4300     0.1200
  495.0000   -53.9970     6.5480     6.6000   139.3610     7.2570    99.5710     0.0400     2.4460     0.1070
  495.5000   -53.6250     6.6490     6.7910   140.3360     7.2650   101.3870     0.0470     2.4630     0.1120
  496.0000   -53.1700     6.7480     6.9700   141.7450     7.2740   102.0160     0.0350     2.4760     0.1200
  496.5000   -52.9180     6.7450     6.9930   143.3570     7.2750    99.8250     0.0310     2.4760     0.1190
  497.0000   -52.9040     6.5790     6.9340   146.7720     7.2750   100.6970     0.0410     2.4670     0.1150
  497.5000   -52.9220     6.3720     6.7970   150.7630     7.2750   102.3120     0.0370     2.4480     0.1200
  498.0000   -53.0770     6.1750     6.6230   154.7540     7.2750    99.7540     0.0210     2.4300     0.1300
  498.5000   -53.4620     5.9740     6.4560   158.7450     7.2750    96.5530     0.0150     2.4110     0.1400
  499.0000   -53.7860     5.7700     6.3040   166.0100     7.2750    94.0710     0.0100     2.3930     0.1490
  499.5000   -53.7260     5.5740     6.1170   175.4540     7.2750    93.8600     0.0090     2.3760     0.1500
  500.0000   -53.4230     5.3720     5.9790   184.8980     7.2750    93.4960     0.0240     2.3940     0.1490
  500.5000   -53.1140     5.1660     5.8310   194.3420     7.2750    92.9900     0.0390     2.4270     0.1420
  501.0000   -52.9220     4.9790     5.5160   203.7860     7.2750    93.8780     0.0490     2.4450     0.1360
  501.5000   -52.9190     4.7570     5.2390   213.2290     7.2750    96.4500     0.0510     2.4390     0.1300
  502.0000   -52.9560     4.5560     4.9740   219.2810     7.2750    99.0290     0.0560     2.4320     0.1340
  502.5000   -52.9580     4.4890     4.6960   218.5960     7.2750   101.4660     0.0590     2.4240     0.1380
  503.0000   -52.9810     4.4490     4.6530   216.8320     7.2750   104.6810     0.0630     2.4150     0.1430
  503.5000   -52.9970     4.4440     4.6820   215.0680     7.2750   104.0470     0.0560     2.4070     0.1470
  504.0000   -53.0110     4.5660     4.6500   213.2870     7.2750   101.6530     0.0430     2.4010     0.1480
  504.5000   -53.0310     4.7090     4.7010   202.5150     7.2750   100.8720     0.0490     2.4000     0.1480
  505.0000   -53.0420     4.8280     4.8750   191.6370     7.2750   105.6780     0.0520     2.4010     0.1480
  505.5000   -53.0630     4.9700     5.0980   180.7590     7.2750   104.6290     0.0470     2.4030     0.1480
  506.0000   -53.0750     5.0940     5.2560   167.3330     7.2750   101.7000     0.0410     2.4110     0.1420
  506.5000   -53.0930     5.1460     5.3300   168.3320     7.2750   100.8200     0.0360     2.4300     0.1340
  507.0000   -53.1090     5.1480     5.3820   168.3320     7.2750   102.1930     0.0290     2.4510     0.1270
  507.5000   -53.0590     5.1450     5.4030   169.3310     7.2750   101.5730     0.0320     2.4710     0.1200
  508.0000   -52.9880     5.1470     5.3890   172.6630     7.2750    99.7640     0.0420     2.4970     0.1080
  508.5000   -52.9060     5.1450     5.3580   175.9560     7.2750    99.7790     0.0500     2.4910     0.1090
  509.0000   -52.7590     5.0450     5.3320   178.3220     7.2750   100.6290     0.0590     2.4750     0.1140
  509.5000   -52.6110     4.7770     5.2580   201.2990     7.2740   101.4000     0.0460     2.4590     0.1180
  510.0000   -52.4770     4.4370     5.0060   226.9280     7.2700   102.0650     0.0410     2.4680     0.1160
  510.5000   -52.3140     4.0990     4.6770   257.9840     7.2640   103.0540     0.0480     2.4980     0.1130
  511.0000   -52.1190     3.7600     4.3650   289.0400     7.2580   102.0480     0.0540     2.4930     0.1120
  511.5000   -51.8960     3.4230     4.0390   320.0960     7.2530    99.0500     0.0570     2.4770     0.1170
  512.0000   -51.6530     3.0790     3.7270   351.1520     7.2470    96.6790     0.0400     2.4620     0.1220
  512.5000   -51.4140     2.7540     3.3980   367.1330     7.2410    96.4040     0.0230     2.4490     0.1260
  513.0000   -51.1940     2.6250     3.2370   367.1330     7.2360    94.2020     0.0270     2.4330     0.1310
  513.5000   -50.9320     2.6710     3.3850   357.6020     7.2350    90.7260     0.0360     2.4280     0.1370
  514.0000   -50.7170     2.6100     3.5000   348.3420     7.2360    87.9610     0.0440     2.4250     0.1510
  514.5000   -50.7090     2.6780     3.3910   340.1600     7.2530    84.6130     0.0530     2.3890     0.1660
  515.0000   -50.7600     3.1610     3.3560   303.9070     7.2740    83.4500     0.0600     2.3310     0.1800
  515.5000   -50.7690     3.7000     3.7500   271.4370     7.2960    84.7530     0.0680     2.3130     0.1940
  516.0000   -50.8000     4.1620     4.5100   238.9680     7.3120    85.9430     0.0750     2.3200     0.2050
  516.5000   -50.8270     4.5440     4.9960   198.3020     7.2780    87.8740     0.0810     2.3620     0.1920
  517.0000   -50.8470     4.6330     4.9350   193.3070     7.1510    87.2550     0.0690     2.4190     0.1790
  517.5000   -50.8770     4.5910     4.7230   193.3070     7.0170    77.9670     0.0480     2.5010     0.1380
  518.0000   -50.9000     4.5780     4.5860   193.3070     7.0650    73.6990     0.0410     2.4990     0.1140
  518.5000   -50.9240     4.5410     4.5890   194.7700     7.1830    80.4510     0.0460     2.4790     0.1200
  519.0000   -50.9520     4.5180     4.6700   195.8780     7.2390    88.1100     0.0490     2.4620     0.1270
  519.5000   -50.9750     4.4900     4.7130   196.9860     7.2330    90.3340     0.0450     2.4460     0.1360
  520.0000   -50.9990     4.4590     4.7730   198.0940     7.2360    91.6950     0.0390     2.4340     0.1330
  520.5000   -51.0300     4.4530     4.8070   199.2020     7.2350    98.4460     0.0430     2.4450     0.1290
  521.0000   -51.0440     4.4380     4.7590   200.3000     7.2360    96.8580     0.0530     2.4540     0.1260
  521.5000   -51.0830     4.4600     4.6560   201.2990     7.2360    92.8130     0.0540     2.4630     0.1220
  522.0000   -51.1010     4.4320     4.5320   212.8460     7.2360    92.9810     0.0390     2.4720     0.1190
  522.5000   -50.9810     4.2250     4.4300   230.1010     7.2370    91.1280     0.0430     2.4820     0.1130
  523.0000   -50.8330     3.9770     4.3210   247.3560     7.2370    90.5280     0.0580     2.4910     0.1080
  523.5000   -50.6870     3.7740     4.1760   264.6110     7.2370    93.2700     0.0620     2.4880     0.1140
  524.0000   -50.5280     3.5450     4.0320   281.8660     7.2370    95.8400     0.0570     2.4700     0.1220
  524.5000   -50.4110     3.3210     3.9000   299.1210     7.2380    96.3810     0.0400     2.4540     0.1300
  525.0000   -50.2110     3.1130     3.7600   312.1880     7.2380    94.2130     0.0300     2.4360     0.1390
  525.5000   -50.1360     2.9330     3.6240   312.1880     7.2380    95.1630     0.0360     2.4200     0.1470
  526.0000   -50.3870     2.9570     3.5300   300.5970     7.2380    97.6350     0.0200     2.4030     0.1560
  526.5000   -50.6660     3.2000     3.5410   291.4830     7.2390    96.8240     0.0150     2.3860     0.1640
  527.0000   -50.8730     3.4310     3.6150   281.2190     7.2390    95.0150     0.0250     2.3690     0.1720
  527.5000   -51.0740     3.6170     3.6940   266.2800     7.2390    92.9840     0.0320     2.3560     0.1790
  528.0000   -51.3550     3.8390     3.8830   249.1830     7.2400    92.5840     0.0400     2.3620     0.1800
  528.5000   -51.4740     4.0370     4.2110   232.0860     7.2400    93.9830     0.0500     2.3730     0.1780
  529.0000   -51.1520     4.2410     4.6430   214.9900     7.2400    95.3010     0.0470     2.3860     0.1680
  529.5000   -50.8110     4.5040     4.9830   197.8930     7.2400    95.3360     0.0370     2.4160     0.1590
