~VERSION INFORMATION
 VERS.                2.0:   CWLS LOG ASCII STANDARD - VERSION 2.0
 WRAP.                 NO:   ONE LINE PER DEPTH STEP
~WELL INFORMATION
#MNEM.UNIT      DATA TYPE    INFORMATION
#----------   ------------   ------------------------------
 STRT.F           45.5000:   START DEPTH
 STOP.F          740.0000:   STOP DEPTH
 STEP.F            0.5000:   STEP LENGTH
 NULL.          -999.2500:   NO VALUE
 COMP. FENIX & SCISSON INC:   COMPANY
 WELL.       NPR 3 #22-14:   WELL
 FLD .             TEAPOT:   FIELD
 LOC .      S14 T38N R78W:   LOCATION
 CNTY.            NATRONA:   COUNTY
 STAT.            WYOMING:   STATE
 CTRY. UNITED STATES OF AMERICA:   COUNTRY
 SRVC.           BIRDWELL:   SERVICE COMPANY
 DATE.        23-DEC-1978:   LOGDATE
 API .       490251075800:   API NUMBER
~CURVE INFORMATION
#MNEM.UNIT       API CODE    CURVE DESCRIPTION
#----------   ------------   ------------------------------
 DEPT.F                  :   
 SPR .MV     05 010 01 00:   SPONTANEOUS POTENTIAL FROM RES.
 SN  .OHMM   05 040 16 00:   SHORT NORMAL 16"
 IL  .OHMM   05 120 00 00:   INDUCTION LOG
 CALD.IN     45 280 60 00:   CALIPER
 GRD .GAPI   45 310 01 00:   GAMMA RAY FROM DENSITY LOG
 RHOB.G/C3   45 350 01 00:   BULK DENSITY
 DPHI.DEC    45 890 12 00:   DENSITY POROSITY SANDSTONE
 CORR.G/C3   45 356 01 00:   DENSITY CORRECTION
~PARAMETER INFORMATION
#MNEM.UNIT          VALUE    DESCRIPTION
#----------   ------------   ------------------------------
 PD  .                 GL:   PERMANENT DATUM
 EPD .F              5212:   ELEVATION PERMANENT DATUM
 LMF .                 KB:   LOG MEASURED FROM
 DAPD.F                 4:   FEET ABOVE PERMANENT DATUM
 DMF .                 KB:   DRILLING MEASURED FROM
 EKB .F              5216:   KELLING BUSHING
 EGL .F              5212:   GROUND LEVEL
 DATE.           12-23-78:   RUN DATE
 RUN .                  1:   RUN NUMBER
 DD  .F               735:   DEPTH DRILLER
 DL  .F               740:   DEPTH LOGGER
 BLI .F               733:   BOTTOM LOG INTERVAL
 TLI .F                50:   TOP LOG INTERVAL
 CS  .IN            8.625:   CASING SIZE
 CBD .F                40:   CASING BOTTOM DRILLER
 CBL .F                40:   CASING BOTTOM LOGGER
 BS  .IN            7.875:   BIT SIZE
 BSD .F               735:   BIT SIZE AT DEPTH
 DFT .                KCL:   DRILLING FLUID TYPE
 DFD .                8.7:   DRILLING FLUID DENSITY
 DFV .                 35:   DRILLING FLUID VISCOSITY
 DFPH.               10.5:   DRILLING FLUID PH
 DFL .               11.6:   DRILLING FLUID LOSS
 MSS .           FLOWLINE:   MUD SAMPLE SOURCE
 RMS .OHMM             .5:   RESISTIVITY MUD SAMPLE
 MST .F                60:   MUD SAMPLE TEMPERATURE
 RMF .OHMM             .5:   RESISTIVITY MUD FILTRATE SAMPLE
 MFST.F                60:   MUD FILTRATE SAMPLE TEMPERATURE
 RMC .OHMM             .7:   RESISTIVITY MUD CAKE
 MCST.F                60:   MUD CAKE SAMPLE TEMPERATURE
 MFSS.           MEASURED:   MUD FILTRATE SAMPLE SOURCE
 MCSS.           MEASURED:   MUD CAKE SAMPLE SOURCE
 RMB .OHMM           .518:   RESISTIVITY MUD AT BHT
 BHT .F                58:   BOTTOM HOLE TEMPERATURE
 TCS .HRS               5:   TIME CURCULATED STOPPED
 MRT .F                58:   MAXIMUM RECORDED TEMPERATURE
 LUN .               2958:   LOGGING UNIT NUMBER
 LUL .             CASPER:   LOGGING UNIT LOCATION
 ENGI.         B. ROLLINS:   RECORDING ENGINEER
 WITN.              IMMEL:   WITNESSED BY
 CLNT.            A2DTECH:   CLIENT CODE
 ORIG.           5" PRINT:   ORIGIN OF DATA
 UWI .       490251075800:   UNIQUE WELL ID
 DICO. A2D Technologies, Inc.:   DIGITIZING COMPANY
~OTHER INFORMATION
~A   DEPT      SPR         SN         IL       CALD         GRD      RHOB       DPHI       CORR   
   45.5000  -999.2500  -999.2500  -999.2500  -999.2500    72.8160  -999.2500  -999.2500  -999.2500
   46.0000  -999.2500  -999.2500  -999.2500     7.8230    78.4840  -999.2500  -999.2500  -999.2500
   46.5000  -999.2500  -999.2500  -999.2500     7.8020    82.5930  -999.2500  -999.2500  -999.2500
   47.0000  -999.2500  -999.2500  -999.2500     7.7820    83.7880  -999.2500  -999.2500  -999.2500
   47.5000  -999.2500  -999.2500  -999.2500     7.7610    86.0880  -999.2500  -999.2500  -999.2500
   48.0000  -999.2500  -999.2500  -999.2500     7.7450    88.8420  -999.2500  -999.2500  -999.2500
   48.5000  -999.2500  -999.2500  -999.2500     7.7240    87.3590  -999.2500  -999.2500  -999.2500
   49.0000  -999.2500  -999.2500  -999.2500     7.7030    85.4990  -999.2500  -999.2500  -999.2500
   49.5000  -999.2500  -999.2500  -999.2500     7.6830    84.6580  -999.2500  -999.2500  -999.2500
   50.0000  -999.2500     5.7680     5.4090     7.6580    84.0350  -999.2500  -999.2500  -999.2500
   50.5000  -999.2500     6.1520     5.7680     7.6380    83.5530  -999.2500  -999.2500     0.1040
   51.0000  -999.2500     6.4410     6.1520     7.7250    83.4580  -999.2500     0.2730     0.0640
   51.5000  -999.2500     6.7040     6.1840     9.2590    83.3580  -999.2500     0.2690     0.0230
   52.0000  -999.2500     6.6830     6.1520     7.7080    83.2580     2.2600     0.2670     0.0140
   52.5000  -999.2500     6.9330     6.1520     7.6360    83.1620     2.2460     0.2870     0.0140
   53.0000  -999.2500     6.9330     6.1520     7.6860    83.0830     2.2320     0.2550     0.0140
   53.5000  -999.2500     6.9330     6.1520     7.7310    83.5270     2.2810     0.2130     0.0150
   54.0000  -999.2500     6.9330     6.1520     7.7320    85.5860     2.3510     0.2000     0.0180
   54.5000  -999.2500     6.9330     6.1520     7.7330    87.5930     2.3930     0.1970     0.0280
   55.0000  -999.2500     6.9330     6.1520     7.7340    89.0190     2.3790     0.2080     0.0310
   55.5000  -999.2500     6.9330     6.1560     7.7360    89.7820     2.3610     0.2180     0.0280
   56.0000  -999.2500     6.9330     5.9300     7.7370    89.8030     2.3430     0.2280     0.0260
   56.5000  -999.2500     6.8700     5.6630     7.7390    89.8160     2.3260     0.2390     0.0190
   57.0000  -999.2500     6.6220     4.5000     7.7400    90.0060     2.3080     0.2490     0.0130
   57.5000  -999.2500     6.3820     4.3370     7.7420    90.7290     2.2900     0.2600     0.0060
   58.0000  -999.2500     5.9300     4.2980     7.7430    94.1910     2.2720     0.2690     0.0000
   58.5000  -999.2500     5.7150     4.2190     7.7450    98.7900     2.2500     0.2520    -0.0070
   59.0000  -999.2500     5.6630     4.2190     7.7460   101.2700     2.2610     0.2350    -0.0070
   59.5000  -999.2500     5.6630     4.2980     7.7470   100.3950     2.3010     0.2200     0.0000
   60.0000  -999.2500     5.5600     4.5410     7.7490    95.1630     2.3370     0.2500     0.0060
   60.5000  -999.2500     5.6630     4.8880     7.7420    89.3300     2.3550     0.2700     0.0120
   61.0000  -999.2500     5.9300     5.2130     7.7120    83.3060     2.3570     0.2390     0.0120
   61.5000  -999.2500     5.9840     5.5090     7.6820    82.7710     2.3600     0.2050     0.0130
   62.0000  -999.2500     5.9840     5.7150     7.6530    84.0250     2.3670     0.2060     0.0130
   62.5000  -999.2500     5.9840     5.9300     7.6240    84.4530     2.3740     0.2090     0.0130
   63.0000  -999.2500     5.9840     5.9300     7.5940    84.5420     2.3810     0.2030     0.0140
   63.5000  -999.2500     5.9840     5.9300     7.5650    85.0170     2.3880     0.1940     0.0140
   64.0000  -999.2500     5.9840     5.9300     7.5510    89.2480     2.3950     0.1930     0.0160
   64.5000  -999.2500     5.9840     5.7150     7.5740    91.9630     2.3970     0.1920     0.0280
   65.0000  -999.2500     5.8750     5.3100     7.5990    90.8670     2.3950     0.1920     0.0400
   65.5000  -999.2500     5.6110     5.1650     7.6250    90.2290     2.3890     0.1950     0.0450
   66.0000  -999.2500     5.4590     5.0710     7.6510    89.6380     2.3820     0.1950     0.0460
   66.5000  -999.2500     5.2610     4.8840     7.6770    90.0370     2.3780     0.1950     0.0470
   67.0000  -999.2500     5.0650     4.6900     7.7040    91.9280     2.3770     0.2010     0.0403
   67.5000  -999.2500     4.8880     4.4960     7.7320    91.0120     2.3750     0.2040     0.0380
   68.0000  -999.2500     4.7100     4.3010     7.7600    89.3880     2.3730     0.2040     0.0425
   68.5000  -999.2500     4.5330     4.1070     7.7890    88.1840     2.3680     0.2150     0.0501
   69.0000  -999.2500     4.3560     3.9130     7.8100    89.4890     2.3510     0.2270     0.0791
   69.5000  -999.2500     4.1790     3.7180     7.8320    91.7990     2.3340     0.2440     0.0862
   70.0000  -999.2500     4.0010     3.6160     7.8540    92.1400     2.3120     0.2340     0.0904
   70.5000  -999.2500     3.8240     3.5390     7.8760    91.6280     2.3210     0.2200     0.0823
   71.0000  -999.2500     3.6470     3.4630     7.8990    89.9650     2.3380     0.2090     0.0784
   71.5000  -999.2500     3.6080     3.4060     7.8930    88.0400     2.3560     0.2150     0.0770
   72.0000  -999.2500     3.6080     3.3550     7.8600    82.7450     2.3560     0.2270     0.0780
   72.5000  -999.2500     3.5810     3.3050     7.8310    80.6330     2.3330     0.2390     0.0780
   73.0000  -999.2500     3.4390     3.2540     7.8390    82.9210     2.3120     0.2520     0.0790
   73.5000  -999.2500     3.2970     3.2030     7.8470    86.2160     2.2910     0.2580     0.0790
   74.0000  -999.2500     3.1540     3.1520     7.8550    89.6140     2.2730     0.2600     0.0790
   74.5000  -999.2500     3.0120     3.1010     7.8630    89.2850     2.2730     0.2720     0.0800
   75.0000  -999.2500     2.8690     3.0370     7.8720    88.6960     2.2690     0.2870     0.0810
   75.5000  -999.2500     2.7400     3.1160     7.8800    88.5630     2.2520     0.2960     0.0890
   76.0000  -999.2500     2.6390     3.2590     7.8880    88.8920     2.2370     0.2910     0.1050
   76.5000  -999.2500     2.7210     3.4020     7.8960    89.2220     2.2520     0.2710     0.1330
   77.0000  -999.2500     2.7890     3.5450     7.9040    88.7590     2.2780     0.2520     0.1600
   77.5000  -999.2500     2.9880     3.6880     7.9020    86.8300     2.3160     0.2330     0.1790
   78.0000  -999.2500     3.3100     3.9220     7.8690    84.6010     2.3540     0.2130     0.1720
   78.5000  -999.2500     3.6320     4.2130     7.8380    82.2980     2.3890     0.1950     0.1600
   79.0000  -999.2500     3.9150     4.5000     7.8100    82.3830     2.4110     0.1790     0.1250
   79.5000  -999.2500     4.0590     4.5000     7.8060    86.2260     2.4200     0.1840     0.0940
   80.0000  -999.2500     4.1420     4.4500     7.8030    89.9670     2.4280     0.1920     0.0750
   80.5000  -999.2500     4.1420     4.3700     7.7990    93.8110     2.4360     0.2030     0.0690
   81.0000  -999.2500     4.1420     4.2900     7.7960    94.2790     2.4150     0.2150     0.0680
   81.5000  -999.2500     4.1100     4.2100     7.7920    94.8450     2.3910     0.2240     0.0670
   82.0000  -999.2500     3.9650     4.0930     7.7780    95.6000     2.3730     0.2130     0.0560
   82.5000  -999.2500     3.8210     3.9520     7.7330    95.4820     2.3670     0.2160     0.0380
   83.0000  -999.2500     3.6760     3.8120     7.6890    95.9610     2.3610     0.2260     0.0220
   83.5000  -999.2500     3.5310     3.6720     7.6510    97.0480     2.3500     0.2390     0.0220
   84.0000  -999.2500     3.3870     3.5310     7.6880    97.8560     2.3150     0.2620     0.0260
   84.5000  -999.2500     3.2420     3.3910     7.6760    97.9280     2.2810     0.2850     0.0310
   85.0000  -999.2500     3.0980     3.2510     7.6550    98.0950     2.2460     0.3080     0.0340
   85.5000  -999.2500     2.9530     3.1720     7.6510    99.6580     2.2120     0.3310     0.0250
