~VERSION INFORMATION
 VERS.                2.0:   CWLS LOG ASCII STANDARD - VERSION 2.0
 WRAP.                 NO:   ONE LINE PER DEPTH STEP
~WELL INFORMATION
#MNEM.UNIT      DATA TYPE    INFORMATION
#----------   ------------   ------------------------------
 STRT.F           31.0000:   START DEPTH
 STOP.F          600.0000:   STOP DEPTH
 STEP.F            0.5000:   STEP LENGTH
 NULL.          -999.2500:   NO VALUE
 COMP. FENIX & SCISSON INC:   COMPANY
 WELL.      NPR 3 #84 S-3:   WELL
 FLD .             TEAPOT:   FIELD
 LOC .       S3 T38N R78W:   LOCATION
 CNTY.            NATRONA:   COUNTY
 STAT.            WYOMING:   STATE
 CTRY. UNITED STATES OF AMERICA:   COUNTRY
 SRVC.              Welex:   SERVICE COMPANY
 DATE.        29-MAR-1977:   LOGDATE
 API .       490251032000:   API NUMBER
~CURVE INFORMATION
#MNEM.UNIT       API CODE    CURVE DESCRIPTION
#----------   ------------   ------------------------------
 DEPT.F                  :   
 CALD.IN     45 280 60 00:   CALIPER FROM DENSITY LOG
 GRD .GAPI   45 310 01 00:   GAMMA RAY FROM DENSITY LOG
 CORR.G/C3   45 356 01 00:   DENSITY CORRECTION
 DPHI.DEC    45 890 12 00:   DENSITY POROSITY SANDSTONE
 RHOB.G/C3   45 350 01 00:   BULK DENSITY
 SPR .MV     07 010 01 00:   SPONTANEOUS POTENTIAL
 ILD .OHMM   07 120 46 00:   INDUCTION LOG DEEP
 ILM .OHMM   07 120 44 00:   INDUCTION LOG MEDIUM
 SGRD.OHMM   07 221 05 00:   SHALLOW SHORT GUARD RESISTIVITY
~PARAMETER INFORMATION
#MNEM.UNIT          VALUE    DESCRIPTION
#----------   ------------   ------------------------------
 PD  .                 GL:   PERMANENT DATUM
 EPD .F              5146:   ELEVATION PERMANENT DATUM
 LMF .                 GL:   LOG MEASURED FROM
 DMF .                 GL:   DRILLING MEASURED FROM
 EGL .F              5146:   GROUND LEVEL
 DATE.        29-MAR-1977:   RUN DATE
 RUN .                  1:   RUN NUMBER
 DD  .F               610:   DEPTH DRILLER
 DL  .F               602:   DEPTH LOGGER
 BLI .F               600:   BOTTOM LOG INTERVAL
 TLI .F                30:   TOP LOG INTERVAL
 CS  .IN            8.625:   CASING SIZE
 BSD .F               610:   BIT SIZE AT DEPTH
 DFT .                KCL:   DRILLING FLUID TYPE
 DFD .                8.8:   DRILLING FLUID DENSITY
 BHT .F                63:   BOTTOM HOLE TEMPERATURE
 TCS .HRS            0500:   TIME CURCULATED STOPPED
 MRT .F                63:   MAXIMUM RECORDED TEMPERATURE
 ENGI.            C. DOAK:   RECORDING ENGINEER
 WITN.            R. LYON:   WITNESSED BY
 CLNT.            A2DTECH:   CLIENT CODE
 ORIG.           5" PRINT:   ORIGIN OF DATA
 UWI .       490251032000:   UNIQUE WELL ID
 DICO. A2D Technologies, Inc.:   DIGITIZING COMPANY
~OTHER INFORMATION
~A   DEPT     CALD        GRD       CORR       DPHI       RHOB        SPR        ILD        ILM       SGRD   
# ...
  505.5000     7.8662    80.0974    -0.0041     0.1244     2.4382   -25.5566    11.9896    14.7785    17.6021
  506.0000     7.8828    79.3534    -0.0085     0.1295     2.4323   -24.9489    11.9095    14.1843    17.3660
  506.5000     7.8993    78.9183    -0.0099     0.1325     2.4246   -24.1926    11.7501    13.4269    17.1316
  507.0000     7.9010    80.4205    -0.0098     0.1373     2.4123   -23.4363    11.6716    12.8871    16.5557
  507.5000     7.9026    83.2641    -0.0097     0.1321     2.4117   -22.9771    11.5154    12.9829    16.2195
  508.0000     7.9192    85.5115    -0.0081     0.1234     2.4264   -22.0722    11.5186    13.4465    16.6823
  508.5000     7.9208    86.5667    -0.0065     0.1150     2.4534   -21.1674    11.5218    13.8306    16.9208
  509.0000     7.9374    86.5786    -0.0034     0.1090     2.4613   -20.7082    11.4456    14.2256    16.5786
  509.5000     7.9390    86.7396    -0.0002     0.1048     2.4636   -20.8468    11.4488    13.8440    16.2434
  510.0000     7.9407    87.6457     0.0029     0.1009     2.4690   -20.9820    11.3723    13.9469    16.2490
  510.5000     7.9423    89.1480     0.0063     0.1012     2.4779   -21.5597    11.3762    14.2463    16.2546
  511.0000     7.9440    90.7992     0.0106     0.1048     2.4719   -22.2893    11.3794    14.0573    16.2603
  511.5000     7.9303    92.3015     0.0137     0.1057     2.4675   -22.8702    11.3825    13.6802    16.3789
  512.0000     7.9323    93.5057     0.0170     0.1050     2.4653   -23.4546    11.3857    13.4971    16.3846
  512.5000     7.9187    93.2196     0.0216     0.1065     2.4661   -22.5463    11.3888    13.5991    16.1648
  513.0000     7.8909    88.0154     0.0261     0.1071     2.4654   -21.7900    11.3920    14.2809    16.0574
  513.5000     7.8628    84.0035     0.0293     0.1077     2.4655   -21.1823    11.3951    14.5876    16.1760
  514.0000     7.8491    82.5251     0.0324     0.1068     2.4678   -20.7232    11.3983    14.2930    16.4073
  514.5000     7.8183    83.5803     0.0340     0.1032     2.4746   -20.4127    11.3229    13.9113    16.7575
  515.0000     7.7904    86.7219     0.0326     0.0992     2.4806   -20.3993    11.2481    13.5364    16.5313
  515.5000     7.7646    88.8173     0.0297     0.0936     2.4889   -20.5379    11.2512    14.2151    16.3096
  516.0000     7.7514    86.1497     0.0207     0.0886     2.4949   -19.9268    11.2543    13.3633    15.9811
  516.5000     7.7531    86.7577     0.0133     0.0902     2.4913   -19.1705    11.1791    14.3295    15.6580
  517.0000     7.7711    88.2600     0.0059     0.0871     2.4980   -18.2656    11.1060    13.7534    15.3413
  517.5000     7.8010    89.9113    -0.0001     0.0860     2.4991   -17.6579    11.1090    14.5433    15.2394
  518.0000     7.8176    91.5626    -0.0045     0.0899     2.4929   -16.9016    10.9596    14.8555    15.4586
  518.5000     7.8341    92.9158    -0.0059     0.0961     2.4862   -16.4425    10.9626    14.3573    16.0088
  519.0000     7.8507    94.2690    -0.0058     0.0994     2.4803   -16.8749    10.9657    13.4039    16.3505
  519.5000     7.8672    94.7251    -0.0057     0.1005     2.4751   -17.6044    10.8924    13.0427    15.6905
  520.0000     7.8689    92.9516    -0.0071     0.1017     2.4729   -18.9284    10.8204    13.4169    15.5863
  520.5000     7.8854    92.6625    -0.0085     0.1020     2.4737   -20.2523    10.7496    13.7049    15.3785
  521.0000     7.8870    92.8235    -0.0099     0.1017     2.4745   -19.9418    10.5320    13.9992    15.0671
  521.5000     7.9036    91.7952    -0.0113     0.1001     2.4753   -19.4826    10.3903    14.1995    14.6605
  522.0000     7.9201    89.7207    -0.0127     0.0992     2.4754   -19.6212    10.1800    14.4061    14.1665
  522.5000     7.9218    90.1797    -0.0141     0.1061     2.4709   -20.1989    10.0423    14.7136    13.8448
  523.0000     7.9234    90.4897    -0.0155     0.1100     2.4642   -20.4860    10.0458    13.9297    14.8804
  523.5000     7.9400    93.4823    -0.0154     0.1111     2.4583   -20.1721    10.1183    13.7432    15.1981
  524.0000     7.9416    95.5807    -0.0153     0.1111     2.4599   -19.5644    10.3330    13.8470    15.5225
  524.5000     7.9433    94.6984    -0.0137     0.1099     2.4607   -19.1053    10.5524    13.4755    15.5279
  525.0000     7.9451    93.0710    -0.0121     0.1084     2.4630   -19.6863    10.5553    13.5757    15.4258
  525.5000     7.9466    92.0398    -0.0104     0.1060     2.4653   -20.4159    10.5582    14.0604    15.6466
  526.0000     7.9482    90.8595    -0.0088     0.1009     2.4705   -21.5912    10.4877    13.9702    15.8703
  526.5000     7.9499    90.2723    -0.0057     0.0954     2.4796   -21.7298    10.4184    13.6882    15.5494
  527.0000     7.9515    90.4362    -0.0041     0.0903     2.4931   -21.5645    10.2789    13.6020    15.2347
  527.5000     7.9533    91.3424    -0.0010     0.0870     2.5021   -21.1054    10.0708    13.2371    15.2242
  528.0000     7.9548    92.6956     0.0022     0.0942     2.4902   -20.6462     9.8663    13.3355    15.1401
  528.5000     7.9563    93.4527     0.0023     0.0957     2.4843   -20.1871     9.7342    13.5279    14.7317
  529.0000     7.9580    93.1666     0.0039     0.0921     2.4888   -19.7280     9.8044    13.1634    14.8392
  529.5000     7.9446    93.6256     0.0025     0.0941     2.4911   -19.5660     9.8071    13.4476    15.0514
  530.0000     7.9465    94.0847     0.0010     0.0974     2.4844   -19.5527     9.8099    13.8318    14.9525
  530.5000     7.9481    94.3947    -0.0019     0.1001     2.4778   -19.6912     9.8126    13.7430    14.8545
  531.0000     7.9496    95.3008    -0.0047     0.0962     2.4786   -19.9751     9.7477    13.3743    14.7571
  531.5000     7.9364    96.0579    -0.0047     0.0958     2.4846   -20.5527     9.7504    13.0155    14.6603
  532.0000     7.9380    95.0266    -0.0030     0.0961     2.4854   -21.4309     9.6192    13.0218    14.4637
  532.5000     7.9249    95.3366    -0.0014     0.0973     2.4832   -22.3090     9.5550    12.8491    14.0735
  533.0000     7.9266    96.2398     0.0002     0.0991     2.4773   -22.8900     9.4271    12.7651    13.7889
  533.5000     7.9129    93.7212     0.0018     0.1104     2.4856   -22.8767     9.3003    12.6833    13.7937
  534.0000     7.8996    91.7957     0.0019     0.1170     2.4617   -22.8633     9.2382    12.4302    13.9909
  534.5000     7.8864    89.8702     0.0005     0.1208     2.4445   -23.1471     9.1139    12.1807    13.8032
  535.0000     7.8586    88.6899    -0.0009     0.1256     2.4363   -23.4343     8.9919    11.8539    13.5241
  535.5000     7.8450    88.4008    -0.0023     0.1295     2.4266   -23.5662     8.8704    11.4564    13.1592
  536.0000     7.8317    90.0551    -0.0052     0.1345     2.4162   -23.7047     8.6315    10.9958    12.7157
  536.5000     7.8184    92.3025    -0.0081     0.1405     2.4043   -23.8400     8.3986    10.1948    12.2872
  537.0000     7.8056    96.0402    -0.0095     0.1465     2.3939   -23.2289     8.1156     9.9201    11.9557
  537.5000     7.8221    98.5857    -0.0124     0.1533     2.3879   -22.7698     7.7346     9.9261    11.7952
  538.0000     7.8238    99.4888    -0.0138     0.1581     2.3835   -22.6112     7.2202     9.6598    11.6370
  538.5000     7.8254    97.1193    -0.0137     0.1563     2.3847   -23.3408     6.6936     8.8944    11.5607
  539.0000     7.8420    91.9151    -0.0136     0.1521     2.3915   -24.5128     6.2918     8.1896    11.2488
  539.5000     7.8585    85.3697    -0.0120     0.1437     2.4036   -26.5796     5.7928     7.4887    10.6463
  540.0000     7.8751    83.8913    -0.0104     0.1353     2.4149   -28.3493     5.4075     6.4343     8.7122
  540.5000     7.8916    84.7974    -0.0088     0.1302     2.4247   -29.2308     5.2616     5.9656     6.0798
  541.0000     7.8933    87.3429    -0.0072     0.1328     2.4232   -28.9170     5.2995     6.3520     4.7728
  541.5000     7.8949    88.3981    -0.0071     0.1340     2.4165   -28.7550     5.4120     7.1484     5.3339
