~VERSION INFORMATION
 VERS.                2.0:   CWLS LOG ASCII STANDARD - VERSION 2.0
 WRAP.                 NO:   ONE LINE PER DEPTH STEP
~WELL INFORMATION
#MNEM.UNIT      DATA TYPE    INFORMATION
#----------   ------------   ------------------------------
 STRT.F           45.5000:   START DEPTH
 STOP.F          740.0000:   STOP DEPTH
 STEP.F            0.5000:   STEP LENGTH
 NULL.          -999.2500:   NO VALUE
 COMP. FENIX & SCISSON INC:   COMPANY
 WELL.       NPR 3 #22-14:   WELL
 FLD .             TEAPOT:   FIELD
 LOC .      S14 T38N R78W:   LOCATION
 CNTY.            NATRONA:   COUNTY
 STAT.            WYOMING:   STATE
 CTRY. UNITED STATES OF AMERICA:   COUNTRY
 SRVC.           BIRDWELL:   SERVICE COMPANY
 DATE.        23-DEC-1978:   LOGDATE
 API .       490251075800:   API NUMBER
~CURVE INFORMATION
#MNEM.UNIT       API CODE    CURVE DESCRIPTION
#----------   ------------   ------------------------------
 DEPT.F                  :   
 SPR .MV     05 010 01 00:   SPONTANEOUS POTENTIAL FROM RES.
 SN  .OHMM   05 040 16 00:   SHORT NORMAL 16"
 IL  .OHMM   05 120 00 00:   INDUCTION LOG
 CALD.IN     45 280 60 00:   CALIPER
 GRD .GAPI   45 310 01 00:   GAMMA RAY FROM DENSITY LOG
 RHOB.G/C3   45 350 01 00:   BULK DENSITY
 DPHI.DEC    45 890 12 00:   DENSITY POROSITY SANDSTONE
 CORR.G/C3   45 356 01 00:   DENSITY CORRECTION
~PARAMETER INFORMATION
#MNEM.UNIT          VALUE    DESCRIPTION
#----------   ------------   ------------------------------
 PD  .                 GL:   PERMANENT DATUM
 EPD .F              5212:   ELEVATION PERMANENT DATUM
 LMF .                 KB:   LOG MEASURED FROM
 DAPD.F                 4:   FEET ABOVE PERMANENT DATUM
 DMF .                 KB:   DRILLING MEASURED FROM
 EKB .F              5216:   KELLING BUSHING
 EGL .F              5212:   GROUND LEVEL
 DATE.           12-23-78:   RUN DATE
 RUN .                  1:   RUN NUMBER
 DD  .F               735:   DEPTH DRILLER
 DL  .F               740:   DEPTH LOGGER
 BLI .F               733:   BOTTOM LOG INTERVAL
 TLI .F                50:   TOP LOG INTERVAL
 CS  .IN            8.625:   CASING SIZE
 CBD .F                40:   CASING BOTTOM DRILLER
 CBL .F                40:   CASING BOTTOM LOGGER
 BS  .IN            7.875:   BIT SIZE
 BSD .F               735:   BIT SIZE AT DEPTH
 DFT .                KCL:   DRILLING FLUID TYPE
 DFD .                8.7:   DRILLING FLUID DENSITY
 DFV .                 35:   DRILLING FLUID VISCOSITY
 DFPH.               10.5:   DRILLING FLUID PH
 DFL .               11.6:   DRILLING FLUID LOSS
 MSS .           FLOWLINE:   MUD SAMPLE SOURCE
 RMS .OHMM             .5:   RESISTIVITY MUD SAMPLE
 MST .F                60:   MUD SAMPLE TEMPERATURE
 RMF .OHMM             .5:   RESISTIVITY MUD FILTRATE SAMPLE
 MFST.F                60:   MUD FILTRATE SAMPLE TEMPERATURE
 RMC .OHMM             .7:   RESISTIVITY MUD CAKE
 MCST.F                60:   MUD CAKE SAMPLE TEMPERATURE
 MFSS.           MEASURED:   MUD FILTRATE SAMPLE SOURCE
 MCSS.           MEASURED:   MUD CAKE SAMPLE SOURCE
 RMB .OHMM           .518:   RESISTIVITY MUD AT BHT
 BHT .F                58:   BOTTOM HOLE TEMPERATURE
 TCS .HRS               5:   TIME CURCULATED STOPPED
 MRT .F                58:   MAXIMUM RECORDED TEMPERATURE
 LUN .               2958:   LOGGING UNIT NUMBER
 LUL .             CASPER:   LOGGING UNIT LOCATION
 ENGI.         B. ROLLINS:   RECORDING ENGINEER
 WITN.              IMMEL:   WITNESSED BY
 CLNT.            A2DTECH:   CLIENT CODE
 ORIG.           5" PRINT:   ORIGIN OF DATA
 UWI .       490251075800:   UNIQUE WELL ID
 DICO. A2D Technologies, Inc.:   DIGITIZING COMPANY
~OTHER INFORMATION
~A   DEPT      SPR         SN         IL       CALD         GRD      RHOB       DPHI       CORR   
# ...
   86.0000  -999.2500     2.8150     3.3030     7.6770   101.0600     2.1830     0.3270     0.0100
   86.5000  -999.2500     2.8150     3.4590     7.7060   100.9770     2.1820     0.2910     0.0040
   87.0000  -999.2500     2.9570     3.6540     7.7450    98.4850     2.2230     0.2470     0.0040
   87.5000  -999.2500     3.2740     3.9690     8.0690    95.1670     2.2870     0.2270     0.0090
   88.0000  -999.2500     3.4170     4.5220     8.1810    91.7530     2.3500     0.2140     0.0140
   88.5000  -999.2500     3.8530     5.3630     7.8680    89.2930     2.4000     0.2100     0.0180
   89.0000  -999.2500     4.6800     6.2050     7.7850    86.6760     2.4080     0.1990     0.0190
   89.5000  -999.2500     5.4590     6.9970     7.8550    86.2630     2.4100     0.1900     0.0200
   90.0000  -999.2500     5.6880     6.8930     7.8330    86.5670     2.4100     0.1830     0.0200
   90.5000  -999.2500     5.9050     6.7930     7.7150    86.8990     2.4090     0.1900     0.0200
   91.0000  -999.2500     6.1220     6.6940     7.7090    87.1740     2.4100     0.1980     0.0210
   91.5000  -999.2500     6.3490     6.6220     7.7260    86.8580     2.4100     0.1890     0.0210
   92.0000  -999.2500     6.5760     6.8830     7.7500    86.6500     2.4130     0.1790     0.0220
   92.5000  -999.2500     6.8040     7.0900     7.7670    90.5450     2.4240     0.1720     0.0260
   93.0000  -999.2500     7.0320     7.2960     7.7030    90.5440     2.4340     0.1730     0.0320
   93.5000  -999.2500     7.2590     7.5030     7.6860    90.4730     2.4360     0.1680     0.0380
   94.0000  -999.2500     7.4870     7.7100     7.7470    90.4090     2.4400     0.1760     0.0440
   94.5000  -999.2500     7.7150     7.9170     7.7440    90.3540     2.4430     0.1580     0.0550
   95.0000  -999.2500     7.7440     8.1070     7.6370    90.2950     2.4460     0.1680     0.0730
   95.5000  -999.2500     7.7510     8.1150     7.6430    90.2330     2.4440     0.1820     0.0910
   96.0000  -999.2500     7.7570     8.1240     7.6950    90.5380     2.4410     0.1710     0.1090
   96.5000  -999.2500     7.7640     8.1340     7.7280    91.2250     2.4390     0.1590     0.1180
   97.0000  -999.2500     7.7700     8.1430     7.6180    91.4260     2.4480     0.1460     0.1240
   97.5000  -999.2500     7.7770     8.1520     7.6960    91.4750     2.4630     0.1350     0.1230
   98.0000  -999.2500     7.7830     8.1610     7.8220    91.5200     2.4780     0.1310     0.1220
   98.5000  -999.2500     7.7900     8.1710     7.7120    91.5640     2.4870     0.1240     0.1200
   99.0000  -999.2500     7.7970     8.1800     7.7350    91.5900     2.4910     0.1320     0.1160
   99.5000  -999.2500     7.8030     8.1890     7.7710    91.3540     2.4940     0.1430     0.1060
  100.0000  -999.2500     7.8100     8.1990     7.8070    91.1250     2.4960     0.1370     0.1040
  100.5000  -999.2500     7.8160     8.2080     7.8430    90.8970     2.4960     0.1270     0.1020
  101.0000  -999.2500     7.8230     8.2170     7.8800    90.6690     2.4970     0.1270     0.0960
  101.5000  -999.2500     7.8290     8.2270     7.9040    90.2780     2.4970     0.1290     0.0840
  102.0000  -999.2500     7.8360     8.2360     7.9240    89.8220     2.4980     0.1330     0.0700
  102.5000  -999.2500     7.8420     8.2450     7.9450    89.3630     2.4980     0.1370     0.0570
  103.0000  -999.2500     7.8490     8.2540     7.9350    88.8950     2.4920     0.1520     0.0440
  103.5000  -999.2500     7.8550     8.2780     7.9140    88.4520     2.4840     0.1510     0.0360
  104.0000  -999.2500     7.8620     8.3080     7.8940    90.7520     2.4780     0.1580     0.0280
  104.5000  -999.2500     7.8690     8.3380     7.8730    92.7580     2.4720     0.1520     0.0210
  105.0000  -999.2500     7.8750     8.3680     7.8520    93.1620     2.4660     0.1470     0.0130
  105.5000  -999.2500     7.8810     8.3980     7.8310    93.5880     2.4640     0.1460     0.0070
  106.0000  -999.2500     7.9020     8.4280     7.8100    94.0200     2.4630     0.1490     0.0050
  106.5000  -999.2500     7.9550     8.4580     7.7900    94.3960     2.4610     0.1620     0.0030
  107.0000  -999.2500     8.0070     8.4880     7.7690    94.2800     2.4600     0.1600     0.0010
  107.5000  -999.2500     8.0590     8.5180     7.7510    94.1560     2.4590     0.1540    -0.0010
  108.0000  -999.2500     8.1110     8.5480     7.7730    94.0510     2.4620     0.1450    -0.0040
  108.5000  -999.2500     8.1640     8.5780     7.7670    92.2060     2.4670     0.1480    -0.0060
  109.0000  -999.2500     8.2160     8.6080     7.6750    88.6000     2.4690     0.1530    -0.0050
  109.5000  -999.2500     8.2680     8.6460     7.6300    86.9400     2.4660     0.1550    -0.0020
  110.0000  -999.2500     8.3330     8.6120     7.6470    87.2080     2.4620     0.1530     0.0000
  110.5000  -999.2500     8.2870     8.5650     7.6710    87.4630     2.4580     0.1510     0.0020
  111.0000  -999.2500     8.2250     8.5190     7.6940    87.0450     2.4560     0.1490     0.0040
  111.5000  -999.2500     8.1630     8.4730     7.7180    85.9590     2.4580     0.1490     0.0060
  112.0000  -999.2500     8.1010     8.4260     7.7420    85.1730     2.4600     0.1510     0.0080
  112.5000  -999.2500     8.0380     8.3800     7.7660    85.1960     2.4600     0.1540     0.0100
  113.0000  -999.2500     7.9760     8.3330     7.7900    85.5860     2.4560     0.1540     0.0100
  113.5000  -999.2500     7.9140     8.2870     7.8130    86.0230     2.4510     0.1540     0.0040
  114.0000  -999.2500     7.7540     8.1070     7.8370    86.4870     2.4500     0.1540    -0.0020
  114.5000  -999.2500     7.5170     7.6830     7.8610    85.9380     2.4490     0.1600    -0.0090
  115.0000  -999.2500     7.2790     7.2060     7.8850    85.0360     2.4480     0.1640    -0.0100
  115.5000  -999.2500     6.9510     6.4530     7.9090    84.3400     2.4380     0.1790    -0.0100
  116.0000  -999.2500     6.4620     5.6990     7.9290    84.2120     2.4170     0.2020    -0.0060
  116.5000  -999.2500     5.9080     4.9460     7.9010    84.0730     2.3920     0.2370     0.0040
  117.0000  -999.2500     5.2390     4.1930     7.8670    84.6950     2.3520     0.2720     0.0130
  117.5000  -999.2500     4.5700     3.4390     7.8950    86.1200     2.2920     0.3080     0.0220
  118.0000  -999.2500     3.9010     2.7930     7.9860    88.9520     2.2320     0.3430     0.0360
  118.5000  -999.2500     3.2320     2.6390     7.9700    96.3140     2.1720     0.3700     0.0520
  119.0000  -999.2500     2.8390     2.7010     7.9410   103.5510     2.1280     0.3570     0.0670
  119.5000  -999.2500     2.6520     2.8670     7.9120   104.3590     2.1030     0.3460     0.0570
  120.0000  -999.2500     2.4980     3.1200     7.9120   104.1690     2.0950     0.3360     0.0270
  120.5000  -999.2500     2.7040     3.7790     7.9140   103.7950     2.1500     0.3250    -0.0010
  121.0000  -999.2500     3.2520     4.4380     7.9160   103.0130     2.2240     0.2680    -0.0070
  121.5000  -999.2500     4.2560     5.5860     7.9180   101.8100     2.2970     0.2260    -0.0040
  122.0000  -999.2500     5.2590     7.0820     7.9210    99.5550     2.3690     0.1940    -0.0010
  122.5000  -999.2500     6.2630     8.5780     7.9230    93.9720     2.4020     0.1890     0.0020
  123.0000  -999.2500     7.2670    10.0740     7.9250    88.4960     2.4170     0.1790     0.0040
  123.5000  -999.2500     8.2710    11.3250     7.9270    85.0500     2.4220     0.1660     0.0030
  124.0000  -999.2500     9.2740    12.3760     7.9290    82.9300     2.4340     0.1680     0.0030
  124.5000  -999.2500     9.9200    11.8760     7.9320    82.9700     2.4470     0.1490     0.0020
  125.0000  -999.2500    10.4740    11.1650     7.9340    80.6970     2.4600     0.1540     0.0020
  125.5000  -999.2500    10.6720    10.3310     7.9360    76.5330     2.4700     0.1670     0.0010
  126.0000  -999.2500    10.7810     9.4960     7.9390    74.9610     2.4660     0.1840     0.0010
