~VERSION INFORMATION
 VERS.                2.0:   CWLS LOG ASCII STANDARD - VERSION 2.0
 WRAP.                 NO:   ONE LINE PER DEPTH STEP
~WELL INFORMATION
#MNEM.UNIT      DATA TYPE    INFORMATION
#----------   ------------   ------------------------------
 STRT.F            0.0000:   START DEPTH
 STOP.F         2240.0000:   STOP DEPTH
 STEP.F            0.5000:   STEP LENGTH
 NULL.          -999.2500:   NO VALUE
 COMP.   FLUOR DANIEL INC:   COMPANY
 WELL. NAVAL PETROLEUM RESERVE 3 SX 62 #16-3:   WELL
 FLD .             TEAPOT:   FIELD
 LOC .       S3 T38N R78W:   LOCATION
 CNTY.            NATRONA:   COUNTY
 STAT.            WYOMING:   STATE
 CTRY. UNITED STATES OF AMERICA:   COUNTRY
 SRVC.            Unknown:   SERVICE COMPANY
 DATE.        19-SEP-1992:   LOGDATE
 API .       490251127300:   API NUMBER
~CURVE INFORMATION
#MNEM.UNIT       API CODE    CURVE DESCRIPTION
#----------   ------------   ------------------------------
 DEPT.F                  :   
 GR  .GAPI   81 310 01 00:   GAMMA RAY
 ROP .MIN/FT 91 810 01 00:   RATE OF DRILLING PENETRATION
 TGAS.UNITS  91 830 01 00:   TOTAL GAS FROM HOTWIRE
~PARAMETER INFORMATION
#MNEM.UNIT          VALUE    DESCRIPTION
#----------   ------------   ------------------------------
 PD  .                 GL:   PERMANENT DATUM
 EPD .F              5144:   ELEVATION PERMANENT DATUM
 LMF .                 KB:   LOG MEASURED FROM
 DAPD.F                10:   FEET ABOVE PERMANENT DATUM
 DMF .                 KB:   DRILLING MEASURED FROM
 EKB .F              5154:   KELLING BUSHING
 EDF .F              5152:   DRILLING FLOOR
 EGL .F              5144:   GROUND LEVEL
 DATE.            9-19-92:   RUN DATE
 RUN .                  1:   RUN NUMBER
 DD  .F               560:   DEPTH DRILLER
 DL  .F               520:   DEPTH LOGGER
 BLI .F               520:   BOTTOM LOG INTERVAL
 BS  .IN             8.75:   BIT SIZE
 BSD .F               560:   BIT SIZE AT DEPTH
 DFT . OIL WATER (TENSLEEP CRUDE):   DRILLING FLUID TYPE
 TCS .HRS            1200:   TIME CURCULATED STOPPED
 LUL .           GILLETTE:   LOGGING UNIT LOCATION
 ENGI.          L. GOENES:   RECORDING ENGINEER
 WITN.              HARDY:   WITNESSED BY
 CLNT.            A2DTECH:   CLIENT CODE
 ORIG.           5" PRINT:   ORIGIN OF DATA
 UWI .       490251127300:   UNIQUE WELL ID
 DICO. A2D Technologies, Inc.:   DIGITIZING COMPANY
~OTHER INFORMATION
~A    DEPT       GR       ROP       TGAS   
# ...
 2093.0000  -999.2500     1.1345    77.6774
 2093.5000  -999.2500     1.0444    77.6027
 2094.0000  -999.2500     1.0068    76.6557
 2094.5000  -999.2500     1.0101    75.1058
 2095.0000  -999.2500     1.0140    71.6994
 2095.5000  -999.2500     1.0182    68.3825
 2096.0000  -999.2500     1.0189    66.1663
 2096.5000  -999.2500     1.0059    63.5901
 2097.0000  -999.2500     0.9176    61.0158
 2097.5000  -999.2500     0.8315    58.6051
 2098.0000  -999.2500     0.8320    57.4136
 2098.5000  -999.2500     0.8896    56.3119
 2099.0000  -999.2500     0.9461    55.1726
 2099.5000  -999.2500     1.0021    54.3556
 2100.0000  -999.2500     1.0182    54.1200
 2100.5000  -999.2500     0.9942    54.1057
 2101.0000  -999.2500     0.9576    54.0957
 2101.5000  -999.2500     0.9184    54.0838
 2102.0000  -999.2500     0.8780    54.0713
 2102.5000  -999.2500     0.8689    54.0588
 2103.0000  -999.2500     0.8687    54.0462
 2103.5000  -999.2500     0.8687    54.0337
 2104.0000  -999.2500     0.8679    54.0213
 2104.5000  -999.2500     0.8960    54.0087
 2105.0000  -999.2500     0.9305    53.9962
 2105.5000  -999.2500     0.9653    53.9837
 2106.0000  -999.2500     1.0002    53.9712
 2106.5000  -999.2500     1.0075    53.9587
 2107.0000  -999.2500     0.9813    53.9462
 2107.5000  -999.2500     0.9885    53.9337
 2108.0000  -999.2500     0.9942    53.9212
 2108.5000  -999.2500     0.9998    53.9087
 2109.0000  -999.2500     1.0055    53.8964
 2109.5000  -999.2500     1.0114    53.8840
 2110.0000  -999.2500     1.0174    53.8640
 2110.5000  -999.2500     1.0410    53.7642
 2111.0000  -999.2500     1.0850    53.6628
 2111.5000  -999.2500     1.1295    53.5617
 2112.0000  -999.2500     1.1329    53.4607
 2112.5000  -999.2500     1.1416    53.3597
 2113.0000  -999.2500     1.1506    53.2587
 2113.5000  -999.2500     1.1600    53.1576
 2114.0000  -999.2500     1.1667    53.0563
 2114.5000  -999.2500     1.1206    52.9560
 2115.0000  -999.2500     1.0807    52.8723
 2115.5000  -999.2500     1.0407    52.8749
 2116.0000  -999.2500     1.0000    52.8751
 2116.5000  -999.2500     0.9835    52.8750
 2117.0000  -999.2500     0.9678    52.8750
 2117.5000  -999.2500     0.9377    52.8750
 2118.0000  -999.2500     0.9077    52.8750
 2118.5000  -999.2500     0.8775    52.8750
 2119.0000  -999.2500     0.8473    52.8750
 2119.5000  -999.2500     0.8171    52.8750
 2120.0000  -999.2500     0.7869    52.8750
 2120.5000  -999.2500     0.7567    52.8750
 2121.0000  -999.2500     0.7264    52.8750
 2121.5000  -999.2500     0.6961    52.8750
 2122.0000  -999.2500     0.6842    52.8750
 2122.5000  -999.2500     0.7302    52.8750
 2123.0000  -999.2500     0.8185    52.8750
 2123.5000  -999.2500     0.9043    52.8750
 2124.0000  -999.2500     0.9740    52.8750
 2124.5000  -999.2500     0.9131    52.8750
 2125.0000  -999.2500     0.8500    52.8750
 2125.5000  -999.2500     0.7876    52.8750
 2126.0000  -999.2500     0.7365    52.8750
 2126.5000  -999.2500     0.7343    52.8750
 2127.0000  -999.2500     0.7456    52.8750
 2127.5000  -999.2500     0.7570    52.8750
 2128.0000  -999.2500     0.7665    52.8750
 2128.5000  -999.2500     0.7305    52.8750
 2129.0000  -999.2500     0.6923    52.8750
 2129.5000  -999.2500     0.6538    52.8750
 2130.0000  -999.2500     0.6301    52.8751
 2130.5000  -999.2500     0.6278    52.8750
 2131.0000  -999.2500     0.6221    52.8749
 2131.5000  -999.2500     0.6189    52.8763
 2132.0000  -999.2500     0.6328    52.7720
 2132.5000  -999.2500     0.6672    52.6068
 2133.0000  -999.2500     0.7379    52.4410
 2133.5000  -999.2500     0.8090    52.2749
 2134.0000  -999.2500     0.8806    52.1090
 2134.5000  -999.2500     0.9405    51.9430
 2135.0000  -999.2500     0.8759    51.7771
 2135.5000  -999.2500     0.8126    51.6111
 2136.0000  -999.2500     0.7507    51.4450
 2136.5000  -999.2500     0.7559    51.2788
 2137.0000  -999.2500     0.8321    51.1277
 2137.5000  -999.2500     0.9023    51.1213
 2138.0000  -999.2500     0.9748    51.0485
 2138.5000  -999.2500     0.9934    50.9763
 2139.0000  -999.2500     0.9940    50.9046
 2139.5000  -999.2500     0.9938    50.8330
 2140.0000  -999.2500     0.9937    50.7610
 2140.5000  -999.2500     0.9937    50.6894
 2141.0000  -999.2500     0.9937    50.6330
 2141.5000  -999.2500     0.9937    50.3320
 2142.0000  -999.2500     0.9937    49.9109
 2142.5000  -999.2500     0.9938    49.4960
 2143.0000  -999.2500     0.9937    48.7799
 2143.5000  -999.2500     0.9937    47.7463
 2144.0000  -999.2500     0.9943    46.7127
 2144.5000  -999.2500     0.9693    45.6779
 2145.0000  -999.2500     0.9347    44.6469
 2145.5000  -999.2500     0.8999    43.6152
 2146.0000  -999.2500     0.8690    42.5858
 2146.5000  -999.2500     0.8686    41.5656
 2147.0000  -999.2500     0.8687    40.5604
 2147.5000  -999.2500     0.8687    38.8668
 2148.0000  -999.2500     0.8691    37.2434
 2148.5000  -999.2500     0.8791    35.6316
 2149.0000  -999.2500     0.9172    34.0216
 2149.5000  -999.2500     0.9581    32.4111
 2150.0000  -999.2500     0.9701    30.8005
 2150.5000  -999.2500     0.9737    29.1893
 2151.0000  -999.2500     0.9768    27.5792
 2151.5000  -999.2500     0.9800    25.9736
 2152.0000  -999.2500     0.9832    24.3405
 2152.5000  -999.2500     0.9864    23.6036
 2153.0000  -999.2500     0.9896    22.8469
 2153.5000  -999.2500     0.9934    22.1113
 2154.0000  -999.2500     0.9761    21.4089
 2154.5000  -999.2500     0.9503    21.0928
 2155.0000  -999.2500     0.9217    21.1209
 2155.5000  -999.2500     0.8773    21.1101
 2156.0000  -999.2500     0.8333    21.8161
 2156.5000  -999.2500     0.7941    22.7927
 2157.0000  -999.2500     0.7947    23.7763
 2157.5000  -999.2500     0.7960    24.7584
 2158.0000  -999.2500     0.7971    25.7330
 2158.5000  -999.2500     0.7982    26.6689
 2159.0000  -999.2500     0.7993    27.8666
 2159.5000  -999.2500     0.8003    29.0111
 2160.0000  -999.2500     0.8014    30.1479
 2160.5000  -999.2500     0.8025    31.2830
 2161.0000  -999.2500     0.8035    32.4216
 2161.5000  -999.2500     0.8045    33.5641
 2162.0000  -999.2500     0.8059    35.1881
 2162.5000  -999.2500     0.8180    37.1245
 2163.0000  -999.2500     0.8591    39.0403
 2163.5000  -999.2500     0.8960    40.9580
 2164.0000  -999.2500     0.9339    42.8780
 2164.5000  -999.2500     0.9444    44.8421
 2165.0000  -999.2500     0.9081    46.0839
 2165.5000  -999.2500     0.8567    47.1187
 2166.0000  -999.2500     0.8208    48.1384
 2166.5000  -999.2500     0.8084    49.1503
 2167.0000  -999.2500     0.8058    49.9154
 2167.5000  -999.2500     0.8094    50.4487
 2168.0000  -999.2500     0.8158    50.9806
 2168.5000  -999.2500     0.8397    51.5047
 2169.0000  -999.2500     0.8813    51.8844
 2169.5000  -999.2500     0.9228    51.9648
 2170.0000  -999.2500     0.9645    52.0647
 2170.5000  -999.2500     1.0076    52.1652
 2171.0000  -999.2500     1.0185    52.2661
 2171.5000  -999.2500     1.0196    52.3706
 2172.0000  -999.2500     1.0209    52.3759
 2172.5000  -999.2500     1.0223    52.3752
 2173.0000  -999.2500     1.0237    52.3750
 2173.5000  -999.2500     1.0251    52.3750
 2174.0000  -999.2500     1.0266    52.3750
 2174.5000  -999.2500     1.0280    52.3750
 2175.0000  -999.2500     1.0294    52.3750
 2175.5000  -999.2500     1.0306    52.3750
 2176.0000  -999.2500     1.0302    52.3750
 2176.5000  -999.2500     1.0551    52.3750
 2177.0000  -999.2500     1.0986    52.3750
 2177.5000  -999.2500     1.1412    52.3750
 2178.0000  -999.2500     1.1835    52.3750
 2178.5000  -999.2500     1.2259    52.3750
 2179.0000  -999.2500     1.2683    52.3750
 2179.5000  -999.2500     1.3060    52.3741
 2180.0000  -999.2500     1.3063    52.3736
 2180.5000  -999.2500     1.3038    52.3857
 2181.0000  -999.2500     1.3014    52.5774
 2181.5000  -999.2500     1.2991    52.5952
 2182.0000  -999.2500     1.2967    52.5512
 2182.5000  -999.2500     1.2928    52.5095
 2183.0000  -999.2500     1.3269    52.4703
 2183.5000  -999.2500     1.4207    52.4309
