~VERSION INFORMATION
 VERS.                2.0:   CWLS LOG ASCII STANDARD - VERSION 2.0
 WRAP.                 NO:   ONE LINE PER DEPTH STEP
~WELL INFORMATION
#MNEM.UNIT      DATA TYPE    INFORMATION
#----------   ------------   ------------------------------
 STRT.F           11.0000:   START DEPTH
 STOP.F          804.0000:   STOP DEPTH
 STEP.F            0.1000:   STEP LENGTH
 NULL.          -999.2500:   NO VALUE
 COMP. BROWN JOHN E&C INC:   COMPANY
 WELL. 72-1 STX-34 #72-34:   WELL
 FLD .             TEAPOT:   FIELD
 LOC .      S34 T39N R78W:   LOCATION
 CNTY.            NATRONA:   COUNTY
 STAT.            WYOMING:   STATE
 CTRY. UNITED STATES OF AMERICA:   COUNTRY
 SRVC.     Atlas Wireline:   SERVICE COMPANY
 DATE.        31-JAN-1992:   LOGDATE
 API .       490252250200:   API NUMBER
~CURVE INFORMATION
#MNEM.UNIT       API CODE    CURVE DESCRIPTION
#----------   ------------   ------------------------------
 DEPT.F                  :   
 GRR .GAPI   07 310 01 00:   GAMMA RAY
 RILD.OHMM   07 120 46 00:   INDUCTION LOG DEEP RESISTIVITY
 RILM.OHMM   07 120 44 00:   INDUCTION LOG MEDIUM RESISTIVITY
~PARAMETER INFORMATION
#MNEM.UNIT          VALUE    DESCRIPTION
#----------   ------------   ------------------------------
 PD  .                 GL:   PERMANENT DATUM
 EPD .F              5069:   ELEVATION PERMANENT DATUM
 LMF .                 KB:   LOG MEASURED FROM
 DAPD.F                10:   FEET ABOVE PERMANENT DATUM
 DMF .                 KB:   DRILLING MEASURED FROM
 EKB .F              5079:   KELLING BUSHING
 EDF .F              5078:   DRILLING FLOOR
 EGL .F              5069:   GROUND LEVEL
 DATE.        31-JAN-1992:   RUN DATE
 RUN .                  1:   RUN NUMBER
 DD  .F               814:   DEPTH DRILLER
 DL  .F               813:   DEPTH LOGGER
 BLI .F               804:   BOTTOM LOG INTERVAL
 CS  .IN            9.625:   CASING SIZE
 CBD .F               100:   CASING BOTTOM DRILLER
 CBL .F               104:   CASING BOTTOM LOGGER
 BS  .IN             8.75:   BIT SIZE
 BSD .F               814:   BIT SIZE AT DEPTH
 DFT .                AIR:   DRILLING FLUID TYPE
 MRT .F                90:   MAXIMUM RECORDED TEMPERATURE
 LUN .           HL- 6274:   LOGGING UNIT NUMBER
 LUL .             CASPER:   LOGGING UNIT LOCATION
 ENGI.             RAUTIO:   RECORDING ENGINEER
 WITN.        GARY STRONG:   WITNESSED BY
 CLNT.            A2DTECH:   CLIENT CODE
 ORIG.           5" PRINT:   ORIGIN OF DATA
 UWI .       490252250200:   UNIQUE WELL ID
 DICO. A2D Technologies, Inc.:   DIGITIZING COMPANY
~OTHER INFORMATION
~A   DEPT       GRR      RILD       RILM   
# ...
  102.0000    81.1377  -999.2500  -999.2500
  102.1000    81.0066  -999.2500  -999.2500
  102.2000    80.8400  -999.2500  -999.2500
  102.3000    80.8638  -999.2500  -999.2500
  102.4000    81.1477  -999.2500  -999.2500
  102.5000    81.1498  -999.2500  -999.2500
  102.6000    81.1522  -999.2500  -999.2500
  102.7000    81.1546  -999.2500  -999.2500
  102.8000    81.2442  -999.2500  -999.2500
  102.9000    81.7647  -999.2500  -999.2500
  103.0000    82.2350  -999.2500  -999.2500
  103.1000    83.0862  -999.2500  -999.2500
  103.2000    84.0746  -999.2500  -999.2500
  103.3000    85.3263  -999.2500  -999.2500
  103.4000    87.2807  -999.2500  -999.2500
  103.5000    89.0413  -999.2500  -999.2500
  103.6000    91.0440  -999.2500  -999.2500
  103.7000    93.5115  -999.2500  -999.2500
  103.8000    95.6274  -999.2500  -999.2500
  103.9000    97.2355  -999.2500  -999.2500
  104.0000    99.9458     1.0789  1880.4343
  104.1000   102.8372     1.0503  1605.3998
  104.2000   105.7120     1.0131  1330.3652
  104.3000   108.2057     0.9867   755.7142
  104.4000   110.3722     0.9755    16.8468
  104.5000   112.3631     0.9647    14.2263
  104.6000   114.5654     0.9647    13.3035
  104.7000   115.8447     0.9647    12.2237
  104.8000   116.7007     0.9647     8.9770
  104.9000   117.2901     0.9705     4.9556
  105.0000   117.5593     0.9873     3.4135
  105.1000   118.1268     1.0061     3.2189
  105.2000   118.3395     1.0376     2.6382
  105.3000   118.4339     1.0907     2.2485
  105.4000   118.4363     1.1670     2.0852
  105.5000   118.4387     1.2652     2.0151
  105.6000   118.4413     1.3782     2.0031
  105.7000   118.4436     1.7477     2.0032
  105.8000   118.6227     1.9711     2.0033
  105.9000   118.7510     2.1738     2.0089
  106.0000   118.7534     2.3758     2.0174
  106.1000   118.7642     2.5506     2.0178
  106.2000   119.0613     3.0374     2.0316
  106.3000   119.2621     3.2073     2.0985
  106.4000   119.6537     3.6028     2.1692
  106.5000   120.1492     4.0597     2.2271
  106.6000   120.7669     4.4251     2.2783
  106.7000   122.4015     4.7521     2.3362
  106.8000   123.2877     4.9642     2.3968
  106.9000   123.9463     5.3773     2.4661
  107.0000   124.4417     5.7520     2.5179
  107.1000   124.8842     6.1001     2.5467
  107.2000   125.1365     6.6621     2.5763
  107.3000   125.6253     7.0302     2.5908
  107.4000   125.5593     7.3004     2.6284
  107.5000   125.1841     7.5887     2.6575
  107.6000   124.6187     7.8525     2.6867
  107.7000   123.9003     8.0856     2.7485
  107.8000   123.3359     7.9733     2.8214
  107.9000   122.2911     7.8500     2.9192
  108.0000   121.3677     7.5699     2.9945
  108.1000   120.6308     6.7365     3.0530
  108.2000   119.9758     5.5731     3.1232
  108.3000   119.7169     5.2026     3.1994
  108.4000   119.4876     4.9436     3.2339
  108.5000   119.5945     4.8011     3.2843
  108.6000   119.8434     4.7371     3.3409
  108.7000   120.0924     4.7015     3.3934
  108.8000   120.3484     4.6507     3.4311
  108.9000   120.9421     4.6210     3.4312
  109.0000   121.1418     4.6210     3.4313
  109.1000   121.3907     4.6554     3.4313
  109.2000   121.7250     4.7088     3.4314
  109.3000   122.1909     4.7735     3.4315
  109.4000   122.4668     4.8869     3.4317
  109.5000   122.4690     4.9412     3.4318
  109.6000   122.4714     4.9979     3.4712
  109.7000   122.4738     5.0403     3.5133
  109.8000   122.4762     5.0776     3.5418
  109.9000   122.4787     5.1339     3.6039
  110.0000   122.4811     5.1681     3.6650
  110.1000   122.4835     5.1681     3.7121
  110.2000   122.4859     5.1681     3.7547
  110.3000   122.4883     5.1794     3.7977
  110.4000   122.5085     5.2044     3.8460
  110.5000   122.7961     5.2044     3.9744
  110.6000   123.0064     5.2600     4.1114
  110.7000   123.2553     5.2777     4.2941
  110.8000   123.4082     5.2921     4.4430
  110.9000   123.2907     5.3223     4.5110
  111.0000   122.5054     5.3535     4.5385
  111.1000   122.2774     5.4150     4.6117
  111.2000   121.6846     5.4274     4.6534
  111.3000   121.1840     5.4451     4.6801
  111.4000   120.9400     5.4655     4.7069
  111.5000   120.6958     5.4655     4.7332
  111.6000   120.4518     5.4655     4.7333
  111.7000   120.2077     5.4655     4.7549
  111.8000   120.1041     5.4655     4.7822
  111.9000   120.1908     5.4519     4.8002
  112.0000   120.4965     5.4143     4.8003
  112.1000   121.3219     5.3520     4.8005
  112.2000   121.9802     5.3220     4.8006
  112.3000   122.5594     5.2918     4.8008
  112.4000   123.1614     5.2301     4.8009
  112.5000   123.8024     5.1591     4.8010
  112.6000   124.0569     5.1251     4.8012
  112.7000   124.5412     5.0255     4.8013
  112.8000   124.8517     5.0011     4.8014
  112.9000   125.1006     4.9727     4.8015
  113.0000   125.4949     4.9332     4.8016
  113.1000   126.1870     4.8869     4.8018
  113.2000   126.1898     4.8869     4.8020
  113.3000   126.8128     4.8606     4.8021
  113.4000   127.2529     4.8329     4.8190
  113.5000   127.4069     4.8054     4.8360
  113.6000   127.4868     4.7927     4.8405
  113.7000   128.0171     4.8202     4.8701
  113.8000   128.2485     4.8528     4.8961
  113.9000   128.4975     4.8528     4.9045
  114.0000   128.9805     4.8692     4.9046
  114.1000   129.6004     4.8869     4.9047
  114.2000   129.8593     4.8907     4.9055
  114.3000   130.6008     4.9212     4.9336
  114.4000   130.9524     4.9726     4.9395
  114.5000   130.9229     5.0100     4.9396
  114.6000   130.5126     5.0255     4.9493
  114.7000   129.7753     5.0321     4.9776
  114.8000   128.9516     5.0609     5.0095
  114.9000   128.7362     5.0898     5.0349
  115.0000   128.4922     5.0963     5.0449
  115.1000   128.3534     5.1124     5.0450
  115.2000   128.3558     5.1321     5.0509
  115.3000   128.3583     5.1321     5.0806
  115.4000   128.3607     5.1321     5.0808
  115.5000   128.3631     5.1321     5.0809
  115.6000   128.3655     5.1321     5.0810
  115.7000   128.3679     5.1321     5.0811
  115.8000   128.3551     5.1321     5.0813
  115.9000   128.0706     5.1321     5.0815
  116.0000   127.6611     5.1321     5.0576
  116.1000   127.4699     5.1321     5.0464
  116.2000   127.3787     5.1321     5.0466
  116.3000   127.0597     5.1321     5.0424
  116.4000   126.2671     5.1321     5.0117
  116.5000   125.8135     5.1321     4.9856
  116.6000   125.1509     5.0837     4.9575
  116.7000   124.4138     5.0434     4.9427
  116.8000   123.6173     5.0255     4.9361
  116.9000   122.6370     5.0211     4.9078
  117.0000   121.9002     4.9905     4.8525
  117.1000   121.3571     4.9642     4.8192
  117.2000   120.8666     4.9360     4.7921
  117.3000   120.4579     4.9080     4.7650
  117.4000   120.2394     4.8869     4.7353
  117.5000   120.2424     4.8863     4.6754
  117.6000   120.2445     4.8585     4.6755
  117.7000   120.2469     4.8528     4.6414
  117.8000   120.3534     4.8216     4.5890
  117.9000   120.6504     4.7761     4.5472
  118.0000   121.1620     4.7459     4.5473
  118.1000   123.0720     4.6861     4.5226
  118.2000   123.9519     4.6390     4.4970
  118.3000   124.4473     4.6036     4.4587
  118.4000   124.8024     4.5662     4.4226
  118.5000   124.7908     4.5197     4.4214
  118.6000   124.5051     4.4935     4.3922
  118.7000   124.3026     4.4684     4.3512
  118.8000   124.0585     4.4240     4.3168
  118.9000   123.9068     4.3870     4.3015
  119.0000   123.8367     4.3546     4.2980
  119.1000   123.3067     4.3052     4.2719
  119.2000   122.1755     4.2490     4.2720
  119.3000   120.9452     4.2285     4.2387
  119.4000   120.1735     4.1896     4.2019
  119.5000   119.9879     4.1514     4.1838
  119.6000   119.9903     4.1278     4.1840
  119.7000   119.7439     4.1030     4.1601
  119.8000   119.8854     4.0591     4.1184
  119.9000   119.9976     4.0295     4.0848
  120.0000   120.0806     4.0066     4.0617
  120.1000   120.3050     3.9720     4.0343
