~VERSION INFORMATION
 VERS.                2.0:   CWLS LOG ASCII STANDARD - VERSION 2.0
 WRAP.                 NO:   ONE LINE PER DEPTH STEP
~WELL INFORMATION
#MNEM.UNIT      DATA TYPE    INFORMATION
#----------   ------------   ------------------------------
 STRT.F            4.0000:   START DEPTH
 STOP.F          528.0000:   STOP DEPTH
 STEP.F            0.1000:   STEP LENGTH
 NULL.          -999.2500:   NO VALUE
 COMP. BROWN JOHN E&C INC:   COMPANY
 WELL.    84-1 SHX- #84-3:   WELL
 FLD .        TEAPOT DOME:   FIELD
 LOC .       S3 T38N R78W:   LOCATION
 CNTY.            NATRONA:   COUNTY
 STAT.            WYOMING:   STATE
 CTRY. UNITED STATES OF AMERICA:   COUNTRY
 SRVC.     Atlas Wireline:   SERVICE COMPANY
 DATE.        18-JAN-1992:   LOGDATE
 API .       490252249900:   API NUMBER
~CURVE INFORMATION
#MNEM.UNIT       API CODE    CURVE DESCRIPTION
#----------   ------------   ------------------------------
 DEPT.F                  :   
 GRR .GAPI   07 310 01 00:   GAMMA RAY
 RILD.OHMM   07 120 46 00:   INDUCTION LOG DEEP RESISTIVITY
 RILM.OHMM   07 120 44 00:   INDUCTION LOG MEDIUM RESISTIVITY
~PARAMETER INFORMATION
#MNEM.UNIT          VALUE    DESCRIPTION
#----------   ------------   ------------------------------
 PD  .                 GL:   PERMANENT DATUM
 EPD .F              5147:   ELEVATION PERMANENT DATUM
 LMF .                 KB:   LOG MEASURED FROM
 DAPD.F                10:   FEET ABOVE PERMANENT DATUM
 DMF .                 KB:   DRILLING MEASURED FROM
 EKB .F              5157:   KELLING BUSHING
 EDF .F              5156:   DRILLING FLOOR
 EGL .F              5147:   GROUND LEVEL
 DATE.        18-JAN-1992:   RUN DATE
 RUN .                  1:   RUN NUMBER
 DD  .F               842:   DEPTH DRILLER
 DL  .F               837:   DEPTH LOGGER
 BLI .F               835:   BOTTOM LOG INTERVAL
 TLI .F                 4:   TOP LOG INTERVAL
 CS  .IN            8.625:   CASING SIZE
 CBD .F                39:   CASING BOTTOM DRILLER
 CBL .F                56:   CASING BOTTOM LOGGER
 BS  .IN             8.75:   BIT SIZE
 BSD .F               842:   BIT SIZE AT DEPTH
 DFT .                AIR:   DRILLING FLUID TYPE
 LUN .           HL- 6272:   LOGGING UNIT NUMBER
 LUL .             CASPER:   LOGGING UNIT LOCATION
 ENGI.       P. RASMUSSEN:   RECORDING ENGINEER
 WITN.          G. STRONG:   WITNESSED BY
 CLNT.            A2DTECH:   CLIENT CODE
 ORIG.           5" PRINT:   ORIGIN OF DATA
 UWI .       490252249900:   UNIQUE WELL ID
 DICO. A2D Technologies, Inc.:   DIGITIZING COMPANY
~OTHER INFORMATION
~A    DEPT      GRR      RILD       RILM   
# ...
  368.0000    69.2115    26.2954    26.1986
  368.1000    69.2122    26.2946    26.1979
  368.2000    69.2128    26.2939    26.1972
  368.3000    69.2389    26.2932    26.1964
  368.4000    69.5185    26.2925    26.1957
  368.5000    69.5190    26.2917    26.1950
  368.6000    69.6804    26.2910    26.1941
  368.7000    69.9290    26.2903    26.1935
  368.8000    70.2255    26.2895    26.1928
  368.9000    70.7391    26.2888    26.1920
  369.0000    71.6974    26.2881    26.2132
  369.1000    72.6898    26.2987    26.3735
  369.2000    73.9355    26.4703    26.3728
  369.3000    75.2842    26.4697    26.4760
  369.4000    76.2494    26.4689    26.6259
  369.5000    76.8312    26.4682    26.7765
  369.6000    77.4479    26.4675    26.9279
  369.7000    77.8945    26.4667    27.0804
  369.8000    78.0505    26.6083    27.1130
  369.9000    78.0874    26.6503    27.2841
  370.0000    78.3562    26.6495    27.6463
  370.1000    78.3568    26.6488    28.1032
  370.2000    78.1862    26.6538    28.4638
  370.3000    77.9387    26.8335    28.7467
  370.4000    77.6328    26.8328    29.0739
  370.5000    77.1415    26.9215    29.4046
  370.6000    77.1422    27.0189    29.7716
  370.7000    76.9491    27.0385    30.3001
  370.8000    76.8390    27.2063    30.6324
  370.9000    76.8396    27.3460    31.1113
  371.0000    76.8402    27.6077    31.6443
  371.1000    76.8409    27.8502    32.1344
  371.2000    76.8414    28.0080    32.4995
  371.3000    76.8420    28.1668    32.9345
  371.4000    76.8426    28.4881    33.2442
  371.5000    76.8432    28.6863    33.6226
  371.6000    76.8439    28.8489    33.9331
  371.7000    76.8444    29.0656    34.1250
  371.8000    76.8451    29.3652    34.3346
  371.9000    76.7203    29.3642    34.5126
  372.0000    76.4729    29.5085    34.7079
  372.1000    76.2002    29.5680    34.9043
  372.2000    75.3255    29.5672    35.0554
  372.3000    74.7134    29.5978    35.0544
  372.4000    74.2656    29.7721    35.0534
  372.5000    74.1096    29.7713    35.0524
  372.6000    74.0752    29.7705    35.0515
  372.7000    73.8064    29.7697    35.0505
  372.8000    73.8070    29.7689    35.0307
  372.9000    73.8076    29.7681    34.8053
  373.0000    73.8082    29.7671    34.6338
  373.1000    73.8088    29.7664    34.3130
  373.2000    73.8094    29.7655    34.0038
  373.3000    73.8101    29.7647    33.8104
  373.4000    73.8106    29.7388    33.6100
  373.5000    73.8113    29.5564    33.2467
  373.6000    73.7323    29.5556    33.0067
  373.7000    73.5080    29.4383    32.6339
  373.8000    73.5088    29.2708    31.9845
  373.9000    73.5093    29.1041    31.0952
  374.0000    73.5099    28.9385    30.2721
  374.1000    73.5105    28.7737    29.8532
  374.2000    73.5111    28.6100    29.5456
  374.3000    73.5117    28.2672    29.2576
  374.4000    73.5123    27.8409    28.7847
  374.5000    73.5129    27.5254    28.4297
  374.6000    73.5135    27.1774    28.1375
  374.7000    73.5142    26.9059    27.9270
  374.8000    73.5147    26.6013    27.7683
  374.9000    73.5155    26.4218    27.5752
  375.0000    73.7189    26.1228    27.2629
  375.1000    73.8210    25.8273    26.9550
  375.2000    74.1819    25.4532    26.6505
  375.3000    75.2757    25.1676    26.2687
  375.4000    77.1714    25.1669    25.8244
  375.5000    78.2984    25.1662    25.4131
  375.6000    79.3700    25.1655    25.2488
  375.7000    80.5873    25.2600    25.4968
  375.8000    82.0204    25.4032    25.6939
  375.9000    83.2627    25.5471    25.7796
  376.0000    84.0063    25.6942    25.8587
  376.1000    85.3241    25.8375    26.3222
  376.2000    86.5431    26.0966    26.4642
  376.3000    87.4575    26.3141    26.6139
  376.4000    88.1800    26.5093    26.9172
  376.5000    88.7459    26.8112    27.4209
  376.6000    88.9599    27.1623    28.0410
  376.7000    89.2085    27.2934    28.6107
  376.8000    89.4572    27.5463    28.8765
  376.9000    89.7058    27.7338    29.3036
  377.0000    89.9665    27.7602    29.6825
  377.1000    89.9671    27.9261    29.8730
  377.2000    89.9677    27.9253    30.2452
  377.3000    89.9683    28.0390    30.4003
  377.4000    89.9025    28.2774    30.6906
  377.5000    89.6550    28.5560    30.9602
  377.6000    89.3615    28.7113    31.1354
  377.7000    89.3620    28.7103    31.3123
  377.8000    89.2172    28.8427    31.3114
  377.9000    89.0587    29.0062    31.4473
  378.0000    89.0269    29.1706    31.5284
  378.1000    88.7556    29.3137    31.5275
  378.2000    86.2917    29.3127    31.5266
  378.3000    84.0674    29.4634    31.5256
  378.4000    81.8620    29.5160    31.3721
  378.5000    79.5462    29.5916    31.3053
  378.6000    77.7997    29.7208    31.0873
  378.7000    76.3217    29.7200    31.0864
  378.8000    75.4043    29.7191    30.9510
  378.9000    74.7946    29.7183    30.8690
  379.0000    74.3765    29.7175    30.8139
  379.1000    74.1292    29.7166    30.6531
  379.2000    73.8461    29.7158    30.6522
  379.3000    73.6344    29.7149    30.5032
  379.4000    73.3869    29.7142    30.4379
  379.5000    73.2390    29.8221    30.4371
  379.6000    73.2396    29.9203    30.4363
  379.7000    73.2402    29.9517    30.4354
  379.8000    73.2408    30.1277    30.4346
  379.9000    73.2414    30.1269    30.4337
  380.0000    73.3637    30.2524    30.4329
  380.1000    73.8080    30.3358    30.4320
  380.2000    74.8098    30.3350    30.4312
  380.3000    76.2881    30.3342    30.4302
  380.4000    77.0904    30.3331    30.4295
  380.5000    78.0834    30.3324    30.3287
  380.6000    79.2515    30.2280    30.2167
  380.7000    80.7083    30.1202    30.1944
  380.8000    82.0750    30.0936    30.0053
  380.9000    83.4123    29.9093    29.8521
  381.0000    84.5680    29.9085    29.7956
  381.1000    85.8902    29.7896    29.7201
  381.2000    87.5738    29.6992    29.5872
  381.3000    89.0795    29.6984    29.5864
  381.4000    89.3252    29.6976    29.5856
  381.5000    89.5739    29.6968    29.5848
  381.6000    89.8225    29.6960    29.5839
  381.7000    89.9951    29.6951    29.6346
  381.8000    89.9957    29.6943    29.7890
  381.9000    89.9964    29.6935    29.7880
  382.0000    89.9970    29.6925    29.7873
  382.1000    89.9976    29.5430    29.8922
  382.2000    89.7034    29.4849    30.0613
  382.3000    89.0018    29.4118    30.2025
  382.4000    88.4774    29.2444    30.2015
  382.5000    87.7776    29.0744    30.2007
  382.6000    86.8573    28.9124    30.1999
  382.7000    85.9866    28.7479    30.1990
  382.8000    85.2155    28.5842    30.1540
  382.9000    84.3657    28.3735    29.9826
  383.0000    83.5159    28.0634    29.7788
  383.1000    82.8062    27.8793    29.6429
  383.2000    82.3110    27.7449    29.5707
  383.3000    81.7857    27.4905    29.5117
  383.4000    81.5534    27.2396    29.3240
  383.5000    81.6591    27.0844    28.9571
  383.6000    82.0279    26.9212    28.6650
  383.7000    82.5882    26.6346    28.4476
  383.8000    83.3469    26.4399    28.2161
  383.9000    84.8336    26.2893    27.9301
  384.0000    86.2257    26.1010    27.7686
  384.1000    87.8199    25.8104    27.4601
  384.2000    89.5668    25.6354    27.2661
  384.3000    91.6808    25.4009    26.9503
  384.4000    93.0558    25.1133    26.5844
  384.5000    93.7202    24.8787    26.4331
  384.6000    94.2998    24.7191    26.2599
  384.7000    94.5796    24.4118    25.8850
  384.8000    94.5802    24.1626    25.6259
  384.9000    94.5808    23.8891    25.4242
  385.0000    94.5814    23.6786    25.1596
  385.1000    94.5820    23.5438    25.0074
  385.2000    94.4520    23.4092    24.8744
  385.3000    94.0564    23.0151    24.5363
  385.4000    93.2947    22.8238    24.2526
  385.5000    92.1493    22.5552    24.0461
  385.6000    91.9403    22.1733    23.6426
  385.7000    91.8459    21.8083    23.3757
  385.8000    91.8465    21.5280    23.0077
  385.9000    91.8472    21.3175    22.6189
  386.0000    91.8478    21.0763    22.3224
  386.1000    92.5435    20.8375    22.1811
