~VERSION INFORMATION
 VERS.                2.0:   CWLS LOG ASCII STANDARD - VERSION 2.0
 WRAP.                 NO:   ONE LINE PER DEPTH STEP
~WELL INFORMATION
#MNEM.UNIT      DATA TYPE    INFORMATION
#----------   ------------   ------------------------------
 STRT.F         1160.0000:   START DEPTH
 STOP.F         2086.0000:   STOP DEPTH
 STEP.F            0.5000:   STEP LENGTH
 NULL.          -999.2500:   NO VALUE
 COMP. LAWRENCE/ALLISON INC:   COMPANY
 WELL.      17 STX #27-27:   WELL
 FLD .             TEAPOT:   FIELD
 LOC .      S27 T39N R78W:   LOCATION
 CNTY.            NATRONA:   COUNTY
 STAT.            WYOMING:   STATE
 CTRY. UNITED STATES OF AMERICA:   COUNTRY
 SRVC.            Unknown:   SERVICE COMPANY
 DATE.        09-JUN-1991:   LOGDATE
 API .       490251118200:   API NUMBER
~CURVE INFORMATION
#MNEM.UNIT       API CODE    CURVE DESCRIPTION
#----------   ------------   ------------------------------
 DEPT.F                  :   
 ROP .MIN/FT 91 810 01 00:   RAT OF DRILLING PENETRATION
 TGAS.UNITS  91 830 01 00:   TOTAL GAS UNIT
~PARAMETER INFORMATION
#MNEM.UNIT          VALUE    DESCRIPTION
#----------   ------------   ------------------------------
 EKB .F              5078:   KELLING BUSHING
 EGL .F              5068:   GROUND LEVEL
 DATE.         9-JUN-1991:   RUN DATE
 RUN .                  1:   RUN NUMBER
 BLI .F              2120:   BOTTOM LOG INTERVAL
 TLI .F              1160:   TOP LOG INTERVAL
 CLNT.            A2DTECH:   CLIENT CODE
 ORIG.           5" PRINT:   ORIGIN OF DATA
 UWI .       490251118200:   UNIQUE WELL ID
 DICO. A2D Technologies, Inc.:   DIGITIZING COMPANY
~OTHER INFORMATION
~A  DEPT         ROP      TGAS  
# ...
 1281.5000     0.8917     2.3640
 1282.0000     0.8921     2.3849
 1282.5000     0.8830     2.4059
 1283.0000     0.8740     2.4268
 1283.5000     0.8642     2.4477
 1284.0000     0.8264     2.4686
 1284.5000     0.7980     2.4895
 1285.0000     0.7811     2.5105
 1285.5000     0.8193     2.5314
 1286.0000     0.8574     2.5523
 1286.5000     0.8578     2.5732
 1287.0000     0.8582     2.5941
 1287.5000     0.8585     2.6151
 1288.0000     0.8589     2.6360
 1288.5000     0.8592     2.6569
 1289.0000     0.8597     2.6778
 1289.5000     0.8600     2.6987
 1290.0000     0.8604     2.7197
 1290.5000     0.8702     2.7406
 1291.0000     0.8800     2.7615
 1291.5000     0.8993     2.7824
 1292.0000     0.9185     2.8033
 1292.5000     0.9377     2.8243
 1293.0000     0.9570     2.8452
 1293.5000     0.9762     2.8661
 1294.0000     0.9664     2.8870
 1294.5000     0.9474     2.9079
 1295.0000     0.9285     2.9289
 1295.5000     0.8835     2.9498
 1296.0000     0.8461     2.9707
 1296.5000     0.8275     2.9916
 1297.0000     0.8280     3.0126
 1297.5000     0.8284     3.0335
 1298.0000     0.8287     3.0544
 1298.5000     0.8480     3.0762
 1299.0000     0.8861     2.4548
 1299.5000     0.9148     1.8055
 1300.0000     0.9434     1.0495
 1300.5000     0.9438     1.3183
 1301.0000     0.8494     1.6400
 1301.5000     0.8306     1.9617
 1302.0000     0.8024     2.2834
 1302.5000     0.7931     2.6051
 1303.0000     0.7744     2.9269
 1303.5000     0.7746     3.2486
 1304.0000     0.7747     3.5703
 1304.5000     0.7749     3.8920
 1305.0000     0.7750     4.2137
 1305.5000     0.7940     4.5354
 1306.0000     0.8036     4.8571
 1306.5000     0.8226     5.1788
 1307.0000     0.8416     6.3500
 1307.5000     0.8512     6.3551
 1308.0000     0.8513     8.4523
 1308.5000     0.8515    10.5495
 1309.0000     0.8422    11.6007
 1309.5000     0.8140    13.6979
 1310.0000     0.7859    13.7031
 1310.5000     0.8049    14.7542
 1311.0000     0.8522    14.7594
 1311.5000     0.8995    14.7646
 1312.0000     0.9468    14.7699
 1312.5000     0.9847    14.7761
 1313.0000     1.0320    15.8273
 1313.5000     1.0699    15.8325
 1314.0000     1.1077    16.8836
 1314.5000     1.1267    16.8888
 1315.0000     1.1458    17.9400
 1315.5000     1.1348    17.9451
 1316.0000     1.0786    18.9963
 1316.5000     1.0047    19.0014
 1317.0000     0.9576    20.0526
 1317.5000     0.8823    20.0578
 1318.0000     0.7881    16.9248
 1318.5000     0.6939    14.8379
 1319.0000     0.6846    13.7971
 1319.5000     0.7131    13.8023
 1320.0000     0.7227    12.7613
 1320.5000     0.6662    12.7678
 1321.0000     0.6286    10.6809
 1321.5000     0.6193     9.6400
 1322.0000     0.6100     8.5978
 1322.5000     0.6101     7.5570
 1323.0000     0.6008     6.5161
 1323.5000     0.5916     7.5680
 1324.0000     0.5917     8.6197
 1324.5000     0.5918     9.6709
 1325.0000     0.5936     8.6297
 1325.5000     0.6110     9.6812
 1326.0000     0.6112     8.6402
 1326.5000     0.6207     8.6455
 1327.0000     0.6209     7.6046
 1327.5000     0.6304     7.6098
 1328.0000     0.6400     7.6151
 1328.5000     0.6496     6.5740
 1329.0000     0.6497     5.5344
 1329.5000     0.6310     4.4923
 1330.0000     0.6217     5.5447
 1330.5000     0.6124     5.5499
 1331.0000     0.5937     4.5077
 1331.5000     0.5844     3.4669
 1332.0000     0.5845     3.4733
 1332.5000     0.6224     3.4785
 1333.0000     0.6421     3.4836
 1333.5000     0.6604     3.4888
 1334.0000     0.6700     3.4937
 1334.5000     0.6607     3.4991
 1335.0000     0.6326     3.5042
 1335.5000     0.6232     2.4633
 1336.0000     0.5951     2.4686
 1336.5000     0.5953     2.4738
 1337.0000     0.5954     2.4801
 1337.5000     0.6050     2.4852
 1338.0000     0.6334     2.4904
 1338.5000     0.6619     2.4955
 1339.0000     0.6903     2.5007
 1339.5000     0.6999     2.5058
 1340.0000     0.7094     2.5110
 1340.5000     0.7284     2.4878
 1341.0000     0.7380     2.4247
 1341.5000     0.7385     2.3617
 1342.0000     0.7675     2.2987
 1342.5000     0.8153     2.2357
 1343.0000     0.9556     2.1727
 1343.5000     1.1538     2.1096
 1344.0000     1.2578     2.0466
 1344.5000     1.3145     1.9836
 1345.0000     1.3524     1.9206
 1345.5000     1.4186     1.8576
 1346.0000     1.4564     1.7945
 1346.5000     1.3056     1.7315
 1347.0000     1.1831     1.6685
 1347.5000     1.0135     1.6055
 1348.0000     0.8910     1.5425
 1348.5000     0.8534     1.4794
 1349.0000     0.8535     1.4164
 1349.5000     0.8442     1.3534
 1350.0000     0.8349     1.2904
 1350.5000     0.8445     1.2274
 1351.0000     0.8541     1.1643
 1351.5000     0.8731     1.1013
 1352.0000     0.8355     1.0383
 1352.5000     0.7885     0.9753
 1353.0000     0.7603     0.9123
 1353.5000     0.7415     0.8492
 1354.0000     0.7228     0.7862
 1354.5000     0.7041     0.7232
 1355.0000     0.7043     0.6602
 1355.5000     0.7138     0.5972
 1356.0000     0.7423     0.5341
 1356.5000     0.7896     0.4711
 1357.0000     0.8558     0.4081
 1357.5000     0.9219     0.3451
 1358.0000     0.9692     0.2821
 1358.5000     0.9697     0.2190
 1359.0000     0.9412     0.1560
 1359.5000     0.9225     0.0930
 1360.0000     0.9025     0.0300
 1360.5000     0.8945     0.0522
 1361.0000     0.8852     0.1517
 1361.5000     0.8854     0.2512
 1362.0000     0.8949     0.3507
 1362.5000     0.9045     0.4502
 1363.0000     0.9424     0.5497
 1363.5000     0.9803     0.6492
 1364.0000     1.0276     0.7487
 1364.5000     1.0654     0.8483
 1365.0000     1.0844     0.9478
 1365.5000     1.0846     1.0473
 1366.0000     1.1036     1.1468
 1366.5000     1.1509     1.2463
 1367.0000     1.2076     1.3458
 1367.5000     1.2644     1.4453
 1368.0000     1.3124     1.5448
 1368.5000     1.3891     1.6443
 1369.0000     1.4629     1.7439
 1369.5000     1.4820     1.8434
 1370.0000     1.4726     1.9429
 1370.5000     1.4539     2.0424
 1371.0000     1.4258     2.1419
 1371.5000     1.3881     2.2414
 1372.0000     1.4166     2.3409
 1372.5000     1.4451     2.4404
 1373.0000     1.5961     2.5400
 1373.5000     1.6906     2.6395
 1374.0000     1.7662     2.7390
 1374.5000     1.8041     2.8385
 1375.0000     1.8137     2.9380
 1375.5000     1.8516     3.0375
 1376.0000     1.8800     3.1370
 1376.5000     1.8329     3.2365
 1377.0000     1.7376     3.3360
 1377.5000     1.6119     3.4356
 1378.0000     1.4511     3.5351
 1378.5000     1.2581     3.6346
 1379.0000     1.0413     3.7341
 1379.5000     0.8999     3.8336
 1380.0000     0.8340     3.9331
 1380.5000     0.8247     5.0258
 1381.0000     0.8060     4.9746
 1381.5000     0.7966     4.9265
 1382.0000     0.7873     4.8784
 1382.5000     0.7498     4.8303
 1383.0000     0.7216     4.7822
 1383.5000     0.6935     4.7341
 1384.0000     0.6747     4.6860
 1384.5000     0.6466     4.6379
 1385.0000     0.6373     4.5898
 1385.5000     0.6185     4.5417
 1386.0000     0.6085     4.4936
 1386.5000     0.5798     4.4455
 1387.0000     0.5530     4.3974
 1387.5000     0.5248     4.3493
 1388.0000     0.4872     4.3012
 1388.5000     0.4873     4.2531
 1389.0000     0.4875     4.2050
 1389.5000     0.5065     4.1569
 1390.0000     0.5255     4.1088
 1390.5000     0.5634     4.0607
 1391.0000     0.6107     4.0126
 1391.5000     0.6202     3.9645
 1392.0000     0.6109     3.9164
 1392.5000     0.6017     3.8683
 1393.0000     0.5641     3.8202
 1393.5000     0.4982     3.7721
 1394.0000     0.4606     3.7240
 1394.5000     0.4418     3.6759
 1395.0000     0.4231     3.6278
 1395.5000     0.4138     3.5797
 1396.0000     0.4140     3.5316
 1396.5000     0.4141     3.4835
 1397.0000     0.4237     3.4354
 1397.5000     0.4238     3.3873
 1398.0000     0.4428     3.3392
 1398.5000     0.4901     3.2911
 1399.0000     0.5469     3.2430
 1399.5000     0.6036     3.1949
 1400.0000     0.6604     3.1389
 1400.5000     0.7170     3.1565
 1401.0000     0.7547     3.1775
 1401.5000     0.7736     3.1984
 1402.0000     0.7925     3.2194
 1402.5000     0.8113     3.2404
