~VERSION INFORMATION
 VERS.                2.0:   CWLS LOG ASCII STANDARD - VERSION 2.0
 WRAP.                 NO:   ONE LINE PER DEPTH STEP
~WELL INFORMATION
#MNEM.UNIT      DATA TYPE    INFORMATION
#----------   ------------   ------------------------------
 STRT.F            1.0000:   START DEPTH
 STOP.F          508.0000:   STOP DEPTH
 STEP.F            0.1000:   STEP LENGTH
 NULL.          -999.2500:   NO VALUE
 COMP.       F D SERV INC:   COMPANY
 WELL. NAVAL PETROLEUM RESERVE 3 SX-1 #83-4-10:   WELL
 FLD .             TEAPOT:   FIELD
 LOC .      S10 T38N R78W:   LOCATION
 CNTY.            NATRONA:   COUNTY
 STAT.            WYOMING:   STATE
 CTRY. UNITED STATES OF AMERICA:   COUNTRY
 SRVC.     Atlas Wireline:   SERVICE COMPANY
 DATE.        26-JAN-1993:   LOGDATE
 API .       490252258300:   API NUMBER
~CURVE INFORMATION
#MNEM.UNIT       API CODE    CURVE DESCRIPTION
#----------   ------------   ------------------------------
 DEPT.F                  :   
 GRR .GAPI   07 310 01 00:   GAMMA RAY
 RILD.OHMM   07 120 46 00:   INDUCTION LOG DEEP RESISTIVITY
 RILM.OHMM   07 120 44 00:   INDUCTION LOG MEDIUM RESISTIVITY
~PARAMETER INFORMATION
#MNEM.UNIT          VALUE    DESCRIPTION
#----------   ------------   ------------------------------
 PD  .                 GL:   PERMANENT DATUM
 EPD .F              5152:   ELEVATION PERMANENT DATUM
 LMF .                 KB:   LOG MEASURED FROM
 DAPD.F                10:   FEET ABOVE PERMANENT DATUM
 DMF .                 KB:   DRILLING MEASURED FROM
 EKB .F              5162:   KELLING BUSHING
 EDF .F              5161:   DRILLING FLOOR
 EGL .F              5152:   GROUND LEVEL
 DATE.        26-JAN-1993:   RUN DATE
 RUN .                  1:   RUN NUMBER
 DD  .F               515:   DEPTH DRILLER
 DL  .F               516:   DEPTH LOGGER
 BLI .F               508:   BOTTOM LOG INTERVAL
 CS  .IN            8.625:   CASING SIZE
 CBD .F                55:   CASING BOTTOM DRILLER
 CBL .F                55:   CASING BOTTOM LOGGER
 BS  .IN            7.875:   BIT SIZE
 BSD .F               515:   BIT SIZE AT DEPTH
 DFT .                AIR:   DRILLING FLUID TYPE
 MRT .F                63:   MAXIMUM RECORDED TEMPERATURE
 LUN .           HL- 6274:   LOGGING UNIT NUMBER
 LUL .             CASPER:   LOGGING UNIT LOCATION
 ENGI.       P. RASMUSSEN:   RECORDING ENGINEER
 WITN.          G. STRONG:   WITNESSED BY
 CLNT.            A2DTECH:   CLIENT CODE
 ORIG.           5" PRINT:   ORIGIN OF DATA
 UWI .       490252258300:   UNIQUE WELL ID
 DICO. A2D Technologies, Inc.:   DIGITIZING COMPANY
~OTHER INFORMATION
~A    DEPT     GRR       RILD       RILM   
# ...
  255.8000   142.7711     5.6639     5.6006
  255.9000   142.3016     5.7522     5.6572
  256.0000   141.7831     5.8342     5.6569
  256.1000   141.2645     5.9215     5.7186
  256.2000   140.9639     6.0288     5.7601
  256.3000   140.8970     6.1441     5.8120
  256.4000   140.6378     6.2923     5.8919
  256.5000   140.3615     6.3795     5.9950
  256.6000   140.3615     6.4449     6.1031
  256.7000   140.3615     6.5499     6.1721
  256.8000   140.3615     6.6256     6.2722
  256.9000   140.4777     6.6807     6.3604
  257.0000   140.7369     6.7611     6.4344
  257.1000   141.0285     6.8425     6.5092
  257.2000   141.5663     6.9323     6.5848
  257.3000   142.7711     6.9703     6.6761
  257.4000   144.0168     7.0121     6.7073
  257.5000   146.2351     7.0797     6.7461
  257.6000   148.5802     7.1459     6.7851
  257.7000   150.7358     7.1888     6.8243
  257.8000   152.9891     7.2320     6.8651
  257.9000   154.8193     7.2767     6.9576
  258.0000   157.8313     7.3272     7.0259
  258.1000   159.7673     7.3631     7.1077
  258.2000   161.7543     7.4073     7.1712
  258.3000   163.3063     7.4294     7.2126
  258.4000   164.2457     7.4294     7.2572
  258.5000   164.4578     7.4379     7.3521
  258.6000   164.4578     7.4825     7.3518
  258.7000   164.4578     7.5330     7.3515
  258.8000   164.4578     7.5330     7.3722
  258.9000   164.4578     7.5656     7.4020
  259.0000   164.0440     7.5854     7.4061
  259.1000   163.2697     7.6039     7.4528
  259.2000   162.4953     7.6381     7.4525
  259.3000   161.7209     7.6381     7.4522
  259.4000   160.9466     7.6381     7.4519
  259.5000   160.1722     7.6811     7.4659
  259.6000   159.3979     7.7272     7.5090
  259.7000   158.6235     7.7446     7.5549
  259.8000   157.8491     7.7446     7.5546
  259.9000   157.0748     7.7446     7.5872
  260.0000   156.3004     7.7446     7.6311
  260.1000   155.5260     7.7446     7.6590
  260.2000   154.7517     7.7446     7.6586
  260.3000   153.9773     7.7838     7.6583
  260.4000   153.2029     7.7984     7.7016
  260.5000   152.4286     7.7984     7.7461
  260.6000   151.6614     7.7984     7.7642
  260.7000   151.0759     7.8085     7.7638
  260.8000   151.0667     7.8526     7.7635
  260.9000   150.7721     7.8526     7.7632
  261.0000   150.5602     7.8526     7.7628
  261.1000   150.4687     7.8526     7.7626
  261.2000   150.4675     7.8526     7.7622
  261.3000   150.5927     7.8526     7.7619
  261.4000   151.0955     7.8526     7.7616
  261.5000   151.6685     7.8526     7.7613
  261.6000   152.1011     7.8526     7.7609
  261.7000   152.4363     7.8526     7.7606
  261.8000   152.8056     7.8526     7.7603
  261.9000   153.3084     7.8526     7.7600
  262.0000   153.8313     7.8526     7.7596
  262.1000   154.6734     7.8526     7.7593
  262.2000   155.3410     7.8526     7.7590
  262.3000   155.7484     7.8526     7.7587
  262.4000   155.9992     7.8526     7.7584
  262.5000   156.2500     7.8526     7.7580
  262.6000   156.5270     7.8526     7.7577
  262.7000   157.0758     7.8526     7.7574
  262.8000   157.0747     7.8526     7.7570
  262.9000   157.2533     7.8526     7.7567
  263.0000   157.5041     7.8526     7.7564
  263.1000   157.7549     7.8526     7.7561
  263.2000   158.0057     7.8526     7.7558
  263.3000   158.2734     7.8526     7.7555
  263.4000   159.2120     7.8526     7.7551
  263.5000   159.8473     7.8526     7.7548
  263.6000   160.4866     7.8526     7.7545
  263.7000   161.3288     7.8526     7.7542
  263.8000   162.5642     7.8526     7.7538
  263.9000   165.1939     7.8526     7.7535
  264.0000   166.6386     7.8526     7.7532
  264.1000   167.3823     7.8526     7.7529
  264.2000   167.7426     7.8526     7.7526
  264.3000   168.0868     7.8526     7.7522
  264.4000   168.5454     7.8526     7.7519
  264.5000   168.8012     7.8526     7.7421
  264.6000   169.2939     7.8526     7.6978
  264.7000   169.5990     7.8526     7.6974
  264.8000   169.7012     7.8526     7.6604
  264.9000   169.6006     7.8526     7.6437
  265.0000   169.1967     7.8526     7.6434
  265.1000   168.1873     7.8526     7.6431
  265.2000   166.9853     7.8526     7.6405
  265.3000   165.9653     7.8526     7.5896
  265.4000   164.5496     7.8526     7.5517
  265.5000   163.4579     7.8526     7.5367
  265.6000   162.8964     7.8526     7.5364
  265.7000   162.1462     7.8526     7.5361
  265.8000   161.5564     7.8526     7.5357
  265.9000   161.3456     7.8526     7.5354
  266.0000   160.9317     7.8526     7.5351
  266.1000   160.6494     7.8526     7.5348
  266.2000   160.7104     7.8526     7.5345
  266.3000   160.9612     7.8526     7.5342
  266.4000   161.2480     7.8526     7.5339
  266.5000   161.6787     7.8526     7.5335
  266.6000   162.0149     7.8526     7.5738
  266.7000   162.3832     7.8526     7.5853
  266.8000   162.8177     7.8526     7.5850
  266.9000   163.0876     7.8526     7.5999
  267.0000   163.6505     7.8526     7.6371
  267.1000   163.8713     7.8526     7.6367
  267.2000   164.1221     7.8526     7.6364
  267.3000   164.1259     7.8526     7.6361
  267.4000   163.7985     7.8526     7.6358
  267.5000   163.3183     7.8526     7.6354
  267.6000   163.0408     7.8526     7.6351
  267.7000   162.3561     7.8526     7.6348
  267.8000   161.2414     7.8526     7.6345
  267.9000   159.5916     7.8526     7.6342
  268.0000   157.8957     7.8526     7.6607
  268.1000   156.9174     7.8433     7.6866
  268.2000   156.1059     7.7976     7.6863
  268.3000   155.8709     7.7767     7.6860
  268.4000   156.1720     7.7558     7.6856
  268.5000   156.5392     7.7349     7.6853
  268.6000   156.7900     7.7140     7.7136
  268.7000   157.0780     7.6931     7.7381
  268.8000   157.6048     7.6722     7.7378
  268.9000   158.0836     7.6513     7.7374
  269.0000   158.5864     7.6304     7.7371
  269.1000   159.0892     7.6095     7.7368
  269.2000   159.4996     7.5886     7.7365
  269.3000   159.7504     7.5677     7.7148
  269.4000   160.0072     7.5468     7.6698
  269.5000   160.2520     7.5259     7.6291
  269.6000   160.3060     7.5051     7.6288
  269.7000   160.3048     7.4842     7.5888
  269.8000   160.3036     7.4633     7.5446
  269.9000   160.2533     7.4424     7.5007
  270.0000   160.0000     7.4215     7.4569
  270.1000   159.9986     7.4006     7.4135
  270.2000   159.9976     7.3710     7.3673
  270.3000   159.8427     7.3283     7.3273
  270.4000   159.4851     7.2859     7.2536
  270.5000   158.9247     7.2438     7.2149
  270.6000   158.1734     7.2020     7.2000
  270.7000   157.5817     7.1603     7.1580
  270.8000   157.1630     7.1189     7.1148
  270.9000   156.6578     7.0859     7.1145
  271.0000   156.1526     7.0857     7.1142
  271.1000   155.6473     7.0448     7.0901
  271.2000   155.1663     7.0040     7.0645
  271.3000   155.1649     6.9877     7.0564
  271.4000   155.1639     6.9875     7.0152
  271.5000   155.1627     6.9792     7.0149
  271.6000   155.2779     6.9389     7.0146
  271.7000   155.5287     6.8988     6.9895
  271.8000   155.7795     6.8906     6.9656
  271.9000   156.0613     6.8666     6.9563
  272.0000   156.5019     6.8427     6.9170
  272.1000   156.8331     6.8346     6.9167
  272.2000   157.2064     6.7951     6.9164
  272.3000   158.0025     6.7949     6.9161
  272.4000   159.5132     6.7947     6.9158
  272.5000   161.1746     6.7945     6.9052
  272.6000   162.0811     6.7943     6.8675
  272.7000   162.7326     6.7863     6.8672
  272.8000   163.3639     6.7471     6.8324
  272.9000   163.9600     6.7469     6.8193
  273.0000   164.2410     6.7156     6.8190
  273.1000   164.7818     6.6999     6.8187
  273.2000   164.7807     6.6997     6.8184
  273.3000   164.7795     6.6919     6.8181
  273.4000   164.7783     6.6531     6.7822
  273.5000   164.7771     6.6530     6.7427
  273.6000   164.7759     6.6222     6.6834
  273.7000   164.7746     6.6067     6.6183
  273.8000   164.7735     6.6065     6.5698
  273.9000   164.9620     6.5987     6.4491
