~VERSION INFORMATION
 VERS.                2.0:   CWLS LOG ASCII STANDARD - VERSION 2.0
 WRAP.                 NO:   ONE LINE PER DEPTH STEP
~WELL INFORMATION
#MNEM.UNIT      DATA TYPE    INFORMATION
#----------   ------------   ------------------------------
 STRT.F           60.0000:   START DEPTH
 STOP.F         3052.0000:   STOP DEPTH
 STEP.F            0.5000:   STEP LENGTH
 NULL.          -999.2500:   NO VALUE
 COMP.   FLUOR DANIEL INC:   COMPANY
 WELL. NAVAL PETROLEUM RESERVE 3 X-14 #57-14:   WELL
 FLD .            WILDCAT:   FIELD
 LOC .      S14 T38N R78W:   LOCATION
 CNTY.            NATRONA:   COUNTY
 STAT.            WYOMING:   STATE
 CTRY. UNITED STATES OF AMERICA:   COUNTRY
 SRVC.            Unknown:   SERVICE COMPANY
 DATE.        16-MAY-1995:   LOGDATE
 API .       490252272000:   API NUMBER
~CURVE INFORMATION
#MNEM.UNIT       API CODE    CURVE DESCRIPTION
#----------   ------------   ------------------------------
 DEPT.F                  :   
 ROP .FT/HR  91 810 01 00:   RAT OF DRILLING PENETRATION
 TGAS.TC/CC  91 830 01 00:   TOTAL GAS UNIT
~PARAMETER INFORMATION
#MNEM.UNIT          VALUE    DESCRIPTION
#----------   ------------   ------------------------------
 EKB .F              5312:   KELLING BUSHING
 EGL .F              5302:   GROUND LEVEL
 DATE.        16-MAY-1995:   RUN DATE
 RUN .                  1:   RUN NUMBER
 BLI .F              3062:   BOTTOM LOG INTERVAL
 TLI .F                60:   TOP LOG INTERVAL
 ENGI.     C.TOWER/R.HUSK:   RECORDING ENGINEER
 CLNT.            A2DTECH:   CLIENT CODE
 ORIG.           5" PRINT:   ORIGIN OF DATA
 UWI .       490252272000:   UNIQUE WELL ID
 DICO. A2D Technologies, Inc.:   DIGITIZING COMPANY
~OTHER INFORMATION
~A   DEPT        ROP       TGAS 
# ...
 1032.0000     0.8251    13.3372
 1032.5000     0.8253    13.3437
 1033.0000     0.8254    13.3501
 1033.5000     0.8256    13.3566
 1034.0000     0.8258    13.3633
 1034.5000     0.8166    13.1812
 1035.0000     0.8168    12.4282
 1035.5000     0.8170    11.8634
 1036.0000     0.8172    11.3003
 1036.5000     0.8174    11.1169
 1037.0000     0.8176    10.9348
 1037.5000     0.8271    11.1314
 1038.0000     0.8553    11.1380
 1038.5000     0.8649    11.1566
 1039.0000     0.8463    11.3423
 1039.5000     0.8466    11.3487
 1040.0000     0.8468    11.3552
 1040.5000     0.8469    11.3616
 1041.0000     0.8471    11.3681
 1041.5000     0.8473    11.5644
 1042.0000     0.8475    11.1912
 1042.5000     0.8477    11.1978
 1043.0000     0.8479    11.0142
 1043.5000     0.8480    10.8308
 1044.0000     0.8483    11.0278
 1044.5000     0.8484    11.0345
 1045.0000     0.8486    11.0411
 1045.5000     0.8488    11.0478
 1046.0000     0.8209    11.0544
 1046.5000     0.8211    11.0445
 1047.0000     0.8213    10.9529
 1047.5000     0.8215    10.8613
 1048.0000     0.8311    10.7697
 1048.5000     0.8499    10.6781
 1049.0000     0.8501    10.5865
 1049.5000     0.8503    10.4948
 1050.0000     0.9440    10.4032
 1050.5000     0.9444    10.3116
 1051.0000     0.9449    10.2200
 1051.5000     0.9266    10.1284
 1052.0000     0.8704    10.0368
 1052.5000     0.8621     9.9452
 1053.0000     0.8627     9.8536
 1053.5000     0.8632     9.4458
 1054.0000     0.8636     9.0811
 1054.5000     0.8546     9.1086
 1055.0000     0.8552     9.1362
 1055.5000     0.8556     9.1638
 1056.0000     0.8841     9.1914
 1056.5000     0.8939     9.2189
 1057.0000     0.8944     9.2465
 1057.5000     0.8949     9.2741
 1058.0000     0.8954     9.3017
 1058.5000     0.8959     9.3227
 1059.0000     0.8963     9.3285
 1059.5000     0.8968     9.3356
 1060.0000     0.8972     9.3418
 1060.5000     0.8882     9.3484
 1061.0000     0.8888     9.3551
 1061.5000     0.8986     9.3617
 1062.0000     0.9178     9.3684
 1062.5000     0.8902     9.3760
 1063.0000     0.9001     9.3816
 1063.5000     0.9005     9.3895
 1064.0000     0.8915     9.3949
 1064.5000     0.8640     9.4016
 1065.0000     0.8458     9.4082
 1065.5000     0.8368     9.2128
 1066.0000     1.2019     8.4719
 1066.5000     1.2117     7.7204
 1067.0000     1.2121     6.9674
 1067.5000     1.2017     6.2144
 1068.0000     1.0168     6.0293
 1068.5000     1.0174     5.4662
 1069.0000     1.0178     5.4743
 1069.5000     1.0183     5.4750
 1070.0000     0.9252     5.4580
 1070.5000     0.9351     5.4410
 1071.0000     0.9262     5.4239
 1071.5000     0.8986     5.4069
 1072.0000     0.7308     5.3899
 1072.5000     0.7407     5.3728
 1073.0000     0.7411     5.3558
 1073.5000     0.7416     5.3388
 1074.0000     0.7421     5.3218
 1074.5000     0.7426     5.3047
 1075.0000     0.7524     5.2877
 1075.5000     0.7248     5.2707
 1076.0000     0.5663     5.2536
 1076.5000     0.5762     5.2366
 1077.0000     0.5767     5.2196
 1077.5000     0.5865     5.2025
 1078.0000     0.5869     5.1855
 1078.5000     0.5874     5.1685
 1079.0000     0.5879     5.1514
 1079.5000     0.5978     5.1344
 1080.0000     0.6449     5.1174
 1080.5000     0.6454     5.1003
 1081.0000     0.6458     5.0833
 1081.5000     0.6463     5.0694
 1082.0000     0.7309     5.0772
 1082.5000     0.7313     5.0839
 1083.0000     0.7318     5.0905
 1083.5000     0.7322     5.0972
 1084.0000     0.7608     5.1038
 1084.5000     0.7613     5.1104
 1085.0000     0.7617     5.1171
 1085.5000     0.7622     5.1237
 1086.0000     0.7626     5.1304
 1086.5000     0.7631     5.1370
 1087.0000     0.7636     5.1437
 1087.5000     0.7640     5.1507
 1088.0000     0.7646     5.1582
 1088.5000     0.7650     5.1625
 1089.0000     0.7655     5.1544
 1089.5000     0.7659     5.1475
 1090.0000     0.7664     5.1406
 1090.5000     0.7668     5.1337
 1091.0000     0.7673     5.1268
 1091.5000     0.7678     5.1199
 1092.0000     0.7589     5.1130
 1092.5000     0.7593     5.1061
 1093.0000     0.7692     5.0992
 1093.5000     0.7697     5.0923
 1094.0000     0.7702     5.0854
 1094.5000     0.7706     5.0785
 1095.0000     0.7711     5.0716
 1095.5000     0.7340     5.0658
 1096.0000     0.7346     5.0734
 1096.5000     0.7351     5.0803
 1097.0000     0.7355     5.0691
 1097.5000     0.7360     5.0017
 1098.0000     0.8767     4.9343
 1098.5000     0.8772     4.8669
 1099.0000     0.8776     4.7994
 1099.5000     0.8874     4.7320
 1100.0000     0.8972     4.6646
 1100.5000     0.8977     4.5972
 1101.0000     0.8982     4.5297
 1101.5000     0.8987     4.4623
 1102.0000     0.8991     4.3949
 1102.5000     0.8996     4.3275
 1103.0000     0.9001     4.2600
 1103.5000     0.9005     4.1926
 1104.0000     0.8823     4.1252
 1104.5000     0.8827     4.0578
 1105.0000     0.8832     3.9903
 1105.5000     0.8836     3.9228
 1106.0000     0.8538     3.9342
 1106.5000     0.8847     3.9456
 1107.0000     0.8851     3.9570
 1107.5000     0.8856     4.1604
 1108.0000     0.8112     4.3615
 1108.5000     0.8117     4.3067
 1109.0000     0.8215     4.3839
 1109.5000     0.8220     4.3951
 1110.0000     0.9533     4.5962
 1110.5000     0.9537     4.6063
 1111.0000     0.9542     4.6187
 1111.5000     0.9547     4.6299
 1112.0000     0.8803     4.6411
 1112.5000     0.8809     4.8422
 1113.0000     0.8814     4.8532
 1113.5000     0.8912     4.8646
 1114.0000     0.8916     4.8759
 1114.5000     0.8921     4.8873
 1115.0000     0.8925     5.0337
 1115.5000     0.8930     5.1023
 1116.0000     0.8935     5.1114
 1116.5000     0.8939     5.3127
 1117.0000     0.8944     5.3258
 1117.5000     0.8855     5.3354
 1118.0000     0.8861     5.1584
 1118.5000     0.8959     4.8802
 1119.0000     0.8963     4.7983
 1119.5000     0.8968     4.8123
 1120.0000     0.8972     4.7880
 1120.5000     0.8883     4.6421
 1121.0000     0.8888     4.5677
 1121.5000     0.8893     4.4772
 1122.0000     0.8897     4.3475
 1122.5000     0.8903     4.3086
 1123.0000     0.9001     4.1314
 1123.5000     0.9005     3.9527
 1124.0000     0.9010     3.9668
 1124.5000     0.9015     3.7853
 1125.0000     0.9019     3.6067
 1125.5000     0.9024     3.4291
 1126.0000     0.9028     3.4420
 1126.5000     0.9033     3.4519
 1127.0000     0.9037     3.4645
 1127.5000     0.9042     3.4757
 1128.0000     0.6523     3.2971
 1128.5000     0.6622     3.3083
 1129.0000     0.6720     3.3195
 1129.5000     0.6724     3.3307
 1130.0000     0.6729     3.3420
 1130.5000     0.6734     3.3532
 1131.0000     0.6738     3.3696
 1131.5000     0.6744     3.5658
 1132.0000     0.6748     3.5772
 1132.5000     0.6753     3.5908
 1133.0000     0.6758     3.6020
 1133.5000     0.6762     3.6132
 1134.0000     0.7982     3.6424
 1134.5000     0.7986     3.8240
 1135.0000     0.7991     3.8368
 1135.5000     0.7995     3.8480
 1136.0000     0.9682     3.7962
 1136.5000     0.9780     3.6777
 1137.0000     0.9786     3.6918
 1137.5000     0.9790     3.7025
 1138.0000     0.8018     3.7139
 1138.5000     0.8024     3.7253
 1139.0000     0.8028     3.7367
 1139.5000     0.8033     3.5580
 1140.0000     0.8038     3.3794
 1140.5000     0.6453     3.0137
 1141.0000     0.6458     3.0249
 1141.5000     0.6463     2.8434
 1142.0000     0.6467     2.8575
 1142.5000     0.6473     2.6760
 1143.0000     0.6477     2.6886
 1143.5000     0.6482     2.7000
 1144.0000     0.6393     2.7125
 1144.5000     0.6398     2.7237
 1145.0000     0.6496     2.7342
 1145.5000     0.6500     2.7456
 1146.0000     0.6505     2.7574
 1146.5000     0.6509     2.7686
 1147.0000     0.6514     2.5899
 1147.5000     0.6520     2.6013
 1148.0000     0.6524     2.6127
 1148.5000     0.6529     2.6241
 1149.0000     0.6533     2.6377
 1149.5000     0.6538     2.4562
 1150.0000     0.6542     2.4702
 1150.5000     0.6544     2.4814
 1151.0000     0.6546     2.3028
 1151.5000     0.6548     2.3140
 1152.0000     0.7671     2.1326
 1152.5000     0.7954     1.9539
 1153.0000     0.7955     1.9256
