~VERSION INFORMATION
 VERS.                2.0:   CWLS LOG ASCII STANDARD - VERSION 2.0
 WRAP.                 NO:   ONE LINE PER DEPTH STEP
~WELL INFORMATION
#MNEM.UNIT      DATA TYPE    INFORMATION
#----------   ------------   ------------------------------
 STRT.F           40.0000:   START DEPTH
 STOP.F          950.5000:   STOP DEPTH
 STEP.F            0.5000:   STEP LENGTH
 NULL.          -999.2500:   NO VALUE
 COMP. FENIX & SCISSON INC:   COMPANY
 WELL.       NPR 3 #44-14:   WELL
 FLD .             TEAPOT:   FIELD
 LOC .      S14 T38N R78W:   LOCATION
 CNTY.            NATRONA:   COUNTY
 STAT.            WYOMING:   STATE
 CTRY. UNITED STATES OF AMERICA:   COUNTRY
 SRVC.            Unknown:   SERVICE COMPANY
 DATE.        05-JAN-1979:   LOGDATE
 API .       490251076100:   API NUMBER
~CURVE INFORMATION
#MNEM.UNIT       API CODE    CURVE DESCRIPTION
#----------   ------------   ------------------------------
 DEPT.F                  :   
 SPR .MV     05 010 01 00:   SPONTANEOUS POTENTIAL FROM RES.
 SN  .OHMM   05 040 16 00:   SHORT NORMAL 16"
 IL  .OHMM   05 120 00 00:   INDUCTION LOG
 CALD.IN     45 280 60 00:   CALIPER
 GRD .GAPI   45 310 01 00:   GAMMA RAY FROM DENSITY LOG
 RHOB.G/C3   45 350 01 00:   BULK DENSITY
 DPHI.DEC    45 890 12 00:   DENSITY POROSITY SANDSTONE
 CORR.G/C3   45 356 01 00:   DENSITY CORRECTION
~PARAMETER INFORMATION
#MNEM.UNIT          VALUE    DESCRIPTION
#----------   ------------   ------------------------------
 PD  .                 GL:   PERMANENT DATUM
 EPD .F              5266:   ELEVATION PERMANENT DATUM
 LMF .                 KB:   LOG MEASURED FROM
 DAPD.F                 4:   FEET ABOVE PERMANENT DATUM
 DMF .                 KB:   DRILLING MEASURED FROM
 EKB .F              5270:   KELLING BUSHING
 EGL .F              5266:   GROUND LEVEL
 DATE.             1-5-79:   RUN DATE
 RUN .                  1:   RUN NUMBER
 DD  .F               950:   DEPTH DRILLER
 DL  .F               943:   DEPTH LOGGER
 BLI .F               937:   BOTTOM LOG INTERVAL
 TLI .F                40:   TOP LOG INTERVAL
 CS  .IN            8.625:   CASING SIZE
 CBL .F                40:   CASING BOTTOM LOGGER
 BS  .IN            7.875:   BIT SIZE
 BSD .F               950:   BIT SIZE AT DEPTH
 DFT .                KCL:   DRILLING FLUID TYPE
 DFV .                 42:   DRILLING FLUID VISCOSITY
 DFL .               10.5:   DRILLING FLUID LOSS
 MSS .           FLOWLINE:   MUD SAMPLE SOURCE
 RMS .OHMM            .23:   RESISTIVITY MUD SAMPLE
 RMF .OHMM            .23:   RESISTIVITY MUD FILTRATE SAMPLE
 RMC .OHMM             .2:   RESISTIVITY MUD CAKE
 MFSS.           MEASURED:   MUD FILTRATE SAMPLE SOURCE
 MCSS.           MEASURED:   MUD CAKE SAMPLE SOURCE
 RMB .OHMM             .2:   RESISTIVITY MUD AT BHT
 BHT .F                70:   BOTTOM HOLE TEMPERATURE
 TCS .HRS               5:   TIME CURCULATED STOPPED
 MRT .F                70:   MAXIMUM RECORDED TEMPERATURE
 LUL .             CASPER:   LOGGING UNIT LOCATION
 ENGI.             MILLER:   RECORDING ENGINEER
 WITN.           DINSMORE:   WITNESSED BY
 CLNT.            A2DTECH:   CLIENT CODE
 ORIG.           5" PRINT:   ORIGIN OF DATA
 UWI .       490251076100:   UNIQUE WELL ID
 DICO. A2D Technologies, Inc.:   DIGITIZING COMPANY
~OTHER INFORMATION
~A   DEPT      SPR           SN         IL     CALD        GRD       RHOB       DPHI       CORR   
# ...
  323.5000   -38.2720     6.1320     6.8360     7.6210    96.0060     2.4000     0.1770     0.0090
  324.0000   -38.3290     5.9840     6.5310     7.6730    96.3360     2.3870     0.1880     0.0070
  324.5000   -38.5350     5.5100     6.1290     7.7260    97.4860     2.3740     0.1940     0.0060
  325.0000   -39.4050     5.0360     5.3110     7.7790    98.6340     2.3610     0.2000     0.0050
  325.5000   -40.1770     4.5620     4.4940     7.8300   100.2290     2.3500     0.2170     0.0050
  326.0000   -40.7920     4.0870     3.6760     7.8640   103.3040     2.3130     0.2400     0.0040
  326.5000   -41.0210     3.6130     2.9990     7.8990   111.2710     2.2620     0.2670     0.0050
  327.0000   -41.1520     3.1390     2.6850     7.9350   119.2590     2.2120     0.2950     0.0060
  327.5000   -41.2880     2.7440     2.3720     7.9700   127.2080     2.1610     0.2990     0.0080
  328.0000   -41.0660     2.5700     1.9480     8.0060   132.8090     2.1110     0.2990     0.0140
  328.5000   -39.7460     2.5440     1.9650     8.0420   132.2820     2.0700     0.2990     0.0240
  329.0000   -38.1760     2.6120     1.9850     8.0760   124.2580     2.0770     0.2990     0.0340
  329.5000   -36.5910     2.8970     2.3380     8.0320   115.2730     2.0840     0.2990     0.0440
  330.0000   -35.8060     3.1820     2.6790     8.1210   107.4090     2.1070     0.2990     0.0540
  330.5000   -35.8060     3.6970     3.0200     8.6860   103.0540     2.2060     0.2850     0.0630
  331.0000   -35.6400     4.3550     3.5260     8.1670    98.2530     2.2960     0.2470     0.0260
  331.5000   -35.0070     5.0130     4.6690     7.9580    91.9480     2.3420     0.2080     0.0000
  332.0000   -34.3410     5.6700     5.8130     7.9730    89.3530     2.3920     0.1840     0.0010
  332.5000   -33.8900     6.2490     6.9560     7.9910    90.6340     2.4010     0.1790     0.0020
  333.0000   -34.2340     6.4740     8.0990     8.0080    91.6470     2.4010     0.1780     0.0030
  333.5000   -34.5580     6.6990     9.0530     8.0270    88.0600     2.4010     0.1780     0.0050
  334.0000   -34.7400     6.9330     9.0530     8.0450    78.4570     2.4010     0.1770     0.0060
  334.5000   -34.8880     6.9970     9.0530     8.0630    73.5690     2.4030     0.1760     0.0110
  335.0000   -34.9950     6.8660     9.0530     8.0820    75.2450     2.4060     0.1730     0.0170
  335.5000   -34.8860     6.6260     8.6860     8.1000    81.9020     2.4090     0.1700     0.0240
  336.0000   -35.0960     6.2650     7.5900     8.1190    88.7900     2.4090     0.1720     0.0310
  336.5000   -35.8530     5.8590     6.5590     8.1440    95.6430     2.3960     0.1800     0.0370
  337.0000   -36.6070     5.4540     6.0270     8.1690   102.5150     2.3840     0.1920     0.0440
  337.5000   -37.1160     5.0480     5.4940     8.1950   112.0740     2.3600     0.2050     0.0550
  338.0000   -37.9810     4.8430     5.1180     8.2180   124.8350     2.3330     0.2280     0.0690
  338.5000   -37.2990     4.8430     5.1180     8.1910   134.7230     2.3060     0.2500     0.0850
  339.0000   -36.1710     4.9430     5.1180     8.1630   118.6340     2.2840     0.2460     0.1020
  339.5000   -35.0280     5.0560     5.4110     8.1280   105.4970     2.3070     0.2280     0.1100
  340.0000   -33.8860     5.3710     5.8030     8.0690    92.4440     2.3360     0.2010     0.1140
  340.5000   -32.8410     5.7160     6.5360     8.0090    84.7880     2.3990     0.1750     0.1270
  341.0000   -32.4860     6.0610     7.2690     7.9480    86.5140     2.4640     0.1480     0.1480
  341.5000   -32.1590     6.3670     8.0020     7.8850    85.4280     2.4770     0.1320     0.1550
  342.0000   -31.8320     6.5480     8.7360     7.8180    87.1880     2.4640     0.1310     0.1250
  342.5000   -31.5180     6.7290     9.3710     7.7510    90.0330     2.4380     0.1580     0.0970
  343.0000   -30.8220     6.9100     9.6620     7.6840    87.3170     2.4130     0.1780     0.0720
  343.5000   -29.8510     7.0910     9.8560     7.6170    89.2750     2.3920     0.1880     0.0680
  344.0000   -28.8860     7.2140     9.9620     7.5500    93.5340     2.3720     0.1980     0.0650
  344.5000   -28.0930     7.3220    10.0680     7.4840    93.7810     2.3530     0.2100     0.0630
  345.0000   -28.3290     7.4300    10.1740     7.4170    94.7460     2.3330     0.2210     0.0610
  345.5000   -28.5550     7.5380    10.2800     7.3490    96.2320     2.3130     0.2300     0.0510
  346.0000   -28.4080     7.6460    10.3860     7.3480    95.2600     2.3020     0.2360     0.0390
  346.5000   -27.7500     7.7310    10.4920     7.3850    92.7600     2.2960     0.2420     0.0280
  347.0000   -27.3390     7.8090    10.5980     7.4210    90.3540     2.2900     0.2480     0.0180
  347.5000   -26.9200     7.8870    10.7040     7.4580    88.7500     2.2850     0.2470     0.0190
  348.0000   -27.0990     7.9650    10.8100     7.4950    87.0930     2.2890     0.2450     0.0240
  348.5000   -27.8240     8.0430    10.8910     7.5320    86.1720     2.2960     0.2430     0.0280
  349.0000   -28.8440     8.1210    10.9670     7.5690    86.1730     2.2980     0.2390     0.0230
  349.5000   -28.8130     8.1990    11.0430     7.6060    87.2890     2.3060     0.2340     0.0180
  350.0000   -28.1080     8.2770    11.1190     7.6430    93.2160     2.3190     0.2260     0.0140
  350.5000   -27.4040     8.3550    11.1960     7.6800    97.6620     2.3310     0.2180     0.0130
  351.0000   -27.3190     8.4320    11.2720     7.7170    96.1650     2.3440     0.2100     0.0130
  351.5000   -27.3130     8.5100    11.3480     7.7540    92.5080     2.3560     0.2070     0.0120
  352.0000   -27.2000     8.5880    11.4240     7.7920    90.4990     2.3520     0.2090     0.0090
  352.5000   -26.6900     8.6660    11.4980     7.8330    91.6730     2.3460     0.2100     0.0060
  353.0000   -26.1900     8.7440    11.9030     7.8740    92.7810     2.3420     0.2120     0.0030
  353.5000   -25.6910     8.8140    12.2960     7.9140    90.0130     2.3400     0.2140     0.0000
  354.0000   -25.1920     8.8530    12.6880     7.9550    87.3080     2.3390     0.2160     0.0030
  354.5000   -24.6920     8.8910    13.0810     7.9960    91.7850     2.3330     0.2180     0.0080
  355.0000   -24.1940     8.9300    13.4740     8.0370    96.5470     2.3270     0.2200     0.0160
  355.5000   -23.6970     8.9680    13.8660     8.0770    99.3470     2.3320     0.2180     0.0300
  356.0000   -23.3820     9.0070    14.2590     8.1150   100.6860     2.3430     0.2070     0.0560
  356.5000   -23.4230     9.0450    14.6050     8.0820    97.3410     2.3680     0.1960     0.0820
  357.0000   -23.4590     9.0840    14.5330     8.0550    94.8850     2.3800     0.1890     0.0970
  357.5000   -23.4940     9.1220    14.4540     8.0280    95.7170     2.3760     0.1940     0.1020
  358.0000   -23.5320     9.1610    14.3750     8.0020    96.9140     2.3730     0.1910     0.1060
  358.5000   -23.5650     9.1990    14.2960     7.9750    93.8250     2.3880     0.1840     0.1290
  359.0000   -23.0950     9.2380    14.2170     7.9120    91.3350     2.4050     0.1730     0.1590
  359.5000   -22.5360     9.2760    14.1380     7.8030    93.5210     2.4230     0.1560     0.1880
  360.0000   -22.9370     9.3320    14.0770     7.6950    91.7680     2.4360     0.1610     0.2090
  360.5000   -23.7270     9.4480    14.3440     7.5860    88.8960     2.4220     0.1660     0.1910
  361.0000   -24.5180     9.5650    14.5610     7.5010    88.0670     2.4120     0.1680     0.1730
  361.5000   -25.1220     9.6810    14.7440     7.4320    87.1330     2.4150     0.1680     0.1540
  362.0000   -24.9100     9.7970    14.7650     7.3640    89.2370     2.4180     0.1650     0.1250
  362.5000   -24.7150     9.9140    14.7860     7.3030    90.7990     2.4200     0.1650     0.0950
  363.0000   -24.5750    10.0300    14.8070     7.3120    89.9640     2.4180     0.1720     0.0640
  363.5000   -24.7140    10.1460    14.8270     7.3180    89.1170     2.3910     0.1900     0.0450
