~VERSION INFORMATION
 VERS.                2.0:   CWLS LOG ASCII STANDARD - VERSION 2.0
 WRAP.                 NO:   ONE LINE PER DEPTH STEP
~WELL INFORMATION
#MNEM.UNIT      DATA TYPE    INFORMATION
#----------   ------------   ------------------------------
 STRT.F           34.0000:   START DEPTH
 STOP.F          616.0000:   STOP DEPTH
 STEP.F            0.5000:   STEP LENGTH
 NULL.          -999.2500:   NO VALUE
 COMP. FENIX & SCISSON INC:   COMPANY
 WELL. NAVAL PETROLEUM RESERVE 3 S-10 #86-10:   WELL
 FLD .             TEAPOT:   FIELD
 LOC .      S10 T38N R78W:   LOCATION
 CNTY.            NATRONA:   COUNTY
 STAT.            WYOMING:   STATE
 CTRY. UNITED STATES OF AMERICA:   COUNTRY
 SRVC.              Welex:   SERVICE COMPANY
 DATE.        12-APR-1977:   LOGDATE
 API .       490251033800:   API NUMBER
~CURVE INFORMATION
#MNEM.UNIT       API CODE    CURVE DESCRIPTION
#----------   ------------   ------------------------------
 DEPT.F                  :   
 CALD.IN     45 280 60 00:   CALIPER FROM DENSITY LOG
 GRD .GAPI   45 310 01 00:   GAMMA RAY FROM DENSITY LOG
 CORR.G/C3   45 356 01 00:   DENSITY CORRECTION
 DPHI.DEC    45 890 12 00:   DENSITY POROSITY SANDSTONE
 RHOB.G/C3   45 350 01 00:   BULK DENSITY
 SPR .MV     07 010 01 00:   SPONTANEOUS POTENTIAL
 ILD .OHMM   07 120 46 00:   INDUCTION LOG DEEP
 ILM .OHMM   07 120 44 00:   INDUCTION LOG MEDIUM
 SGRD.OHMM   07 221 05 00:   SHALLOW SHORT GUARD RESISTIVITY
~PARAMETER INFORMATION
#MNEM.UNIT          VALUE    DESCRIPTION
#----------   ------------   ------------------------------
 PD  .                 GL:   PERMANENT DATUM
 EPD .F              5240:   ELEVATION PERMANENT DATUM
 LMF .                 KB:   LOG MEASURED FROM
 DAPD.F                 5:   FEET ABOVE PERMANENT DATUM
 DMF .                 KB:   DRILLING MEASURED FROM
 EKB .F              5245:   KELLING BUSHING
 EGL .F              5240:   GROUND LEVEL
 DATE.        12-APR-1977:   RUN DATE
 RUN .                  1:   RUN NUMBER
 DD  .F               625:   DEPTH DRILLER
 DL  .F               617:   DEPTH LOGGER
 BLI .F               615:   BOTTOM LOG INTERVAL
 TLI .F                35:   TOP LOG INTERVAL
 CS  .IN            8.625:   CASING SIZE
 BS  .IN            7.875:   BIT SIZE
 BSD .F               625:   BIT SIZE AT DEPTH
 DFT .           KCL- GEL:   DRILLING FLUID TYPE
 DFD .                8.8:   DRILLING FLUID DENSITY
 BHT .F                68:   BOTTOM HOLE TEMPERATURE
 TCS .HRS            0100:   TIME CURCULATED STOPPED
 MRT .F                68:   MAXIMUM RECORDED TEMPERATURE
 ENGI.        E. CALLAHAN:   RECORDING ENGINEER
 WITN.            R. LYON:   WITNESSED BY
 CLNT.            A2DTECH:   CLIENT CODE
 ORIG.           5" PRINT:   ORIGIN OF DATA
 UWI .       490251033800:   UNIQUE WELL ID
 DICO. A2D Technologies, Inc.:   DIGITIZING COMPANY
~OTHER INFORMATION
~A   DEPT     CALD        GRD       CORR       DPHI         RHOB      SPR        ILD        ILM       SGRD   
# ...
  581.5000     8.0059   122.5420     0.0430     0.0838     2.5131   -46.7066     7.1188     8.3683    11.7879
  582.0000     8.0079   120.4451     0.0477     0.0769     2.5176   -45.8084     7.0667     8.3581    11.7016
  582.5000     8.0098   118.1127     0.0493     0.0727     2.5304   -45.0599     7.0638     8.3026    11.6159
  583.0000     8.0117   119.0555     0.0495     0.0711     2.5328   -45.5090     7.0122     8.2970    11.5308
  583.5000     8.0137   120.0964     0.0496     0.0729     2.5305   -46.8563     6.8653     8.1805    11.5259
  584.0000     8.0156   121.2858     0.0467     0.0771     2.5253   -47.7545     6.6750     8.1201    11.5211
  584.5000     8.0175   122.6237     0.0424     0.0812     2.5194   -45.9581     6.4453     8.0602    11.5975
  585.0000     8.0194   121.4392     0.0380     0.0863     2.5127   -44.1617     6.2667     7.9455    11.5914
  585.5000     8.0214   119.8196     0.0366     0.0902     2.5037   -43.7126     6.1780     7.7248    11.5065
  586.0000     8.0080   119.6835     0.0383     0.0883     2.5060   -44.7549     6.1328     7.2048    10.9570
  586.5000     8.0104   120.1413     0.0399     0.0853     2.5143   -46.5569     6.2157     6.8135     7.4298
  587.0000     8.0123   120.8956     0.0431     0.0820     2.5159   -45.4850     6.2996     7.3488     8.3553
  587.5000     8.0143   121.3531     0.0447     0.0780     2.5189   -43.8623     6.4291     7.9261    11.4082
  588.0000     8.0162   121.5140     0.0463     0.0720     2.5317   -42.3653     6.5612     8.2581    11.8876
  588.5000     8.0181   120.6362     0.0450     0.0696     2.5363   -42.0500     6.8364     8.5446    12.1322
  589.0000     8.0200   119.6101     0.0451     0.0668     2.5393   -43.5629     7.0742     8.9025    12.3819
  589.5000     8.0220   118.2873     0.0452     0.0638     2.5461   -45.3593     7.2696     9.2114    12.7246
  590.0000     8.0239   116.3710     0.0468     0.0611     2.5507   -44.3114     7.5224     9.4664    13.1677
  590.5000     8.0258   114.7514     0.0485     0.0589     2.5545   -43.4132     7.7303     9.5925    13.8164
  591.0000     8.0278   116.9894     0.0501     0.0586     2.5560   -44.4611     7.9439     9.7889    14.0048
  591.5000     8.0297   118.1857     0.0518     0.0586     2.5546   -43.7126     8.1080     9.9906    13.9020
  592.0000     8.0316   115.9757     0.0519     0.0609     2.5494   -41.6168     8.2821    10.1236    13.8002
  592.5000     8.0335   114.2078     0.0535     0.0636     2.5434   -40.1198     8.3912    10.1902    13.7945
  593.0000     8.0355   112.5882     0.0554     0.0655     2.5420   -40.4192     8.4410     9.9747    13.8847
  593.5000     8.0374   111.2654     0.0553     0.0608     2.5488   -41.9162     8.4375     9.9021    13.9754
  594.0000     8.0393   112.3164     0.0538     0.0614     2.5511   -43.5629     8.3180     9.8290    13.9695
  594.5000     8.0413   113.9609     0.0524     0.0650     2.5512   -41.7665     8.2572     9.8243    13.8672
  595.0000     8.0432   115.4571     0.0482     0.0679     2.5437   -40.2396     8.2537     9.8878    13.5761
  595.5000     8.0451   115.9115     0.0467     0.0712     2.5363   -40.3355     8.2502     9.9516    13.3836
  596.0000     8.0470   113.8500     0.0423     0.0739     2.5311   -41.4671     8.4198    10.1554    13.3780
  596.5000     8.0490   111.4885     0.0396     0.0765     2.5274   -41.3113     8.4756    10.0804    13.3723
  597.0000     8.0509   109.7775     0.0382     0.0798     2.5237   -40.2695     8.5308     9.9370    13.3667
  597.5000     8.0528   107.6035     0.0369     0.0828     2.5170   -36.0778     8.5263     9.8636    13.8322
  598.0000     8.0548   100.9895     0.0370     0.0851     2.5133   -35.1078     8.4640     9.7233    14.1168
  598.5000     8.0567    88.3431     0.0386     0.0857     2.5111   -36.3772     8.4021     9.6515    13.7251
  599.0000     8.0586    69.9353     0.0403     0.0827     2.5141   -35.9281     8.2831     9.5803    13.4370
  599.5000     8.0605  -999.2500     0.0419     0.0799     2.5179   -34.8802     8.1658     9.5756    13.3386
  600.0000     8.0625  -999.2500     0.0450     0.0805     2.5195   -35.6287     7.8848     9.4723    13.1495
  600.5000     8.0644  -999.2500     0.0470     0.0859     2.5107   -38.7725     7.5610     9.0792    13.0431
  601.0000     8.0663  -999.2500     0.0490     0.0915     2.5023   -38.3234     7.0525     8.4060    12.4321
  601.5000     8.0683  -999.2500     0.0528     0.0954     2.4964   -35.3293     6.7378     8.2264    11.5957
  602.0000     8.0702  -999.2500     0.0544     0.0930     2.4987   -33.0838     6.2479     8.1066    11.0427
  602.5000     8.0721  -999.2500     0.0589     0.0924     2.5002   -33.3832     5.8338     7.7701    10.5162
  603.0000     8.0740  -999.2500     0.0623     0.0932     2.4987   -34.2814     5.5230     6.8533    10.1545
  603.5000     8.0761  -999.2500     0.0667     0.0974     2.4935   -35.9281     5.1551     6.3452     9.7375
  604.0000     8.0779  -999.2500     0.0712     0.1034     2.4831   -36.2275     4.8754     5.9567     9.3376
  604.5000     8.0798  -999.2500     0.0712     0.1129     2.4651   -35.0019     4.7404     5.4012     9.0165
  605.0000     8.0818  -999.2500     0.0653     0.1225     2.4428   -35.5389     4.5772     4.8304     8.4099
  605.5000     8.0837  -999.2500     0.0609     0.1366     2.4084   -36.6766     4.2990     4.3199     7.2683
  606.0000     8.0856  -999.2500     0.0565     0.1482     2.3872   -34.5687     3.9005     3.8102     5.7804
  606.5000     8.0875  -999.2500     0.0535     0.1617     2.3850   -34.5808     3.6381     3.6521     4.6937
  607.0000     8.0895  -999.2500     0.0506     0.1592     2.3993   -35.6287     3.4647     3.5740     4.0565
  607.5000     8.0914  -999.2500     0.0492     0.1358     2.4339   -36.5269     3.3687     5.5646     3.6802
  608.0000     8.0933  -999.2500     0.0493     0.1110     2.4754   -37.1257     4.5658    16.5051     4.1103
  608.5000     8.0953  -999.2500     0.0493     0.0890     2.5084   -37.2754     4.9935   232.8270     7.7199
  609.0000     8.0972  -999.2500     0.0509     0.0851     2.5104   -37.2754     5.3862   288.3938     9.1771
  609.5000     8.0991  -999.2500     0.0526     0.0865     2.5121   -37.1257     6.0560  2000.0000     9.6969
  610.0000     8.1011  -999.2500     0.0556     0.0823     2.5187   -36.9760     9.7582  2000.0000     9.8297
  610.5000     8.1030  -999.2500     0.0586     0.0775     2.5248   -36.6766    22.3778   351.7367     9.6232
  611.0000     8.1051  -999.2500     0.0617     0.0741     2.5286   -36.3772    58.5284    78.6600     9.6868
  611.5000     8.1070  -999.2500     0.0678     0.0717     2.5323   -36.0778   157.3750    25.5735    10.1648
  612.0000     8.1089  -999.2500     0.0739     0.0705     2.5346   -36.3772   170.9292    18.5776    10.5195
  612.5000     8.1109  -999.2500     0.0815     0.0690     2.5354   -36.5269   172.0619    13.4023    10.6635
  613.0000     8.1126  -999.2500     0.0906     0.0683     2.5362   -36.5269   142.6640     9.6019    10.6589
  613.5000     8.1146  -999.2500     0.0966     0.0692     2.5385   -36.3772   106.6377     7.0726    10.7302
  614.0000     8.1165  -999.2500     0.1012     0.0714     2.5363   -36.3772    72.3492     6.1097    10.8011
  614.5000     8.1184  -999.2500     0.1043     0.0718     2.5318   -36.0598    44.2464     5.6960    10.7226
  615.0000     8.1050  -999.2500     0.1076     0.0693     2.5364   -35.9181    28.4942     5.9331    10.7313
  615.5000  -999.2500  -999.2500  -999.2500  -999.2500  -999.2500   -27.6819    14.1541     5.8063    11.0931
  616.0000  -999.2500  -999.2500  -999.2500  -999.2500  -999.2500   -23.9521    10.3384     5.6582    11.1766
