~VERSION INFORMATION
 VERS.                2.0:   CWLS LOG ASCII STANDARD - VERSION 2.0
 WRAP.                 NO:   ONE LINE PER DEPTH STEP
~WELL INFORMATION
#MNEM.UNIT      DATA TYPE    INFORMATION
#----------   ------------   ------------------------------
 STRT.F            4.0000:   START DEPTH
 STOP.F          693.0000:   STOP DEPTH
 STEP.F            0.5000:   STEP LENGTH
 NULL.          -999.2500:   NO VALUE
 COMP.   FLUOR DANIEL INC:   COMPANY
 WELL. NAVAL PETROLEUM RESERVE 3 SX-3 #1-34:   WELL
 FLD .             TEAPOT:   FIELD
 LOC .      S34 T39N R78W:   LOCATION
 CNTY.            NATRONA:   COUNTY
 STAT.            WYOMING:   STATE
 CTRY. UNITED STATES OF AMERICA:   COUNTRY
 SRVC.      Western Atlas:   SERVICE COMPANY
 DATE.        06-FEB-1994:   LOGDATE
 API .       490252269600:   API NUMBER
~CURVE INFORMATION
#MNEM.UNIT       API CODE    CURVE DESCRIPTION
#----------   ------------   ------------------------------
 DEPT.F                  :   
 GRR .GAPI   07 310 01 00:   GAMMA RAY FROM RES. LOG.
 ILD .OHMM   07 120 46 00:   INDUCTION LOG DEEP
 ILM .OHMM   07 120 44 00:   INDUCTION LOG MEDIUM
~PARAMETER INFORMATION
#MNEM.UNIT          VALUE    DESCRIPTION
#----------   ------------   ------------------------------
 PD  .                 GL:   PERMANENT DATUM
 EPD .F              5097:   ELEVATION PERMANENT DATUM
 LMF .                 KB:   LOG MEASURED FROM
 DAPD.F                10:   FEET ABOVE PERMANENT DATUM
 DMF .                 KB:   DRILLING MEASURED FROM
 EKB .F              5107:   KELLING BUSHING
 EDF .F              5106:   DRILLING FLOOR
 EGL .F              5097:   GROUND LEVEL
 DATE.         6-FEB-1994:   RUN DATE
 RUN .                  1:   RUN NUMBER
 DD  .F               700:   DEPTH DRILLER
 DL  .F               701:   DEPTH LOGGER
 BLI .F               693:   BOTTOM LOG INTERVAL
 CS  .IN            9.625:   CASING SIZE
 CBD .F                56:   CASING BOTTOM DRILLER
 CBL .F                56:   CASING BOTTOM LOGGER
 BS  .IN             8.75:   BIT SIZE
 BSD .F               700:   BIT SIZE AT DEPTH
 DFT .                AIR:   DRILLING FLUID TYPE
 MRT .F                89:   MAXIMUM RECORDED TEMPERATURE
 LUN .            HL-6274:   LOGGING UNIT NUMBER
 LUL .             CASPER:   LOGGING UNIT LOCATION
 ENGI.        VERN RAUTIO:   RECORDING ENGINEER
 WITN.        GARY STRONG:   WITNESSED BY
 CLNT.            A2DTECH:   CLIENT CODE
 ORIG.           5" PRINT:   ORIGIN OF DATA
 UWI .       490252269600:   UNIQUE WELL ID
 DICO. A2D Technologies, Inc.:   DIGITIZING COMPANY
~OTHER INFORMATION
~A    DEPT      GRR       ILD        ILM   
# ...
  641.0000    96.5390    11.1240    11.7420
  641.5000    99.5450    11.0830    11.7620
  642.0000   102.5560    11.1270    11.7810
  642.5000   102.2020    11.1650    11.8010
  643.0000   100.2180    11.2030    11.8200
  643.5000    98.2420    11.2410    11.8340
  644.0000    96.3970    11.2790    11.8030
  644.5000    95.7550    11.3170    11.7780
  645.0000    95.9260    11.3550    11.7540
  645.5000    96.4590    11.3990    11.7290
  646.0000    96.9810    11.3520    11.6410
  646.5000    97.3680    11.2950    11.5380
  647.0000    97.3610    11.2370    11.4360
  647.5000    97.2820    11.1670    11.3340
  648.0000    96.1810    11.0170    11.2310
  648.5000    95.5310    10.8670    11.1290
  649.0000    95.8410    10.7160    11.0260
  649.5000    96.1070    10.5760    10.9240
  650.0000    95.5230    10.4990    10.8220
  650.5000    94.9530    10.4270    10.7190
  651.0000    95.5760    10.3550    10.6170
  651.5000    96.3030    10.2820    10.5150
  652.0000    96.0090    10.2100    10.4120
  652.5000    95.2000    10.0490    10.2390
  653.0000    94.5460     9.8460    10.0320
  653.5000    95.4630     9.6430     9.8250
  654.0000    98.4090     9.4400     9.6190
  654.5000   100.8810     9.2370     9.4120
  655.0000   102.8110     9.0190     9.1890
  655.5000   103.2530     8.6240     8.9070
  656.0000   104.3410     8.1270     8.6010
  656.5000   105.4900     7.6090     8.2140
  657.0000   104.5110     7.1350     7.5640
  657.5000   102.8980     6.5150     6.9140
  658.0000   103.5550     5.9430     6.2630
  658.5000   108.0510     5.4380     5.6130
  659.0000   115.6450     5.2870     4.9980
  659.5000   123.1110     5.2380     4.9980
  660.0000   128.9680     5.3390     5.4510
  660.5000   128.8160     5.4320     5.9530
  661.0000   122.1450     5.5250     6.4550
  661.5000   115.0490     5.8180     6.9560
  662.0000   110.7160     6.4030     7.4580
  662.5000   107.4830     7.0250     7.9600
  663.0000   104.9590     7.6460     8.4620
  663.5000   103.0440     8.2680     8.8880
  664.0000   103.1500     8.7150     9.0500
  664.5000   105.3890     8.9540     9.2110
  665.0000   106.6750     9.1160     9.3730
  665.5000   106.8510     9.2480     9.5350
  666.0000   106.9760     9.3810     9.6970
  666.5000   107.1680     9.5140     9.8870
  667.0000   108.3380     9.6440    10.0830
  667.5000   109.4980     9.7580    10.2790
  668.0000   109.6510     9.8710    10.4750
  668.5000   109.0750     9.9850    10.6710
  669.0000   107.3110    10.0980    10.8670
  669.5000   106.4920    10.2120    11.0630
  670.0000   105.7010    10.3250    11.2210
  670.5000   105.4720    10.4380    11.3100
  671.0000   107.6390    10.5520    11.4000
  671.5000   108.6080    10.6760    11.4900
  672.0000   108.6620    10.7690    11.5800
  672.5000   107.1480    10.8730    11.6700
  673.0000   106.4180    10.9760    11.7600
  673.5000   105.3630    11.0790    11.8500
  674.0000   102.0460    11.1820    11.9400
  674.5000    98.5930    11.2850    12.0300
  675.0000    96.5610    11.3880    12.1200
  675.5000    98.2210    11.4910    12.1720
  676.0000   100.1760    11.5320    12.0970
  676.5000  -999.2500    11.5620    12.0450
  677.0000  -999.2500    11.5920    11.9920
  677.5000  -999.2500    11.6210    11.9400
  678.0000  -999.2500    11.6510    11.8870
  678.5000  -999.2500    11.6810    11.8350
  679.0000  -999.2500    11.7240    11.7820
  679.5000  -999.2500    11.6450    11.7300
  680.0000  -999.2500    11.5030    11.6770
  680.5000  -999.2500    11.3610    11.6240
  681.0000  -999.2500    11.2180    11.5720
  681.5000  -999.2500    11.0760    11.5190
  682.0000  -999.2500    10.9340    11.3870
  682.5000  -999.2500    10.7980    11.2300
  683.0000  -999.2500    10.6060    11.0720
  683.5000  -999.2500    10.4130    10.9140
  684.0000  -999.2500    10.2210    10.7570
  684.5000  -999.2500    10.0280    10.5990
  685.0000  -999.2500     9.8360    10.4410
  685.5000  -999.2500     9.6440    10.2840
  686.0000  -999.2500     9.4510    10.1260
  686.5000  -999.2500     9.3030     9.9680
  687.0000  -999.2500     9.1920     9.8100
  687.5000  -999.2500     9.0810     9.6440
  688.0000  -999.2500     8.9700     9.4670
  688.5000  -999.2500     8.8580     9.2900
  689.0000  -999.2500     8.7470     9.1130
  689.5000  -999.2500     8.6360     8.9360
  690.0000  -999.2500     8.5250     8.7690
  690.5000  -999.2500     8.4460     8.7960
  691.0000  -999.2500     8.4460     8.8210
  691.5000  -999.2500     8.4150     8.8470
  692.0000  -999.2500     8.3740     8.8720
  692.5000  -999.2500  -999.2500     8.8970
  693.0000  -999.2500  -999.2500     8.9230
