~VERSION INFORMATION
 VERS.                2.0:   CWLS LOG ASCII STANDARD - VERSION 2.0
 WRAP.                 NO:   ONE LINE PER DEPTH STEP
~WELL INFORMATION
#MNEM.UNIT      DATA TYPE    INFORMATION
#----------   ------------   ------------------------------
 STRT.F           40.0000:   START DEPTH
 STOP.F         3444.0000:   STOP DEPTH
 STEP.F            0.5000:   STEP LENGTH
 NULL.          -999.2500:   NO VALUE
 COMP.    FENIX & SCISSON:   COMPANY
 WELL.     13-A-10 #13-10:   WELL
 FLD .            WILDCAT:   FIELD
 LOC .      S10 T38N R78W:   LOCATION
 CNTY.            NATRONA:   COUNTY
 STAT.            WYOMING:   STATE
 CTRY. UNITED STATES OF AMERICA:   COUNTRY
 SRVC.       Schlumberger:   SERVICE COMPANY
 DATE.        08-JUL-1970:   LOGDATE
 API .       490251090300:   API NUMBER
~CURVE INFORMATION
#MNEM.UNIT       API CODE    CURVE DESCRIPTION
#----------   ------------   ------------------------------
 DEPT.F                  :   
 ASN .OHMM   05 041 16 00:   AMPLIFIED SHORT NORMAL 16"
 CILD.MMHO   05 110 46 00:   CONDUCTIVITY INDUCTION LOG DEEP
 ILD .OHMM   05 120 46 00:   INDUCTION LOG DEEP
 SPR .MV     05 010 01 00:   SPONTANEOUS POTENTIAL FROM RES.
 CALD.IN     45 280 60 00:   CALIPER FROM DENSITY
 CORR.G/C3   45 356 01 00:   DENSITY CORRECTION
 DPHI.DEC    45 890 12 00:   DENSITY POROSITY SANDSTONE
 RHOB.G/C3   45 350 01 00:   BULK DENSITY
~PARAMETER INFORMATION
#MNEM.UNIT          VALUE    DESCRIPTION
#----------   ------------   ------------------------------
 PD  .                 GL:   PERMANENT DATUM
 EPD .F              5295:   ELEVATION PERMANENT DATUM
 LMF .                 KB:   LOG MEASURED FROM
 DAPD.F                10:   FEET ABOVE PERMANENT DATUM
 DMF .                 KB:   DRILLING MEASURED FROM
 EKB .F              5305:   KELLING BUSHING
 EGL .F              5295:   GROUND LEVEL
 DATE.        08-JUL-1970:   RUN DATE
 RUN .                  3:   RUN NUMBER
 DD  .F              3450:   DEPTH DRILLER
 DL  .F              3444:   DEPTH LOGGER
 BLI .F              3443:   BOTTOM LOG INTERVAL
 TLI .F              2950:   TOP LOG INTERVAL
 CS  .IN            10.75:   CASING SIZE
 CBD .F               842:   CASING BOTTOM DRILLER
 BS  .IN                9:   BIT SIZE
 BSD .F              3450:   BIT SIZE AT DEPTH
 DFT .      FRESH GEL MUD:   DRILLING FLUID TYPE
 DFD .               10.4:   DRILLING FLUID DENSITY
 DFV .                 43:   DRILLING FLUID VISCOSITY
 DFPH.                7.6:   DRILLING FLUID PH
 DFL .                  8:   DRILLING FLUID LOSS
 MSS .           FLOWLINE:   MUD SAMPLE SOURCE
 RMS .OHMM              2:   RESISTIVITY MUD SAMPLE
 MST .F                85:   MUD SAMPLE TEMPERATURE
 RMF .OHMM            1.6:   RESISTIVITY MUD FILTRATE SAMPLE
 MFST.F                85:   MUD FILTRATE SAMPLE TEMPERATURE
 MFSS.               MEAS:   MUD FILTRATE SAMPLE SOURCE
 RMB .OHMM           1.49:   RESISTIVITY MUD AT BHT
 BHT .F               114:   BOTTOM HOLE TEMPERATURE
 TCS .HRS               3:   TIME CURCULATED STOPPED
 MRT .F               114:   MAXIMUM RECORDED TEMPERATURE
 LUN .               4507:   LOGGING UNIT NUMBER
 LUL .               CSPR:   LOGGING UNIT LOCATION
 ENGI.             TURNER:   RECORDING ENGINEER
 WITN.                MAY:   WITNESSED BY
 CLNT.            A2DTECH:   CLIENT CODE
 ORIG.     2.5", 5" PRINT:   ORIGIN OF DATA
 UWI .       490251090300:   UNIQUE WELL ID
 DICO. A2D Technologies, Inc.:   DIGITIZING COMPANY
~OTHER INFORMATION
~A   DEPT        ASN      CILD         ILD      SPR       CALD       CORR       DPHI       RHOB   
# ...
  526.0000     7.5211   129.0717     8.4371   -23.9711  -999.2500  -999.2500  -999.2500  -999.2500
  526.5000     7.5503   126.0555     8.5888   -23.9755  -999.2500  -999.2500  -999.2500  -999.2500
  527.0000     7.5796   122.4743     8.7113   -24.2767  -999.2500  -999.2500  -999.2500  -999.2500
  527.5000     7.6090   122.4964     8.7089   -24.2811  -999.2500  -999.2500  -999.2500  -999.2500
  528.0000     7.6382   122.5185     8.8566   -24.2855  -999.2500  -999.2500  -999.2500  -999.2500
  528.5000     7.6675   122.5406     8.8541   -23.9931  -999.2500  -999.2500  -999.2500  -999.2500
  529.0000     7.6668   122.5628     8.8518   -23.9975  -999.2500  -999.2500  -999.2500  -999.2500
  529.5000     7.6662   121.0879     8.8495   -23.7048  -999.2500  -999.2500  -999.2500  -999.2500
  530.0000     7.7253   121.1100     8.9022   -23.4124  -999.2500  -999.2500  -999.2500  -999.2500
  530.5000     7.7546   121.1321     8.9952   -23.1205  -999.2500  -999.2500  -999.2500  -999.2500
  531.0000     7.8435   121.1542     8.9925   -22.8281  -999.2500  -999.2500  -999.2500  -999.2500
  531.5000     7.9624   119.6782     8.9903   -22.8325  -999.2500  -999.2500  -999.2500  -999.2500
  532.0000     8.0812   119.7015     8.9880   -22.8369  -999.2500  -999.2500  -999.2500  -999.2500
  532.5000     8.2000   119.7236     8.9857   -22.8413  -999.2500  -999.2500  -999.2500  -999.2500
  533.0000     8.1397   116.7517     8.9835   -22.8457  -999.2500  -999.2500  -999.2500  -999.2500
  533.5000     8.0493   115.2768     8.9813   -23.1469  -999.2500  -999.2500  -999.2500  -999.2500
  534.0000     8.0191   115.2994     8.8293   -22.8545  -999.2500  -999.2500  -999.2500  -999.2500
  534.5000     8.0185   115.4268     8.6770   -22.8590  -999.2500  -999.2500  -999.2500  -999.2500
  535.0000     8.0179   116.8413     8.5251   -22.8635  -999.2500  -999.2500  -999.2500  -999.2500
  535.5000     8.0173   118.5552     8.3731   -22.9000  -999.2500  -999.2500  -999.2500  -999.2500
  536.0000     8.0168   120.1199     8.3709   -23.1691  -999.2500  -999.2500  -999.2500  -999.2500
  536.5000     8.0162   121.6842     8.2190   -23.4703  -999.2500  -999.2500  -999.2500  -999.2500
  537.0000     8.0155   122.9191     8.3665   -23.8259  -999.2500  -999.2500  -999.2500  -999.2500
  537.5000     8.0149   122.9417     8.3643   -24.0727  -999.2500  -999.2500  -999.2500  -999.2500
  538.0000     8.0143   122.9641     8.3621   -24.3739  -999.2500  -999.2500  -999.2500  -999.2500
  538.5000     8.0060   122.9865     8.3599   -24.3784  -999.2500  -999.2500  -999.2500  -999.2500
  539.0000     7.9748   123.0090     8.3576   -24.0854  -999.2500  -999.2500  -999.2500  -999.2500
  539.5000     7.9436   123.0314     8.3554   -23.9990  -999.2500  -999.2500  -999.2500  -999.2500
  540.0000     7.8826   122.4552     8.3532   -23.7975  -999.2500  -999.2500  -999.2500  -999.2500
  540.5000     7.8108   121.5793     8.3510   -23.5051  -999.2500  -999.2500  -999.2500  -999.2500
  541.0000     7.7307   121.6018     8.4985   -23.2128  -999.2500  -999.2500  -999.2500  -999.2500
  541.5000     7.6818   121.6242     8.4963   -22.9214  -999.2500  -999.2500  -999.2500  -999.2500
  542.0000     7.6941   121.6467     8.6438   -22.9259  -999.2500  -999.2500  -999.2500  -999.2500
  542.5000     7.7105   121.6692     8.6415   -22.9303  -999.2500  -999.2500  -999.2500  -999.2500
  543.0000     7.7397   121.6916     8.6392   -22.7913  -999.2500  -999.2500  -999.2500  -999.2500
  543.5000     7.7689   123.2154     8.6370   -22.6424  -999.2500  -999.2500  -999.2500  -999.2500
  544.0000     7.7524   123.2375     8.6108   -22.4886  -999.2500  -999.2500  -999.2500  -999.2500
  544.5000     7.7080   124.7566     8.4546   -22.3546  -999.2500  -999.2500  -999.2500  -999.2500
  545.0000     7.6900   126.2758     8.2984   -22.3591  -999.2500  -999.2500  -999.2500  -999.2500
  545.5000     7.6470   127.7949     8.1422   -22.3644  -999.2500  -999.2500  -999.2500  -999.2500
  546.0000     7.5868   129.3140     7.8363   -22.2592  -999.2500  -999.2500  -999.2500  -999.2500
  546.5000     7.4966   132.3302     7.6350   -22.3732  -999.2500  -999.2500  -999.2500  -999.2500
  547.0000     7.4065   135.3463     7.3248   -22.3776  -999.2500  -999.2500  -999.2500  -999.2500
  547.5000     7.2268   138.3624     7.0683   -22.6787  -999.2500  -999.2500  -999.2500  -999.2500
  548.0000     7.0471   142.8756     6.8204   -22.6831  -999.2500  -999.2500  -999.2500  -999.2500
  548.5000     6.8674   147.3887     6.8181   -22.9842  -999.2500  -999.2500  -999.2500  -999.2500
  549.0000     6.6578   150.4049     6.8159   -22.9886  -999.2500  -999.2500  -999.2500  -999.2500
  549.5000     6.6274   151.9240     6.8136   -23.2897  -999.2500  -999.2500  -999.2500  -999.2500
  550.0000     6.6268   153.4431     6.8862   -23.5909  -999.2500  -999.2500  -999.2500  -999.2500
  550.5000     6.6262   156.4596     7.0379   -23.5953  -999.2500  -999.2500  -999.2500  -999.2500
  551.0000     6.6256   156.3923     7.1063   -23.5997  -999.2500  -999.2500  -999.2500  -999.2500
  551.5000     6.6847   153.2405     7.1916   -23.6041  -999.2500  -999.2500  -999.2500  -999.2500
  552.0000     6.7439   148.8626     7.2515   -23.3116  -999.2500  -999.2500  -999.2500  -999.2500
  552.5000     6.8030   145.8456     7.3990   -23.0193  -999.2500  -999.2500  -999.2500  -999.2500
  553.0000     6.9218   141.5998     7.3963   -23.0238  -999.2500  -999.2500  -999.2500  -999.2500
  553.5000     6.9814   139.8130     7.3941   -22.4347  -999.2500  -999.2500  -999.2500  -999.2500
  554.0000     7.1007   136.7965     7.5419   -22.4293  -999.2500  -999.2500  -999.2500  -999.2500
  554.5000     7.1588   135.2768     7.6894   -22.1468  -999.2500  -999.2500  -999.2500  -999.2500
  555.0000     7.1582   132.7063     7.6869   -21.8544  -999.2500  -999.2500  -999.2500  -999.2500
  555.5000     7.1278   132.7320     7.6847   -21.8590  -999.2500  -999.2500  -999.2500  -999.2500
  556.0000     7.1232   132.7545     7.6825   -21.8635  -999.2500  -999.2500  -999.2500  -999.2500
  556.5000     7.0920   133.3608     7.6802   -21.8679  -999.2500  -999.2500  -999.2500  -999.2500
  557.0000     7.0310   134.2964     7.3786   -21.8724  -999.2500  -999.2500  -999.2500  -999.2500
  557.5000     6.9637   135.8159     7.0770   -21.8769  -999.2500  -999.2500  -999.2500  -999.2500
  558.0000     6.8720   136.9463     6.9251   -22.1780  -999.2500  -999.2500  -999.2500  -999.2500
  558.5000     6.7428   138.4879     6.7732   -22.1825  -999.2500  -999.2500  -999.2500  -999.2500
  559.0000     6.5992   141.1830     6.4716   -22.4837  -999.2500  -999.2500  -999.2500  -999.2500
  559.5000     6.4685   145.0973     6.3139   -22.4881  -999.2500  -999.2500  -999.2500  -999.2500
  560.0000     6.3264   155.3936     6.1476   -22.7893  -999.2500  -999.2500  -999.2500  -999.2500
  560.5000     6.1643   167.3918     5.6879   -22.7938  -999.2500  -999.2500  -999.2500  -999.2500
  561.0000     5.9709   177.8930     5.2465   -22.7982  -999.2500  -999.2500  -999.2500  -999.2500
  561.5000     5.8126   186.8971     5.1130   -22.8027  -999.2500  -999.2500  -999.2500  -999.2500
  562.0000     5.6742   191.4103     5.2607   -22.8072  -999.2500  -999.2500  -999.2500  -999.2500
  562.5000     5.5398   194.4264     5.5579   -22.6756  -999.2500  -999.2500  -999.2500  -999.2500
  563.0000     5.4328   195.9455     5.8551   -22.5193  -999.2500  -999.2500  -999.2500  -999.2500
  563.5000     5.4471   194.4686     6.0419   -22.2270  -999.2500  -999.2500  -999.2500  -999.2500
  564.0000     5.6450   192.9958     6.1936   -21.9347  -999.2500  -999.2500  -999.2500  -999.2500
  564.5000     6.0063   190.0239     6.3453   -21.9391  -999.2500  -999.2500  -999.2500  -999.2500
  565.0000     6.2433   179.5670     6.5947   -21.9436  -999.2500  -999.2500  -999.2500  -999.2500
  565.5000     6.4590   164.6190     6.7984   -21.9489  -999.2500  -999.2500  -999.2500  -999.2500
  566.0000     6.6077   155.6591     7.0390   -21.9533  -999.2500  -999.2500  -999.2500  -999.2500
