~VERSION INFORMATION
 VERS.                2.0:   CWLS LOG ASCII STANDARD - VERSION 2.0
 WRAP.                 NO:   ONE LINE PER DEPTH STEP
~WELL INFORMATION
#MNEM.UNIT      DATA TYPE    INFORMATION
#----------   ------------   ------------------------------
 STRT.F            0.0000:   START DEPTH
 STOP.F         2758.0000:   STOP DEPTH
 STEP.F            0.5000:   STEP LENGTH
 NULL.          -999.2500:   NO VALUE
 COMP. FENIX & SCISSON INC:   COMPANY
 WELL.       402A #402-20:   WELL
 FLD .             TEAPOT:   FIELD
 LOC .      S20 T39N R78W:   LOCATION
 CNTY.            NATRONA:   COUNTY
 STAT.            WYOMING:   STATE
 CTRY. UNITED STATES OF AMERICA:   COUNTRY
 SRVC.      NL McCullough:   SERVICE COMPANY
 DATE.        15-JUL-1965:   LOGDATE
 API .       490251021100:   API NUMBER
~CURVE INFORMATION
#MNEM.UNIT       API CODE    CURVE DESCRIPTION
#----------   ------------   ------------------------------
 DEPT.F                  :   
 GR  .GAPI   30 310 01 00:   GAMMA RAY
 CALI.IN     70 280 01 00:   CALIPER
~PARAMETER INFORMATION
#MNEM.UNIT          VALUE    DESCRIPTION
#----------   ------------   ------------------------------
 PD  .                 GL:   PERMANENT DATUM
 LMF .                 GL:   LOG MEASURED FROM
 DMF .                 GL:   DRILLING MEASURED FROM
 DATE.            7-15-65:   RUN DATE
 RUN .                  1:   RUN NUMBER
 DL  .F              2759:   DEPTH LOGGER
 BLI .F              2758:   BOTTOM LOG INTERVAL
 TLI .F              2100:   TOP LOG INTERVAL
 CS  .IN                7:   CASING SIZE
 ENGI. FITZSIMMONS/COWLTHORPE:   RECORDING ENGINEER
 WITN.             HUDSON:   WITNESSED BY
 CLNT.            A2DTECH:   CLIENT CODE
 ORIG.           5" PRINT:   ORIGIN OF DATA
 UWI .       490251021100:   UNIQUE WELL ID
 DICO. A2D Technologies, Inc.:   DIGITIZING COMPANY
~OTHER INFORMATION
~A    DEPT      GR         CALI 
# ...
 1093.5000  -999.2500     5.7976
 1094.0000  -999.2500     5.7983
 1094.5000  -999.2500     5.7990
 1095.0000  -999.2500     5.7996
 1095.5000  -999.2500     5.8003
 1096.0000  -999.2500     5.8010
 1096.5000  -999.2500     5.8016
 1097.0000  -999.2500     5.8023
 1097.5000  -999.2500     5.8030
 1098.0000  -999.2500     5.8037
 1098.5000  -999.2500     5.8043
 1099.0000  -999.2500     5.8050
 1099.5000  -999.2500     5.8057
 1100.0000  -999.2500     5.8064
 1100.5000  -999.2500     5.8070
 1101.0000  -999.2500     5.8077
 1101.5000  -999.2500     5.8084
 1102.0000  -999.2500     5.8090
 1102.5000  -999.2500     5.8097
 1103.0000  -999.2500     5.8104
 1103.5000  -999.2500     5.8110
 1104.0000  -999.2500     5.8117
 1104.5000  -999.2500     5.8123
 1105.0000  -999.2500     5.8110
 1105.5000  -999.2500     5.8097
 1106.0000  -999.2500     5.8085
 1106.5000  -999.2500     5.8072
 1107.0000  -999.2500     5.8060
 1107.5000  -999.2500     5.8047
 1108.0000  -999.2500     5.8035
 1108.5000  -999.2500     5.8022
 1109.0000  -999.2500     5.8010
 1109.5000  -999.2500     5.7998
 1110.0000  -999.2500     5.7985
 1110.5000  -999.2500     5.7973
 1111.0000  -999.2500     5.7960
 1111.5000  -999.2500     5.7948
 1112.0000  -999.2500     5.7935
 1112.5000  -999.2500     5.7924
 1113.0000  -999.2500     5.7938
 1113.5000  -999.2500     5.7953
 1114.0000  -999.2500     5.7968
 1114.5000  -999.2500     5.7983
 1115.0000  -999.2500     5.7998
 1115.5000  -999.2500     5.8013
 1116.0000  -999.2500     5.8028
 1116.5000  -999.2500     5.8042
 1117.0000  -999.2500     5.8057
 1117.5000  -999.2500     5.8072
 1118.0000  -999.2500     5.8087
 1118.5000  -999.2500     5.8102
 1119.0000  -999.2500     5.8117
 1119.5000  -999.2500     5.8102
 1120.0000  -999.2500     5.8066
 1120.5000  -999.2500     5.8030
 1121.0000  -999.2500     5.7994
 1121.5000  -999.2500     5.7958
 1122.0000  -999.2500     5.7923
 1122.5000  -999.2500     5.7939
 1123.0000  -999.2500     5.7959
 1123.5000  -999.2500     5.7979
 1124.0000  -999.2500     5.7999
 1124.5000  -999.2500     5.8018
 1125.0000  -999.2500     5.8038
 1125.5000  -999.2500     5.8058
 1126.0000  -999.2500     5.8078
 1126.5000  -999.2500     5.8098
 1127.0000  -999.2500     5.8117
 1127.5000  -999.2500     5.8019
 1128.0000  -999.2500     5.7809
 1128.5000  -999.2500     5.7743
 1129.0000  -999.2500     5.7847
 1129.5000  -999.2500     5.7952
 1130.0000  -999.2500     5.8057
 1130.5000  -999.2500     5.8162
 1131.0000  -999.2500     5.8266
 1131.5000  -999.2500     5.8371
 1132.0000  -999.2500     5.8476
 1132.5000  -999.2500     5.8500
 1133.0000  -999.2500     5.8457
 1133.5000  -999.2500     5.8414
 1134.0000  -999.2500     5.8369
 1134.5000  -999.2500     5.8326
 1135.0000  -999.2500     5.8336
 1135.5000  -999.2500     5.8351
 1136.0000  -999.2500     5.8365
 1136.5000  -999.2500     5.8379
 1137.0000  -999.2500     5.8392
 1137.5000  -999.2500     5.8406
 1138.0000  -999.2500     5.8420
 1138.5000  -999.2500     5.8434
 1139.0000  -999.2500     5.8448
 1139.5000  -999.2500     5.8462
 1140.0000  -999.2500     5.8476
 1140.5000  -999.2500     5.8490
 1141.0000  -999.2500     5.8504
 1141.5000  -999.2500     5.8518
 1142.0000  -999.2500     5.8479
 1142.5000  -999.2500     5.8402
 1143.0000  -999.2500     5.8325
 1143.5000  -999.2500     5.8247
 1144.0000  -999.2500     5.8171
 1144.5000  -999.2500     5.8179
 1145.0000  -999.2500     5.8323
 1145.5000  -999.2500     5.8466
 1146.0000  -999.2500     5.8609
 1146.5000  -999.2500     5.8723
 1147.0000  -999.2500     5.8576
 1147.5000  -999.2500     5.8428
 1148.0000  -999.2500     5.8338
 1148.5000  -999.2500     5.8480
 1149.0000  -999.2500     5.8619
 1149.5000  -999.2500     5.8723
 1150.0000  -999.2500     5.8636
 1150.5000  -999.2500     5.8558
 1151.0000  -999.2500     5.8331
 1151.5000  -999.2500     5.8324
 1152.0000  -999.2500     5.8323
 1152.5000  -999.2500     5.8324
 1153.0000  -999.2500     5.8324
 1153.5000  -999.2500     5.8324
 1154.0000  -999.2500     5.8324
 1154.5000  -999.2500     5.8324
 1155.0000  -999.2500     5.8324
 1155.5000  -999.2500     5.8324
 1156.0000  -999.2500     5.8324
 1156.5000  -999.2500     5.8324
 1157.0000  -999.2500     5.8324
 1157.5000  -999.2500     5.8324
 1158.0000  -999.2500     5.8324
 1158.5000  -999.2500     5.8324
 1159.0000  -999.2500     5.8324
 1159.5000  -999.2500     5.8324
 1160.0000  -999.2500     5.8324
 1160.5000  -999.2500     5.8324
 1161.0000  -999.2500     5.8324
 1161.5000  -999.2500     5.8324
 1162.0000  -999.2500     5.8324
 1162.5000  -999.2500     5.8322
 1163.0000  -999.2500     5.8255
 1163.5000  -999.2500     5.8185
 1164.0000  -999.2500     5.8121
 1164.5000  -999.2500     5.8123
 1165.0000  -999.2500     5.8123
 1165.5000  -999.2500     5.8123
 1166.0000  -999.2500     5.8123
 1166.5000  -999.2500     5.8123
 1167.0000  -999.2500     5.8123
 1167.5000  -999.2500     5.8123
 1168.0000  -999.2500     5.8123
 1168.5000  -999.2500     5.8123
 1169.0000  -999.2500     5.8123
 1169.5000  -999.2500     5.8123
 1170.0000  -999.2500     5.8123
 1170.5000  -999.2500     5.8123
 1171.0000  -999.2500     5.8123
 1171.5000  -999.2500     5.8123
 1172.0000  -999.2500     5.8140
 1172.5000  -999.2500     5.8165
 1173.0000  -999.2500     5.8191
 1173.5000  -999.2500     5.8216
 1174.0000  -999.2500     5.8241
 1174.5000  -999.2500     5.8267
 1175.0000  -999.2500     5.8292
 1175.5000  -999.2500     5.8319
 1176.0000  -999.2500     5.8291
 1176.5000  -999.2500     5.8248
 1177.0000  -999.2500     5.8205
 1177.5000  -999.2500     5.8161
 1178.0000  -999.2500     5.8124
 1178.5000  -999.2500     5.8142
 1179.0000  -999.2500     5.8159
 1179.5000  -999.2500     5.8176
 1180.0000  -999.2500     5.8193
 1180.5000  -999.2500     5.8210
 1181.0000  -999.2500     5.8227
 1181.5000  -999.2500     5.8244
 1182.0000  -999.2500     5.8261
 1182.5000  -999.2500     5.8278
 1183.0000  -999.2500     5.8295
 1183.5000  -999.2500     5.8312
 1184.0000  -999.2500     5.8294
 1184.5000  -999.2500     5.8203
 1185.0000  -999.2500     5.8113
 1185.5000  -999.2500     5.8022
 1186.0000  -999.2500     5.7931
 1186.5000  -999.2500     5.7955
 1187.0000  -999.2500     5.7992
 1187.5000  -999.2500     5.8028
 1188.0000  -999.2500     5.8065
 1188.5000  -999.2500     5.8101
 1189.0000  -999.2500     5.8138
 1189.5000  -999.2500     5.8174
 1190.0000  -999.2500     5.8210
 1190.5000  -999.2500     5.8247
 1191.0000  -999.2500     5.8283
 1191.5000  -999.2500     5.8320
 1192.0000  -999.2500     5.8324
 1192.5000  -999.2500     5.8324
 1193.0000  -999.2500     5.8324
 1193.5000  -999.2500     5.8324
 1194.0000  -999.2500     5.8324
 1194.5000  -999.2500     5.8323
 1195.0000  -999.2500     5.8323
 1195.5000  -999.2500     5.8327
 1196.0000  -999.2500     5.8469
 1196.5000  -999.2500     5.8460
 1197.0000  -999.2500     5.8364
 1197.5000  -999.2500     5.8265
 1198.0000  -999.2500     5.8165
 1198.5000  -999.2500     5.8133
 1199.0000  -999.2500     5.8149
 1199.5000  -999.2500     5.8166
 1200.0000  -999.2500     5.8182
 1200.5000  -999.2500     5.8199
 1201.0000  -999.2500     5.8215
 1201.5000  -999.2500     5.8232
 1202.0000  -999.2500     5.8248
 1202.5000  -999.2500     5.8265
 1203.0000  -999.2500     5.8281
 1203.5000  -999.2500     5.8298
 1204.0000  -999.2500     5.8314
 1204.5000  -999.2500     5.8325
 1205.0000  -999.2500     5.8365
 1205.5000  -999.2500     5.8405
 1206.0000  -999.2500     5.8445
 1206.5000  -999.2500     5.8485
 1207.0000  -999.2500     5.8525
 1207.5000  -999.2500     5.8565
 1208.0000  -999.2500     5.8605
 1208.5000  -999.2500     5.8645
 1209.0000  -999.2500     5.8685
 1209.5000  -999.2500     5.8723
 1210.0000  -999.2500     5.8741
 1210.5000  -999.2500     5.8767
 1211.0000  -999.2500     5.8793
 1211.5000  -999.2500     5.8819
 1212.0000  -999.2500     5.8845
 1212.5000  -999.2500     5.8871
 1213.0000  -999.2500     5.8897
 1213.5000  -999.2500     5.8923
 1214.0000  -999.2500     5.8925
 1214.5000  -999.2500     5.8925
