~VERSION INFORMATION
 VERS.                2.0:   CWLS LOG ASCII STANDARD - VERSION 2.0
 WRAP.                 NO:   ONE LINE PER DEPTH STEP
~WELL INFORMATION
#MNEM.UNIT      DATA TYPE    INFORMATION
#----------   ------------   ------------------------------
 STRT.F           39.0000:   START DEPTH
 STOP.F          590.0000:   STOP DEPTH
 STEP.F            0.5000:   STEP LENGTH
 NULL.          -999.2500:   NO VALUE
 COMP. FENIX & SCISSON INC:   COMPANY
 WELL.    NPR-3 SX #41-34:   WELL
 FLD .             TEAPOT:   FIELD
 LOC .      S34 T39N R78W:   LOCATION
 CNTY.            NATRONA:   COUNTY
 STAT.            WYOMING:   STATE
 CTRY. UNITED STATES OF AMERICA:   COUNTRY
 SRVC.           BIRDWELL:   SERVICE COMPANY
 DATE.        28-AUG-1978:   LOGDATE
 API .       490251069800:   API NUMBER
~CURVE INFORMATION
#MNEM.UNIT       API CODE    CURVE DESCRIPTION
#----------   ------------   ------------------------------
 DEPT.F                  :   
 SPR .MV     05 010 01 00:   SPONTANEOUS POTENTIAL FROM RES.
 SN  .OHMM   05 040 16 00:   SHORT NORMAL 16"
 ILD .OHMM   05 120 46 00:   INDUCTION LOG DEEP
 CALD.IN     45 280 60 00:   CALIPER
 GRD .GAPI   45 310 01 00:   GAMMA RAY FROM DENSITY LOG
 RHOB.G/C3   45 350 01 00:   BULK DENSITY
 DPHI.DEC    45 890 12 00:   DENSITY POROSITY SANDSTONE
 CORR.G/C3   45 356 01 00:   DENSITY CORRECTION
~PARAMETER INFORMATION
#MNEM.UNIT          VALUE    DESCRIPTION
#----------   ------------   ------------------------------
 PD  .                 GL:   PERMANENT DATUM
 EPD .F              5064:   ELEVATION PERMANENT DATUM
 LMF .                 KB:   LOG MEASURED FROM
 DAPD.F                 4:   FEET ABOVE PERMANENT DATUM
 DMF .                 KB:   DRILLING MEASURED FROM
 EKB .F              5068:   KELLING BUSHING
 EGL .F              5064:   GROUND LEVEL
 DATE.          8-28-1978:   RUN DATE
 RUN .                  1:   RUN NUMBER
 DD  .F               600:   DEPTH DRILLER
 DL  .F               596:   DEPTH LOGGER
 BLI .F               590:   BOTTOM LOG INTERVAL
 TLI .F                50:   TOP LOG INTERVAL
 CS  .IN            8.625:   CASING SIZE
 CBD .F                40:   CASING BOTTOM DRILLER
 BS  .IN            7.875:   BIT SIZE
 BSD .F               600:   BIT SIZE AT DEPTH
 DFT .                KCL:   DRILLING FLUID TYPE
 DFD .                8.7:   DRILLING FLUID DENSITY
 DFV .                 35:   DRILLING FLUID VISCOSITY
 DFPH.                  9:   DRILLING FLUID PH
 DFL .                 10:   DRILLING FLUID LOSS
 MSS .          FLOW LINE:   MUD SAMPLE SOURCE
 RMS .OHMM             .4:   RESISTIVITY MUD SAMPLE
 MST .F                76:   MUD SAMPLE TEMPERATURE
 RMF .OHMM             .3:   RESISTIVITY MUD FILTRATE SAMPLE
 MFST.F                80:   MUD FILTRATE SAMPLE TEMPERATURE
 RMC .OHMM             .4:   RESISTIVITY MUD CAKE
 MCST.F                80:   MUD CAKE SAMPLE TEMPERATURE
 MFSS.               MEAS:   MUD FILTRATE SAMPLE SOURCE
 MCSS.               MEAS:   MUD CAKE SAMPLE SOURCE
 TCS .HRS               3:   TIME CURCULATED STOPPED
 LUN .               2958:   LOGGING UNIT NUMBER
 LUL .               CASP:   LOGGING UNIT LOCATION
 ENGI.             MILLER:   RECORDING ENGINEER
 WITN.              AMEND:   WITNESSED BY
 CLNT.            A2DTECH:   CLIENT CODE
 ORIG.           5" PRINT:   ORIGIN OF DATA
 UWI .       490251069800:   UNIQUE WELL ID
 DICO. A2D Technologies, Inc.:   DIGITIZING COMPANY
~OTHER INFORMATION
~A   DEPT      SPR         SN        ILD       CALD        GRD         RHOB       DPHI      CORR  
   39.0000  -999.2500  -999.2500  -999.2500  -999.2500  -999.2500     2.2241     0.2882    -0.1058
   39.5000  -999.2500  -999.2500  -999.2500  -999.2500  -999.2500     2.2211     0.3021    -0.1038
   40.0000  -999.2500  -999.2500  -999.2500     8.2615    40.4990     2.1858     0.3273    -0.0998
   40.5000  -999.2500  -999.2500  -999.2500     8.7085    47.8779     2.1597     0.3475    -0.0949
   41.0000  -999.2500  -999.2500  -999.2500     8.6850    60.6873     2.0999     0.3729    -0.0909
   41.5000  -999.2500  -999.2500  -999.2500     8.6689    71.2086     2.0521     0.3979    -0.0874
   42.0000  -999.2500  -999.2500  -999.2500     8.4943    80.7598     2.0076     0.4173    -0.0539
   42.5000  -999.2500  -999.2500  -999.2500     7.5735    86.6533     2.0074     0.3453    -0.0155
   43.0000  -999.2500  -999.2500  -999.2500     7.2072    89.8003     2.0583     0.2580     0.0276
   43.5000  -999.2500  -999.2500  -999.2500     7.2018    91.6722     2.2124     0.2596     0.1884
   44.0000  -999.2500  -999.2500  -999.2500     7.2072    93.6417     2.2847     0.2615     0.1286
   44.5000  -999.2500  -999.2500  -999.2500     7.2119    90.4090     2.2666     0.2621     0.0923
   45.0000  -999.2500  -999.2500  -999.2500     7.2157    86.4488     2.2559     0.2593     0.0895
   45.5000  -999.2500  -999.2500  -999.2500     7.2195    85.3618     2.2541     0.2564     0.0858
   46.0000   -27.6447  -999.2500  -999.2500     7.2437    78.4392     2.2718     0.3230     0.0700
   46.5000   -23.1038  -999.2500  -999.2500     7.3967    74.7621     2.0954     0.3581     0.0306
   47.0000   -17.8643  -999.2500  -999.2500     7.5502    88.5613     2.1005     0.3332     0.1365
   47.5000   -21.4769  -999.2500  -999.2500     7.7028   101.4793     2.1514     0.2838     0.2384
   48.0000   -24.7162     0.2162     0.3650     7.8255    69.0298     2.2215     0.2472     0.2198
   48.5000   -27.3028     0.3842     0.5482     7.8110    69.4573     2.2917     0.2100     0.1540
   49.0000   -29.5635     1.0902     0.9377     7.8009    70.5557     2.3273     0.1969     0.0725
   49.5000   -30.6555     1.9591     1.4405     7.8645    70.6231     2.3558     0.1852     0.0251
   50.0000   -30.8401     2.1252     1.9133     8.0541    70.3720     2.3764     0.1852     0.0248
   50.5000   -31.0382     2.3475     2.1634     8.2430    71.7409     2.3768     0.1852     0.0302
   51.0000   -31.2410     2.3344     2.2765     8.2426    71.5534     2.3776     0.1862     0.0345
   51.5000   -31.4265   259.2340     2.3955     7.8095    70.8752     2.3785     0.1900     0.0358
   52.0000   -31.2481    16.1875     2.5207     7.1620    73.2072     2.3745     0.1936     0.0356
   52.5000   -31.0585     2.5335     2.6525     6.6821    76.2120     2.3674     0.1882     0.0354
   53.0000   -31.0371     2.6049     2.7997     6.6729    75.8235     2.3753     0.1804     0.0352
   53.5000   -31.0376     2.8341     2.9366     6.6373    75.4377     2.3853     0.1767     0.0350
   54.0000   -31.0379     3.0835     3.2037     6.5862    78.2839     2.3943     0.1748     0.0348
   54.5000   -31.0386     3.3548     3.5134     6.5346    82.0778     2.3965     0.1728     0.0346
   55.0000   -31.0432     3.6499     3.8526     6.4999    85.0263     2.3892     0.1796     0.0343
   55.5000   -30.9906     3.8299     3.9009     6.5396    84.7309     2.3798     0.1887     0.0341
   56.0000   -30.8136     3.9526     3.9368     6.7095    81.9725     2.3704     0.1964     0.0339
   56.5000   -30.5989     4.0681     3.9732     6.6595    78.9725     2.3637     0.1764     0.0379
   57.0000   -30.3927     4.1870     4.0098     6.6013    76.6734     2.3755     0.1782     0.0455
   57.5000   -30.1854     4.3095     4.0841     6.5432    75.7278     2.3891     0.1796     0.0401
   58.0000   -29.9779     4.4355     4.2241     6.4856    75.3159     2.3864     0.1759     0.0340
   58.5000   -29.7729     4.5652     4.3857     6.4282    79.2259     2.3953     0.1621     0.0392
   59.0000   -29.6522     4.7181     4.5535     6.3668    83.0997     2.4101     0.1588     0.0459
   59.5000   -29.6903     4.9491     4.7278     6.2030    82.4800     2.4206     0.1586     0.0468
   60.0000   -29.7259     5.1903     4.9087     6.0267    81.9293     2.4196     0.1605     0.0452
   60.5000   -29.7621     5.4431     5.0965     5.8804    81.9712     2.4188     0.1608     0.0448
   61.0000   -29.7982     5.6322     5.2916     6.0764    86.8169     2.4180     0.1605     0.0511
   61.5000   -29.8342     5.6241     5.4291     6.3745    91.8569     2.4172     0.1545     0.0586
   62.0000   -29.8702     5.6124     5.4027     6.6764    97.2928     2.4211     0.1421     0.0718
   62.5000   -29.9063     5.6008     5.3781     6.9769    94.9823     2.4416     0.1333     0.0846
   63.0000   -29.9423     5.5893     5.3540     7.2351    91.6551     2.4573     0.1457     0.0962
   63.5000   -29.9783     5.5777     5.3302     7.2441    87.4406     2.4424     0.1552     0.0812
   64.0000   -30.0144     5.5662     5.3065     7.2067    83.2071     2.4278     0.1648     0.0547
   64.5000   -30.0504     5.5547     5.2829     7.1490    80.0221     2.4133     0.1741     0.0324
   65.0000   -30.0864     5.5432     5.2594     7.0909    77.1784     2.3998     0.1743     0.0276
   65.5000   -30.1225     5.5318     5.2360     7.0327    74.2369     2.3969     0.1741     0.0262
   66.0000   -30.1585     5.5203     5.2127     6.9746    73.5780     2.3944     0.1756     0.0264
   66.5000   -30.1945     5.5089     5.1895     6.9173    73.5081     2.3919     0.1755     0.0268
   67.0000   -30.2306     5.4976     5.1664     6.9076    73.4923     2.3942     0.1728     0.0271
   67.5000   -30.2666     5.4862     5.1381     6.9619    71.6601     2.3968     0.1729     0.0274
   68.0000   -30.3026     5.4291     5.1951     7.0156    69.5307     2.3977     0.1736     0.0277
   68.5000   -30.3387     5.4291     5.2460     7.0699    69.3981     2.3977     0.1744     0.0275
   69.0000   -30.3753     5.4877     5.2974     7.1228    72.3130     2.3977     0.1734     0.0299
   69.5000   -30.4111     5.5584     5.3494     7.0993    74.7616     2.3977     0.1725     0.0451
   70.0000   -30.4024     5.6301     5.4018     7.0683    75.5104     2.3967     0.1783     0.0610
   70.5000   -30.1980     5.7026     5.4548     7.0478    73.3280     2.3922     0.1860     0.0593
   71.0000   -29.9985     5.7765     5.5084     7.0243    70.5305     2.3832     0.1875     0.0516
   71.5000   -29.7987     5.7895     5.5623     6.9858    67.6802     2.3764     0.1869     0.0439
   72.0000   -29.5996     5.7895     5.5808     6.8531    69.4650     2.3790     0.1812     0.0403
   72.5000   -29.4370     5.8430     5.5808     6.7167    71.6782     2.3858     0.1789     0.0410
   73.0000   -29.4412     5.8441     5.5808     6.5800    73.9773     2.3852     0.1800     0.0419
   73.5000   -29.4386     5.8451     5.5807     6.4439    79.8293     2.3793     0.1934     0.0372
   74.0000   -29.4258     5.8995     5.5812     6.3210    89.7233     2.3609     0.2068     0.0312
   74.5000   -29.6293     5.8993     5.5836     6.2636    99.9329     2.3400     0.2192     0.0275
   75.0000   -29.6781     5.8430     5.5846     6.1976   102.4397     2.3188     0.2421     0.0266
   75.5000   -29.7286     5.8430     5.4825     6.1312   102.3017     2.2759     0.2802     0.0256
   76.0000   -29.9730     5.7895     5.3303     6.0653   102.2075     2.2241     0.3238     0.0246
   76.5000   -30.1492     5.7366     5.1855     6.0217   101.1729     2.1720     0.3673     0.0240
   77.0000   -30.3157     5.5782     5.0446     6.1104    97.1828     2.1199     0.3912     0.0431
   77.5000   -30.4826     5.1498     4.8614     6.2025    93.1727     2.0780     0.4017     0.0649
   78.0000   -30.6490     4.7543     4.1562     6.4083    89.1884     2.0418     0.4136     0.0691
   78.5000   -30.8022     4.3891     3.4379     6.6434    84.6860     2.0138     0.4005     0.0682
   79.0000   -31.3935     4.0520     2.8474     6.8791    80.0955     2.0150     0.3827     0.0879
