~VERSION INFORMATION
 VERS.                2.0:   CWLS LOG ASCII STANDARD - VERSION 2.0
 WRAP.                 NO:   ONE LINE PER DEPTH STEP
~WELL INFORMATION
#MNEM.UNIT      DATA TYPE    INFORMATION
#----------   ------------   ------------------------------
 STRT.F           20.0000:   START DEPTH
 STOP.F          508.0000:   STOP DEPTH
 STEP.F            0.5000:   STEP LENGTH
 NULL.          -999.2500:   NO VALUE
 COMP. FENIX & SCISSON INC:   COMPANY
 WELL.      NPR #3 #45-10:   WELL
 FLD .             TEAPOT:   FIELD
 LOC .      S10 T38N R78W:   LOCATION
 CNTY.            NATRONA:   COUNTY
 STAT.            WYOMING:   STATE
 CTRY. UNITED STATES OF AMERICA:   COUNTRY
 SRVC.              Welex:   SERVICE COMPANY
 DATE.        09-MAY-1980:   LOGDATE
 API .       490251081000:   API NUMBER
~CURVE INFORMATION
#MNEM.UNIT       API CODE    CURVE DESCRIPTION
#----------   ------------   ------------------------------
 DEPT.F                  :   
 SPR .MV     07 010 01 00:   SPONTANEOUS POTENTIAL
 SGRD.OHMM   07 220 05 00:   SHALLOW GUARD RESISTIVITY
 ILD .OHMM   07 120 46 00:   INDUCTION LOG DEEP RESISTIVITY
 ILM .OHMM   07 120 44 00:   INDUCTION LOG MEDIUM
 GRD .GAPI   45 310 01 00:   GAMMA RAY FROM DENSITY LOG
 CALD.IN     45 280 60 00:   CALIPER
 CORR.G/C3   45 356 01 00:   DENSITY CORRECTION
 RHOB.G/C3   45 350 01 00:   BULK DENSITY
 DPHI.DEC    45 890 12 00:   DENSITY POROSITY SANDSTONE
~PARAMETER INFORMATION
#MNEM.UNIT          VALUE    DESCRIPTION
#----------   ------------   ------------------------------
 PD  .                 GL:   PERMANENT DATUM
 EPD .F              5228:   ELEVATION PERMANENT DATUM
 LMF .                 KB:   LOG MEASURED FROM
 DAPD.F                 5:   FEET ABOVE PERMANENT DATUM
 DMF .                 KB:   DRILLING MEASURED FROM
 EKB .F              5233:   KELLING BUSHING
 EGL .F              5228:   GROUND LEVEL
 DATE.             5-9-80:   RUN DATE
 RUN .                  1:   RUN NUMBER
 DD  .F               507:   DEPTH DRILLER
 DL  .F               510:   DEPTH LOGGER
 BLI .F               508:   BOTTOM LOG INTERVAL
 TLI .F                20:   TOP LOG INTERVAL
 BS  .IN            7.875:   BIT SIZE
 BSD .F               507:   BIT SIZE AT DEPTH
 DFT .                KCL:   DRILLING FLUID TYPE
 DFD .                8.9:   DRILLING FLUID DENSITY
 DFV .                 42:   DRILLING FLUID VISCOSITY
 MSS .                PIT:   MUD SAMPLE SOURCE
 RMS .OHMM            .36:   RESISTIVITY MUD SAMPLE
 MST .F                75:   MUD SAMPLE TEMPERATURE
 RMF .OHMM            .29:   RESISTIVITY MUD FILTRATE SAMPLE
 MFST.F                75:   MUD FILTRATE SAMPLE TEMPERATURE
 RMC .OHMM            .43:   RESISTIVITY MUD CAKE
 MCST.F                75:   MUD CAKE SAMPLE TEMPERATURE
 MFSS.           MEASURED:   MUD FILTRATE SAMPLE SOURCE
 MCSS.           MEASURED:   MUD CAKE SAMPLE SOURCE
 TCS .HRS               2:   TIME CURCULATED STOPPED
 MRT .F               100:   MAXIMUM RECORDED TEMPERATURE
 LUN .               9685:   LOGGING UNIT NUMBER
 LUL .             CASPER:   LOGGING UNIT LOCATION
 ENGI.            TOTHILL:   RECORDING ENGINEER
 WITN.           DINSMORE:   WITNESSED BY
 CLNT.            A2DTECH:   CLIENT CODE
 ORIG.         2.5" PRINT:   ORIGIN OF DATA
 UWI .       490251081000:   UNIQUE WELL ID
 DICO. A2D Technologies, Inc.:   DIGITIZING COMPANY
~OTHER INFORMATION
~A   DEPT      SPR       SGRD        ILD        ILM         GRD        CALD       CORR       RHOB       DPHI 
# ...
  239.0000   -47.1696     2.8727     2.5129     3.1219   105.9496     8.0214     0.0202     2.4386     0.1410
  239.5000   -46.9028     4.5698     2.6001     3.3044   106.1094     8.0275     0.0289     2.4517     0.1363
  240.0000   -46.6738     3.6009     2.8275     3.4589   105.8897     8.0294     0.0312     2.4606     0.1298
  240.5000   -46.4232     3.0373     3.0746     3.8494   105.6963     8.0276     0.0177     2.4332     0.1416
  241.0000   -46.1870     6.2661     3.3437     4.2150   105.3390     8.0282     0.0040     2.4104     0.1555
  241.5000   -45.9487     6.1935     3.6351     4.6083   104.5373     8.0283     0.0098     2.4096     0.1588
  242.0000   -45.6795     6.0356     3.9519     4.7704   103.7463     8.0281     0.0022     2.4015     0.1637
  242.5000   -45.7413     5.8817     4.2963     4.8570   103.1432     8.0282     0.0013     2.3897     0.1689
  243.0000   -46.1558     5.7318     4.5150     4.9456   103.1666     8.0282     0.0056     2.3869     0.1716
  243.5000   -46.5601     5.4011     4.6555     5.0362   103.7804     8.0283     0.0055     2.3805     0.1708
  244.0000   -46.8557     5.4578     4.6914     5.1285   104.3963     8.0280     0.0041     2.3720     0.1776
  244.5000   -46.9835     5.6217     4.7428     5.2042   105.0489     8.0280     0.0169     2.3771     0.1821
  245.0000   -47.1219     5.7906     4.6968     5.1402   105.5284     8.0292     0.0280     2.3949     0.1719
  245.5000   -47.3348     5.9266     4.5818     4.9804   105.4891     8.0154     0.0407     2.4120     0.1617
  246.0000   -47.5988     5.9730     4.4695     4.8257   104.8855     7.9834     0.0308     2.4233     0.1507
  246.5000   -47.8753     6.0377     4.3600     4.6757   104.3655     7.9527     0.0115     2.4169     0.1550
  247.0000   -47.9556     4.6613     4.2532     4.5304   104.2887     7.9184     0.0121     2.4148     0.1569
  247.5000   -47.8189     2.9814     4.1490     4.3896   104.8395     7.9245     0.0129     2.4192     0.1541
  248.0000   -47.7174     3.5302     4.0474     4.3222   105.8851     7.9631     0.0138     2.4255     0.1515
  248.5000   -47.6067     5.0145     3.9482     4.3472   106.8748     7.9975     0.0149     2.4356     0.1468
  249.0000   -47.7496     5.0145     3.8665     4.4306   107.8319     8.0264     0.0132     2.4366     0.1428
  249.5000   -47.9384     4.4451     3.8893     4.5681   108.8260     8.0206     0.0121     2.4283     0.1475
  250.0000   -47.8518     4.0880     3.9390     4.7178   109.8667     8.0148     0.0165     2.4385     0.1493
  250.5000   -47.5474     5.9266     4.0648     4.8754   110.4248     8.0078     0.0203     2.4486     0.1416
  251.0000   -47.2682     5.6683     4.2270     5.0383   110.4660     8.0021     0.0191     2.4575     0.1307
  251.5000   -46.9945     5.3017     4.3956     5.2066   110.6349     7.9942     0.0036     2.4482     0.1355
  252.0000   -46.7257     5.8284     4.5710     5.3803   110.8067     7.9869     0.0030     2.4404     0.1419
  252.5000   -46.4982     6.6269     4.7533     5.5596   110.9503     7.9417     0.0080     2.4505     0.1369
  253.0000   -46.2790     6.7942     4.9429     5.7449   111.4956     7.8849     0.0234     2.4541     0.1307
  253.5000   -46.0470     6.9571     5.1401     5.9363   112.1975     7.8982     0.0168     2.4469     0.1349
  254.0000   -46.3344     7.1264     5.3451     6.1342   112.8979     7.9663     0.0006     2.4257     0.1444
  254.5000   -46.8540     7.2997     5.5584     6.3700   113.4001     7.9875    -0.0152     2.3941     0.1637
  255.0000   -47.3867     7.4071     5.6577     6.3462   113.4472     7.9359    -0.0161     2.3991     0.1708
  255.5000   -47.6054     7.2228     5.7251     6.2990   113.5645     7.8725     0.0135     2.4091     0.1626
  256.0000   -47.5907     7.0421     5.8175     6.2520   113.6652     7.8884     0.0118     2.4190     0.1558
  256.5000   -47.5881     6.8656     5.7906     6.2054   113.7682     7.9086     0.0063     2.4098     0.1583
  257.0000   -47.5901     6.6943     5.6861     6.1586   113.8724     7.9322     0.0051     2.4130     0.1582
  257.5000   -47.6054     6.5274     5.5835     6.1122   113.9747     7.9538     0.0125     2.4176     0.1553
  258.0000   -47.4412     6.3836     5.4827     6.0663   114.0601     7.9770     0.0121     2.4114     0.1576
  258.5000   -47.0999     6.3603     5.3838     6.0361   114.2318     7.9891     0.0036     2.3969     0.1648
  259.0000   -46.8157     6.2912     5.3017     5.8692   114.3942     7.9878     0.0105     2.3925     0.1708
  259.5000   -47.0652     6.2228     5.1383     5.6972   114.5731     7.9882     0.0212     2.3966     0.1677
  260.0000   -47.3978     6.1552     5.0012     5.5303   114.3105     7.9880     0.0382     2.4010     0.1648
  260.5000   -47.8487     6.0895     4.9222     5.3683   113.8838     7.9874     0.0551     2.4074     0.1601
  261.0000   -48.2876     6.0372     4.7329     5.2106   113.4566     7.9901     0.0621     2.4141     0.1558
  261.5000   -48.2852     5.8018     4.5542     5.0576   113.0063     7.9686     0.0400     2.4074     0.1584
  262.0000   -48.1511     5.5077     4.3823     4.9090   112.8492     7.9305     0.0188     2.3929     0.1652
  262.5000   -48.0062     5.2941     4.2169     4.7648   113.0323     7.9171    -0.0002     2.4034     0.1714
  263.0000   -48.2578     5.0487     4.0578     4.6248   113.1850     7.9533    -0.0005     2.4209     0.1562
  263.5000   -48.4556     4.2846     3.9046     4.4890   113.3416     7.9857     0.0083     2.4349     0.1466
  264.0000   -47.8758     3.5302     3.7954     4.4032   113.4161     8.0199     0.0186     2.4438     0.1409
  264.5000   -46.9797     3.0373     3.9123     4.5921   113.4079     7.9984     0.0290     2.4532     0.1351
  265.0000   -46.0526     5.2690     4.0377     4.7972   113.4111     7.9597     0.0393     2.4626     0.1296
  265.5000   -46.3384     6.0934     4.1854     5.0116   113.4166     7.9177     0.0482     2.4710     0.1233
  266.0000   -46.6809     6.3587     4.3508     5.2355   113.2983     7.9372     0.0526     2.4761     0.1200
  266.5000   -47.0941     6.6356     4.5226     5.5023   112.9050     7.9829     0.0572     2.4811     0.1159
  267.0000   -47.1950     6.9244     4.7013     5.6472   112.3404     7.9063     0.0579     2.4865     0.1121
  267.5000   -47.1846     7.2697     4.8870     5.8200   111.7291     7.8424     0.0518     2.4790     0.1176
  268.0000   -47.1950     7.0911     5.0793     5.9984   110.3492     7.7853     0.0435     2.4668     0.1233
  268.5000   -47.1851     6.6336     5.2796     6.1829   109.7186     7.9749     0.0249     2.4557     0.1291
  269.0000   -47.1549     6.7661     5.4879     6.2680   109.9728     7.9339     0.0209     2.4453     0.1409
  269.5000   -46.6129     7.0464     5.7132     6.2870   110.4588     7.8778     0.0312     2.4511     0.1375
  270.0000   -46.0651     7.4138     5.7090     6.3032   110.9065     7.9210     0.0383     2.4645     0.1217
  270.5000   -45.4365     7.3582     5.7128     6.3192   111.4124     7.9791     0.0119     2.4434     0.1293
  271.0000   -45.3469     7.2609     5.7123     6.3354   111.4727     7.8461    -0.0087     2.4264     0.1458
  271.5000   -45.8608     7.1359     5.7103     6.3518   111.1742     7.8230    -0.0201     2.4164     0.1527
  272.0000   -46.2892     7.1811     5.7105     6.3684   111.1221     7.9370    -0.0076     2.4221     0.1525
  272.5000   -46.7512     7.2494     5.7106     6.3836   111.7195     7.9807     0.0026     2.4342     0.1447
  273.0000   -46.7110     7.3184     5.7105     6.3941   112.2798     7.9355     0.0086     2.4415     0.1387
  273.5000   -46.6430     7.3881     5.7105     6.4278   112.7854     7.9193     0.0139     2.4466     0.1367
  274.0000   -46.5586     7.4059     5.7105     6.4617   112.7985     7.8841     0.0128     2.4492     0.1346
  274.5000   -46.4744     7.3266     5.6992     6.4981   112.8021     7.8432     0.0072     2.4464     0.1372
  275.0000   -46.3885     7.1891     5.6875     6.4890   112.8024     7.8478     0.0142     2.4518     0.1337
