~VERSION INFORMATION
 VERS.                2.0:   CWLS LOG ASCII STANDARD - VERSION 2.0
 WRAP.                 NO:   ONE LINE PER DEPTH STEP
~WELL INFORMATION
#MNEM.UNIT      DATA TYPE    INFORMATION
#----------   ------------   ------------------------------
 STRT.F            4.0000:   START DEPTH
 STOP.F          468.5000:   STOP DEPTH
 STEP.F            0.1000:   STEP LENGTH
 NULL.          -999.2500:   NO VALUE
 COMP. BROWN JOHN E&C INC:   COMPANY
 WELL.  SX-10 #1-14-SX-10:   WELL
 FLD .        N.P.R. No.3:   FIELD
 LOC .      S10 T38N R78W:   LOCATION
 CNTY.            NATRONA:   COUNTY
 STAT.            WYOMING:   STATE
 CTRY. UNITED STATES OF AMERICA:   COUNTRY
 SRVC.     Atlas Wireline:   SERVICE COMPANY
 DATE.        21-SEP-1991:   LOGDATE
 API .       490251125800:   API NUMBER
~CURVE INFORMATION
#MNEM.UNIT       API CODE    CURVE DESCRIPTION
#----------   ------------   ------------------------------
 DEPT.F                  :   
 GRR .GAPI   07 310 01 00:   GAMMA RAY FROM RES. LOG.
 ILD .OHMM   07 120 46 00:   INDUCTION LOG DEEP
 RILM.OHMM   07 120 44 00:   INDUCTION LOG MEDIUM RESISTIVITY
~PARAMETER INFORMATION
#MNEM.UNIT          VALUE    DESCRIPTION
#----------   ------------   ------------------------------
 PD  .                 GL:   PERMANENT DATUM
 EPD .F              5183:   ELEVATION PERMANENT DATUM
 LMF .                 KB:   LOG MEASURED FROM
 DAPD.F                10:   FEET ABOVE PERMANENT DATUM
 DMF .                 KB:   DRILLING MEASURED FROM
 EKB .F              5193:   KELLING BUSHING
 EGL .F              5183:   GROUND LEVEL
 DATE.            9-21-91:   RUN DATE
 RUN .                  1:   RUN NUMBER
 DD  .F               480:   DEPTH DRILLER
 DL  .F               478:   DEPTH LOGGER
 BLI .F               470:   BOTTOM LOG INTERVAL
 CS  .IN                7:   CASING SIZE
 CBD .F                90:   CASING BOTTOM DRILLER
 CBL .F                90:   CASING BOTTOM LOGGER
 BS  .IN             6.25:   BIT SIZE
 BSD .F               480:   BIT SIZE AT DEPTH
 DFT .                AIR:   DRILLING FLUID TYPE
 TCS .HRS               1:   TIME CURCULATED STOPPED
 MRT .F                80:   MAXIMUM RECORDED TEMPERATURE
 LUN .            HL-6307:   LOGGING UNIT NUMBER
 LUL .             CASPER:   LOGGING UNIT LOCATION
 ENGI.             RAUTIO:   RECORDING ENGINEER
 WITN.             STRONG:   WITNESSED BY
 CLNT.            A2DTECH:   CLIENT CODE
 ORIG.        2" 5" PRINT:   ORIGIN OF DATA
 UWI .       490251125800:   UNIQUE WELL ID
 DICO. A2D Technologies, Inc.:   DIGITIZING COMPANY
~OTHER INFORMATION
~A    DEPT       GRR      ILD       RILM   
# ...
  368.0000    99.1744    19.0104    20.1810
  368.1000    99.1890    18.8704    20.0331
  368.2000    99.2036    18.7305    19.8851
  368.3000    99.2182    18.5905    19.7372
  368.4000    99.2329    18.4505    19.5892
  368.5000    99.2475    18.3105    19.4412
  368.6000    99.2583    18.1752    19.2987
  368.7000    99.2691    18.0399    19.1562
  368.8000    99.2799    17.9046    19.0136
  368.9000    99.2908    17.7693    18.8711
  369.0000    99.3016    17.6340    18.7286
  369.1000    99.5122    17.5038    18.5912
  369.2000    99.7228    17.3736    18.4539
  369.3000    99.9333    17.2433    18.3166
  369.4000   100.1439    17.1131    18.1793
  369.5000   100.3545    16.9829    18.0420
  369.6000   100.6211    16.8574    17.9097
  369.7000   100.8878    16.7319    17.7775
  369.8000   101.1544    16.6064    17.6452
  369.9000   101.4210    16.4809    17.5129
  370.0000   101.6877    16.3555    17.3806
  370.1000   101.9596    16.2341    17.2532
  370.2000   102.2316    16.1128    17.1258
  370.3000   102.5035    15.9914    16.9983
  370.4000   102.7755    15.8701    16.8709
  370.5000   103.0474    15.7487    16.7435
  370.6000   103.1230    15.6248    16.6207
  370.7000   103.1987    15.5008    16.4980
  370.8000   103.2743    15.3769    16.3752
  370.9000   103.3499    15.2530    16.2524
  371.0000   103.4255    15.1290    16.1297
  371.1000   103.4584    15.0748    16.0434
  371.2000   103.4912    15.0205    15.9571
  371.3000   103.5241    14.9663    15.8708
  371.4000   103.5570    14.9120    15.7846
  371.5000   103.5899    14.8578    15.6983
  371.6000   103.6208    14.8019    15.6428
  371.7000   103.6517    14.7459    15.5873
  371.8000   103.6825    14.6900    15.5318
  371.9000   103.7134    14.6341    15.4762
  372.0000   103.7443    14.5782    15.4207
  372.1000   103.7673    14.5229    15.3662
  372.2000   103.7903    14.4676    15.3117
  372.3000   103.8133    14.4124    15.2571
  372.4000   103.8363    14.3571    15.2026
  372.5000   103.8593    14.3018    15.1481
  372.6000   104.1806    14.2475    15.0945
  372.7000   104.5020    14.1932    15.0410
  372.8000   104.8233    14.1390    14.9874
  372.9000   105.1447    14.0847    14.9338
  373.0000   105.4660    14.0304    14.8803
  373.1000   105.8364    13.9771    14.8276
  373.2000   106.2068    13.9239    14.7750
  373.3000   106.5771    13.8706    14.7224
  373.4000   106.9475    13.8174    14.6698
  373.5000   107.3179    13.7641    14.6172
  373.6000   107.3557    13.7366    14.5655
  373.7000   107.3935    13.7090    14.5138
  373.8000   107.4313    13.6814    14.4621
  373.9000   107.4691    13.6538    14.4104
  374.0000   107.5069    13.6263    14.3587
  374.1000   107.2992    13.6139    14.3437
  374.2000   107.0915    13.6014    14.3286
  374.3000   106.8837    13.5890    14.3135
  374.4000   106.6760    13.5766    14.2985
  374.5000   106.4683    13.5642    14.2834
  374.6000   106.4428    13.5515    14.2767
  374.7000   106.4173    13.5387    14.2700
  374.8000   106.3917    13.5260    14.2633
  374.9000   106.3662    13.5133    14.2566
  375.0000   106.3407    13.5006    14.2499
  375.1000   106.3493    13.4879    14.2432
  375.2000   106.3580    13.4752    14.2365
  375.3000   106.3667    13.4625    14.2298
  375.4000   106.3753    13.4499    14.2231
  375.5000   106.3840    13.4372    14.2164
  375.6000   105.7899    13.4246    14.2097
  375.7000   105.1958    13.4120    14.2030
  375.8000   104.6017    13.3993    14.1964
  375.9000   104.0076    13.3867    14.1897
  376.0000   103.4136    13.3741    14.1830
  376.1000   102.6591    13.3614    14.1783
  376.2000   101.9046    13.3488    14.1735
  376.3000   101.1502    13.3361    14.1688
  376.4000   100.3957    13.3235    14.1640
  376.5000    99.6413    13.3108    14.1593
  376.6000    99.8727    13.3039    14.1557
  376.7000   100.1040    13.2970    14.1521
  376.8000   100.3354    13.2900    14.1485
  376.9000   100.5667    13.2831    14.1448
  377.0000   100.7981    13.2762    14.1412
  377.1000   101.5093    13.2900    14.1376
  377.2000   102.2205    13.3038    14.1341
  377.3000   102.9317    13.3176    14.1305
  377.4000   103.6429    13.3315    14.1269
  377.5000   104.3541    13.3453    14.1233
  377.6000   105.0113    13.3550    14.1197
  377.7000   105.6685    13.3646    14.1161
  377.8000   106.3257    13.3743    14.1125
  377.9000   106.9829    13.3840    14.1089
  378.0000   107.6401    13.3937    14.1053
  378.1000   107.6259    13.4034    14.1017
  378.2000   107.6116    13.4131    14.0982
  378.3000   107.5974    13.4228    14.0946
  378.4000   107.5831    13.4325    14.0910
  378.5000   107.5688    13.4422    14.0874
  378.6000   107.4923    13.4519    14.0838
  378.7000   107.4158    13.4617    14.0802
  378.8000   107.3394    13.4714    14.0767
  378.9000   107.2629    13.4812    14.0731
  379.0000   107.1864    13.4909    14.0695
  379.1000   107.1653    13.4979    14.0660
  379.2000   107.1442    13.5049    14.0625
  379.3000   107.1231    13.5118    14.0590
  379.4000   107.1020    13.5188    14.0555
  379.5000   107.0809    13.5258    14.0520
  379.6000   107.1503    13.4981    14.0438
  379.7000   107.2196    13.4705    14.0355
  379.8000   107.2890    13.4428    14.0273
  379.9000   107.3584    13.4152    14.0191
  380.0000   107.4277    13.3875    14.0109
  380.1000   107.4948    13.3572    13.9909
  380.2000   107.5619    13.3268    13.9709
  380.3000   107.6289    13.2965    13.9509
  380.4000   107.6960    13.2661    13.9310
  380.5000   107.7631    13.2358    13.9110
  380.6000   107.8241    13.2055    13.8915
  380.7000   107.8850    13.1753    13.8720
  380.8000   107.9460    13.1451    13.8525
  380.9000   108.0069    13.1148    13.8330
  381.0000   108.0679    13.0846    13.8135
  381.1000   108.4671    13.0548    13.7941
  381.2000   108.8663    13.0249    13.7746
  381.3000   109.2655    12.9950    13.7552
  381.4000   109.6647    12.9652    13.7358
  381.5000   110.0639    12.9353    13.7163
  381.6000   110.4636    12.9058    13.6971
  381.7000   110.8632    12.8763    13.6778
  381.8000   111.2629    12.8468    13.6585
  381.9000   111.6626    12.8173    13.6392
  382.0000   112.0622    12.7878    13.6199
  382.1000   111.8390    12.7586    13.6008
  382.2000   111.6158    12.7295    13.5816
  382.3000   111.3926    12.7003    13.5625
  382.4000   111.1694    12.6711    13.5433
  382.5000   110.9462    12.6419    13.5242
  382.6000   110.2722    12.6131    13.5052
  382.7000   109.5983    12.5843    13.4862
  382.8000   108.9243    12.5554    13.4671
  382.9000   108.2503    12.5266    13.4481
  383.0000   107.5763    12.4978    13.4291
  383.1000   107.4985    12.4693    13.4102
  383.2000   107.4206    12.4408    13.3913
  383.3000   107.3428    12.4122    13.3725
  383.4000   107.2649    12.3837    13.3536
  383.5000   107.1871    12.3552    13.3347
  383.6000   107.6231    12.3391    13.3108
  383.7000   108.0591    12.3229    13.2868
  383.8000   108.4951    12.3068    13.2629
  383.9000   108.9310    12.2906    13.2390
  384.0000   109.3670    12.2745    13.2150
  384.1000   109.7987    12.2619    13.1828
  384.2000   110.2304    12.2494    13.1506
  384.3000   110.6621    12.2369    13.1183
  384.4000   111.0938    12.2244    13.0861
  384.5000   111.5256    12.2119    13.0539
  384.6000   111.9028    12.1994    13.0220
  384.7000   112.2801    12.1870    12.9902
  384.8000   112.6574    12.1745    12.9584
  384.9000   113.0347    12.1621    12.9265
  385.0000   113.4120    12.1496    12.8947
  385.1000   114.0845    12.1372    12.8633
  385.2000   114.7571    12.1248    12.8318
  385.3000   115.4297    12.1124    12.8004
  385.4000   116.1022    12.1000    12.7689
  385.5000   116.7748    12.0877    12.7375
  385.6000   117.2870    12.0753    12.7063
  385.7000   117.7992    12.0630    12.6751
  385.8000   118.3114    12.0507    12.6439
  385.9000   118.8236    12.0383    12.6127
  386.0000   119.3358    12.0260    12.5815
  386.1000   119.2978    12.0138    12.5707
