~VERSION INFORMATION
 VERS.                2.0:   CWLS LOG ASCII STANDARD - VERSION 2.0
 WRAP.                 NO:   ONE LINE PER DEPTH STEP
~WELL INFORMATION
#MNEM.UNIT      DATA TYPE    INFORMATION
#----------   ------------   ------------------------------
 STRT.F          298.0000:   START DEPTH
 STOP.F         1126.0000:   STOP DEPTH
 STEP.F            0.5000:   STEP LENGTH
 NULL.          -999.2500:   NO VALUE
 COMP. BROWN JOHN E&C INC:   COMPANY
 WELL.   52 SHX 15 #52-15:   WELL
 FLD .             TEAPOT:   FIELD
 LOC .      S15 T38N R78W:   LOCATION
 CNTY.            NATRONA:   COUNTY
 STAT.            WYOMING:   STATE
 CTRY. UNITED STATES OF AMERICA:   COUNTRY
 SRVC.              Welex:   SERVICE COMPANY
 DATE.        09-AUG-1979:   LOGDATE
 API .       490251078900:   API NUMBER
~CURVE INFORMATION
#MNEM.UNIT       API CODE    CURVE DESCRIPTION
#----------   ------------   ------------------------------
 DEPT.F                  :   
 CALD.IN     45 280 60 00:   CALIPER
 GRD .GAPI   45 310 01 00:   GAMMA RAY FROM DENSITY LOG
 RHOB.G/C3   45 350 01 00:   BULK DENSITY
 CORR.G/C3   45 356 01 00:   DENSITY CORRECTION
 DPHI.DEC    45 890 12 00:   DENSITY POROSITY SANDSTONE
~PARAMETER INFORMATION
#MNEM.UNIT          VALUE    DESCRIPTION
#----------   ------------   ------------------------------
 PD  .                 GL:   PERMANENT DATUM
 EPD .F              5222:   ELEVATION PERMANENT DATUM
 LMF .                 KB:   LOG MEASURED FROM
 DAPD.F                10:   FEET ABOVE PERMANENT DATUM
 DMF .                 KB:   DRILLING MEASURED FROM
 EKB .F              5232:   KELLING BUSHING
 EGL .F              5222:   GROUND LEVEL
 DATE.             8-9-79:   RUN DATE
 RUN .                  1:   RUN NUMBER
 DD  .F              1130:   DEPTH DRILLER
 DL  .F              1128:   DEPTH LOGGER
 BLI .F              1126:   BOTTOM LOG INTERVAL
 TLI .F               300:   TOP LOG INTERVAL
 CS  .IN            9.625:   CASING SIZE
 CBD .F               676:   CASING BOTTOM DRILLER
 BS  .IN             8.75:   BIT SIZE
 BSD .F              1130:   BIT SIZE AT DEPTH
 DFT .                OIL:   DRILLING FLUID TYPE
 DFD .                9.1:   DRILLING FLUID DENSITY
 TCS .HRS             2.5:   TIME CURCULATED STOPPED
 MRT .F               102:   MAXIMUM RECORDED TEMPERATURE
 ENGI.               REIN:   RECORDING ENGINEER
 WITN.           DINSMORE:   WITNESSED BY
 CLNT.            A2DTECH:   CLIENT CODE
 ORIG.         2.5" PRINT:   ORIGIN OF DATA
 UWI .       490251078900:   UNIQUE WELL ID
 DICO. A2D Technologies, Inc.:   DIGITIZING COMPANY
~OTHER INFORMATION
~A   DEPT     CALD         GRD      RHOB       CORR       DPHI   
# ...
  847.0000     9.5294    98.4962     2.5133     0.0500     0.0219
  847.5000     9.5239    98.3560     2.5149     0.0500     0.0217
  848.0000     9.5077    96.8309     2.5180     0.0500     0.0243
  848.5000     9.4918    95.3353     2.5210     0.0501     0.0217
  849.0000     9.4756    94.4339     2.5240     0.0501     0.0194
  849.5000     9.4595    94.1514     2.5270     0.0502     0.0170
  850.0000     9.4434    93.9425     2.5301     0.0502     0.0146
  850.5000     9.4273    94.9812     2.5329     0.0502     0.0123
  851.0000     9.4111    95.8293     2.5363     0.0503     0.0099
  851.5000     9.3950    96.6738     2.5366     0.0503     0.0075
  852.0000     9.3789    96.7004     2.5357     0.0504     0.0049
  852.5000     9.3627    96.7252     2.5323     0.0504     0.0077
  853.0000     9.3469    96.5807     2.5290     0.0504     0.0111
  853.5000     9.3307    96.1611     2.5257     0.0505     0.0144
  854.0000     9.3320    95.7482     2.5224     0.0505     0.0177
  854.5000     9.3402    95.3312     2.5190     0.0506     0.0210
  855.0000     9.3483    94.9198     2.5164     0.0506     0.0226
  855.5000     9.3560    94.4756     2.5147     0.0506     0.0235
  856.0000     9.3641    94.2319     2.5204     0.0507     0.0198
  856.5000     9.3693    94.5139     2.5253     0.0507     0.0166
  857.0000     9.3777    95.4797     2.5306     0.0507     0.0134
  857.5000     9.3862    96.4060     2.5346     0.0508     0.0097
  858.0000     9.3948    97.3527     2.5326     0.0508     0.0081
  858.5000     9.4034    98.3743     2.5283     0.0509     0.0097
  859.0000     9.4120    98.7494     2.5244     0.0509     0.0133
  859.5000     9.4205    98.6459     2.5232     0.0509     0.0169
  860.0000     9.4291    96.5364     2.5224     0.0510     0.0177
  860.5000     9.4377    94.3491     2.5227     0.0510     0.0160
  861.0000     9.4462    92.5707     2.5288     0.0511     0.0142
  861.5000     9.4548    92.2761     2.5355     0.0511     0.0103
  862.0000     9.4634    91.9367     2.5410     0.0512     0.0058
  862.5000     9.4719    91.6047     2.5411     0.0512     0.0041
  863.0000     9.4805    91.3944     2.5349     0.0512     0.0065
  863.5000     9.4891    91.4211     2.5290     0.0513     0.0105
  864.0000     9.4977    91.4172     2.5210     0.0513     0.0186
  864.5000     9.5062    91.3868     2.5113     0.0514     0.0264
  865.0000     9.5148    91.8070     2.5021     0.0514     0.0342
  865.5000     9.5234    92.8604     2.4942     0.0514     0.0413
  866.0000     9.5319    93.9196     2.4924     0.0515     0.0441
  866.5000     9.5406    94.2914     2.4911     0.0515     0.0453
  867.0000     9.5492    94.2443     2.4903     0.0515     0.0430
  867.5000     9.5576    94.7722     2.4963     0.0516     0.0395
  868.0000     9.5663    96.6387     2.5029     0.0516     0.0339
  868.5000     9.5650    96.8241     2.5089     0.0517     0.0270
  869.0000     9.5595    96.3100     2.5148     0.0517     0.0202
  869.5000     9.5541    95.8492     2.5212     0.0517     0.0162
  870.0000     9.5489    95.6009     2.5253     0.0518     0.0154
  870.5000     9.5435    96.8109     2.5177     0.0518     0.0207
  871.0000     9.5382    96.9977     2.5136     0.0519     0.0243
  871.5000     9.5329    95.1999     2.5185     0.0519     0.0218
  872.0000     9.5276    93.2809     2.5222     0.0519     0.0181
  872.5000     9.5223    96.0434     2.5203     0.0520     0.0170
  873.0000     9.5170    98.0442     2.5187     0.0520     0.0176
  873.5000     9.5117    97.9239     2.5195     0.0521     0.0183
  874.0000     9.5064    96.0353     2.5234     0.0521     0.0182
  874.5000     9.5011    95.9150     2.5201     0.0521     0.0176
  875.0000     9.4958    97.7850     2.5213     0.0522     0.0169
  875.5000     9.4905    96.7266     2.5233     0.0522     0.0162
  876.0000     9.4852    95.4703     2.5195     0.0523     0.0179
  876.5000     9.4799    95.4880     2.5163     0.0523     0.0196
  877.0000     9.4746    96.3108     2.5173     0.0523     0.0200
  877.5000     9.4693    95.9127     2.5213     0.0524     0.0190
  878.0000     9.4640    94.5754     2.5208     0.0524     0.0178
  878.5000     9.4587    93.1706     2.5180     0.0525     0.0216
  879.0000     9.4534    93.1800     2.5124     0.0525     0.0259
  879.5000     9.4481    95.0406     2.5075     0.0525     0.0301
  880.0000     9.4428    95.4167     2.5022     0.0526     0.0344
  880.5000     9.4375    94.8564     2.4971     0.0526     0.0386
  881.0000     9.4322    94.6128     2.4920     0.0526     0.0422
  881.5000     9.4269    96.0218     2.4943     0.0526     0.0405
  882.0000     9.4216    97.4381     2.5052     0.0526     0.0328
  882.5000     9.4163    98.8211     2.5164     0.0526     0.0251
  883.0000     9.4110   100.2915     2.5251     0.0526     0.0178
  883.5000     9.4057   100.6618     2.5254     0.0526     0.0130
  884.0000     9.4004   101.0735     2.5234     0.0526     0.0141
  884.5000     9.3950   101.0752     2.5230     0.0526     0.0166
  885.0000     9.3898   100.8597     2.5252     0.0526     0.0160
  885.5000     9.3843   100.6685     2.5273     0.0526     0.0121
  886.0000     9.3791   100.3792     2.5302     0.0526     0.0121
  886.5000     9.3741   100.9767     2.5342     0.0526     0.0092
  887.0000     9.3675   102.0927     2.5380     0.0526     0.0078
  887.5000     9.3765   102.7898     2.5530     0.0526    -0.0072
  888.0000     9.3938   101.8568     2.5666     0.0526    -0.0177
  888.5000     9.4099   100.8525     2.5641     0.0526    -0.0189
  889.0000     9.4255    99.7976     2.5567     0.0526    -0.0144
  889.5000     9.4417    98.7618     2.5494     0.0526    -0.0075
  890.0000     9.4576    97.7229     2.5424     0.0526    -0.0006
  890.5000     9.4736    96.6916     2.5352     0.0526     0.0063
  891.0000     9.4896    95.6450     2.5257     0.0526     0.0132
  891.5000     9.5055    94.5841     2.5138     0.0526     0.0201
  892.0000     9.5215    93.9636     2.5032     0.0526     0.0308
  892.5000     9.5374    94.2982     2.4936     0.0526     0.0428
  893.0000     9.5534    94.6274     2.4833     0.0526     0.0511
  893.5000     9.5694    94.1878     2.4812     0.0526     0.0527
  894.0000     9.5853    93.6830     2.4852     0.0526     0.0497
  894.5000     9.6013    93.1639     2.4878     0.0526     0.0481
  895.0000     9.6172    92.6310     2.4817     0.0526     0.0498
  895.5000     9.6331    92.1673     2.4723     0.0526     0.0542
  896.0000     9.6488    91.7873     2.4634     0.0526     0.0671
  896.5000     9.6649    91.8382     2.4573     0.0526     0.0731
  897.0000     9.6811    91.8257     2.4515     0.0526     0.0759
  897.5000     9.6965    91.8152     2.4457     0.0526     0.0804
  898.0000     9.7137    91.8360     2.4401     0.0526     0.0890
  898.5000     9.7330    91.8499     2.4339     0.0526     0.0978
  899.0000     9.8289    92.3942     2.4284     0.0526     0.0994
  899.5000     9.9258    92.9840     2.4257     0.0526     0.0994
  900.0000    10.0469    93.5742     2.4501     0.0526     0.0752
  900.5000    10.0122    94.1898     2.4750     0.0526     0.0508
  901.0000     9.8910    94.7815     2.4962     0.0526     0.0375
  901.5000     9.7694    95.0238     2.5050     0.0526     0.0331
  902.0000     9.6899    93.6747     2.5098     0.0526     0.0299
  902.5000     9.6933    92.4442     2.5041     0.0526     0.0300
  903.0000     9.6938    91.1159     2.4976     0.0526     0.0338
  903.5000     9.6960    90.6005     2.4908     0.0526     0.0421
  904.0000     9.6983    91.1236     2.4840     0.0526     0.0502
  904.5000     9.7002    91.5142     2.4835     0.0526     0.0502
  905.0000     9.7024    91.9469     2.4913     0.0526     0.0451
  905.5000     9.7046    92.1879     2.4989     0.0526     0.0390
  906.0000     9.7067    91.9874     2.5065     0.0526     0.0330
  906.5000     9.7088    91.8515     2.5142     0.0526     0.0270
  907.0000     9.7109    91.9008     2.5221     0.0526     0.0211
  907.5000     9.7129    92.9500     2.5291     0.0526     0.0150
