~VERSION INFORMATION
 VERS.                2.0:   CWLS LOG ASCII STANDARD - VERSION 2.0
 WRAP.                 NO:   ONE LINE PER DEPTH STEP
~WELL INFORMATION
#MNEM.UNIT      DATA TYPE    INFORMATION
#----------   ------------   ------------------------------
 STRT.F           12.0000:   START DEPTH
 STOP.F          563.5000:   STOP DEPTH
 STEP.F            0.5000:   STEP LENGTH
 NULL.          -999.2500:   NO VALUE
 COMP.       F D SERV INC:   COMPANY
 WELL. N P R 3 SX-3 #52-3:   WELL
 FLD .             TEAPOT:   FIELD
 LOC .       S3 T38N R78W:   LOCATION
 CNTY.            NATRONA:   COUNTY
 STAT.            WYOMING:   STATE
 CTRY. UNITED STATES OF AMERICA:   COUNTRY
 SRVC.     Atlas Wireline:   SERVICE COMPANY
 DATE.        27-APR-1992:   LOGDATE
 API .       490252252000:   API NUMBER
~CURVE INFORMATION
#MNEM.UNIT       API CODE    CURVE DESCRIPTION
#----------   ------------   ------------------------------
 DEPT.F                  :   
 PORZ.DEC    45 890 12 00:   DENSITY POROSITY
 CNC .DEC    42 890 03 00:   NEUTRON POROSITY SANDSTONE
 CALD.IN     45 280 60 00:   CALIPER FROM DENSITY
 GRD .GAPI   45 310 01 00:   GAMMA RAY FROM DENSITY LOG
 ZCOR.G/C3   45 356 01 00:   DENSITY CORRECTION
 ZDEN.G/C3   45 350 01 00:   BULK DENSITY
 RILD.OHMM   07 120 46 00:   INDUCTION LOG DEEP RESISTIVITY
 RILM.OHMM   07 120 44 00:   INDUCTION LOG MEDIUM RESISTIVITY
 RFOC.OHMM   07 220 04 00:   RESISTIVITY FOCUSED LOG
~PARAMETER INFORMATION
#MNEM.UNIT          VALUE    DESCRIPTION
#----------   ------------   ------------------------------
 PD  .                 GL:   PERMANENT DATUM
 EPD .F              5145:   ELEVATION PERMANENT DATUM
 LMF .                 KB:   LOG MEASURED FROM
 DAPD.F                 5:   FEET ABOVE PERMANENT DATUM
 DMF .                 KB:   DRILLING MEASURED FROM
 EKB .F              5150:   KELLING BUSHING
 EDF .F              5149:   DRILLING FLOOR
 EGL .F              5145:   GROUND LEVEL
 DATE.        27-APR-1992:   RUN DATE
 RUN .                  1:   RUN NUMBER
 DD  .F               565:   DEPTH DRILLER
 DL  .F               565:   DEPTH LOGGER
 BLI .F               563:   BOTTOM LOG INTERVAL
 CS  .IN            8.625:   CASING SIZE
 CBD .F                48:   CASING BOTTOM DRILLER
 CBL .F                51:   CASING BOTTOM LOGGER
 BS  .IN            7.875:   BIT SIZE
 BSD .F               565:   BIT SIZE AT DEPTH
 DFT .              WATER:   DRILLING FLUID TYPE
 TCS .HRS            0200:   TIME CURCULATED STOPPED
 MRT .F                88:   MAXIMUM RECORDED TEMPERATURE
 LUN .           HL- 6274:   LOGGING UNIT NUMBER
 LUL .             CASPER:   LOGGING UNIT LOCATION
 ENGI.             RAUTIO:   RECORDING ENGINEER
 WITN.        GARY STRONG:   WITNESSED BY
 CLNT.            A2DTECH:   CLIENT CODE
 ORIG.           5" PRINT:   ORIGIN OF DATA
 UWI .       490252252000:   UNIQUE WELL ID
 DICO. A2D Technologies, Inc.:   DIGITIZING COMPANY
~OTHER INFORMATION
~A   DEPT     PORZ        CNC       CALD        GRD       ZCOR       ZDEN       RILD       RILM       RFOC   
# ...
  121.5000     0.0908     0.3873     8.1910   116.1246     0.0199     2.5051     8.4212     8.3938     8.4366
  122.0000     0.1014     0.3909     8.1907   115.8324     0.0215     2.4958     8.4775     8.5705     8.6154
  122.5000     0.1035     0.3860     8.1904   114.3014     0.0336     2.4810     8.7737     8.8120     8.8543
  123.0000     0.1041     0.3758     8.1901   111.6537     0.0369     2.4780     9.2718     9.1234     9.0390
  123.5000     0.1035     0.3739     8.1898   109.2642     0.0338     2.4773     9.6632     9.3804     9.0378
  124.0000     0.1017     0.3769     8.1895   107.1742     0.0338     2.4781     9.7956     9.7796     9.0366
  124.5000     0.0987     0.3766     8.1892   107.7787     0.0339     2.4811     9.7923     9.9164     8.9729
  125.0000     0.0973     0.3739     8.1888   108.6826     0.0324     2.4872     9.7897     9.8478     8.9717
  125.5000     0.0980     0.3685     8.1886   105.9952     0.0265     2.4895     9.7195     9.7119     9.0330
  126.0000     0.0992     0.3579     8.1733   103.6043     0.0160     2.4858     9.5830     9.5779     9.1581
  126.5000     0.0992     0.3591     8.1730   105.4079     0.0070     2.4835     9.4485     9.4458     9.2206
  127.0000     0.0992     0.3640     8.1727   107.5094     0.0072     2.4843     9.1875     9.1870     9.2191
  127.5000     0.0995     0.3714     8.1724   110.2098     0.0116     2.4843     8.9332     8.9352     9.1541
  128.0000     0.1001     0.3796     8.1871   113.8204     0.0177     2.4844     8.9930     8.9352     9.0896
  128.5000     0.1010     0.3877     8.1868   114.7123     0.0238     2.4821     9.0531     8.8734     8.9631
  129.0000     0.1025     0.3943     8.1865   111.7254     0.0284     2.4807     9.0507     8.8734     8.8996
  129.5000     0.1061     0.3961     8.2012   111.1324     0.0330     2.4762     9.0483     8.8734     8.9604
  130.0000     0.1055     0.3913     8.2009   112.6351     0.0392     2.4739     9.0459     8.8734     8.9592
  130.5000     0.0965     0.3723     8.2006   114.1379     0.0422     2.4800     8.9705     8.8120     8.9580
  131.0000     0.0950     0.3587     8.2002   114.4430     0.0407     2.4936     8.5525     8.6848     8.9618
  131.5000     0.0966     0.3584     8.2000   115.3484     0.0362     2.4906     8.3163     8.2780     8.7056
  132.0000     0.1010     0.3647     8.1997   120.1445     0.0303     2.4844     8.2566     8.1638     8.5295
  132.5000     0.1034     0.3713     8.1994   122.5455     0.0213     2.4801     8.1974     8.1638     8.3526
  133.0000     0.1052     0.3725     8.1991   121.3536     0.0123     2.4779     8.1386     8.1638     8.0666
  133.5000     0.1052     0.3722     8.1987   118.6647     0.0141     2.4757     8.1363     8.1638     8.0097
  134.0000     0.1049     0.3737     8.1985   116.5389     0.0199     2.4757     8.1337     8.1638     8.0087
  134.5000     0.1046     0.3797     8.2132   115.0834     0.0245     2.4765     8.1315     8.2207     8.0076
  135.0000     0.1062     0.3815     8.2129   113.8930     0.0276     2.4765     8.1865     8.2780     8.0063
  135.5000     0.1091     0.3827     8.2126   113.8987     0.0216     2.4713     8.2982     8.3357     8.0612
  136.0000     0.1075     0.3872     8.2131   115.4015     0.0141     2.4683     8.4703     8.4523     8.1163
  136.5000     0.1030     0.3869     8.2270   117.5030     0.0110     2.4713     8.5368     8.5112     8.3434
  137.0000     0.1000     0.3830     8.2266   116.5149     0.0113     2.4766     8.5840     8.5705     8.5178
  137.5000     0.0988     0.3799     8.2114   111.8273     0.0189     2.4819     8.6414     8.6302     8.5760
  138.0000     0.0991     0.3814     8.2111   109.1384     0.0280     2.4850     8.6386     8.7510     8.6345
  138.5000     0.1006     0.3863     8.2108   108.2445     0.0401     2.4849     8.6965     8.8120     8.6331
  139.0000     0.1018     0.3856     8.2105   108.5511     0.0432     2.4828     8.7546     8.8734     8.6320
  139.5000     0.1024     0.3853     8.2101   109.1557     0.0417     2.4820     8.8132     8.8120     8.6912
  140.0000     0.1024     0.3859     8.2099   108.2646     0.0327     2.4791     8.8102     8.8120     8.8115
  140.5000     0.1012     0.3895     8.2096   106.4740     0.0207     2.4799     8.9309     8.8748     8.8714
  141.0000     0.0982     0.3898     8.2093   106.7791     0.0178     2.4829     8.9913     8.9975     8.9320
  141.5000     0.0960     0.3895     8.1940   107.6830     0.0254     2.4882     9.0509     9.1234     9.0556
  142.0000     0.0957     0.3882     8.1936   109.4852     0.0330     2.4905     9.1114     9.2510     9.1175
  142.5000     0.0987     0.3855     8.1934   113.1638     0.0300     2.4890     9.1089     9.2510     9.1160
  143.0000     0.0999     0.3874     8.1931   116.3843     0.0253     2.4853     9.0436     9.1870     9.1148
  143.5000     0.0999     0.3900     8.1928   115.7913     0.0196     2.4823     9.1041     8.9352     8.9879
  144.0000     0.0999     0.3949     8.1925   112.5036     0.0181     2.4831     8.7909     8.7437     8.7966
  144.5000     0.1008     0.4006     8.1922   112.2085     0.0167     2.4831     8.6675     8.6302     8.7392
  145.0000     0.1048     0.4090     8.2069   112.8145     0.0167     2.4791     8.6053     8.5705     8.7380
  145.5000     0.1116     0.4223     8.2066   111.5588     0.0168     2.4666     8.5435     8.5705     8.7193
  146.0000     0.1137     0.4200     8.2063   105.0430     0.0169     2.4629     8.6007     8.5705     8.6894
  146.5000     0.1140     0.3993     8.2060   104.7479     0.0169     2.4614     8.5384     8.5112     8.7304
  147.0000     0.1137     0.3957     8.2207   107.1502     0.0185     2.4599     8.5361     8.5705     8.7297
  147.5000     0.1140     0.3903     8.2354   110.7488     0.0201     2.4584     8.5337     8.6302     8.7291
  148.0000     0.1152     0.3770     8.2350   114.0479     0.0201     2.4577     8.5316     8.6302     8.7893
  148.5000     0.1173     0.3685     8.2347   114.6527     0.0217     2.4570     8.5292     8.6302     8.7887
  149.0000     0.1173     0.3694     8.2345   113.1627     0.0248     2.4585     8.5265     8.6302     8.7880
  149.5000     0.1155     0.3709     8.2342   111.9708     0.0294     2.4616     8.5841     8.7510     8.9102
  150.0000     0.1127     0.3699     8.2339   110.6778     0.0309     2.4677     8.7400     8.9975     9.0342
  150.5000     0.1101     0.3648     8.2247   109.8833     0.0294     2.4729     8.9796     9.1343     9.2236
  151.0000     0.1080     0.3546     8.2177   108.9701     0.0219     2.4722     9.2192     9.2711     9.4831
  151.5000     0.1086     0.3476     8.2321   107.7939     0.0174     2.4684     9.4588     9.4079     9.8167
  152.0000     0.1116     0.3488     8.2314   107.4974     0.0160     2.4669     9.6580     9.7805     9.9533
  152.5000     0.1111     0.3579     8.2309   107.5003     0.0190     2.4700     9.8617    10.1958    10.0917
  153.0000     0.1088     0.3606     8.2303   107.5031     0.0190     2.4731     9.9352    10.2669    10.1613
  153.5000     0.1058     0.3630     8.2296   107.8054     0.0176     2.4775    10.1406    10.4105    10.2314
  154.0000     0.1031     0.3663     8.2290   109.3059     0.0131     2.4805    10.2119    10.4105    10.3738
  154.5000     0.0995     0.3690     8.2284   110.5064     0.0101     2.4858    10.2837    10.4105    10.5179
  155.0000     0.0971     0.3683     8.2279   110.2098     0.0116     2.4896    10.4280    10.4830    10.5906
  155.5000     0.0964     0.3651     8.2273   109.3145     0.0162     2.4942    10.5013    10.5561    10.7378
  156.0000     0.0964     0.3584     8.2266   105.4171     0.0237     2.4949    10.6486    10.7038    10.8871
  156.5000     0.0964     0.3451     8.2260   104.5298     0.0268     2.4942    10.7983    10.8535    10.8864
  157.0000     0.0964     0.3358     8.2255   106.3298     0.0298     2.4934    11.1800    11.7153    10.8892
  157.5000     0.0952     0.3273     8.2249   106.6320     0.0314     2.4934    12.0672    12.2990    11.0371
