~VERSION INFORMATION
 VERS.                2.0:   CWLS LOG ASCII STANDARD - VERSION 2.0
 WRAP.                 NO:   ONE LINE PER DEPTH STEP
~WELL INFORMATION
#MNEM.UNIT      DATA TYPE    INFORMATION
#----------   ------------   ------------------------------
 STRT.F           20.0000:   START DEPTH
 STOP.F          930.0000:   STOP DEPTH
 STEP.F            0.5000:   STEP LENGTH
 NULL.          -999.2500:   NO VALUE
 COMP. FENIX & SCISSON INC:   COMPANY
 WELL.     NPR 3 #45-S-14:   WELL
 FLD .        TEAPOT DOME:   FIELD
 LOC .      S14 T38N R78W:   LOCATION
 CNTY.            NATRONA:   COUNTY
 STAT.            WYOMING:   STATE
 CTRY. UNITED STATES OF AMERICA:   COUNTRY
 SRVC.           BIRDWELL:   SERVICE COMPANY
 DATE.        02-JAN-1979:   LOGDATE
 API .       490251076200:   API NUMBER
~CURVE INFORMATION
#MNEM.UNIT       API CODE    CURVE DESCRIPTION
#----------   ------------   ------------------------------
 DEPT.F                  :   
 GRD .GAPI   45 310 01 00:   GAMMA RAY FROM DENSITY LOG
 CALD.IN     45 280 60 00:   CALIPER
 RHOB.G/C3   45 350 01 00:   BULK DENSITY
 DPHI.DEC    45 890 12 00:   DENSITY POROSITY SANDSTONE
 CORR.G/C3   45 356 01 00:   DENSITY CORRECTION
~PARAMETER INFORMATION
#MNEM.UNIT          VALUE    DESCRIPTION
#----------   ------------   ------------------------------
 PD  .                 GL:   PERMANENT DATUM
 EPD .F              5261:   ELEVATION PERMANENT DATUM
 LMF .                 KB:   LOG MEASURED FROM
 DAPD.F                 4:   FEET ABOVE PERMANENT DATUM
 DMF .                 KB:   DRILLING MEASURED FROM
 EKB .F              5265:   KELLING BUSHING
 EGL .F              5261:   GROUND LEVEL
 DATE.             1-7-79:   RUN DATE
 RUN .                  1:   RUN NUMBER
 DD  .F               969:   DEPTH DRILLER
 DL  .F               928:   DEPTH LOGGER
 BLI .F               928:   BOTTOM LOG INTERVAL
 TLI .F                20:   TOP LOG INTERVAL
 CS  .IN            8.625:   CASING SIZE
 CBD .F                40:   CASING BOTTOM DRILLER
 CBL .F                46:   CASING BOTTOM LOGGER
 BS  .IN            7.875:   BIT SIZE
 BSD .F               969:   BIT SIZE AT DEPTH
 DFT .                KCL:   DRILLING FLUID TYPE
 DFD .                8.8:   DRILLING FLUID DENSITY
 DFV .                 42:   DRILLING FLUID VISCOSITY
 DFPH.                9.2:   DRILLING FLUID PH
 DFL .                 10:   DRILLING FLUID LOSS
 MSS .           FLOWLINE:   MUD SAMPLE SOURCE
 RMS .OHMM            .95:   RESISTIVITY MUD SAMPLE
 MST .F                60:   MUD SAMPLE TEMPERATURE
 RMF .OHMM            1.7:   RESISTIVITY MUD FILTRATE SAMPLE
 MFST.F                60:   MUD FILTRATE SAMPLE TEMPERATURE
 RMC .OHMM            1.6:   RESISTIVITY MUD CAKE
 MCST.F                60:   MUD CAKE SAMPLE TEMPERATURE
 MFSS.           MEASURED:   MUD FILTRATE SAMPLE SOURCE
 MCSS.           MEASURED:   MUD CAKE SAMPLE SOURCE
 RMB .OHMM            .98:   RESISTIVITY MUD AT BHT
 BHT .F                58:   BOTTOM HOLE TEMPERATURE
 TCS .HRS               4:   TIME CURCULATED STOPPED
 MRT .F                58:   MAXIMUM RECORDED TEMPERATURE
 LUN .               3006:   LOGGING UNIT NUMBER
 LUL .             CASPER:   LOGGING UNIT LOCATION
 ENGI.            ROLLINS:   RECORDING ENGINEER
 WITN.           DINSMORE:   WITNESSED BY
 CLNT.            A2DTECH:   CLIENT CODE
 ORIG.           5" PRINT:   ORIGIN OF DATA
 UWI .       490251076200:   UNIQUE WELL ID
 DICO. A2D Technologies, Inc.:   DIGITIZING COMPANY
~OTHER INFORMATION
~A   DEPT      GRD         CALD     RHOB       DPHI       CORR   
# ...
  630.0000   102.7750     7.8070     2.4180     0.1570     0.0160
  630.5000   104.3120     7.8360     2.4190     0.1550     0.0160
  631.0000   106.1420     7.8500     2.4190     0.1530     0.0150
  631.5000   105.8260     7.8500     2.4190     0.1550     0.0140
  632.0000   102.6670     7.8500     2.4180     0.1610     0.0110
  632.5000   101.7770     7.8500     2.4050     0.1650     0.0090
  633.0000   101.2180     7.8500     2.4020     0.1660     0.0090
  633.5000   100.9090     7.8500     2.4030     0.1660     0.0080
  634.0000   101.0950     7.8500     2.4040     0.1640     0.0080
  634.5000   102.0890     7.8440     2.4040     0.1590     0.0080
  635.0000   104.1340     7.8380     2.4040     0.1600     0.0080
  635.5000   104.8370     7.8320     2.4030     0.1610     0.0070
  636.0000   105.8180     7.8260     2.4020     0.1650     0.0070
  636.5000   107.4630     7.8200     2.3990     0.1680     0.0050
  637.0000   106.9120     7.8130     2.3950     0.1680     0.0030
  637.5000   104.9050     7.8070     2.3940     0.1690     0.0000
  638.0000   101.2670     7.8010     2.3930     0.1740     0.0000
  638.5000   100.6680     7.7950     2.3840     0.1850     0.0030
  639.0000   104.8590     7.7890     2.3700     0.1960     0.0060
  639.5000   104.8510     7.7830     2.3520     0.2030     0.0070
  640.0000   103.0630     7.7760     2.3460     0.1900     0.0070
  640.5000    97.7850     7.7710     2.3570     0.1750     0.0070
  641.0000    95.9450     7.7810     2.3820     0.1600     0.0070
  641.5000    97.9610     7.7930     2.4070     0.1550     0.0070
  642.0000   100.7350     7.8040     2.4240     0.1530     0.0070
  642.5000   103.5130     7.8160     2.4270     0.1540     0.0070
  643.0000   105.4610     7.8270     2.4270     0.1550     0.0070
  643.5000   104.3310     7.8390     2.4280     0.1560     0.0070
  644.0000   102.1430     7.8500     2.4280     0.1550     0.0110
  644.5000   101.6470     7.8480     2.4300     0.1470     0.0200
  645.0000   102.4270     7.8450     2.4370     0.1420     0.0220
  645.5000   102.4260     7.8430     2.4420     0.1420     0.0210
  646.0000   102.0400     7.8400     2.4450     0.1440     0.0200
  646.5000   101.6530     7.8370     2.4450     0.1460     0.0190
  647.0000   100.7420     7.8350     2.4440     0.1450     0.0210
  647.5000    99.4450     7.8320     2.4440     0.1410     0.0230
  648.0000    99.2970     7.8310     2.4450     0.1360     0.0240
  648.5000   101.7750     7.8320     2.4460     0.1400     0.0200
  649.0000   103.9000     7.8330     2.4440     0.1480     0.0180
  649.5000   104.5220     7.8340     2.4410     0.1440     0.0170
  650.0000   107.3300     7.8360     2.4380     0.1390     0.0160
  650.5000   112.8750     7.8370     2.4400     0.1380     0.0150
  651.0000   111.2520     7.8380     2.4410     0.1430     0.0140
  651.5000   107.0030     7.8390     2.4400     0.1470     0.0130
  652.0000   106.3720     7.8410     2.4390     0.1490     0.0160
  652.5000   106.9590     7.8420     2.4380     0.1450     0.0200
  653.0000   106.9740     7.8430     2.4400     0.1430     0.0240
  653.5000   106.5300     7.8440     2.4460     0.1440     0.0270
  654.0000   104.0180     7.8460     2.4460     0.1310     0.0270
  654.5000   104.4730     7.8470     2.4520     0.1300     0.0220
  655.0000   104.8910     7.8480     2.4570     0.1330     0.0090
  655.5000   104.8910     7.8490     2.4540     0.1390    -0.0010
  656.0000   105.4530     7.8500     2.4470     0.1440    -0.0120
  656.5000   106.5790     7.8520     2.4410     0.1470    -0.0150
  657.0000   107.3360     7.8530     2.4410     0.1450    -0.0150
  657.5000   107.5520     7.8540     2.4410     0.1440    -0.0150
  658.0000   108.9940     7.8550     2.4440     0.1370    -0.0120
  658.5000   108.3750     7.8570     2.4490     0.1340    -0.0080
  659.0000   110.0530     7.8580     2.4520     0.1320    -0.0080
  659.5000   110.4440     7.8590     2.4520     0.1310    -0.0090
  660.0000   102.9050     7.8600     2.4530     0.1310    -0.0100
  660.5000   100.7450     7.8610     2.4530     0.1350    -0.0120
  661.0000   101.0870     7.8630     2.4520     0.1390    -0.0130
  661.5000   101.4500     7.8640     2.4440     0.1450    -0.0120
  662.0000   101.1940     7.8650     2.4360     0.1510    -0.0100
  662.5000   101.1660     7.8660     2.4280     0.1570    -0.0090
  663.0000   101.6890     7.8680     2.4180     0.1640    -0.0070
  663.5000   102.8620     7.8690     2.4030     0.1700    -0.0060
  664.0000   103.3770     7.8700     2.3890     0.1780    -0.0050
  664.5000   103.5420     7.8610     2.3760     0.1900    -0.0030
  665.0000   103.6080     7.8480     2.3630     0.2020    -0.0020
  665.5000   102.9860     7.8350     2.3460     0.2140     0.0000
  666.0000   103.7790     7.8210     2.3180     0.2330     0.0020
  666.5000   104.8720     7.8080     2.2850     0.2540     0.0060
  667.0000   104.2760     7.7940     2.2510     0.2750     0.0110
  667.5000   101.7710     7.7810     2.2180     0.2980     0.0160
  668.0000    98.3160     7.7670     2.1930     0.2950     0.0180
  668.5000    92.9180     7.7540     2.1920     0.2820     0.0160
  669.0000    88.4920     7.7410     2.2220     0.2390     0.0130
  669.5000    90.5380     7.7300     2.2630     0.2130     0.0110
  670.0000    97.9660     7.7300     2.3040     0.1950     0.0080
  670.5000   105.2800     7.7290     2.3430     0.1840     0.0050
  671.0000   111.3200     7.7710     2.3680     0.1680     0.0000
  671.5000   110.7330     7.8280     2.3920     0.1550    -0.0010
  672.0000   109.3700     7.8330     2.4160     0.1570    -0.0010
  672.5000   109.0620     7.8350     2.4220     0.1590     0.0030
  673.0000   110.8540     7.8370     2.4220     0.1540     0.0090
  673.5000   111.4880     7.8390     2.4240     0.1460     0.0150
  674.0000   112.7800     7.8410     2.4300     0.1430     0.0150
  674.5000   116.5410     7.8440     2.4350     0.1430     0.0110
  675.0000   118.2220     7.8460     2.4340     0.1600     0.0080
  675.5000   117.7880     7.8480     2.4120     0.1790     0.0050
  676.0000   116.6960     7.8500     2.3830     0.1890     0.0060
  676.5000   121.4630     7.8530     2.3730     0.1900     0.0060
  677.0000   120.1520     7.8550     2.3710     0.1830     0.0070
  677.5000   117.9180     7.8570     2.3810     0.1750     0.0140
  678.0000   115.6150     7.8590     2.4000     0.1650     0.0190
  678.5000   115.0270     7.8610     2.4110     0.1500     0.0210
  679.0000   119.5190     7.8640     2.4250     0.1430     0.0190
  679.5000   120.8220     7.8660     2.4330     0.1480     0.0170
  680.0000   121.5270     7.8680     2.4340     0.1530     0.0130
  680.5000   123.6800     7.8700     2.4310     0.1510     0.0150
  681.0000   128.1080     7.8600     2.4330     0.1470     0.0190
  681.5000   122.7360     7.8500     2.4380     0.1430     0.0250
  682.0000   117.0690     7.8400     2.4480     0.1380     0.0280
  682.5000   114.0270     7.8290     2.4550     0.1360     0.0300
  683.0000   111.7970     7.8190     2.4570     0.1370     0.0330
  683.5000   110.7380     7.8080     2.4570     0.1340     0.0340
  684.0000   109.6780     7.7980     2.4570     0.1300     0.0330
  684.5000   110.9030     7.7880     2.4590     0.1290     0.0320
  685.0000   111.6500     7.7770     2.4600     0.1300     0.0300
  685.5000   114.2420     7.7670     2.4580     0.1340     0.0220
  686.0000   115.7860     7.7570     2.4550     0.1410     0.0140
  686.5000   116.6040     7.7460     2.4440     0.1470     0.0060
  687.0000   115.5270     7.7360     2.4320     0.1530    -0.0030
  687.5000   114.4870     7.7350     2.4210     0.1600    -0.0050
  688.0000   112.9090     7.7470     2.4100     0.1670    -0.0050
  688.5000   110.9010     7.7580     2.4060     0.1630     0.0010
  689.0000   111.3790     7.7700     2.4080     0.1560     0.0070
  689.5000   114.2780     7.7810     2.4100     0.1580     0.0070
  690.0000   116.4220     7.7930     2.4100     0.1620     0.0060
  690.5000   117.7280     7.8040     2.4100     0.1580     0.0060
