~VERSION INFORMATION
 VERS.                2.0:   CWLS LOG ASCII STANDARD - VERSION 2.0
 WRAP.                 NO:   ONE LINE PER DEPTH STEP
~WELL INFORMATION
#MNEM.UNIT      DATA TYPE    INFORMATION
#----------   ------------   ------------------------------
 STRT.F           27.0000:   START DEPTH
 STOP.F          538.0000:   STOP DEPTH
 STEP.F            0.5000:   STEP LENGTH
 NULL.          -999.2500:   NO VALUE
 COMP. FENIX & SCISSON INC:   COMPANY
 WELL.        NPR 3 #24-3:   WELL
 FLD .             TEAPOT:   FIELD
 LOC .       S3 T38N R78W:   LOCATION
 CNTY.            NATRONA:   COUNTY
 STAT.            WYOMING:   STATE
 CTRY. UNITED STATES OF AMERICA:   COUNTRY
 SRVC.            Unknown:   SERVICE COMPANY
 DATE.        26-SEP-1978:   LOGDATE
 API .       490251068800:   API NUMBER
~CURVE INFORMATION
#MNEM.UNIT       API CODE    CURVE DESCRIPTION
#----------   ------------   ------------------------------
 DEPT.F                  :   
 SPR .MV     05 010 01 00:   SPONTANEOUS POTENTIAL FROM RES.
 ILD .OHMM   05 120 46 00:   INDUCTION LOG DEEP
 SN  .OHMM   05 040 16 00:   SHORT NORMAL 16"
 CALD.IN     45 280 60 00:   CALIPER
 GRD .GAPI   45 310 01 00:   GAMMA RAY FROM DENSITY LOG
 DEN .G/C3   45 350 01 00:   COMPENSATED BULK DENSTIY
 DPHI.DEC    45 890 12 00:   DENSITY POROSITY SANDSTONE
 CORR.G/C3   45 356 01 00:   DENSITY CORRECTION
~PARAMETER INFORMATION
#MNEM.UNIT          VALUE    DESCRIPTION
#----------   ------------   ------------------------------
 PD  .                 GL:   PERMANENT DATUM
 EPD .F              5200:   ELEVATION PERMANENT DATUM
 LMF .                 KB:   LOG MEASURED FROM
 DAPD.F                 4:   FEET ABOVE PERMANENT DATUM
 DMF .                 KB:   DRILLING MEASURED FROM
 EKB .F              5204:   KELLING BUSHING
 EGL .F              5200:   GROUND LEVEL
 DATE.            9-26-78:   RUN DATE
 RUN .                  1:   RUN NUMBER
 DD  .F               537:   DEPTH DRILLER
 DL  .F               538:   DEPTH LOGGER
 BLI .F               532:   BOTTOM LOG INTERVAL
 TLI .F                40:   TOP LOG INTERVAL
 CS  .IN            8.625:   CASING SIZE
 CBD .F                40:   CASING BOTTOM DRILLER
 CBL .F                46:   CASING BOTTOM LOGGER
 BS  .IN            7.875:   BIT SIZE
 BSD .F               537:   BIT SIZE AT DEPTH
 DFT .                KCL:   DRILLING FLUID TYPE
 DFD .                8.7:   DRILLING FLUID DENSITY
 DFV .                 37:   DRILLING FLUID VISCOSITY
 DFPH.                  9:   DRILLING FLUID PH
 DFL .                 10:   DRILLING FLUID LOSS
 MSS .          FLOW LINE:   MUD SAMPLE SOURCE
 RMS .OHMM            .18:   RESISTIVITY MUD SAMPLE
 MST .F                72:   MUD SAMPLE TEMPERATURE
 RMF .OHMM            .16:   RESISTIVITY MUD FILTRATE SAMPLE
 MFST.F                76:   MUD FILTRATE SAMPLE TEMPERATURE
 RMC .OHMM            .26:   RESISTIVITY MUD CAKE
 MCST.F                76:   MUD CAKE SAMPLE TEMPERATURE
 MFSS.               MEAS:   MUD FILTRATE SAMPLE SOURCE
 RMB .OHMM            .18:   RESISTIVITY MUD AT BHT
 BHT .F                71:   BOTTOM HOLE TEMPERATURE
 TCS .HRS               3:   TIME CURCULATED STOPPED
 MRT .F                71:   MAXIMUM RECORDED TEMPERATURE
 LUN .               2958:   LOGGING UNIT NUMBER
 LUL .               CASP:   LOGGING UNIT LOCATION
 ENGI.           REYNOLDS:   RECORDING ENGINEER
 WITN.              AMEND:   WITNESSED BY
 CLNT.            A2DTECH:   CLIENT CODE
 ORIG.           5" PRINT:   ORIGIN OF DATA
 UWI .       490251068800:   UNIQUE WELL ID
 DICO. A2D Technologies, Inc.:   DIGITIZING COMPANY
~OTHER INFORMATION
~A   DEPT      SPR        ILD         SN       CALD         GRD       DEN       DPHI       CORR   
# ...
  351.0000   -45.5485    19.4062    12.5431     8.9692    83.0822     2.3795     0.1749     0.1530
  351.5000   -44.8707    19.9214    12.4455     8.9738    83.6401     2.3829     0.1699     0.1761
  352.0000   -45.1029    20.1926    12.3486     8.9777    88.1721     2.3968     0.1602     0.1924
  352.5000   -45.4111    19.6948    12.2526     8.9817    92.7741     2.4128     0.1498     0.1968
  353.0000   -45.4212    19.3262    12.1572     8.9858    95.1842     2.4269     0.1498     0.1991
  353.5000   -45.8301    18.9652    12.0626     8.9898    95.8283     2.4265     0.1498     0.1976
  354.0000   -46.3761    18.6110    11.9687     8.9879    96.0975     2.4266     0.1470     0.1895
  354.5000   -46.6159    18.2310    11.8755     8.9856    96.1004     2.4313     0.1441     0.1783
  355.0000   -46.6206    18.2370    11.7893     8.9833    96.1852     2.4363     0.1435     0.1613
  355.5000   -46.6207    18.3308    11.7168     8.9810    96.7365     2.4351     0.1492     0.1460
  356.0000   -46.6203    18.4659    11.6447     8.9787    96.7834     2.4260     0.1550     0.1424
  356.5000   -46.6203    18.6013    11.5730     8.9764    95.8689     2.4180     0.1502     0.1387
  357.0000   -46.6203    18.7476    11.5019     8.9741    95.5068     2.4179     0.1440     0.1257
  357.5000   -46.6203    18.3851    11.4311     8.9718    95.4993     2.4310     0.1402     0.1063
  358.0000   -46.6203    18.0023    11.3840     8.9696    95.4982     2.4376     0.1478     0.0865
  358.5000   -46.6203    17.9013    11.3840     8.9673    95.3166     2.4295     0.1541     0.0830
  359.0000   -46.6201    17.9372    11.3841     8.9650    94.5011     2.4198     0.1545     0.0840
  359.5000   -46.6206    18.2172    11.3840     8.9627    93.1963     2.4194     0.1535     0.0851
  360.0000   -46.6176    18.5008    11.3840     8.9604    92.7203     2.4194     0.1524     0.0820
  360.5000   -46.8191    18.7886    11.3840     8.9581    92.0334     2.4167     0.1547     0.0783
  361.0000   -47.1324    19.0807    11.3840     8.9558    89.7082     2.4101     0.1598     0.0746
  361.5000   -47.4500    19.3774    11.3840     8.9536    87.4179     2.4036     0.1642     0.0711
  362.0000   -47.7724    19.6787    11.3840     8.9511    85.5436     2.3970     0.1679     0.0710
  362.5000   -47.6183    19.9846    11.3840     8.9411    86.3606     2.3904     0.1714     0.0710
  363.0000   -47.3892    20.2953    11.3840     8.9208    87.2193     2.3863     0.1702     0.0710
  363.5000   -47.2412    20.4085    11.3840     8.9008    87.4995     2.3907     0.1677     0.0710
  364.0000   -47.3742    20.4557    11.3840     8.8806    87.5825     2.3947     0.1654     0.0711
  364.5000   -47.5008    20.5031    11.3841     8.8605    87.6653     2.3986     0.1643     0.0704
  365.0000   -47.6059    20.5624    11.3836     8.8404    88.0021     2.4016     0.1633     0.0585
  365.5000   -47.4607    20.4958    11.3653     8.8203    88.6402     2.4009     0.1646     0.0465
  366.0000   -47.3186    20.3774    11.3458     8.8002    89.2741     2.3960     0.1686     0.0413
  366.5000   -47.2963    20.2593    11.3264     8.7800    89.9181     2.3909     0.1698     0.0387
  367.0000   -47.6367    20.1544    11.3070     8.7600    90.0982     2.3895     0.1698     0.0362
  367.5000   -47.9614    20.0698    11.2883     8.7398    90.1013     2.3916     0.1686     0.0337
  368.0000   -48.2857    19.9856    11.2336     8.7194    90.0188     2.3939     0.1669     0.0312
  368.5000   -48.6100    19.9016    11.1122     8.6983    89.8597     2.3961     0.1652     0.0287
  369.0000   -48.9346    19.8161    10.9918     8.6773    89.7006     2.3984     0.1634     0.0258
  369.5000   -49.2611    19.5699    10.8701     8.6564    89.5344     2.3979     0.1641     0.0267
  370.0000   -49.5889    19.2574    10.8701     8.6350    89.5827     2.3950     0.1655     0.0289
  370.5000   -49.6540    18.9499    10.8701     8.6176    89.6933     2.3921     0.1670     0.0311
  371.0000   -49.7045    18.6473    10.8701     8.6008    89.8057     2.3961     0.1621     0.0329
  371.5000   -49.7568    18.4044    10.8701     8.5840    89.9177     2.4045     0.1547     0.0317
  372.0000   -49.8403    18.2649    10.8701     8.5671    90.0284     2.4129     0.1500     0.0305
  372.5000   -50.0913    18.1246    10.8701     8.5507    90.1010     2.4212     0.1474     0.0293
  373.0000   -50.3421    17.9853    10.8701     8.5374    90.0985     2.4256     0.1509     0.0281
  373.5000   -50.5924    17.8471    10.8701     8.5161    90.0933     2.4228     0.1538     0.0270
  374.0000   -50.8395    17.7100    10.8701     8.4946    90.1291     2.4200     0.1524     0.0258
  374.5000   -50.9408    17.5736    10.8701     8.4730    91.1811     2.4195     0.1514     0.0246
  375.0000   -50.7953    17.6119    10.8701     8.4513    92.3083     2.4195     0.1513     0.0235
  375.5000   -50.6492    17.6599    10.8701     8.4307    92.5449     2.4195     0.1517     0.0233
  376.0000   -50.7869    17.7080    10.8702     8.4258    90.7298     2.4193     0.1562     0.0238
  376.5000   -51.0929    17.7353    10.8702     8.4209    88.5426     2.4133     0.1616     0.0244
  377.0000   -51.3882    17.6969    10.8702     8.4159    87.2547     2.4070     0.1658     0.0249
  377.5000   -51.2532    17.6688    10.8665     8.4108    88.5056     2.4007     0.1658     0.0250
  378.0000   -51.2977    17.6407    10.8468     8.4058    89.9733     2.3964     0.1658     0.0250
  378.5000   -51.4557    17.6129    10.8275     8.4008    90.4950     2.3966     0.1648     0.0250
  379.0000   -51.6172    17.5863    10.8082     8.3957    90.9919     2.4000     0.1635     0.0250
  379.5000   -51.7786    17.4468    10.7889     8.3905    93.3444     2.4034     0.1623     0.0257
  380.0000   -51.9399    17.1467    10.7698     8.3966    95.6218     2.4045     0.1610     0.0267
  380.5000   -52.1028    16.8516    10.7392     8.4043    97.3349     2.4046     0.1594     0.0277
  381.0000   -52.2910    16.5617    10.7090     8.4121    97.0670     2.4069     0.1577     0.0287
  381.5000   -52.5140    16.2767    10.6788     8.4198    96.0201     2.4119     0.1559     0.0297
  382.0000   -52.7365    16.1716    10.6487     8.4276    95.1160     2.4166     0.1533     0.0307
  382.5000   -52.9562    16.1716    10.6187     8.4353    95.4469     2.4209     0.1499     0.0317
  383.0000   -52.9751    16.1716    10.5888     8.4431    96.0966     2.4252     0.1480     0.0327
  383.5000   -53.2383    15.8997    10.5589     8.4508    96.1005     2.4260     0.1477     0.0315
  384.0000   -53.5233    15.4794    10.5292     8.4585    96.1148     2.4265     0.1470     0.0293
  384.5000   -53.7745    15.0701    10.4995     8.4663    95.9777     2.4314     0.1433     0.0271
  385.0000   -54.2976    14.6716    10.4699     8.4740    96.2943     2.4369     0.1396     0.0272
  385.5000   -55.0373    14.6090    10.4404     8.4818    96.5037     2.4392     0.1398     0.0275
  386.0000   -55.0701    14.4673    10.4110     8.4896    96.4995     2.4371     0.1413     0.0277
  386.5000   -54.8375    14.3009    10.3816     8.4855    96.5001     2.4350     0.1429     0.0280
  387.0000   -54.5865    14.1361    10.3524     8.4805    96.4997     2.4329     0.1446     0.0282
  387.5000   -54.3960    13.9748    10.3232     8.4756    96.5004     2.4315     0.1446     0.0284
  388.0000   -54.6021    13.7884    10.2941     8.4707    96.4973     2.4320     0.1440     0.0287
  388.5000   -54.8043    13.6026    10.2700     8.4658    96.8455     2.4352     0.1425     0.0290
  389.0000   -55.0041    13.4187    10.2483     8.4609    97.4586     2.4384     0.1409     0.0290
  389.5000   -55.1488    13.3199    10.2268     8.4559    98.0769     2.4385     0.1384     0.0271
  390.0000   -54.9900    13.3197    10.2052     8.4507    98.6791     2.4387     0.1355     0.0250
  390.5000   -54.8324    13.3207    10.1799     8.4624    98.7059     2.4464     0.1343     0.0252
  391.0000   -54.9089    13.3209    10.1419     8.4783    98.7163     2.4514     0.1373     0.0254
