~VERSION INFORMATION
 VERS.                2.0:   CWLS LOG ASCII STANDARD - VERSION 2.0
 WRAP.                 NO:   ONE LINE PER DEPTH STEP
~WELL INFORMATION
#MNEM.UNIT      DATA TYPE    INFORMATION
#----------   ------------   ------------------------------
 STRT.F           27.0000:   START DEPTH
 STOP.F          992.0000:   STOP DEPTH
 STEP.F            0.5000:   STEP LENGTH
 NULL.          -999.2500:   NO VALUE
 COMP. FENIX & SCISSON INC:   COMPANY
 WELL. NPR 3  77- S -27 #77-27:   WELL
 FLD .             TEAPOT:   FIELD
 LOC .      S27 T39N R78W:   LOCATION
 CNTY.            NATRONA:   COUNTY
 STAT.            WYOMING:   STATE
 CTRY. UNITED STATES OF AMERICA:   COUNTRY
 SRVC.            Unknown:   SERVICE COMPANY
 DATE.        09-SEP-1978:   LOGDATE
 API .       490251069700:   API NUMBER
~CURVE INFORMATION
#MNEM.UNIT       API CODE    CURVE DESCRIPTION
#----------   ------------   ------------------------------
 DEPT.F                  :   
 SPR .MV     05 010 01 00:   SPONTANEOUS POTENTIAL FROM RES.
 SN  .OHMM   05 040 16 00:   SHORT NORMAL 16"
 ILD .OHMM   05 120 46 00:   INDUCTION LOG DEEP
 CALD.IN     45 280 60 00:   CALIPER
 GRD .GAPI   45 310 01 00:   GAMMA RAY FROM DENSITY LOG
 RHOB.G/C3   45 350 01 00:   BULK DENSITY
 CORR.G/C3   45 356 01 00:   DENSITY CORRECTION
 DPHI.DEC    45 890 12 00:   DENSITY POROSITY SANDSTONE
~PARAMETER INFORMATION
#MNEM.UNIT          VALUE    DESCRIPTION
#----------   ------------   ------------------------------
 PD  .                 GL:   PERMANENT DATUM
 EPD .F              5069:   ELEVATION PERMANENT DATUM
 LMF .                 KB:   LOG MEASURED FROM
 DAPD.F                 4:   FEET ABOVE PERMANENT DATUM
 DMF .                 KB:   DRILLING MEASURED FROM
 EKB .F              5073:   KELLING BUSHING
 EGL .F              5069:   GROUND LEVEL
 DATE.           9-9-1978:   RUN DATE
 RUN .                  1:   RUN NUMBER
 DD  .F               990:   DEPTH DRILLER
 DL  .F               998:   DEPTH LOGGER
 BLI .F               992:   BOTTOM LOG INTERVAL
 TLI .F                50:   TOP LOG INTERVAL
 CS  .IN            8.625:   CASING SIZE
 CBD .F                40:   CASING BOTTOM DRILLER
 BS  .IN            7.875:   BIT SIZE
 BSD .F               990:   BIT SIZE AT DEPTH
 DFT .                KCL:   DRILLING FLUID TYPE
 DFD .                8.7:   DRILLING FLUID DENSITY
 DFV .                 34:   DRILLING FLUID VISCOSITY
 DFPH.                  9:   DRILLING FLUID PH
 DFL .                  8:   DRILLING FLUID LOSS
 MSS .          FLOW LINE:   MUD SAMPLE SOURCE
 RMS .OHMM             .4:   RESISTIVITY MUD SAMPLE
 MST .F                79:   MUD SAMPLE TEMPERATURE
 RMF .OHMM            .12:   RESISTIVITY MUD FILTRATE SAMPLE
 MFST.F                84:   MUD FILTRATE SAMPLE TEMPERATURE
 RMC .OHMM            .34:   RESISTIVITY MUD CAKE
 MCST.F                84:   MUD CAKE SAMPLE TEMPERATURE
 MFSS.               MEAS:   MUD FILTRATE SAMPLE SOURCE
 MCSS.               MEAS:   MUD CAKE SAMPLE SOURCE
 TCS .HRS               3:   TIME CURCULATED STOPPED
 LUN .               2958:   LOGGING UNIT NUMBER
 LUL .               CASP:   LOGGING UNIT LOCATION
 ENGI.             MILLER:   RECORDING ENGINEER
 WITN.              AMEND:   WITNESSED BY
 CLNT.            A2DTECH:   CLIENT CODE
 ORIG.           5" PRINT:   ORIGIN OF DATA
 UWI .       490251069700:   UNIQUE WELL ID
 DICO. A2D Technologies, Inc.:   DIGITIZING COMPANY
~OTHER INFORMATION
~A   DEPT      SPR         SN        ILD       CALD        GRD       RHOB       CORR       DPHI   
# ...
  715.5000   -55.4829     6.4624     6.1907     7.6902   133.5914     2.5074     0.0122     0.1018
  716.0000   -55.5147     6.4466     6.1867     7.6967   131.6843     2.5028     0.0110     0.1044
  716.5000   -55.5465     6.4310     6.1826     7.6652   130.2166     2.4981     0.0098     0.1070
  717.0000   -55.5783     6.4162     6.1795     7.6290   130.6699     2.4934     0.0099     0.1088
  717.5000   -55.6101     6.2973     6.1806     7.5926   131.6011     2.4908     0.0150     0.0981
  718.0000   -55.6420     6.1639     5.9888     7.5554   131.0983     2.4989     0.0303     0.0912
  718.5000   -55.6738     6.0570     5.8826     7.4642   130.5430     2.5077     0.0435     0.0992
  719.0000   -55.7056     6.0167     5.7783     7.3529   130.2889     2.5160     0.0402     0.1082
  719.5000   -55.7374     5.9783     5.6758     7.3551   130.0987     2.5064     0.0370     0.1152
  720.0000   -55.7692     5.8833     5.5752     7.3833   129.9105     2.4924     0.0353     0.1089
  720.5000   -55.8010     5.7401     5.4763     7.5485   129.7198     2.4817     0.0438     0.0992
  721.0000   -55.8328     5.5995     5.3793     7.5530   129.6643     2.4955     0.0736     0.0899
  721.5000   -55.8646     5.4623     5.2439     7.5488   129.7041     2.5096     0.0963     0.0897
  722.0000   -55.8965     5.3285     5.0770     7.5453   129.7446     2.5193     0.0900     0.1173
  722.5000   -55.9283     5.1979     4.9153     7.5421   129.7851     2.4944     0.0533     0.1252
  723.0000   -55.9595     4.9956     4.7588     7.5397   129.8362     2.4691     0.0455     0.1264
  723.5000   -55.9860     4.7440     4.6029     7.5328   130.3335     2.4624     0.0446     0.1303
  724.0000   -56.0110     4.3678     4.1325     7.3280   131.9219     2.4588     0.0439     0.1358
  724.5000   -56.0361     3.9850     3.6979     7.2743   133.4907     2.4526     0.0411     0.1501
  725.0000   -56.0611     3.6357     3.3090     7.2689   135.0658     2.4346     0.0352     0.1644
  725.5000   -56.0862     3.3170     2.9610     7.2656   136.1054     2.4113     0.0293     0.1812
  726.0000   -56.1113     3.0263     2.6496     7.2619   136.2518     2.3746     0.0237     0.2084
  726.5000   -56.1368     2.7610     2.3708     7.2580   136.2538     2.3381     0.0233     0.2356
  727.0000   -56.1612     2.5190     2.0831     7.2547   136.2528     2.3018     0.0255     0.2549
  727.5000   -56.1143     2.4156     2.0985     7.2548   136.2525     2.2652     0.0296     0.2683
  728.0000   -56.0616     2.3935     2.1294     7.2735   136.2525     2.2278     0.0356     0.2719
  728.5000   -56.0092     2.4156     2.1609     7.3596   136.2529     2.2201     0.0415     0.2342
  729.0000   -55.9592     2.5063     2.1929     7.4599   136.2540     2.2591     0.0432     0.2017
  729.5000   -55.7000     2.7786     2.3512     7.5590   136.2513     2.3119     0.0365     0.1694
  730.0000   -54.9657     3.0911     2.6889     7.3676   136.1204     2.3646     0.0299     0.1401
  730.5000   -54.3454     3.4388     3.0749     8.0717   135.5409     2.4138     0.0229     0.1297
  731.0000   -54.2805     3.8256     3.5165     7.4900   131.2180     2.4339     0.0200     0.1192
  731.5000   -54.2051     4.2459     4.0214     7.5596   126.2806     2.4548     0.0196     0.1080
  732.0000   -54.1281     4.6382     4.6029     7.5687   123.5406     2.4754     0.0175     0.1073
  732.5000   -54.0507     5.0937     4.9548     7.5752   127.3850     2.4921     0.0181     0.1080
  733.0000   -53.9773     5.2848     5.0470     7.5299   132.4042     2.4937     0.0194     0.1082
  733.5000   -53.9613     5.3337     5.0470     7.4725   137.4071     2.4937     0.0206     0.1075
  734.0000   -53.9474     5.3292     5.0581     7.4348   141.0585     2.4931     0.0218     0.1069
  734.5000   -53.9334     5.3233     5.0696     7.4612   140.0083     2.4926     0.0231     0.1077
  735.0000   -53.9193     5.3174     5.0811     7.4887   136.9198     2.4920     0.0243     0.1080
  735.5000   -53.9052     5.3115     5.0926     7.5164   134.4265     2.4922     0.0253     0.1066
  736.0000   -53.8911     5.3056     5.1042     7.5575   135.6337     2.4958     0.0273     0.1051
  736.5000   -53.8770     5.2997     5.1157     7.6281   137.2507     2.4994     0.0252     0.1044
  737.0000   -53.8629     5.2939     5.1274     7.6986   138.8809     2.5021     0.0230     0.1061
  737.5000   -53.8487     5.2880     5.1391     7.7682   140.4719     2.5000     0.0209     0.1077
  738.0000   -53.8346     5.2848     5.1408     7.7758   141.4256     2.4932     0.0187     0.1093
  738.5000   -53.8205     5.2364     5.0470     7.7757   140.8176     2.4877     0.0166     0.1109
  739.0000   -53.8062     5.0822     4.7721     7.7756   140.2786     2.4871     0.0144     0.1162
  739.5000   -53.7911     4.8658     4.5131     7.7755   140.4268     2.4870     0.0123     0.1257
  740.0000   -53.7810     4.6586     4.2681     7.7755   140.3617     2.4788     0.0101     0.1399
  740.5000   -53.9747     4.4602     4.0364     7.7755   138.1568     2.4529     0.0080     0.1540
  741.0000   -54.1870     4.2703     3.8172     7.7755   135.9464     2.4273     0.0058     0.1682
  741.5000   -54.3979     4.0885     3.6856     7.7755   133.8690     2.4016     0.0037     0.1795
  742.0000   -54.5717     3.9722     3.5870     7.7755   134.0520     2.3768     0.0016     0.1803
  742.5000   -54.5314     4.0089     3.5240     7.7755   136.0095     2.3758     0.0009     0.1352
  743.0000   -54.4949     4.0728     3.5566     7.7755   138.1674     2.4045     0.0004     0.1311
  743.5000   -54.4594     4.2456     3.6576     7.7755   140.1114     2.4344    -0.0002     0.1269
  744.0000   -54.4228     4.4262     3.8725     7.7755   143.6707     2.4606    -0.0007     0.1244
  744.5000   -54.3915     4.6147     4.1000     7.7755   145.0289     2.4649    -0.0013     0.1232
  745.0000   -54.0393     4.7957     4.3409     7.7755   142.5488     2.4667    -0.0018     0.1220
  745.5000   -53.5078     4.9607     4.5959     7.7755   138.5652     2.4694    -0.0024     0.1188
  746.0000   -52.9455     5.1313     4.7710     7.7755   134.6274     2.4726    -0.0029     0.1151
  746.5000   -51.7693     5.3079     4.9302     7.7755   132.3495     2.4773    -0.0035     0.1113
  747.0000   -51.4748     5.4905     5.0948     7.7755   134.7901     2.4819    -0.0040     0.1100
  747.5000   -51.3383     5.6794     5.2648     7.7755   136.1759     2.4869    -0.0045     0.1096
  748.0000   -51.2050     5.8753     5.4405     7.7755   136.6971     2.4878    -0.0045     0.1092
  748.5000   -51.0699     5.9349     5.6221     7.7755   138.8411     2.4880    -0.0045     0.1077
  749.0000   -50.9344     5.9727     5.7947     7.7755   141.2732     2.4899    -0.0045     0.1058
  749.5000   -50.7994     6.0105     5.7947     7.7755   142.0856     2.4973    -0.0045     0.1038
  750.0000   -50.6637     6.0487     5.7416     7.7755   141.3276     2.5041    -0.0045     0.1056
  750.5000   -50.5822     6.0678     5.7416     7.7755   140.2810     2.4979    -0.0045     0.1134
  751.0000   -50.5502     6.0195     5.6889     7.7755   139.2333     2.4857    -0.0045     0.1212
  751.5000   -50.5193     5.9258     5.6338     7.7755   138.1908     2.4736    -0.0009     0.1246
  752.0000   -50.4886     5.8334     5.5852     7.7755   137.6692     2.4640     0.0122     0.1174
  752.5000   -50.4579     5.7425     5.4318     7.7755   137.3616     2.4689     0.0296     0.1012
  753.0000   -50.4271     5.6530     5.3291     7.7755   135.4846     2.4891     0.0468     0.1014
  753.5000   -50.3963     5.5649     5.2198     7.7755   133.7978     2.5089     0.0396     0.1026
  754.0000   -50.3656     5.4782     5.1127     7.7755   135.1075     2.5085     0.0234     0.1038
  754.5000   -50.3348     5.3928     5.0079     7.7755   137.1741     2.4976     0.0138     0.1050
  755.0000   -50.3040     5.3088     4.9051     7.7755   138.5117     2.4954     0.0136     0.1063
  755.5000   -50.2733     5.2261     4.8045     7.7755   137.0819     2.4951     0.0154     0.1075
