~VERSION INFORMATION
 VERS.                2.0:   CWLS LOG ASCII STANDARD - VERSION 2.0
 WRAP.                 NO:   ONE LINE PER DEPTH STEP
~WELL INFORMATION
#MNEM.UNIT      DATA TYPE    INFORMATION
#----------   ------------   ------------------------------
 STRT.F          432.0000:   START DEPTH
 STOP.F         1258.0000:   STOP DEPTH
 STEP.F            0.5000:   STEP LENGTH
 NULL.          -999.2500:   NO VALUE
 COMP. FENIX & SCISSON INC:   COMPANY
 WELL.   12 SHX 34 #12-34:   WELL
 FLD .            WILDCAT:   FIELD
 LOC .      S34 T39N R78W:   LOCATION
 CNTY.            NATRONA:   COUNTY
 STAT.            WYOMING:   STATE
 CTRY. UNITED STATES OF AMERICA:   COUNTRY
 SRVC.              Welex:   SERVICE COMPANY
 DATE.        23-APR-1979:   LOGDATE
 API .       490251078200:   API NUMBER
~CURVE INFORMATION
#MNEM.UNIT       API CODE    CURVE DESCRIPTION
#----------   ------------   ------------------------------
 DEPT.F                  :   
 CALD.IN     45 280 60 00:   CALIPER
 GRD .GAPI   45 310 01 00:   GAMMA RAY FROM DENSITY LOG
 RHOB.G/C3   45 350 01 00:   BULK DENSITY
 DPHI.DEC    45 890 12 00:   DENSITY POROSITY SANDSTONE
 CORR.G/C3   45 356 01 00:   DENSITY CORRECTION
~PARAMETER INFORMATION
#MNEM.UNIT          VALUE    DESCRIPTION
#----------   ------------   ------------------------------
 PD  .                 GL:   PERMANENT DATUM
 EPD .F              5092:   ELEVATION PERMANENT DATUM
 LMF .                 KB:   LOG MEASURED FROM
 DAPD.F                10:   FEET ABOVE PERMANENT DATUM
 DMF .                 KB:   DRILLING MEASURED FROM
 EKB .F              5102:   KELLING BUSHING
 EGL .F              5092:   GROUND LEVEL
 DATE.            4-23-79:   RUN DATE
 RUN .                  1:   RUN NUMBER
 DD  .F              1260:   DEPTH DRILLER
 DL  .F              1260:   DEPTH LOGGER
 BLI .F              1258:   BOTTOM LOG INTERVAL
 TLI .F               446:   TOP LOG INTERVAL
 CS  .IN            9.625:   CASING SIZE
 CBD .F               440:   CASING BOTTOM DRILLER
 BS  .IN            8.375:   BIT SIZE
 BSD .F              1260:   BIT SIZE AT DEPTH
 DFT .                OIL:   DRILLING FLUID TYPE
 DFD .                8.7:   DRILLING FLUID DENSITY
 TCS .HRS               1:   TIME CURCULATED STOPPED
 ENGI.               REIN:   RECORDING ENGINEER
 WITN.              AMEND:   WITNESSED BY
 CLNT.            A2DTECH:   CLIENT CODE
 ORIG.           5" PRINT:   ORIGIN OF DATA
 UWI .       490251078200:   UNIQUE WELL ID
 DICO. A2D Technologies, Inc.:   DIGITIZING COMPANY
~OTHER INFORMATION
~A   DEPT     CALD         GRD      RHOB       DPHI       CORR   
# ...
  554.0000     8.6285    90.4947     2.5146     0.0225     0.0379
  554.5000     8.6299    91.9342     2.5300     0.0180     0.0406
  555.0000     8.6313    90.1287     2.5462     0.0089     0.0458
  555.5000     8.6326    85.9383     2.5625    -0.0002     0.0595
  556.0000     8.6340    81.7812     2.5679    -0.0081     0.0697
  556.5000     8.6354    77.5989     2.5586    -0.0030     0.0602
  557.0000     8.6368    75.2863     2.5467     0.0036     0.0501
  557.5000     8.6382    75.7091     2.5349     0.0103     0.0401
  558.0000     8.6396    76.7272     2.5230     0.0169     0.0300
  558.5000     8.6409    77.7359     2.5111     0.0235     0.0191
  559.0000     8.6423    79.5473     2.4998     0.0302     0.0150
  559.5000     8.6437    82.0802     2.4950     0.0334     0.0131
  560.0000     8.6451    84.6100     2.4892     0.0356     0.0110
  560.5000     8.6465    86.9695     2.4841     0.0378     0.0112
  561.0000     8.6479    85.7143     2.4853     0.0400     0.0147
  561.5000     8.6492    83.8512     2.4866     0.0415     0.0172
  562.0000     8.6506    82.5827     2.4866     0.0395     0.0155
  562.5000     8.6520    82.6217     2.4775     0.0415     0.0094
  563.0000     8.6534    83.7063     2.4755     0.0443     0.0050
  563.5000     8.6548    86.3796     2.4879     0.0454     0.0037
  564.0000     8.6562    89.0053     2.4976     0.0451     0.0175
  564.5000     8.6575    91.1168     2.5078     0.0377     0.0314
  565.0000     8.6589    90.5482     2.5169     0.0297     0.0387
  565.5000     8.6603    90.4491     2.5183     0.0217     0.0393
  566.0000     8.6617    91.8156     2.5136     0.0201     0.0372
  566.5000     8.6631    90.7955     2.5090     0.0243     0.0403
  567.0000     8.6645    91.5051     2.5045     0.0286     0.0455
  567.5000     8.6658    90.1573     2.5000     0.0339     0.0453
  568.0000     8.6672    86.8960     2.4995     0.0386     0.0441
  568.5000     8.6686    84.3536     2.5063     0.0299     0.0483
  569.0000     8.6700    85.8851     2.5130     0.0217     0.0525
  569.5000     8.6714    85.8745     2.5198     0.0195     0.0567
  570.0000     8.6728    84.1003     2.5265     0.0181     0.0588
  570.5000     8.6741    85.6929     2.5269     0.0183     0.0536
  571.0000     8.6755    86.6777     2.5176     0.0219     0.0483
  571.5000     8.6769    85.1609     2.5108     0.0253     0.0431
  572.0000     8.6783    84.7851     2.5183     0.0173     0.0377
  572.5000     8.6797    88.0514     2.5272     0.0163     0.0377
  573.0000     8.6756    86.4250     2.5333     0.0156     0.0382
  573.5000     8.6670    84.2264     2.5319     0.0156     0.0386
  574.0000     8.6584    87.2921     2.5240     0.0174     0.0390
  574.5000     8.6497    90.6444     2.5163     0.0204     0.0398
  575.0000     8.6410    91.1780     2.5085     0.0234     0.0395
  575.5000     8.6324    89.0582     2.5008     0.0286     0.0318
  576.0000     8.6235    87.0086     2.4931     0.0340     0.0244
  576.5000     8.6218    84.9698     2.4853     0.0394     0.0170
  577.0000     8.6211    82.9249     2.4795     0.0439     0.0096
  577.5000     8.6203    80.8802     2.4781     0.0451     0.0029
  578.0000     8.6195    79.8946     2.4779     0.0441     0.0034
  578.5000     8.6187    83.3710     2.4797     0.0420     0.0037
  579.0000     8.6178    87.9489     2.4853     0.0399     0.0041
  579.5000     8.6170    89.8684     2.4908     0.0378     0.0044
  580.0000     8.6161    85.9937     2.4911     0.0378     0.0047
  580.5000     8.6153    91.0844     2.4843     0.0411     0.0050
  581.0000     8.6145    87.9430     2.4777     0.0443     0.0053
  581.5000     8.6136    89.8249     2.4708     0.0476     0.0056
  582.0000     8.6128    91.2865     2.4700     0.0483     0.0060
  582.5000     8.6120    88.7315     2.4756     0.0479     0.0063
  583.0000     8.6111    89.6090     2.4807     0.0474     0.0066
  583.5000     8.6103    92.4034     2.4750     0.0469     0.0069
  584.0000     8.6095    95.5080     2.4646     0.0465     0.0060
  584.5000     8.6086    97.5865     2.4683     0.0472     0.0029
  585.0000     8.6078    97.7997     2.4719     0.0479    -0.0003
  585.5000     8.6070    99.2659     2.4756     0.0483    -0.0033
  586.0000     8.6061   101.7430     2.4789     0.0481    -0.0012
  586.5000     8.6053    98.9967     2.4791     0.0477     0.0072
  587.0000     8.6045    94.4638     2.4698     0.0475     0.0072
  587.5000     8.6036    90.2604     2.4574     0.0519     0.0037
  588.0000     8.6028    87.8433     2.4525     0.0576     0.0009
  588.5000     8.6023    86.8996     2.4643     0.0592     0.0015
  589.0000     8.6023    87.8376     2.4780     0.0456     0.0127
  589.5000     8.6023    88.2521     2.4918     0.0362     0.0238
  590.0000     8.6023    86.7341     2.5056     0.0269     0.0347
  590.5000     8.6023    85.8249     2.5198     0.0173     0.0413
  591.0000     8.6023    86.4863     2.5118     0.0201     0.0371
  591.5000     8.6023    87.9440     2.5122     0.0241     0.0333
  592.0000     8.6023    88.5561     2.5213     0.0245     0.0343
  592.5000     8.6023    84.7577     2.5305     0.0136     0.0364
  593.0000     8.6023    86.2624     2.5292     0.0141     0.0385
  593.5000     8.6023    88.4182     2.5229     0.0163     0.0406
  594.0000     8.6023    90.5542     2.5169     0.0185     0.0404
  594.5000     8.6023    92.6940     2.5161     0.0193     0.0386
  595.0000     8.6023    92.5219     2.5212     0.0193     0.0379
  595.5000     8.6023    90.3025     2.5279     0.0179     0.0425
  596.0000     8.6024    88.0551     2.5345     0.0141     0.0417
  596.5000     8.6022    85.8051     2.5369     0.0112     0.0375
  597.0000     8.6112    83.5362     2.5248     0.0151     0.0337
  597.5000     8.6244    81.2595     2.5132     0.0215     0.0300
  598.0000     8.6377    80.8072     2.5015     0.0280     0.0262
  598.5000     8.6510    81.5832     2.4899     0.0345     0.0224
  599.0000     8.6643    82.8516     2.4799     0.0391     0.0187
  599.5000     8.6776    84.1327     2.4798     0.0419     0.0151
  600.0000     8.6907    85.3587     2.4853     0.0417     0.0179
  600.5000     8.7000    86.1193     2.4931     0.0411     0.0219
  601.0000     8.6936    86.1163     2.5011     0.0390     0.0259
  601.5000     8.6827    86.6672     2.5090     0.0318     0.0300
  602.0000     8.6716    88.0843     2.5169     0.0245     0.0340
  602.5000     8.6606    89.5162     2.5245     0.0181     0.0380
  603.0000     8.6495    89.4268     2.5178     0.0172     0.0412
  603.5000     8.6385    88.7600     2.5074     0.0233     0.0349
  604.0000     8.6275    89.9878     2.4968     0.0316     0.0278
  604.5000     8.6164    93.5347     2.4955     0.0379     0.0214
  605.0000     8.6054    91.9937     2.5036     0.0318     0.0251
  605.5000     8.5943    90.5443     2.5127     0.0259     0.0290
  606.0000     8.5833    91.5363     2.5218     0.0200     0.0329
  606.5000     8.5843    92.7011     2.5293     0.0148     0.0353
  607.0000     8.5859    93.0564     2.5303     0.0162     0.0328
  607.5000     8.5875    91.1561     2.5304     0.0195     0.0287
  608.0000     8.5891    89.2138     2.5217     0.0229     0.0246
  608.5000     8.5907    87.4550     2.5118     0.0262     0.0205
  609.0000     8.5923    90.6713     2.5035     0.0294     0.0170
  609.5000     8.5938    94.7384     2.5092     0.0294     0.0172
  610.0000     8.5954    97.2498     2.5185     0.0245     0.0180
  610.5000     8.5970    94.2143     2.5276     0.0200     0.0188
  611.0000     8.5986    91.3402     2.5321     0.0152     0.0196
  611.5000     8.6002    88.4505     2.5194     0.0152     0.0204
  612.0000     8.6017    87.2686     2.5089     0.0225     0.0210
  612.5000     8.6013    88.0923     2.4984     0.0298     0.0168
  613.0000     8.5990    89.6167     2.4880     0.0372     0.0123
  613.5000     8.5967    91.4686     2.4907     0.0396     0.0129
  614.0000     8.5943    93.3237     2.5058     0.0339     0.0163
  614.5000     8.5920    95.1818     2.5145     0.0261     0.0192
