~VERSION INFORMATION
 VERS.                2.0:   CWLS LOG ASCII STANDARD - VERSION 2.0
 WRAP.                 NO:   ONE LINE PER DEPTH STEP
~WELL INFORMATION
#MNEM.UNIT      DATA TYPE    INFORMATION
#----------   ------------   ------------------------------
 STRT.F           33.5000:   START DEPTH
 STOP.F          692.0000:   STOP DEPTH
 STEP.F            0.5000:   STEP LENGTH
 NULL.          -999.2500:   NO VALUE
 COMP. FENIX & SCISSON INC:   COMPANY
 WELL.       NPR-3 #65-34:   WELL
 FLD .  TEAPOT DOME NPR-3:   FIELD
 LOC .      S34 T39N R78W:   LOCATION
 CNTY.            NATRONA:   COUNTY
 STAT.            WYOMING:   STATE
 CTRY. UNITED STATES OF AMERICA:   COUNTRY
 SRVC.           BIRDWELL:   SERVICE COMPANY
 DATE.        14-AUG-1978:   LOGDATE
 API .       490251070400:   API NUMBER
~CURVE INFORMATION
#MNEM.UNIT       API CODE    CURVE DESCRIPTION
#----------   ------------   ------------------------------
 DEPT.F                  :   
 CALD.IN     45 280 60 00:   CALIPER
 GRD .GAPI   45 310 01 00:   GAMMA RAY FROM DENSITY LOG
 RHOB.G/C3   45 350 01 00:   BULK DENSITY
 CORR.G/C3   45 356 01 00:   DENSITY CORRECTION
 DPHI.DEC    45 890 12 00:   DENSITY POROSITY SANDSTONE
 SPR .MV     05 010 01 00:   SPONTANEOUS POTENTIAL
 SN  .OHMM   05 040 16 00:   SHORT NORMAL 16'
 ILD .OHMM   05 120 46 00:   INDUCTION LOG DEEP RESISTIVITY
~PARAMETER INFORMATION
#MNEM.UNIT          VALUE    DESCRIPTION
#----------   ------------   ------------------------------
 PD  .                 GL:   PERMANENT DATUM
 EPD .F              5083:   ELEVATION PERMANENT DATUM
 LMF .                 KB:   LOG MEASURED FROM
 DAPD.F                 4:   FEET ABOVE PERMANENT DATUM
 DMF .                 KB:   DRILLING MEASURED FROM
 EKB .F              5087:   KELLING BUSHING
 EGL .F              5083:   GROUND LEVEL
 DATE.            8-14-78:   RUN DATE
 RUN .                  1:   RUN NUMBER
 DD  .F               675:   DEPTH DRILLER
 DL  .F               682:   DEPTH LOGGER
 BLI .F               676:   BOTTOM LOG INTERVAL
 TLI .F                50:   TOP LOG INTERVAL
 CS  .IN            8.625:   CASING SIZE
 CBD .F                40:   CASING BOTTOM DRILLER
 BS  .IN            7.875:   BIT SIZE
 BSD .F               675:   BIT SIZE AT DEPTH
 DFT .                KCL:   DRILLING FLUID TYPE
 DFD .                8.7:   DRILLING FLUID DENSITY
 DFV .                 31:   DRILLING FLUID VISCOSITY
 DFPH.                  9:   DRILLING FLUID PH
 TCS .HRS               2:   TIME CURCULATED STOPPED
 LUN .               3006:   LOGGING UNIT NUMBER
 LUL .               CASP:   LOGGING UNIT LOCATION
 ENGI.             MILLER:   RECORDING ENGINEER
 WITN.           MCGINLEY:   WITNESSED BY
 CLNT.            A2DTECH:   CLIENT CODE
 ORIG.           5" PRINT:   ORIGIN OF DATA
 UWI .       490251070400:   UNIQUE WELL ID
 DICO. A2D Technologies, Inc.:   DIGITIZING COMPANY
~OTHER INFORMATION
~A   DEPT     CALD         GRD      RHOB       CORR       DPHI        SPR         SN        ILD   
# ...
  357.5000     8.1044    91.4059     2.4625     0.0378     0.1289   -21.3151     6.1100     6.7277
  358.0000     8.1002    87.7134     2.4646     0.0399     0.1282   -21.3063     6.0981     6.7238
  358.5000     8.0960    83.7789     2.4655     0.0419     0.1299   -21.2974     6.0851     6.7198
  359.0000     8.0869    80.4385     2.4657     0.0429     0.1291   -21.2887     6.0681     6.7158
  359.5000     8.0745    80.3723     2.4661     0.0439     0.1252   -21.2802     6.0512     6.7118
  360.0000     8.0619    82.9221     2.4701     0.0431     0.1230   -21.2707     6.0343     6.7078
  360.5000     8.0494    82.9995     2.4735     0.0419     0.1222   -21.1813     6.0175     6.7038
  361.0000     8.0369    82.5294     2.4727     0.0407     0.1234   -21.0821     6.0006     6.6999
  361.5000     8.0244    82.0341     2.4699     0.0395     0.1285   -20.9829     5.9840     6.6959
  362.0000     8.0119    81.6294     2.4657     0.0384     0.1285   -20.8829     5.9778     6.6919
  362.5000     7.9994    80.0549     2.4640     0.0359     0.1321   -20.8611     5.9822     6.6879
  363.0000     7.9869    78.1790     2.4565     0.0327     0.1392   -20.8542     5.9853     6.6840
  363.5000     7.9744    76.2140     2.4494     0.0295     0.1405   -20.8476     5.9884     6.6800
  364.0000     7.9620    79.0104     2.4492     0.0278     0.1395   -20.8408     5.9915     6.6753
  364.5000     7.9549    83.5435     2.4513     0.0275     0.1333   -20.8340     5.9946     6.6663
  365.0000     7.9584    83.7011     2.4535     0.0272     0.1359   -20.8271     5.9977     6.6573
  365.5000     7.9616    83.9718     2.4531     0.0270     0.1365   -20.8203     6.0008     6.6482
  366.0000     7.9649    84.7453     2.4528     0.0267     0.1365   -20.8135     6.0039     6.6392
  366.5000     7.9682    87.7318     2.4525     0.0264     0.1381   -20.8067     6.0070     6.6302
  367.0000     7.9715    89.2610     2.4521     0.0261     0.1381   -20.7998     6.0101     6.6212
  367.5000     7.9748    88.5623     2.4518     0.0271     0.1375   -20.7930     6.0132     6.6154
  368.0000     7.9781    86.5929     2.4542     0.0324     0.1341   -20.7862     6.0163     6.6153
  368.5000     7.9814    85.9598     2.4597     0.0377     0.1288   -20.7793     6.0194     6.6153
  369.0000     7.9846    86.7656     2.4650     0.0396     0.1266   -20.7725     6.0225     6.6153
  369.5000     7.9879    88.6400     2.4667     0.0373     0.1282   -20.7657     6.0256     6.6153
  370.0000     7.9913    89.4453     2.4611     0.0326     0.1327   -20.7588     6.0287     6.6153
  370.5000     7.9930    89.0559     2.4557     0.0281     0.1337   -20.7520     6.0323     6.6153
  371.0000     7.9852    88.8098     2.4548     0.0282     0.1345   -20.7452     6.0300     6.6153
  371.5000     7.9776    91.3359     2.4541     0.0286     0.1361   -20.7383     6.0265     6.6153
  372.0000     7.9699    90.1667     2.4536     0.0289     0.1356   -20.7315     6.0229     6.6153
  372.5000     7.9623    88.5692     2.4536     0.0293     0.1349   -20.7247     6.0193     6.6153
  373.0000     7.9546    86.9894     2.4536     0.0296     0.1364   -20.7178     6.0157     6.6153
  373.5000     7.9471    85.7368     2.4536     0.0298     0.1373   -20.7110     6.0122     6.6153
  374.0000     7.9394    84.9763     2.4589     0.0369     0.1249   -20.7042     6.0086     6.6153
  374.5000     7.9277    83.6562     2.4712     0.0462     0.1249   -20.6974     6.0050     6.6153
  375.0000     7.9013    81.7362     2.4713     0.0535     0.1261   -20.6905     6.0015     6.6153
  375.5000     7.8759    80.3124     2.4708     0.0525     0.1269   -20.6837     5.9979     6.6153
  376.0000     7.8504    80.2022     2.4711     0.0575     0.1216   -20.6769     5.9943     6.6153
  376.5000     7.8250    80.9846     2.4822     0.0656     0.1196   -20.6701     5.9908     6.6153
  377.0000     7.7994    81.8227     2.4848     0.0702     0.1174   -20.6613     5.9872     6.6153
  377.5000     7.7740    81.3068     2.4906     0.0716     0.1125   -20.6479     5.9837     6.6153
  378.0000     7.7530    78.3939     2.4979     0.0697     0.1089   -20.6346     5.9803     6.6151
  378.5000     7.7537    78.4016     2.4981     0.0668     0.1119   -20.6213     5.9700     6.6162
  379.0000     7.7522    81.1505     2.4909     0.0638     0.1170   -20.6079     5.9303     6.5498
  379.5000     7.7730    83.7686     2.4843     0.0608     0.1190   -20.5946     5.8917     6.4960
  380.0000     7.8064    84.5040     2.4811     0.0580     0.1210   -20.5813     5.8532     6.4426
  380.5000     7.8282    84.8758     2.4788     0.0597     0.1208   -20.5680     5.8150     6.3896
  381.0000     7.8494    84.3533     2.4794     0.0617     0.1194   -20.5547     5.7770     6.3370
  381.5000     7.8705    84.7983     2.4804     0.0604     0.1190   -20.5414     5.7218     6.2849
  382.0000     7.8916    87.6758     2.4757     0.0587     0.1250   -20.5281     5.6543     6.2333
  382.5000     7.9131    88.1546     2.4691     0.0608     0.1310   -20.5148     5.5876     6.1819
  383.0000     7.9275    86.6606     2.4661     0.0663     0.1253   -20.5015     5.5217     6.1393
  383.5000     7.9420    85.3417     2.4710     0.0716     0.1194   -20.4887     5.4509     6.1184
  384.0000     7.9635    85.2678     2.4759     0.0710     0.1190   -20.4755     5.4232     6.0978
  384.5000     8.0196    85.2724     2.4802     0.0702     0.1216   -20.4268     5.3929     6.0771
  385.0000     8.0752    85.7537     2.4738     0.0633     0.1255   -20.1852     5.3629     6.0565
  385.5000     8.1309    86.2243     2.4670     0.0552     0.1296   -19.9450     5.3511     6.0326
  386.0000     8.1867    86.6929     2.4616     0.0480     0.1321   -19.7053     5.3512     6.0434
  386.5000     8.1946    87.1496     2.4655     0.0484     0.1289   -19.4657     5.3512     6.0603
  387.0000     8.1945    87.6842     2.4639     0.0490     0.1300   -19.2259     5.3552     6.0773
  387.5000     8.1965    89.6968     2.4620     0.0496     0.1309   -18.9867     5.3897     6.0943
  388.0000     8.2008    91.7621     2.4618     0.0510     0.1306   -18.7456     5.4244     6.1114
  388.5000     8.2051    91.1133     2.4623     0.0541     0.1297   -18.6506     5.4594     6.1285
  389.0000     8.2094    87.4155     2.4628     0.0558     0.1299   -18.6488     5.4945     6.1456
  389.5000     8.2137    81.7044     2.4633     0.0553     0.1301   -18.6490     5.5299     6.1628
  390.0000     8.2180    80.8505     2.4638     0.0549     0.1280   -18.6492     5.5655     6.1800
  390.5000     8.2223    82.9194     2.4643     0.0544     0.1298   -18.6492     5.6037     6.2021
  391.0000     8.2266    85.4441     2.4632     0.0539     0.1311   -18.6492     5.5883     6.2019
  391.5000     8.2309    86.8892     2.4603     0.0546     0.1313   -18.6492     5.5718     6.2018
  392.0000     8.2352    87.7154     2.4574     0.0556     0.1320   -18.6492     5.5552     6.2019
  392.5000     8.2395    88.5442     2.4559     0.0566     0.1341   -18.6492     5.5387     6.2019
  393.0000     8.2438    88.9897     2.4567     0.0576     0.1335   -18.6492     5.5224     6.2018
  393.5000     8.2481    88.3620     2.4576     0.0585     0.1317   -18.6492     5.5059     6.2022
  394.0000     8.2524    84.6341     2.4584     0.0595     0.1335   -18.6492     5.4827     6.1737
  394.5000     8.2380    84.0533     2.4620     0.0596     0.1249   -18.6492     5.4566     6.1348
  395.0000     8.2063    86.6269     2.4653     0.0592     0.1278   -18.6492     5.4308     6.0960
  395.5000     8.1745    86.7052     2.4599     0.0587     0.1325   -18.6492     5.4008     6.0575
  396.0000     8.1427    87.1811     2.4586     0.0583     0.1329   -18.6499     5.4266     6.0192
  396.5000     8.1108    89.5425     2.4570     0.0579     0.1329   -18.6556     5.4576     5.9813
  397.0000     8.0790    90.2353     2.4528     0.0574     0.1373   -18.4443     5.4888     5.9773
  397.5000     8.0506    90.2546     2.4487     0.0570     0.1377   -18.2127     5.5202     6.0177
