~VERSION INFORMATION
 VERS.                2.0:   CWLS LOG ASCII STANDARD - VERSION 2.0
 WRAP.                 NO:   ONE LINE PER DEPTH STEP
~WELL INFORMATION
#MNEM.UNIT      DATA TYPE    INFORMATION
#----------   ------------   ------------------------------
 STRT.F          438.0000:   START DEPTH
 STOP.F         2175.0000:   STOP DEPTH
 STEP.F            0.5000:   STEP LENGTH
 NULL.          -999.2500:   NO VALUE
 COMP.   FLUOR DANIEL INC:   COMPANY
 WELL. NAVAL PETROLEUM RESERVE 3 X29 #74-29:   WELL
 FLD .            WLIDCAT:   FIELD
 LOC .      S29 T39N R78W:   LOCATION
 CNTY.            NATRONA:   COUNTY
 STAT.            WYOMING:   STATE
 CTRY. UNITED STATES OF AMERICA:   COUNTRY
 SRVC.            Unknown:   SERVICE COMPANY
 DATE.        05-JUN-1995:   LOGDATE
 API .       490252272900:   API NUMBER
~CURVE INFORMATION
#MNEM.UNIT       API CODE    CURVE DESCRIPTION
#----------   ------------   ------------------------------
 DEPT.F                  :   
 ROP .FT/HR  91 810 01 00:   RAT OF DRILLING PENETRATION
 TGAS.TC/CC  91 830 01 00:   TOTAL GAS UNIT
~PARAMETER INFORMATION
#MNEM.UNIT          VALUE    DESCRIPTION
#----------   ------------   ------------------------------
 EKB .F              5036:   KELLING BUSHING
 EGL .F              5026:   GROUND LEVEL
 DATE.        05-JUN-1995:   RUN DATE
 RUN .                  1:   RUN NUMBER
 BLI .F              2160:   BOTTOM LOG INTERVAL
 TLI .F               440:   TOP LOG INTERVAL
 ENGI.     R.HUSK/C.TOWER:   RECORDING ENGINEER
 CLNT.            A2DTECH:   CLIENT CODE
 ORIG.           5" PRINT:   ORIGIN OF DATA
 UWI .       490252272900:   UNIQUE WELL ID
 DICO. A2D Technologies, Inc.:   DIGITIZING COMPANY
~OTHER INFORMATION
~A   DEPT        ROP       TGAS 
# ...
  559.5000     0.7445     2.8746
  560.0000     0.7539     3.0577
  560.5000     0.7439     3.0485
  561.0000     0.7436     3.0411
  561.5000     0.6953     3.0337
  562.0000     0.6661     3.0263
  562.5000     0.6659     3.2075
  563.0000     0.6656     2.8715
  563.5000     0.6652     2.8660
  564.0000     0.6650     2.8604
  564.5000     0.6647     2.9620
  565.0000     0.6740     3.0597
  565.5000     0.6737     3.2212
  566.0000     0.6734     3.2143
  566.5000     0.6732     3.2094
  567.0000     0.6633     3.2038
  567.5000     0.6630     3.2791
  568.0000     0.6627     3.3811
  568.5000     0.6624     3.4956
  569.0000     0.6525     3.5585
  569.5000     0.6619     3.5528
  570.0000     0.6615     3.5461
  570.5000     0.6612     3.5415
  571.0000     0.6609     3.5350
  571.5000     0.6607     3.5295
  572.0000     0.6604     3.4025
  572.5000     0.6601     3.3298
  573.0000     0.6598     3.2510
  573.5000     0.6692     3.1300
  574.0000     0.6785     3.1245
  574.5000     0.6781     2.7415
  575.0000     0.6682     2.7358
  575.5000     0.6583     2.7292
  576.0000     0.6581     2.7236
  576.5000     0.6578     2.7619
  577.0000     0.6575     3.0913
  577.5000     0.6572     3.0844
  578.0000     0.6666     3.2690
  578.5000     0.6662     3.4509
  579.0000     0.6660     3.4452
  579.5000     0.6753     3.4396
  580.0000     0.6750     3.4340
  580.5000     0.6747     3.4272
  581.0000     0.6744     3.0444
  581.5000     0.6741     2.6615
  582.0000     0.6738     2.6566
  582.5000     0.6832     2.6504
  583.0000     0.6540     2.6449
  583.5000     0.6441     2.6396
  584.0000     0.6438     2.6340
  584.5000     0.6435     2.8173
  585.0000     0.6529     3.0001
  585.5000     0.6526     2.9932
  586.0000     0.6523     2.9877
  586.5000     0.6520     2.9822
  587.0000     0.6517     2.9766
  587.5000     0.6514     2.9717
  588.0000     0.6608     2.9656
  588.5000     0.6701     3.1487
  589.0000     0.6698     3.1434
  589.5000     0.6695     3.1377
  590.0000     0.6808     3.1321
  590.5000     0.6611     3.3153
  591.0000     0.6703     3.3094
  591.5000     0.6604     3.3029
  592.0000     0.5254     3.2974
  592.5000     0.5250     3.2918
  593.0000     0.5246     3.2863
  593.5000     0.5242     3.2808
  594.0000     0.5238     3.2753
  594.5000     0.5234     3.0810
  595.0000     0.5230     2.8868
  595.5000     0.5226     2.8811
  596.0000     0.5223     2.8744
  596.5000     0.5219     2.8689
  597.0000     0.5215     2.8633
  597.5000     0.5211     2.8578
  598.0000     0.5208     2.8523
  598.5000     0.5204     2.8468
  599.0000     0.5296     2.8412
  599.5000     0.5292     2.8357
  600.0000     0.5288     2.8302
  600.5000     0.5284     2.8245
  601.0000     0.5280     2.8189
  601.5000     0.5374     2.8740
  602.0000     0.5369     2.9962
  602.5000     0.5365     3.1077
  603.0000     0.5458     3.1744
  603.5000     0.5550     3.1675
  604.0000     0.5546     3.1620
  604.5000     0.5542     3.1566
  605.0000     0.5538     3.1509
  605.5000     0.5534     3.1453
  606.0000     0.5530     3.1396
  606.5000     0.5527     3.1329
  607.0000     0.5523     3.1274
  607.5000     0.5519     3.1219
  608.0000     0.5612     3.0830
  608.5000     0.5608     3.0227
  609.0000     0.5604     2.9847
  609.5000     0.5599     2.9829
  610.0000     0.5693     2.9810
  610.5000     0.5688     2.9792
  611.0000     0.5684     2.9774
  611.5000     0.5680     2.9755
  612.0000     0.5677     2.9732
  612.5000     0.5673     3.1605
  613.0000     0.5669     3.3474
  613.5000     0.5665     3.3453
  614.0000     0.5662     3.5324
  614.5000     0.5657     3.7188
  615.0000     0.5557     3.7169
  615.5000     0.5553     3.7151
  616.0000     0.5550     3.7132
  616.5000     0.5546     3.7109
  617.0000     0.5542     3.7094
  617.5000     0.5538     3.5186
  618.0000     0.5535     3.5168
  618.5000     0.5531     3.5149
  619.0000     0.5527     3.5131
  619.5000     0.5522     3.5112
  620.0000     0.5519     3.5094
  620.5000     0.5515     3.5001
  621.0000     0.5512     3.3170
  621.5000     0.5507     3.3151
  622.0000     0.5407     3.3129
  622.5000     0.5404     3.3111
  623.0000     0.5400     2.9319
  623.5000     0.5396     2.7414
  624.0000     0.5392     2.5508
  624.5000     0.5485     2.5490
  625.0000     0.5577     2.5472
  625.5000     0.5766     2.5453
  626.0000     0.5761     2.5430
  626.5000     0.5757     2.5412
  627.0000     0.5754     2.7280
  627.5000     0.5750     2.7262
  628.0000     0.5746     2.7244
  628.5000     0.5742     2.7225
  629.0000     0.5738     2.9094
  629.5000     0.5734     2.9075
  630.0000     0.5827     2.9057
  630.5000     0.5823     2.9038
  631.0000     0.5916     2.9016
  631.5000     0.5911     2.8997
  632.0000     0.5907     2.8979
  632.5000     0.5904     2.8962
  633.0000     0.5900     2.8942
  633.5000     0.5896     2.8924
  634.0000     0.5892     2.9340
  634.5000     0.5888     3.1742
  635.0000     0.5788     3.2767
  635.5000     0.5784     3.6393
  636.0000     0.5780     3.6374
  636.5000     0.5777     3.6358
  637.0000     0.5677     3.6340
  637.5000     0.5673     3.6321
  638.0000     0.5669     3.6301
  638.5000     0.5665     3.6283
  639.0000     0.5662     3.6264
  639.5000     0.5657     3.6245
  640.0000     0.5654     3.6226
  640.5000     0.5649     3.6204
  641.0000     0.5646     3.6189
  641.5000     0.5642     3.6168
  642.0000     0.5638     3.6149
  642.5000     0.5634     3.6131
  643.0000     0.5631     3.6112
  643.5000     0.5627     3.6094
  644.0000     0.5623     3.6075
  644.5000     0.5716     3.6057
  645.0000     0.5807     3.6034
  645.5000     0.5803     3.4129
  646.0000     0.5800     3.4111
  646.5000     0.5796     3.4092
  647.0000     0.5792     3.5965
  647.5000     0.5788     3.5942
  648.0000     0.5785     3.5924
  648.5000     0.5781     3.5906
  649.0000     0.5777     3.5887
  649.5000     0.5772     3.5864
  650.0000     0.5866     3.5846
  650.5000     0.5861     3.5828
  651.0000     0.5857     3.5809
  651.5000     0.5854     3.5791
  652.0000     0.5850     3.5772
  652.5000     0.5846     3.5754
  653.0000     0.5842     3.5736
  653.5000     0.5838     3.5717
  654.0000     0.5835     3.5694
  654.5000     0.5830     3.5676
  655.0000     0.5826     3.5658
  655.5000     0.5726     3.5642
  656.0000     0.5338     3.5623
  656.5000     0.5142     3.5602
  657.0000     0.5138     3.5584
  657.5000     0.5134     3.5566
  658.0000     0.5227     3.5547
  658.5000     0.5319     3.5528
  659.0000     0.5315     3.5506
  659.5000     0.5311     3.5488
  660.0000     0.5307     3.5469
  660.5000     0.5303     3.3061
  661.0000     0.5176     3.2932
  661.5000     0.5230     3.2803
  662.0000     0.5222     3.1899
  662.5000     0.5215     3.2544
  663.0000     0.5209     3.2415
  663.5000     0.5202     3.2283
  664.0000     0.5003     3.2151
  664.5000     0.4997     3.1996
  665.0000     0.4894     3.1027
  665.5000     0.4887     2.9868
  666.0000     0.4881     2.9721
  666.5000     0.4970     2.9592
  667.0000     0.4963     2.9472
  667.5000     0.5052     2.9340
  668.0000     0.5046     2.9205
  668.5000     0.5137     3.0331
  669.0000     0.5129     3.0833
  669.5000     0.5122     3.0698
  670.0000     0.5115     3.0566
  670.5000     0.5107     2.8526
  671.0000     0.5101     2.6510
  671.5000     0.5191     2.6381
  672.0000     0.5184     2.6264
  672.5000     0.5275     2.2349
  673.0000     0.5267     2.2220
  673.5000     0.5357     2.2091
  674.0000     0.5446     2.1962
  674.5000     0.5438     1.9943
  675.0000     0.5432     1.9811
  675.5000     0.5425     1.9655
  676.0000     0.5419     2.1445
  676.5000     0.5412     2.1284
  677.0000     0.5405     2.4960
  677.5000     0.5399     2.6718
  678.0000     0.5392     2.8476
  678.5000     0.5386     2.8314
  679.0000     0.5378     3.0075
  679.5000     0.5275     3.1830
  680.0000     0.5172     3.1698
  680.5000     0.4973     3.1566
