~VERSION INFORMATION
 VERS.                2.0:   CWLS LOG ASCII STANDARD - VERSION 2.0
 WRAP.                 NO:   ONE LINE PER DEPTH STEP
~WELL INFORMATION
#MNEM.UNIT      DATA TYPE    INFORMATION
#----------   ------------   ------------------------------
 STRT.F          211.0000:   START DEPTH
 STOP.F          620.0000:   STOP DEPTH
 STEP.F            0.5000:   STEP LENGTH
 NULL.          -999.2500:   NO VALUE
 COMP.   FLUOR DANIEL INC:   COMPANY
 WELL. NAVAL PETROLEUM RESERVE 3 X-10 #73-10:   WELL
 FLD .            WILDCAT:   FIELD
 LOC .      S10 T38N R78W:   LOCATION
 CNTY.            NATRONA:   COUNTY
 STAT.            WYOMING:   STATE
 CTRY. UNITED STATES OF AMERICA:   COUNTRY
 SRVC.            Unknown:   SERVICE COMPANY
 DATE.        03-MAY-1995:   LOGDATE
 API .       490252271600:   API NUMBER
~CURVE INFORMATION
#MNEM.UNIT       API CODE    CURVE DESCRIPTION
#----------   ------------   ------------------------------
 DEPT.F                  :   
 ROP .FT/HR  91 810 01 00:   RAT OF DRILLING PENETRATION
 TGAS.TC/CC  91 830 01 00:   TOTAL GAS UNIT
~PARAMETER INFORMATION
#MNEM.UNIT          VALUE    DESCRIPTION
#----------   ------------   ------------------------------
 EKB .F              5188:   KELLING BUSHING
 EGL .F              5178:   GROUND LEVEL
 DATE.        03-MAY-1995:   RUN DATE
 RUN .                  1:   RUN NUMBER
 BLI .F               620:   BOTTOM LOG INTERVAL
 TLI .F               220:   TOP LOG INTERVAL
 ENGI.     C.TOWER/R.HUSK:   RECORDING ENGINEER
 CLNT.            A2DTECH:   CLIENT CODE
 ORIG.           5" PRINT:   ORIGIN OF DATA
 UWI .       490252271600:   UNIQUE WELL ID
 DICO. A2D Technologies, Inc.:   DIGITIZING COMPANY
~OTHER INFORMATION
~A   DEPT      ROP         TGAS 
# ...
  454.0000     0.5483    15.0628
  454.5000     0.5484    14.8745
  455.0000     0.5485    14.6862
  455.5000     0.5486    14.6862
  456.0000     0.5487    14.4979
  456.5000     0.5487    14.3096
  457.0000     0.5488    13.9331
  457.5000     0.5489    13.9331
  458.0000     0.5490    13.5565
  458.5000     0.5490    13.4605
  459.0000     0.5491    13.3682
  459.5000     0.5492    13.3682
  460.0000     0.4269    13.1799
  460.5000     0.4270    12.9916
  461.0000     0.4270    12.8033
  461.5000     0.4271    12.8033
  462.0000     0.4272    12.6151
  462.5000     0.4178    12.6151
  463.0000     0.4179    12.4268
  463.5000     0.4086    12.4268
  464.0000     0.4087    12.4268
  464.5000     0.4087    12.4268
  465.0000     0.4088    12.2385
  465.5000     0.4089    12.2385
  466.0000     0.4090    12.2385
  466.5000     0.4091    12.2385
  467.0000     0.4091    12.0502
  467.5000     0.4092    11.8619
  468.0000     0.3999    11.6736
  468.5000     0.4000    11.2971
  469.0000     0.4000    11.1088
  469.5000     0.4095    11.1088
  470.0000     0.4096    11.1088
  470.5000     0.4097    10.9205
  471.0000     0.4192    11.1088
  471.5000     0.4193    10.9205
  472.0000     0.4193    10.9205
  472.5000     0.4288    10.9205
  473.0000     0.4289    10.7322
  473.5000     0.4290    10.5439
  474.0000     0.4291    10.5439
  474.5000     0.4284    10.7322
  475.0000     0.4277    10.7322
  475.5000     0.4270    10.7322
  476.0000     0.4263    10.7322
  476.5000     0.4256    10.7322
  477.0000     0.4249    10.7322
  477.5000     0.4242    10.7322
  478.0000     0.4235    10.7322
  478.5000     0.4228    10.7322
  479.0000     0.4221    10.7322
  479.5000     0.4214    10.7322
  480.0000     0.4207    10.5439
  480.5000     0.4199    10.7280
  481.0000     0.4192    10.7233
  481.5000     0.4185    10.7187
  482.0000     0.4178    10.7140
  482.5000     0.4171    10.7093
  483.0000     0.4164    10.7047
  483.5000     0.4157    10.7000
  484.0000     0.4150    10.6953
  484.5000     0.4143    10.6906
  485.0000     0.4136    10.6860
  485.5000     0.4129    10.6813
  486.0000     0.4122    10.6766
  486.5000     0.4114    10.6720
  487.0000     0.4107    10.6673
  487.5000     0.4100    10.6626
  488.0000     0.4093    10.6579
  488.5000     0.4086    10.6533
  489.0000     0.4079    10.6486
  489.5000     0.4072    10.6439
  490.0000     0.4065    10.6393
  490.5000     0.4058    10.6346
  491.0000     0.4051    10.6299
  491.5000     0.4044    10.6253
  492.0000     0.4036    10.6206
  492.5000     0.4037    10.6159
  493.0000     0.4038    10.6112
  493.5000     0.4039    10.6066
  494.0000     0.4040    10.6019
  494.5000     0.4040    10.5972
  495.0000     0.4041    10.5926
  495.5000     0.4042    10.5879
  496.0000     0.4043    10.5832
  496.5000     0.4043    10.5785
  497.0000     0.4044    10.5739
  497.5000     0.4045    10.5692
  498.0000     0.4046    10.5645
  498.5000     0.4047    10.5599
  499.0000     0.4047    10.5552
  499.5000     0.4048    10.5505
  500.0000     0.4049    10.5459
  500.5000     0.4049    10.5563
  501.0000     0.4049    10.5774
  501.5000     0.4049    10.5984
  502.0000     0.4049    10.6195
  502.5000     0.4049    10.6405
  503.0000     0.4049    10.6615
  503.5000     0.4049    10.6826
  504.0000     0.4049    10.7036
  504.5000     0.4049    10.7247
  505.0000     0.4049    10.7457
  505.5000     0.4049    10.7668
  506.0000     0.2996    10.7878
  506.5000     0.2825    10.8088
  507.0000     0.2731    10.8299
  507.5000     0.2731    10.8509
  508.0000     0.2825    10.8720
  508.5000     0.2825    10.8889
  509.0000     0.2825    10.6983
  509.5000     0.2825    10.6964
  510.0000     0.2825    10.6946
  510.5000     0.2825    10.6927
  511.0000     0.2825    10.6904
  511.5000     0.2825    10.5003
  512.0000     0.2825    10.3102
  512.5000     0.2825    10.3083
  513.0000     0.2731    10.3065
  513.5000     0.2825    10.3047
  514.0000     0.2825    10.3028
  514.5000     0.2825    10.3010
  515.0000     0.2825    10.2992
  515.5000     0.2825    10.2973
  516.0000     0.2731    10.4837
  516.5000     0.2825    10.6702
  517.0000     0.2731    10.6679
  517.5000     0.2825    10.6660
  518.0000     0.2825    10.6642
  518.5000     0.2825    10.6623
  519.0000     0.2825    10.6605
  519.5000     0.2825    10.6587
  520.0000     0.2825    10.6568
  520.5000     0.2919    10.6550
  521.0000     0.2919    10.6531
  521.5000     0.2924    10.8396
  522.0000     0.4331    10.6494
  522.5000     0.4331    10.6471
  523.0000     0.4143    10.6456
  523.5000     0.4049    10.8322
  524.0000     0.4049    10.6416
  524.5000     0.4049    10.6398
  525.0000     0.4049    10.6381
  525.5000     0.4143    10.6362
  526.0000     0.4049    10.6342
  526.5000     0.4143    10.6324
  527.0000     0.4143    10.6305
  527.5000     0.4143    10.6287
  528.0000     0.4143    10.6264
  528.5000     0.4143    10.4363
  529.0000     0.4143    10.2461
  529.5000     0.4237    10.2443
  530.0000     0.4237    10.2425
  530.5000     0.4331    10.2408
  531.0000     0.4331    10.2388
  531.5000     0.4331    10.2369
  532.0000     0.5085    10.2351
  532.5000     0.5085    10.0450
  533.0000     0.5085    10.0431
  533.5000     0.5085    10.2295
  534.0000     0.5085    10.2273
  534.5000     0.5085    10.2254
  535.0000     0.5085    10.2236
  535.5000     0.5085    10.2217
  536.0000     0.5179    10.2199
  536.5000     0.5179    10.2180
  537.0000     0.5181    10.2162
  537.5000     0.5273    10.2144
  538.0000     0.5273    10.2125
  538.5000     0.5273    10.2107
  539.0000     0.5273    10.2088
  539.5000     0.5273    10.2069
  540.0000     0.5268    10.2047
  540.5000     0.5258    10.2028
  541.0000     0.5249    10.2010
  541.5000     0.5240    10.1992
  542.0000     0.5231    10.1973
  542.5000     0.5221    10.1955
  543.0000     0.5212    10.1936
  543.5000     0.5203    10.1918
  544.0000     0.5194    10.1899
  544.5000     0.5184    10.1881
  545.0000     0.5175    10.1862
  545.5000     0.5166    10.1840
  546.0000     0.5157    10.3704
  546.5000     0.5147    10.3685
  547.0000     0.5138    10.5555
  547.5000     0.5129    10.7414
  548.0000     0.5119    10.5513
  548.5000     0.5110    10.5495
  549.0000     0.5101    10.5476
  549.5000     0.5092    10.5458
  550.0000     0.5086    10.3556
  550.5000     0.5089    10.3771
  551.0000     0.5093    10.4061
  551.5000     0.5097    10.4350
  552.0000     0.5101    10.4640
  552.5000     0.5104    10.4930
  553.0000     0.5108    10.5220
  553.5000     0.5112    10.5510
  554.0000     0.5116    10.5799
  554.5000     0.5119    10.6089
  555.0000     0.5123    10.6379
  555.5000     0.5127    10.6669
  556.0000     0.5130    10.6959
  556.5000     0.5134    10.7249
  557.0000     0.5138    10.7538
  557.5000     0.5142    10.7828
  558.0000     0.5145    10.6041
  558.5000     0.5149    10.6087
  559.0000     0.5153    10.6124
  559.5000     0.5157    10.6161
  560.0000     0.5160    10.6198
  560.5000     0.5164    10.6235
  561.0000     0.5168    10.6272
  561.5000     0.5171    10.8192
  562.0000     0.5175    10.8229
  562.5000     0.5179    10.8266
  563.0000     0.5183    11.0186
  563.5000     0.5281    11.0223
  564.0000     0.7921    11.0260
  564.5000     0.7925    11.4120
  565.0000     0.7929    14.9681
  565.5000     0.7745    39.8950
  566.0000     0.6524    58.1128
  566.5000     0.6434    61.5057
  567.0000     0.6438    63.5805
  567.5000     0.6535    64.3373
  568.0000     0.6539    64.7176
  568.5000     0.6543    65.0979
  569.0000     0.6547    65.1016
  569.5000     0.6550    65.2936
  570.0000     0.6459    65.2973
  570.5000     0.5616    65.4892
  571.0000     0.5525    65.4929
  571.5000     0.5529    65.6849
  572.0000     0.5533    65.6887
  572.5000     0.5537    65.6925
  573.0000     0.5541    65.6970
  573.5000     0.5544    65.5124
  574.0000     0.6396    65.5161
  574.5000     0.6399    65.5198
  575.0000     0.6403    65.5235
