~VERSION INFORMATION
 VERS.                2.0:   CWLS LOG ASCII STANDARD - VERSION 2.0
 WRAP.                 NO:   ONE LINE PER DEPTH STEP
~WELL INFORMATION
#MNEM.UNIT      DATA TYPE    INFORMATION
#----------   ------------   ------------------------------
 STRT.F           44.0000:   START DEPTH
 STOP.F          462.0000:   STOP DEPTH
 STEP.F            0.5000:   STEP LENGTH
 NULL.          -999.2500:   NO VALUE
 COMP. FENIX & SCISSON INC:   COMPANY
 WELL.    35-SX-3F0 #55-3:   WELL
 FLD .             TEAPOT:   FIELD
 LOC .       S3 T38N R78W:   LOCATION
 CNTY.            NATRONA:   COUNTY
 STAT.            WYOMING:   STATE
 CTRY. UNITED STATES OF AMERICA:   COUNTRY
 SRVC.              Welex:   SERVICE COMPANY
 DATE.        11-JUL-1980:   LOGDATE
 API .       490251083300:   API NUMBER
~CURVE INFORMATION
#MNEM.UNIT       API CODE    CURVE DESCRIPTION
#----------   ------------   ------------------------------
 DEPT.F                  :   
 GRD .GAPI   45 310 01 00:   GAMMA RAY FROM DENSITY LOG
 CALD.IN     45 280 60 00:   CALIPER
 RHOB.G/C3   45 350 01 00:   BULK DENSITY
 CORR.G/C3   45 356 01 00:   DENSITY CORRECTION
 DPHI.DEC    45 890 12 00:   DENSITY POROSITY SANDSTONE
~PARAMETER INFORMATION
#MNEM.UNIT          VALUE    DESCRIPTION
#----------   ------------   ------------------------------
 PD  .                 GL:   PERMANENT DATUM
 EPD .F              5171:   ELEVATION PERMANENT DATUM
 LMF .                 KB:   LOG MEASURED FROM
 DAPD.F                 5:   FEET ABOVE PERMANENT DATUM
 DMF .                 KB:   DRILLING MEASURED FROM
 EKB .F              5176:   KELLING BUSHING
 EGL .F              5171:   GROUND LEVEL
 DATE.            7-11-80:   RUN DATE
 RUN .                  1:   RUN NUMBER
 DD  .F               470:   DEPTH DRILLER
 DL  .F               470:   DEPTH LOGGER
 BLI .F               462:   BOTTOM LOG INTERVAL
 TLI .F                48:   TOP LOG INTERVAL
 CS  .IN                7:   CASING SIZE
 CBD .F                48:   CASING BOTTOM DRILLER
 BS  .IN             6.25:   BIT SIZE
 BSD .F               470:   BIT SIZE AT DEPTH
 DFT .        AIR DRILLED:   DRILLING FLUID TYPE
 BHT .F                75:   BOTTOM HOLE TEMPERATURE
 TCS .HRS               2:   TIME CURCULATED STOPPED
 MRT .F                75:   MAXIMUM RECORDED TEMPERATURE
 ENGI.           PFRIMMER:   RECORDING ENGINEER
 WITN.              AMEND:   WITNESSED BY
 CLNT.            A2DTECH:   CLIENT CODE
 ORIG.           5" PRINT:   ORIGIN OF DATA
 UWI .       490251083300:   UNIQUE WELL ID
 DICO. A2D Technologies, Inc.:   DIGITIZING COMPANY
~OTHER INFORMATION
~A   DEPT       GRD        CALD     RHOB       CORR       DPHI   
# ...
  349.0000    80.3543     6.6939     2.3440     0.0943     0.2041
  349.5000    79.0974     6.7755     2.3422     0.0857     0.2028
  350.0000    77.8323     6.6190     2.3350     0.0656     0.2098
  350.5000    76.5471     6.5443     2.3277     0.0459     0.2155
  351.0000    76.0803     6.5843     2.3205     0.0331     0.2185
  351.5000    74.8198     6.6254     2.3061     0.0345     0.2260
  352.0000    73.1342     6.6660     2.2897     0.0338     0.2359
  352.5000    73.2670     6.7033     2.2731     0.0282     0.2458
  353.0000    71.5616     6.7150     2.2645     0.0324     0.2501
  353.5000    69.4452     6.7258     2.2772     0.0398     0.2416
  354.0000    69.4114     6.7365     2.2987     0.0474     0.2311
  354.5000    69.3676     6.7422     2.3029     0.0531     0.2207
  355.0000    67.3524     6.7399     2.3172     0.0530     0.2189
  355.5000    64.9138     6.7376     2.3060     0.0512     0.2274
  356.0000    64.5778     6.7354     2.2843     0.0452     0.2388
  356.5000    66.0881     6.7331     2.2658     0.0393     0.2503
  357.0000    67.3144     6.7309     2.2604     0.0334     0.2513
  357.5000    66.7913     6.7287     2.2662     0.0273     0.2468
  358.0000    66.5727     6.7264     2.2787     0.0251     0.2430
  358.5000    66.5815     6.7242     2.2774     0.0230     0.2420
  359.0000    65.4713     6.7248     2.2752     0.0210     0.2440
  359.5000    64.3709     6.7280     2.2732     0.0190     0.2459
  360.0000    63.9965     6.7313     2.2738     0.0190     0.2415
  360.5000    64.7668     6.7345     2.2852     0.0202     0.2362
  361.0000    65.5241     6.7377     2.2963     0.0292     0.2308
  361.5000    66.7760     6.7409     2.3074     0.0383     0.2281
  362.0000    68.5524     6.7391     2.3086     0.0474     0.2239
  362.5000    69.1327     6.7273     2.3161     0.0565     0.2177
  363.0000    69.5223     6.7156     2.3324     0.0655     0.2104
  363.5000    69.9695     6.7040     2.3491     0.0734     0.2032
  364.0000    71.5911     6.6923     2.3481     0.0745     0.1985
  364.5000    73.2117     6.6807     2.3463     0.0758     0.2009
  365.0000    72.6378     6.6690     2.3519     0.0774     0.1996
  365.5000    70.4362     6.6574     2.3588     0.0859     0.1944
  366.0000    68.2063     6.6457     2.3661     0.0941     0.1892
  366.5000    67.8268     6.6341     2.3735     0.1023     0.1840
  367.0000    68.0897     6.6224     2.3744     0.1105     0.1821
  367.5000    68.3808     6.6109     2.3679     0.1190     0.1892
  368.0000    67.9666     6.6095     2.3572     0.1189     0.1968
  368.5000    67.1124     6.6259     2.3245     0.1159     0.2151
  369.0000    67.1345     6.6420     2.2849     0.1129     0.2344
  369.5000    68.0533     6.6581     2.2651     0.1099     0.2526
  370.0000    68.9634     6.6743     2.2493     0.1120     0.2606
  370.5000    69.8664     6.6904     2.2335     0.1248     0.2699
  371.0000    70.7722     6.7013     2.2177     0.1371     0.2792
  371.5000    71.6895     6.6887     2.2013     0.1493     0.2885
  372.0000    72.4148     6.6769     2.1847     0.1617     0.2977
  372.5000    70.7128     6.6629     2.1679     0.1744     0.2989
  373.0000    69.0242     6.5580     2.1358     0.1745     0.2988
  373.5000    67.3571     6.4428     2.1048     0.1739     0.2987
  374.0000    66.6424     6.3274     2.0689     0.1723     0.2986
  374.5000    67.3996     6.2393     2.0261     0.1493     0.2984
  375.0000    67.6585     6.3826     2.0000     0.1256     0.2983
  375.5000    68.1289     6.5389     2.0000     0.1018     0.2982
  376.0000    68.9698     6.5863     2.0969     0.0909     0.2719
  376.5000    68.3742     6.4213     2.2348     0.0832     0.2439
  377.0000    66.8254     6.4348     2.3015     0.0966     0.2280
  377.5000    65.9140     6.6940     2.3152     0.1101     0.2195
  378.0000    65.3231     6.7153     2.3099     0.1236     0.2200
  378.5000    66.4846     6.7054     2.2950     0.1369     0.2302
  379.0000    69.5404     6.6952     2.2699     0.1471     0.2469
  379.5000    70.5967     6.6855     2.2450     0.1422     0.2635
  380.0000    71.1811     6.6759     2.2248     0.1420     0.2724
  380.5000    72.7040     6.6660     2.2298     0.1543     0.2730
  381.0000    73.1527     6.6533     2.2376     0.1663     0.2670
  381.5000    72.5260     6.6391     2.2450     0.1724     0.2622
  382.0000    71.9512     6.6248     2.2471     0.1752     0.2610
  382.5000    73.0088     6.6105     2.2720     0.1581     0.2397
  383.0000    74.1341     6.5962     2.3210     0.1384     0.2215
  383.5000    74.7423     6.5848     2.3463     0.1188     0.2009
  384.0000    74.8485     6.5988     2.3473     0.1068     0.2005
  384.5000    75.5378     6.6127     2.3541     0.1076     0.2000
  385.0000    79.4795     6.6265     2.3716     0.1212     0.1862
  385.5000    79.8048     6.6403     2.3810     0.1349     0.1789
  386.0000    78.3598     6.6540     2.3798     0.1485     0.1807
  386.5000    76.9407     6.6578     2.3772     0.1621     0.1846
  387.0000    76.4883     6.6108     2.3749     0.1700     0.1861
  387.5000    75.3207     6.5637     2.3784     0.1748     0.1811
  388.0000    73.7981     6.5165     2.4006     0.1795     0.1707
  388.5000    72.2804     6.4685     2.4166     0.1842     0.1621
  389.0000    72.0160     6.5061     2.4085     0.1849     0.1621
  389.5000    73.8739     6.5551     2.3991     0.1730     0.1705
  390.0000    75.4329     6.6000     2.4062     0.1615     0.1663
  390.5000    73.9160     6.5255     2.4166     0.1497     0.1600
  391.0000    72.4714     6.4638     2.4162     0.1373     0.1587
  391.5000    72.6136     6.4896     2.4159     0.1246     0.1591
  392.0000    73.1228     6.5145     2.4249     0.1154     0.1572
  392.5000    73.6147     6.5392     2.4345     0.1186     0.1507
  393.0000    74.0828     6.5630     2.4439     0.1216     0.1442
  393.5000    73.9743     6.5639     2.4504     0.1245     0.1396
  394.0000    73.8361     6.5638     2.4513     0.1274     0.1405
  394.5000    73.7118     6.5637     2.4530     0.1297     0.1416
  395.0000    74.6767     6.5637     2.4574     0.1328     0.1365
  395.5000    75.7641     6.5637     2.4620     0.1359     0.1316
  396.0000    76.8484     6.5637     2.4683     0.1389     0.1241
  396.5000    77.9462     6.5637     2.4747     0.1372     0.1236
  397.0000    78.4568     6.5637     2.4788     0.1352     0.1232
  397.5000    78.8085     6.5637     2.4817     0.1333     0.1205
  398.0000    79.2085     6.5638     2.4826     0.1313     0.1206
  398.5000    79.9088     6.5643     2.4817     0.1293     0.1208
  399.0000    80.6150     6.5418     2.4962     0.1308     0.1167
  399.5000    81.3224     6.5141     2.4986     0.1330     0.1121
  400.0000    82.0123     6.4852     2.4952     0.1353     0.1073
  400.5000    82.1842     6.4990     2.5069     0.1375     0.1073
  401.0000    81.1328     6.5206     2.4996     0.1391     0.1098
  401.5000    80.3390     6.5421     2.4928     0.1384     0.1124
  402.0000    80.7017     6.5636     2.4715     0.1173     0.1215
  402.5000    80.6700     6.5836     2.4613     0.1033     0.1306
  403.0000    80.1469     6.5779     2.4569     0.0997     0.1344
  403.5000    79.6944     6.5709     2.4561     0.0958     0.1348
  404.0000    80.4211     6.5640     2.4633     0.0970     0.1312
  404.5000    81.2096     6.5637     2.4691     0.1038     0.1292
  405.0000    81.9974     6.5637     2.4678     0.1128     0.1288
  405.5000    82.7894     6.5637     2.4703     0.1219     0.1270
  406.0000    83.4591     6.5637     2.4780     0.1306     0.1210
  406.5000    82.7383     6.5638     2.4857     0.1328     0.1194
  407.0000    82.0078     6.5637     2.4830     0.1179     0.1222
  407.5000    82.2121     6.5638     2.4762     0.1033     0.1250
  408.0000    83.0932     6.5549     2.4760     0.0894     0.1244
  408.5000    84.0108     6.5431     2.4773     0.0860     0.1228
  409.0000    83.4900     6.5612     2.4772     0.0824     0.1248
  409.5000    82.2915     6.5820     2.4735     0.0788     0.1270
