~VERSION INFORMATION
 VERS.                2.0:   CWLS LOG ASCII STANDARD - VERSION 2.0
 WRAP.                 NO:   ONE LINE PER DEPTH STEP
~WELL INFORMATION
#MNEM.UNIT      DATA TYPE    INFORMATION
#----------   ------------   ------------------------------
 STRT.F           28.0000:   START DEPTH
 STOP.F          563.0000:   STOP DEPTH
 STEP.F            0.1000:   STEP LENGTH
 NULL.          -999.2500:   NO VALUE
 COMP.       F D SERV INC:   COMPANY
 WELL.    SX-3 62-4 #62-3:   WELL
 FLD .          N.P.R. #3:   FIELD
 LOC .       S3 T38N R78W:   LOCATION
 CNTY.            NATRONA:   COUNTY
 STAT.            WYOMING:   STATE
 CTRY. UNITED STATES OF AMERICA:   COUNTRY
 SRVC.     Atlas Wireline:   SERVICE COMPANY
 DATE.        03-MAY-1992:   LOGDATE
 API .       490252252100:   API NUMBER
~CURVE INFORMATION
#MNEM.UNIT       API CODE    CURVE DESCRIPTION
#----------   ------------   ------------------------------
 DEPT.F                  :   
 RILD.OHMM   07 120 46 00:   INDUCTION LOG DEEP RESISTIVITY
 RILM.OHMM   07 120 44 00:   INDUCTION LOG MEDIUM RESISTIVITY
 CALD.IN     45 280 60 00:   CALIPER FROM DENSITY LOG
 CORR.G/C3   45 356 01 00:   DENSITY CORRECTION
 DEN .G/C3   45 350 01 00:   COMPENSATED BULK DENSTIY
 GRD .GAPI   45 310 01 00:   GAMMA RAY FROM DENSITY LOG
 PORD.DEC    45 890 12 00:   POROSITY DENSITY SANDSTONE
~PARAMETER INFORMATION
#MNEM.UNIT          VALUE    DESCRIPTION
#----------   ------------   ------------------------------
 PD  .                 GL:   PERMANENT DATUM
 EPD .F              5156:   ELEVATION PERMANENT DATUM
 LMF .                 KB:   LOG MEASURED FROM
 DAPD.F                 5:   FEET ABOVE PERMANENT DATUM
 DMF .                 KB:   DRILLING MEASURED FROM
 EKB .F              5161:   KELLING BUSHING
 EGL .F              5156:   GROUND LEVEL
 DATE.        03-MAY-1992:   RUN DATE
 RUN .                  1:   RUN NUMBER
 DD  .F               565:   DEPTH DRILLER
 DL  .F               566:   DEPTH LOGGER
 BLI .F               564:   BOTTOM LOG INTERVAL
 TLI .F                50:   TOP LOG INTERVAL
 CS  .IN            8.625:   CASING SIZE
 CBD .F                49:   CASING BOTTOM DRILLER
 CBL .F                50:   CASING BOTTOM LOGGER
 BS  .IN            7.875:   BIT SIZE
 BSD .F               565:   BIT SIZE AT DEPTH
 DFT .        AIR DRILLED:   DRILLING FLUID TYPE
 LUN .             HL 632:   LOGGING UNIT NUMBER
 LUL .           RK. SPGS:   LOGGING UNIT LOCATION
 ENGI.               RALL:   RECORDING ENGINEER
 WITN.             STRONG:   WITNESSED BY
 CLNT.            A2DTECH:   CLIENT CODE
 ORIG.           5" PRINT:   ORIGIN OF DATA
 UWI .       490252252100:   UNIQUE WELL ID
 DICO. A2D Technologies, Inc.:   DIGITIZING COMPANY
~OTHER INFORMATION
~A   DEPT     RILD       RILM       CALD       CORR        DEN        GRD       PORD   
# ...
   46.2000  -999.2500  -999.2500  -999.2500  -999.2500  -999.2500   108.5173  -999.2500
   46.3000  -999.2500  -999.2500  -999.2500  -999.2500  -999.2500   108.5128  -999.2500
   46.4000  -999.2500  -999.2500  -999.2500  -999.2500  -999.2500   108.5083  -999.2500
   46.5000  -999.2500  -999.2500  -999.2500  -999.2500  -999.2500   108.5038  -999.2500
   46.6000  -999.2500  -999.2500  -999.2500  -999.2500  -999.2500   108.5183  -999.2500
   46.7000  -999.2500  -999.2500  -999.2500  -999.2500  -999.2500   108.7949  -999.2500
   46.8000  -999.2500  -999.2500  -999.2500  -999.2500  -999.2500   108.7910  -999.2500
   46.9000  -999.2500  -999.2500  -999.2500  -999.2500  -999.2500   108.9454  -999.2500
   47.0000  -999.2500  -999.2500  -999.2500  -999.2500  -999.2500   109.0827  -999.2500
   47.1000  -999.2500  -999.2500  -999.2500  -999.2500  -999.2500   109.1298  -999.2500
   47.2000  -999.2500  -999.2500  -999.2500  -999.2500  -999.2500   109.3744  -999.2500
   47.3000  -999.2500  -999.2500  -999.2500  -999.2500  -999.2500   109.6150  -999.2500
   47.4000  -999.2500  -999.2500  -999.2500  -999.2500  -999.2500   109.6662  -999.2500
   47.5000  -999.2500  -999.2500  -999.2500  -999.2500  -999.2500   109.7995  -999.2500
   47.6000  -999.2500  -999.2500  -999.2500  -999.2500  -999.2500   110.0421  -999.2500
   47.7000  -999.2500  -999.2500  -999.2500  -999.2500  -999.2500   110.2847  -999.2500
   47.8000  -999.2500  -999.2500  -999.2500  -999.2500  -999.2500   110.5500  -999.2500
   47.9000  -999.2500  -999.2500  -999.2500  -999.2500  -999.2500   110.7699  -999.2500
   48.0000  -999.2500  -999.2500  -999.2500  -999.2500  -999.2500   111.1830  -999.2500
   48.1000  -999.2500  -999.2500  -999.2500  -999.2500  -999.2500   111.5559  -999.2500
   48.2000  -999.2500  -999.2500  -999.2500  -999.2500  -999.2500   111.7985  -999.2500
   48.3000  -999.2500  -999.2500  -999.2500  -999.2500  -999.2500   112.0506  -999.2500
   48.4000  -999.2500  -999.2500  -999.2500  -999.2500  -999.2500   112.6278  -999.2500
   48.5000  -999.2500  -999.2500  -999.2500  -999.2500  -999.2500   112.8271  -999.2500
   48.6000  -999.2500  -999.2500  -999.2500  -999.2500  -999.2500   113.0697  -999.2500
   48.7000  -999.2500  -999.2500  -999.2500  -999.2500  -999.2500   113.2165  -999.2500
   48.8000  -999.2500  -999.2500  -999.2500  -999.2500  -999.2500   113.2120  -999.2500
   48.9000  -999.2500  -999.2500  -999.2500  -999.2500  -999.2500   113.2073  -999.2500
   49.0000  -999.2500  -999.2500  -999.2500  -999.2500  -999.2500   113.2030  -999.2500
   49.1000  -999.2500  -999.2500  -999.2500  -999.2500  -999.2500   113.1985  -999.2500
   49.2000  -999.2500  -999.2500  -999.2500  -999.2500  -999.2500   113.1940  -999.2500
   49.3000  -999.2500  -999.2500  -999.2500  -999.2500  -999.2500   113.1895  -999.2500
   49.4000  -999.2500  -999.2500  -999.2500  -999.2500  -999.2500   113.1850  -999.2500
   49.5000  -999.2500  -999.2500  -999.2500  -999.2500  -999.2500   113.1799  -999.2500
   49.6000  -999.2500  -999.2500  -999.2500  -999.2500  -999.2500   113.1759  -999.2500
   49.7000  -999.2500  -999.2500  -999.2500  -999.2500  -999.2500   113.3323  -999.2500
   49.8000  -999.2500  -999.2500  -999.2500  -999.2500  -999.2500   113.7895  -999.2500
   49.9000  -999.2500  -999.2500  -999.2500  -999.2500  -999.2500   114.7409  -999.2500
   50.0000  -999.2500  -999.2500  -999.2500  -999.2500  -999.2500   116.4662     0.3856
   50.1000    11.5642  9995.4209     8.4810    -0.3584     2.0054   117.4501     0.3797
   50.2000    11.7864  9994.8662     8.4808    -0.3872     2.0211   118.2406     0.3777
   50.3000    12.2193  9994.3115     8.4806    -0.4158     2.0280   118.9774     0.3758
   50.4000    13.0171  9993.7568     8.4804    -0.4493     2.0339   119.7143     0.3740
   50.5000    15.7942  9993.2031     8.4802    -0.4821     2.0380   120.6122     0.3715
   50.6000    17.0378  9992.6484     8.4799    -0.4925     2.0414   122.5705     0.3678
   50.7000    19.0447  9992.0215     8.4797    -0.4973     2.0455   124.5289     0.3571
   50.8000    19.9465  9991.5400     8.4795    -0.4985     2.0512   126.4872     0.3415
   50.9000    73.1246  9990.9854     8.4793    -0.4842     2.0661   128.4456     0.3269
   51.0000  1544.8589  9990.4307     8.4791    -0.4572     2.0806   130.4039     0.3206
   51.1000  6685.3657  9989.8770     8.4789    -0.4275     2.1082   132.2935     0.3039
   51.2000  9911.8936  9989.3223     8.4787    -0.3886     2.1335   133.8735     0.3003
   51.3000  9988.7686  9988.7266     8.4785    -0.3368     2.1429   135.7506     0.2952
   51.4000  9988.2139  9988.2139     8.4783    -0.2824     2.1672   139.0286     0.2843
   51.5000  9987.6357  9987.6592     8.4657    -0.2389     2.2089   142.5023     0.2737
   51.6000  9987.1055  9987.1055     8.4628    -0.1986     2.2909   145.8227     0.2335
   51.7000  9986.5518  9986.5518     8.4626    -0.1418     2.3549   149.2819     0.1818
   51.8000 10020.0029  9985.9980     8.4624    -0.0708     2.3970   152.8027     0.1411
   51.9000 10054.9375  9985.4336     8.4413    -0.0410     2.4395   153.7111     0.1223
   52.0000  8665.1455  9984.8896     8.3266    -0.0158     2.4710   154.1764     0.1044
   52.1000  1947.1099  8368.5430     8.2771    -0.0016     2.4823   154.4229     0.1022
   52.2000    17.0821  5863.7388     8.2562     0.0040     2.4875   154.5955     0.1015
   52.3000     6.5817   183.2056     8.2508     0.0075     2.4844   154.6149     0.1026
   52.4000     4.8322     4.3431     8.2506     0.0060     2.4818   154.8899     0.1040
   52.5000     3.9404     3.7718     8.2504     0.0029     2.4796   155.1078     0.1046
   52.6000     3.4067     3.2341     8.2502    -0.0009     2.4777   155.3542     0.1051
   52.7000     3.1909     2.9020     8.2500    -0.0030     2.4760   155.6006     0.1051
   52.8000     2.9925     2.7289     8.2595    -0.0027     2.4754   155.8470     0.1053
   52.9000     2.8070     2.5931     8.2646    -0.0015     2.4754   156.0934     0.1054
   53.0000     2.6120     2.5102     8.2644     0.0015     2.4754   156.3755     0.1054
   53.1000     2.4312     2.4335     8.2641     0.0025     2.4754   156.7996     0.1054
   53.2000     2.3417     2.4274     8.2639     0.0038     2.4754   157.2954     0.1051
   53.3000     2.4065     2.4934     8.2759     0.0055     2.4755   157.9019     0.1046
   53.4000     2.4998     2.6229     8.2786     0.0078     2.4761   158.8846     0.1041
   53.5000     2.6665     2.8120     8.2783     0.0090     2.4779   160.6035     0.1033
   53.6000     2.9065     3.0261     8.2781     0.0115     2.4802   161.7709     0.1023
   53.7000     3.2201     3.1458     8.2779     0.0130     2.4827   162.1806     0.1013
   53.8000     3.6999     3.3067     8.2777     0.0136     2.4844   162.6765     0.1000
   53.9000     4.8152     3.4495     8.2654     0.0140     2.4843   163.1723     0.1005
   54.0000     5.4620     3.5802     8.2623     0.0152     2.4836   163.6160     0.1010
   54.1000     6.1901     3.7289     8.2620     0.0166     2.4830   163.8616     0.1013
   54.2000     6.7322     3.8837     8.2618     0.0166     2.4819   163.8586     0.1017
   54.3000     7.0835     4.1043     8.2616     0.0166     2.4813   163.8556     0.1022
   54.4000     7.4617     4.3061     8.2614     0.0166     2.4811   163.8526     0.1027
   54.5000     8.6795     4.5823     8.2491     0.0166     2.4805   163.7534     0.1029
   54.6000    10.4809     4.8340     8.2460     0.0166     2.4798   163.4561     0.1030
   54.7000    12.9535     5.0273     8.2457     0.0166     2.4798   162.9413     0.1029
   54.8000    15.3273     5.2037     8.2455     0.0154     2.4798   162.4523     0.1026
   54.9000    17.1788     5.3774     8.2453     0.0142     2.4801   161.9505     0.1023
   55.0000    18.7298     5.5162     8.2451     0.0136     2.4808   161.4486     0.1015
   55.1000    22.1299     5.7257     8.2449     0.0136     2.4815   161.0358     0.1013
   55.2000    21.0790     5.9997     8.2447     0.0135     2.4836   160.7834     0.1006
