~VERSION INFORMATION
 VERS.                2.0:   CWLS LOG ASCII STANDARD - VERSION 2.0
 WRAP.                 NO:   ONE LINE PER DEPTH STEP
~WELL INFORMATION
#MNEM.UNIT      DATA TYPE    INFORMATION
#----------   ------------   ------------------------------
 STRT.F            3.0000:   START DEPTH
 STOP.F          523.0000:   STOP DEPTH
 STEP.F            0.1000:   STEP LENGTH
 NULL.          -999.2500:   NO VALUE
 COMP.     BROWN JOHN E&C:   COMPANY
 WELL.   NPR 3 #52-2-SX-3:   WELL
 FLD .             TEAPOT:   FIELD
 LOC .       S3 T38N R78W:   LOCATION
 CNTY.            NATRONA:   COUNTY
 STAT.            WYOMING:   STATE
 CTRY. UNITED STATES OF AMERICA:   COUNTRY
 SRVC.     Atlas Wireline:   SERVICE COMPANY
 DATE.        18-APR-1992:   LOGDATE
 API .       490252251500:   API NUMBER
~CURVE INFORMATION
#MNEM.UNIT       API CODE    CURVE DESCRIPTION
#----------   ------------   ------------------------------
 DEPT.F                  :   
 GRR .GAPI   07 310 01 00:   GAMMA RAY
 RILD.OHMM   07 120 46 00:   INDUCTION LOG DEEP RESISTIVITY
 RILM.OHMM   07 120 44 00:   INDUCTION LOG MEDIUM RESISTIVITY
~PARAMETER INFORMATION
#MNEM.UNIT          VALUE    DESCRIPTION
#----------   ------------   ------------------------------
 PD  .                 GL:   PERMANENT DATUM
 EPD .F              5128:   ELEVATION PERMANENT DATUM
 LMF .                 KB:   LOG MEASURED FROM
 DAPD.F                 5:   FEET ABOVE PERMANENT DATUM
 DMF .                 KB:   DRILLING MEASURED FROM
 EKB .F              5133:   KELLING BUSHING
 EDF .F              5132:   DRILLING FLOOR
 EGL .F              5128:   GROUND LEVEL
 DATE.        18-APR-1992:   RUN DATE
 RUN .                  1:   RUN NUMBER
 DD  .F               525:   DEPTH DRILLER
 DL  .F               526:   DEPTH LOGGER
 BLI .F               524:   BOTTOM LOG INTERVAL
 CS  .IN            8.625:   CASING SIZE
 CBD .F                48:   CASING BOTTOM DRILLER
 CBL .F                49:   CASING BOTTOM LOGGER
 BS  .IN            7.875:   BIT SIZE
 BSD .F               525:   BIT SIZE AT DEPTH
 DFT .                AIR:   DRILLING FLUID TYPE
 TCS .HRS               2:   TIME CURCULATED STOPPED
 MRT .F                87:   MAXIMUM RECORDED TEMPERATURE
 LUN .            HL 6274:   LOGGING UNIT NUMBER
 LUL .             CASPER:   LOGGING UNIT LOCATION
 ENGI.            LEBSOCK:   RECORDING ENGINEER
 WITN.             STRONG:   WITNESSED BY
 CLNT.            A2DTECH:   CLIENT CODE
 ORIG.       2", 5" PRINT:   ORIGIN OF DATA
 UWI .       490252251500:   UNIQUE WELL ID
 DICO. A2D Technologies, Inc.:   DIGITIZING COMPANY
~OTHER INFORMATION
~A    DEPT     GRR       RILD       RILM   
# ...
  276.0000   142.4121     7.8100     7.1040
  276.1000   142.4109     7.8097     7.1034
  276.2000   142.4097     7.8000     7.1027
  276.3000   142.4085     7.7547     7.1359
  276.4000   142.5471     7.7104     7.1514
  276.5000   142.8788     7.6323     7.1508
  276.6000   143.4036     7.5451     7.1502
  276.7000   144.2217     7.4729     7.1495
  276.8000   144.6667     7.4251     7.1100
  276.9000   144.8255     7.3312     7.0687
  277.0000   144.9374     7.2563     7.0276
  277.1000   145.1261     7.1733     6.9629
  277.2000   145.1248     7.0913     6.8465
  277.3000   145.1236     7.0101     6.7574
  277.4000   145.1224     6.9292     6.6571
  277.5000   145.1212     6.8110     6.5189
  277.6000   145.1200     6.6948     6.3859
  277.7000   144.8041     6.5804     6.2612
  277.8000   142.0872     6.4811     6.0824
  277.9000   141.1876     6.4069     6.0472
  278.0000   140.8727     6.3276     5.9854
  278.1000   140.8715     6.2612     5.8978
  278.2000   140.8703     6.1897     5.7965
  278.3000   140.8691     6.1189     5.6889
  278.4000   140.8679     6.0668     5.5127
  278.5000   140.8667     6.0638     5.3710
  278.6000   140.8655     5.9821     5.2599
  278.7000   141.0404     5.9538     5.1696
  278.8000   141.7009     5.9195     5.0957
  278.9000   143.5890     5.8727     5.0661
  279.0000   144.9455     5.8108     5.0314
  279.1000   146.6042     5.7755     5.0074
  279.2000   148.1068     5.7441     4.9784
  279.3000   149.3459     5.7111     4.9604
  279.4000   150.5721     5.6782     4.9600
  279.5000   151.4604     5.6455     4.9596
  279.6000   152.0582     5.6130     4.9592
  279.7000   152.8013     5.5757     4.9588
  279.8000   153.3649     5.5755     4.9583
  279.9000   153.5771     5.5554     4.9665
  280.0000   153.5757     5.5234     4.9946
  280.1000   153.5745     5.4975     5.0268
  280.2000   153.5733     5.4972     5.0514
  280.3000   153.5721     5.4666     5.0801
  280.4000   153.4449     5.4585     5.1089
  280.5000   152.9476     5.4418     5.1379
  280.6000   152.3561     5.4200     5.1672
  280.7000   151.9528     5.4198     5.2261
  280.8000   151.1629     5.4195     5.2625
  280.9000   150.0780     5.4193     5.3094
  281.0000   148.8365     5.4394     5.3702
  281.1000   147.5017     5.4977     5.4356
  281.2000   146.3531     5.5859     5.5384
  281.3000   145.4607     5.6504     5.5959
  281.4000   144.7152     5.7149     5.6601
  281.5000   144.0990     5.7806     5.7406
  281.6000   143.8594     5.8470     5.8397
  281.7000   143.8580     5.9255     5.9393
  281.8000   143.8570     6.0239     6.0198
  281.9000   144.0037     6.1004     6.0763
  282.0000   144.1576     6.1949     6.1673
  282.1000   144.1564     6.3021     6.2739
  282.2000   144.1551     6.3942     6.3822
  282.3000   144.3851     6.4765     6.4981
  282.4000   144.4558     6.5883     6.5688
  282.5000   144.3333     6.7024     6.6722
  282.6000   144.1503     6.7873     6.7875
  282.7000   144.1378     6.8882     6.9047
  282.8000   143.8446     7.0219     7.0207
  282.9000   143.4348     7.1725     7.1124
  283.0000   143.0869     7.2615     7.1826
  283.1000   142.7430     7.3382     7.2650
  283.2000   142.2457     7.4225     7.3482
  283.3000   141.7175     7.5078     7.4414
  283.4000   140.7856     7.5940     7.5710
  283.5000   139.6143     7.6811     7.6136
  283.6000   138.6183     7.7851     7.6909
  283.7000   137.8727     7.8586     7.7542
  283.8000   137.1145     7.9489     7.7982
  283.9000   135.9525     8.0225     7.8478
  284.0000   135.5394     8.0758     7.9465
  284.1000   135.0420     8.1738     7.9872
  284.2000   134.6408     8.2178     8.0325
  284.3000   134.4329     8.2646     8.0564
  284.4000   134.7345     8.3360     8.0673
  284.5000   134.7333     8.4178     8.1116
  284.6000   134.9115     8.4658     8.1107
  284.7000   135.0339     8.5216     8.1482
  284.8000   135.1022     8.5213     8.1664
  284.9000   135.3346     8.5516     8.1835
  285.0000   135.3331     8.6004     8.2224
  285.1000   135.5398     8.6402     8.2215
  285.2000   135.6339     8.6398     8.2656
  285.3000   135.6327     8.6875     8.2778
  285.4000   135.6315     8.6996     8.2771
  285.5000   135.6302     8.7257     8.2904
  285.6000   135.6291     8.7599     8.3338
  285.7000   135.8089     8.7640     8.3330
  285.8000   135.9297     8.8205     8.3324
  285.9000   135.9996     8.8202     8.3317
  286.0000   136.2464     8.8528     8.3310
  286.1000   136.5319     8.8813     8.3303
  286.2000   136.7402     8.8809     8.3296
  286.3000   136.9871     8.8806     8.3289
  286.4000   137.2340     8.9309     8.3282
  286.5000   137.4808     8.9421     8.3275
  286.6000   137.7381     8.9417     8.3268
  286.7000   137.9745     8.9414     8.3261
  286.8000   138.2214     8.9410     8.3253
  286.9000   138.4683     8.9406     8.3247
  287.0000   138.6424     8.9402     8.3240
  287.1000   138.6590     8.9399     8.3233
  287.2000   138.9428     8.9395     8.3226
  287.3000   139.1528     8.9391     8.3219
  287.4000   139.3996     8.9387     8.3211
  287.5000   139.5455     8.9384     8.3205
  287.6000   139.5903     8.9380     8.3198
  287.7000   139.8460     8.9376     8.3191
  287.8000   139.8448     8.9372     8.3184
  287.9000   140.0279     8.9369     8.3177
  288.0000   140.2747     8.9365     8.3170
  288.1000   140.5216     8.9361     8.3163
  288.2000   140.7492     8.9357     8.3156
  288.3000   140.7477     8.9354     8.3149
  288.4000   140.7467     8.9350     8.3142
  288.5000   140.9030     8.9346     8.3134
  288.6000   141.0473     8.9342     8.2722
  288.7000   141.0461     8.8920     8.2543
  288.8000   141.0448     8.8713     8.2536
  288.9000   141.0436     8.8709     8.2529
  289.0000   141.0424     8.8705     8.2522
  289.1000   141.0412     8.8701     8.2051
  289.2000   140.9640     8.9179     8.1933
  289.3000   140.6728     8.9316     8.1927
  289.4000   139.8253     8.9312     8.1920
  289.5000   139.1818     8.9309     8.1913
  289.6000   138.4364     8.9305     8.1905
  289.7000   137.5867     8.9301     8.1479
  289.8000   136.6424     8.9297     8.1322
  289.9000   135.8800     8.9294     8.1315
  290.0000   134.9090     8.9290     8.1308
  290.1000   134.2905     8.9286     8.1301
  290.2000   133.7931     8.9282     8.1293
  290.3000   133.4509     8.9279     8.1288
  290.4000   133.4497     8.9275     8.1006
  290.5000   133.4483     8.9271     8.0708
  290.6000   133.6631     8.9267     8.0701
  290.7000   133.9099     8.9264     8.0694
  290.8000   134.1567     8.9259     8.0688
  290.9000   134.3527     8.9256     8.0681
  291.0000   134.3515     8.9252     8.0442
  291.1000   134.5943     8.9249     8.0106
  291.2000   134.8412     8.9245     8.0099
  291.3000   135.3563     8.9241     8.0091
  291.4000   135.9410     8.9237     8.0086
  291.5000   136.2121     8.9234     8.0079
  291.6000   136.7683     8.9230     8.0264
  291.7000   136.7673     8.9226     8.0719
  291.8000   136.7661     8.9223     8.1185
  291.9000   136.8723     8.9218     8.1179
  292.0000   137.0667     8.9215     8.1529
  292.1000   137.0654     8.9211     8.1991
  292.2000   137.0642     8.9208     8.2301
  292.3000   137.2538     8.9204     8.2346
  292.4000   137.3649     8.9209     8.2863
  292.5000   137.4445     8.9718     8.3283
  292.6000   137.6913     8.9818     8.3755
  292.7000   137.9671     8.9814     8.4230
  292.8000   137.9661     8.9811     8.4591
  292.9000   138.1289     8.9807     8.4584
  293.0000   138.2667     8.9803     8.5169
  293.1000   138.2655     8.9799     8.5558
  293.2000   138.2642     8.9796     8.6043
  293.3000   138.2630     8.9792     8.6531
  293.4000   138.2618     8.9922     8.6946
  293.5000   137.7112     9.0414     8.6937
  293.6000   136.4703     9.0409     8.7399
  293.7000   134.8699     9.0406     8.7533
  293.8000   134.3174     9.0402     8.7778
  293.9000   133.6546     9.0399     8.8132
  294.0000   133.2404     9.0479     8.8158
  294.1000   132.8804     9.1025     8.8734
