~VERSION INFORMATION
 VERS.                2.0:   CWLS LOG ASCII STANDARD - VERSION 2.0
 WRAP.                 NO:   ONE LINE PER DEPTH STEP
~WELL INFORMATION
#MNEM.UNIT      DATA TYPE    INFORMATION
#----------   ------------   ------------------------------
 STRT.F            0.0000:   START DEPTH
 STOP.F          790.0000:   STOP DEPTH
 STEP.F            0.1000:   STEP LENGTH
 NULL.          -999.2500:   NO VALUE
 COMP.   FLUOR DANIEL INC:   COMPANY
 WELL.   72-2 X-34 #72-34:   WELL
 FLD .          N.P.R. #3:   FIELD
 LOC .      S34 T39N R78W:   LOCATION
 CNTY.            NATRONA:   COUNTY
 STAT.            WYOMING:   STATE
 CTRY. UNITED STATES OF AMERICA:   COUNTRY
 SRVC.      Western Atlas:   SERVICE COMPANY
 DATE.        25-MAR-1995:   LOGDATE
 API .       490252269300:   API NUMBER
~CURVE INFORMATION
#MNEM.UNIT       API CODE    CURVE DESCRIPTION
#----------   ------------   ------------------------------
 DEPT.F                  :   
 GRR .GAPI   07 310 01 00:   GAMMA RAY
 RILD.OHMM   07 120 46 00:   INDUCTION LOG DEEP RESISTIVITY
 RILM.OHMM   07 120 44 00:   INDUCTION LOG MEDIUM RESISTIVITY
~PARAMETER INFORMATION
#MNEM.UNIT          VALUE    DESCRIPTION
#----------   ------------   ------------------------------
 PD  .                 GL:   PERMANENT DATUM
 EPD .F              5058:   ELEVATION PERMANENT DATUM
 LMF .                 KB:   LOG MEASURED FROM
 DAPD.F                10:   FEET ABOVE PERMANENT DATUM
 DMF .                 KB:   DRILLING MEASURED FROM
 EKB .F              5068:   KELLING BUSHING
 EDF .F              5067:   DRILLING FLOOR
 EGL .F              5058:   GROUND LEVEL
 DATE.        25-MAR-1995:   RUN DATE
 RUN .                  1:   RUN NUMBER
 DD  .F               796:   DEPTH DRILLER
 DL  .F               798:   DEPTH LOGGER
 BLI .F               790:   BOTTOM LOG INTERVAL
 TLI .F                96:   TOP LOG INTERVAL
 CS  .IN            9.625:   CASING SIZE
 CBD .F                95:   CASING BOTTOM DRILLER
 CBL .F                96:   CASING BOTTOM LOGGER
 BS  .IN             8.75:   BIT SIZE
 BSD .F               796:   BIT SIZE AT DEPTH
 DFT .                AIR:   DRILLING FLUID TYPE
 MRT .F                97:   MAXIMUM RECORDED TEMPERATURE
 LUN .            HL 6530:   LOGGING UNIT NUMBER
 LUL .             CASPER:   LOGGING UNIT LOCATION
 ENGI.             RAUTIO:   RECORDING ENGINEER
 WITN.             STRONG:   WITNESSED BY
 CLNT.            A2DTECH:   CLIENT CODE
 ORIG.       2", 5" PRINT:   ORIGIN OF DATA
 UWI .       490252269300:   UNIQUE WELL ID
 DICO. A2D Technologies, Inc.:   DIGITIZING COMPANY
~OTHER INFORMATION
~A    DEPT      GRR      RILD       RILM   
# ...
  728.0000    95.9752    11.6681    11.7153
  728.1000    95.5482    11.6849    11.7153
  728.2000    95.0300    11.7507    11.7153
  728.3000    94.5117    11.7499    11.7153
  728.4000    93.9348    11.8094    11.7815
  728.5000    93.1497    11.8331    11.8499
  728.6000    91.9354    11.8324    11.8792
  728.7000    91.2908    11.8317    11.8792
  728.8000    90.8399    11.8311    11.8909
  728.9000    90.6930    11.8303    11.9620
  729.0000    90.6335    11.8297    11.9620
  729.1000    90.3832    11.8762    11.9620
  729.2000    91.0060    11.9134    11.9620
  729.3000    91.2229    11.9127    11.9874
  729.4000    91.9771    11.9120    12.0453
  729.5000    93.1278    11.9112    12.0453
  729.6000    94.5474    11.9106    12.0453
  729.7000    96.3847    11.9100    12.0453
  729.8000    99.0968    11.9093    12.0453
  729.9000   100.1854    11.9086    12.0453
  730.0000   101.6485    11.9137    12.0453
  730.1000   102.6343    11.9927    12.0453
  730.2000   102.8317    11.9291    12.0453
  730.3000   102.8433    11.9058    12.0453
  730.4000   103.1441    11.9052    12.0453
  730.5000   103.3634    11.9045    12.0453
  730.6000   103.2892    11.9038    12.0453
  730.7000   103.1459    11.9031    12.0453
  730.8000   103.0827    11.9024    12.0453
  730.9000   102.8119    11.9513    12.0453
  731.0000   102.2147    11.9866    12.0453
  731.1000   101.9952    11.9859    12.0209
  731.2000   101.5680    11.9852    11.9620
  731.3000   101.1666    11.9845    11.9620
  731.4000   100.7775    11.9839    11.9620
  731.5000   100.0000    11.9832    11.9620
  731.6000    99.1080    11.9825    11.9620
  731.7000    98.6660    11.9818    11.9620
  731.8000    97.9787    11.9811    11.9620
  731.9000    97.4368    11.9804    11.9620
  732.0000    97.2442    11.9798    11.9620
  732.1000    97.2448    11.9283    11.9620
  732.2000    97.2455    11.8929    11.9620
  732.3000    97.4684    11.8922    11.9620
  732.4000    97.7286    11.8915    11.9620
  732.5000    97.9887    11.8908    11.9620
  732.6000    98.2488    11.8902    11.9620
  732.7000    98.5089    11.8895    11.9620
  732.8000    98.8044    11.8889    11.9620
  732.9000    98.8050    11.8882    11.9620
  733.0000    98.8056    11.8783    11.9620
  733.1000    98.8062    11.8019    11.9620
  733.2000    98.8069    11.8013    11.9620
  733.3000    98.8074    11.8006    11.9620
  733.4000    98.8082    11.7999    11.9620
  733.5000    98.8087    11.7993    11.9620
  733.6000    98.8093    11.7986    11.9620
  733.7000    98.8100    11.7979    11.9620
  733.8000    98.8106    11.7313    11.9620
  733.9000    98.8112    11.7124    12.0126
  734.0000    98.8119    11.7117    12.0453
  734.1000    98.8124    11.7110    12.0453
  734.2000    98.8130    11.7103    12.0453
  734.3000    98.9366    11.7096    12.0453
  734.4000    99.1967    11.6428    12.0453
  734.5000    99.4568    11.6248    11.9951
  734.6000    99.7488    11.6241    11.9620
  734.7000   100.2044    11.6235    11.9620
  734.8000   100.7238    11.6228    11.9536
  734.9000   101.2432    11.6221    11.8792
  735.0000   101.8354    11.6215    11.8792
  735.1000   102.5512    11.5682    11.8792
  735.2000   102.5519    11.5372    11.8792
  735.3000   102.5524    11.5115    11.8574
  735.4000   102.3760    11.4536    11.7969
  735.5000   102.2426    11.4529    11.7969
  735.6000   102.2433    11.4523    11.7347
  735.7000   102.2218    11.3469    11.7153
  735.8000   101.9335    11.2881    11.6806
  735.9000   101.4741    11.2623    11.6132
  736.0000   101.1342    11.2062    11.5537
  736.1000   100.8754    11.2056    11.5537
  736.2000   100.5418    11.1396    11.4930
  736.3000   100.0469    11.1243    11.4268
  736.4000    99.7599    11.1625    11.3943
  736.5000    99.7605    11.2030    11.3943
  736.6000    99.7611    11.2148    11.3873
  736.7000    99.7617    11.2822    11.3154
  736.8000    99.7624    11.3484    11.3154
  736.9000    99.7630    11.4158    11.3154
  737.0000    99.7637    11.4430    11.3154
  737.1000    99.7642    11.4156    11.3154
  737.2000    99.9457    11.3601    11.3154
  737.3000   100.0765    11.3594    11.3154
  737.4000    99.9996    11.2913    11.3154
  737.5000    99.7667    11.2771    11.3615
  737.6000    99.7674    11.2361    11.3943
  737.7000    99.3005    11.1685    11.3943
  737.8000    98.7822    11.1148    11.3943
  737.9000    98.2640    11.1141    11.3943
  738.0000    97.7458    11.1134    11.3943
  738.1000    97.2820    11.1129    11.3943
  738.2000    97.2828    11.1122    11.3943
  738.3000    97.2833    11.1116    11.3943
  738.4000    97.2840    11.1110    11.3943
  738.5000    97.4163    11.1103    11.3943
  738.6000    97.8360    11.1096    11.3943
  738.7000    98.5869    11.1636    11.3943
  738.8000    99.1528    11.1883    11.3621
  738.9000    99.6260    11.1876    11.3154
  739.0000   100.1451    11.1870    11.3154
  739.1000   100.6646    11.1864    11.3154
  739.2000   101.1029    11.1856    11.3154
  739.3000   101.3628    11.1850    11.3154
  739.4000   101.6448    11.1844    11.3473
  739.5000   102.1204    11.1837    11.3943
  739.6000   102.4539    11.1831    11.3943
  739.7000   102.7139    11.1825    11.3943
  739.8000   103.0565    11.1817    11.3943
  739.9000   103.5450    11.1812    11.3943
  740.0000   103.8259    11.1806    11.3943
  740.1000   104.3037    11.1799    11.3943
  740.2000   104.8231    11.1955    11.3943
  740.3000   105.2073    11.2590    11.3943
  740.4000   105.5512    11.2583    11.3943
  740.5000   106.0062    11.2577    11.3943
  740.6000   106.0069    11.3008    11.3943
  740.7000   106.4873    11.3373    11.3943
  740.8000   107.0064    11.3367    11.3943
  740.9000   107.3894    11.3361    11.3943
  741.0000   107.6495    11.3353    11.3943
  741.1000   107.8762    11.3347    11.3943
  741.2000   107.8769    11.3341    11.3943
  741.3000   108.1185    11.3334    11.3943
  741.4000   108.1891    11.3151    11.3943
  741.5000   108.0518    11.2513    11.3943
  741.6000   107.7068    11.2505    11.3943
  741.7000   107.1536    11.2500    11.3943
  741.8000   106.3254    11.2494    11.3943
  741.9000   105.8415    11.2487    11.3943
  742.0000   105.3232    11.2480    11.3943
  742.1000   104.9440    11.2474    11.3943
  742.2000   104.5978    11.2467    11.3943
  742.3000   104.0796    11.1875    11.3943
  742.4000   103.5297    11.1652    11.3943
  742.5000   103.0427    11.1646    11.3943
  742.6000   102.7167    11.1639    11.3943
  742.7000   102.4579    11.1633    11.3943
  742.8000   102.2880    11.1626    11.3943
  742.9000   102.2887    11.1620    11.3943
  743.0000   102.2893    11.1613    11.3644
  743.1000   102.2899    11.1607    11.3154
  743.2000   102.2905    11.1601    11.3154
  743.3000   102.2911    11.1594    11.3154
  743.4000   102.2917    11.1587    11.3154
  743.5000   102.2924    11.1582    11.3154
  743.6000   102.2930    11.1575    11.2860
  743.7000   102.5398    11.1569    11.2371
  743.8000   102.6053    11.1562    11.2371
  743.9000   102.7489    11.1488    11.2371
  744.0000   102.9176    11.0753    11.2371
  744.1000   102.9578    11.0747    11.1951
  744.2000   103.2299    11.0741    11.1593
  744.3000   103.4779    11.0735    11.1593
  744.4000   103.5421    11.0728    11.1593
  744.5000   103.5428    11.0648    11.1593
  744.6000   103.5434    10.9925    11.1593
  744.7000   103.5440    10.9919    11.1179
  744.8000   103.5447    10.9913    11.0820
  744.9000   103.5453    10.9907    11.0820
  745.0000   103.5459    10.9900    11.0794
  745.1000   103.4011    10.9894    11.0053
  745.2000   103.1424    10.9887    11.0053
  745.3000   102.8417    10.9882    10.9649
  745.4000   102.3042    10.9875    10.9292
  745.5000   101.5554    10.9524    10.9292
  745.6000    99.9850    10.9079    10.9292
  745.7000    98.6095    10.9072    10.9292
  745.8000    97.5725    10.9066    10.8766
  745.9000    96.5786    10.9060    10.8535
  746.0000    95.7761    10.9054    10.8535
  746.1000    95.7767    10.8699    10.8390
