~VERSION INFORMATION
 VERS.                2.0:   CWLS LOG ASCII STANDARD - VERSION 2.0
 WRAP.                 NO:   ONE LINE PER DEPTH STEP
~WELL INFORMATION
#MNEM.UNIT      DATA TYPE    INFORMATION
#----------   ------------   ------------------------------
 STRT.F           28.5000:   START DEPTH
 STOP.F          516.0000:   STOP DEPTH
 STEP.F            0.5000:   STEP LENGTH
 NULL.          -999.2500:   NO VALUE
 COMP. FENIX & SCISSON INC:   COMPANY
 WELL.         SX 3 #54-3:   WELL
 FLD .            WILDCAT:   FIELD
 LOC .       S3 T38N R78W:   LOCATION
 CNTY.            NATRONA:   COUNTY
 STAT.            WYOMING:   STATE
 CTRY. UNITED STATES OF AMERICA:   COUNTRY
 SRVC.            Unknown:   SERVICE COMPANY
 DATE.        22-SEP-1978:   LOGDATE
 API .       490251069000:   API NUMBER
~CURVE INFORMATION
#MNEM.UNIT       API CODE    CURVE DESCRIPTION
#----------   ------------   ------------------------------
 DEPT.F                  :   
 SPR .MV     05 010 01 00:   SPONTANEOUS POTENTIAL FROM RES.
 ILD .OHMM   05 120 46 00:   INDUCTION LOG DEEP
 SN  .OHMM   05 040 16 00:   SHORT NORMAL 16"
 CALD.IN     45 280 60 00:   CALIPER
 GRD .GAPI   45 310 01 00:   GAMMA RAY FROM DENSITY LOG
 CORR.G/C3   45 356 01 00:   DENSITY CORRECTION
 DEN .G/C3   45 350 01 00:   COMPENSATED BULK DENSTIY
 DPHI.DEC    45 890 12 00:   DENSITY POROSITY SANDSTONE
~PARAMETER INFORMATION
#MNEM.UNIT          VALUE    DESCRIPTION
#----------   ------------   ------------------------------
 PD  .                 GL:   PERMANENT DATUM
 EPD .F              5168:   ELEVATION PERMANENT DATUM
 LMF .                 KB:   LOG MEASURED FROM
 DAPD.F                 4:   FEET ABOVE PERMANENT DATUM
 DMF .                 KB:   DRILLING MEASURED FROM
 EKB .F              5172:   KELLING BUSHING
 EGL .F              5168:   GROUND LEVEL
 DATE.            9-22-78:   RUN DATE
 RUN .                  1:   RUN NUMBER
 DD  .F               510:   DEPTH DRILLER
 DL  .F               517:   DEPTH LOGGER
 BLI .F               510:   BOTTOM LOG INTERVAL
 TLI .F                40:   TOP LOG INTERVAL
 CS  .IN            8.625:   CASING SIZE
 CBD .F                40:   CASING BOTTOM DRILLER
 CBL .F                48:   CASING BOTTOM LOGGER
 BS  .IN            7.875:   BIT SIZE
 BSD .F               510:   BIT SIZE AT DEPTH
 DFT .            KCL MUD:   DRILLING FLUID TYPE
 DFD .                8.7:   DRILLING FLUID DENSITY
 DFV .                 39:   DRILLING FLUID VISCOSITY
 DFPH.                  9:   DRILLING FLUID PH
 DFL .                8.9:   DRILLING FLUID LOSS
 MSS .          FLOW LINE:   MUD SAMPLE SOURCE
 RMS .OHMM            .32:   RESISTIVITY MUD SAMPLE
 MST .F                68:   MUD SAMPLE TEMPERATURE
 RMF .OHMM            .26:   RESISTIVITY MUD FILTRATE SAMPLE
 MFST.F                72:   MUD FILTRATE SAMPLE TEMPERATURE
 RMC .OHMM            .28:   RESISTIVITY MUD CAKE
 MCST.F                75:   MUD CAKE SAMPLE TEMPERATURE
 MFSS.               MEAS:   MUD FILTRATE SAMPLE SOURCE
 MCSS.               MEAS:   MUD CAKE SAMPLE SOURCE
 RMB .OHMM            .32:   RESISTIVITY MUD AT BHT
 BHT .F                69:   BOTTOM HOLE TEMPERATURE
 TCS .HRS               3:   TIME CURCULATED STOPPED
 MRT .F                69:   MAXIMUM RECORDED TEMPERATURE
 LUN .               2958:   LOGGING UNIT NUMBER
 LUL .               CASP:   LOGGING UNIT LOCATION
 ENGI.           REYNOLDS:   RECORDING ENGINEER
 WITN.              AMEND:   WITNESSED BY
 CLNT.            A2DTECH:   CLIENT CODE
 ORIG.           5" PRINT:   ORIGIN OF DATA
 UWI .       490251069000:   UNIQUE WELL ID
 DICO. A2D Technologies, Inc.:   DIGITIZING COMPANY
~OTHER INFORMATION
~A   DEPT      SPR        ILD         SN       CALD         GRD      CORR        DEN       DPHI   
# ...
  312.0000   -34.5981    25.6315    20.9568     7.9797    91.0544     0.0350     2.3505     0.1954
  312.5000   -34.4790    25.3865    21.1327     8.0142    91.6740     0.0368     2.3530     0.1924
  313.0000   -34.3654    25.1410    20.9463     8.0333    92.1771     0.0309     2.3609     0.1876
  313.5000   -34.3811    24.8999    20.8219     8.0148    92.2777     0.0243     2.3688     0.1827
  314.0000   -34.4125    24.6608    20.6983     7.9968    90.0423     0.0177     2.3766     0.1810
  314.5000   -34.4437    24.4239    20.5754     7.9788    89.5689     0.0189     2.3806     0.1826
  315.0000   -34.4747    24.2819    20.4532     7.9608    92.8735     0.0212     2.3803     0.1842
  315.5000   -34.5057    24.7215    20.3318     7.9427    95.2137     0.0234     2.3677     0.1911
  316.0000   -34.5368    25.1691    20.2110     7.9247    96.5828     0.0257     2.3543     0.1983
  316.5000   -34.5678    25.4298    20.0910     7.9067    96.7593     0.0279     2.3412     0.2055
  317.0000   -34.5988    25.5779    19.9946     7.8887    94.3672     0.0277     2.3310     0.2128
  317.5000   -34.6298    25.9209    19.9718     7.8707    87.0717     0.0252     2.3214     0.2178
  318.0000   -34.6608    26.2688    19.9491     7.8527    81.1595     0.0226     2.3178     0.2106
  318.5000   -34.6917    26.3887    19.9265     7.8358    81.8542     0.0201     2.3331     0.1983
  319.0000   -34.7224    26.4133    19.9038     7.8486    86.2357     0.0176     2.3531     0.1860
  319.5000   -34.7498    26.5083    19.8812     7.8677    91.8787     0.0150     2.3732     0.1737
  320.0000   -34.9655    26.6360    19.8588     7.8870    90.3410     0.0124     2.3938     0.1716
  320.5000   -35.2304    26.3179    19.8360     7.9062    88.9518     0.0089     2.3962     0.1726
  321.0000   -35.4969    25.3140    19.7989     7.9255    88.1369     0.0098     2.3917     0.1734
  321.5000   -35.7527    24.3500    19.6551     7.9448    88.1629     0.0107     2.3888     0.1751
  322.0000   -35.8367    23.4190    19.5125     7.9640    90.2615     0.0115     2.3858     0.1767
  322.5000   -35.9155    22.5694    19.3707     7.9753    96.0664     0.0123     2.3845     0.1782
  323.0000   -36.0878    21.7339    19.2300     7.9443    97.1787     0.0131     2.3834     0.1794
  323.5000   -36.3861    21.7339    19.0903     7.9120    96.0017     0.0139     2.3817     0.1778
  324.0000   -36.6827    21.7339    18.9517     7.8982    94.8998     0.0148     2.3814     0.1743
  324.5000   -36.9511    21.7339    18.8140     7.9197    92.6210     0.0156     2.3866     0.1708
  325.0000   -36.9172    21.7339    18.6774     7.9414    90.3146     0.0164     2.3935     0.1691
  325.5000   -36.8748    21.7339    18.5417     7.9630    88.4590     0.0172     2.3975     0.1717
  326.0000   -36.8333    21.7339    18.4070     7.9846    88.2257     0.0181     2.3957     0.1742
  326.5000   -36.7922    21.7339    18.2732     8.0062    91.5394     0.0189     2.3918     0.1758
  327.0000   -36.7510    21.7341    18.1401     8.0159    92.9816     0.0197     2.3883     0.1738
  327.5000   -36.7099    21.7312    18.0675     8.0161    94.0348     0.0205     2.3882     0.1680
  328.0000   -36.6687    21.8077    18.0676     8.0161    96.7607     0.0197     2.3948     0.1572
  328.5000   -36.6273    21.9210    18.0679     8.0160    98.3935     0.0167     2.4274     0.1416
  329.0000   -36.5838    22.0349    18.0643     8.0160    98.3981     0.0137     2.4590     0.1126
  329.5000   -36.5327    22.1392    18.1959     8.0160    95.1900     0.0108     2.4906     0.0839
  330.0000   -37.3748    22.6914    18.3855     8.0160    89.4801     0.0090     2.5217     0.0981
  330.5000   -38.3245    23.4082    18.5771     8.0160    84.1871     0.0104     2.5395     0.1220
  331.0000   -38.4535    24.1477    18.7707     8.0160    84.3334     0.0170     2.4975     0.1460
  331.5000   -38.6839    24.5073    18.9663     8.0160    94.2647     0.0236     2.4504     0.1666
  332.0000   -38.9144    24.2819    19.1640     8.0160    96.1002     0.0261     2.4037     0.1777
  332.5000   -38.9241    24.2110    19.3637     8.0160    94.8327     0.0275     2.3768     0.1890
  333.0000   -38.8329    24.1358    19.5655     8.0160    94.3940     0.0289     2.3670     0.1896
  333.5000   -38.7447    24.0586    19.8161     8.0160    96.2256     0.0303     2.3614     0.1904
  334.0000   -38.6570    23.8418    19.5672     8.0161    99.7023     0.0317     2.3583     0.1894
  334.5000   -38.5694    23.6182    19.2495     8.0160   100.1870     0.0331     2.3603     0.1865
  335.0000   -38.4817    22.9121    18.9369     8.0149    99.9063     0.0345     2.3639     0.1854
  335.5000   -38.3941    22.3093    18.6295     8.0091    98.4811     0.0350     2.3668     0.1854
  336.0000   -38.3059    21.7222    18.3270     8.0035    95.6537     0.0350     2.3693     0.1831
  336.5000   -38.2171    21.1506    18.0294     7.9978    93.9378     0.0349     2.3719     0.1798
  337.0000   -38.1520    20.5940    17.7367     7.9922    92.7887     0.0313     2.3771     0.1765
  337.5000   -38.3947    20.1535    17.4488     7.9865    91.5615     0.0274     2.3830     0.1734
  338.0000   -38.6488    20.0242    17.1655     7.9809    92.4986     0.0236     2.3889     0.1730
  338.5000   -38.9042    19.8958    16.8868     7.9736    94.5362     0.0210     2.3895     0.1727
  339.0000   -38.9457    19.7682    16.6126     7.9563    93.7181     0.0208     2.3895     0.1723
  339.5000   -38.9389    19.6414    16.4545     7.9389    93.5445     0.0205     2.3895     0.1719
  340.0000   -38.7938    19.5154    16.4162     7.9213    95.4538     0.0201     2.3895     0.1742
  340.5000   -38.6501    19.4533    16.3778     7.9166    98.4177     0.0198     2.3897     0.1796
  341.0000   -38.5863    19.4728    16.3398     7.9240    98.6736     0.0194     2.3828     0.1850
  341.5000   -38.7734    19.5107    16.3017     7.9315    97.5809     0.0191     2.3736     0.1894
  342.0000   -38.9531    19.5487    16.2638     7.9389    97.1745     0.0190     2.3645     0.1895
  342.5000   -39.1355    19.5867    16.2258     7.9464    98.8074     0.0190     2.3594     0.1896
  343.0000   -39.1150    19.6248    16.1880     7.9538   101.5660     0.0188     2.3590     0.1898
  343.5000   -39.0729    19.6630    16.1503     7.9613   104.3334     0.0206     2.3586     0.1931
  344.0000   -39.0314    19.7013    16.1127     7.9688    99.4258     0.0345     2.3600     0.1978
  344.5000   -38.9902    19.7399    16.0752     7.9762    92.8904     0.0521     2.3483     0.2022
  345.0000   -38.9491    19.7780    16.0377     7.9837    86.2728     0.0672     2.3412     0.1954
  345.5000   -38.9080    19.8161    16.0003     7.9910    84.1234     0.0711     2.3562     0.1847
  346.0000   -38.8668    19.4727    15.9631     7.9991    85.7059     0.0708     2.3767     0.1738
  346.5000   -38.8255    19.0579    15.9260     8.0201    90.7024     0.0702     2.3980     0.1654
  347.0000   -38.7840    18.7476    15.8883     8.0410    95.7302     0.0695     2.4023     0.1635
  347.5000   -38.7476    19.0058    15.8348     8.0619    97.4284     0.0687     2.4059     0.1616
  348.0000   -38.7932    19.3499    15.7707     8.0829    96.8400     0.0746     2.4094     0.1578
  348.5000   -38.8407    19.7003    15.7072     8.1036    96.9175     0.0870     2.4130     0.1533
  349.0000   -38.8877    19.8161    15.6439     8.1111    98.4695     0.0996     2.4166     0.1488
  349.5000   -38.9347    19.8161    15.5810     8.0820   100.0020     0.1092     2.4245     0.1443
  350.0000   -38.9817    19.8161    15.5182     8.0537   101.6034     0.1094     2.4381     0.1394
  350.5000   -39.0287    19.6339    15.4558     8.0251   101.9854     0.0921     2.4476     0.1419
  351.0000   -39.0756    19.3351    15.3935     7.9970   101.9970     0.0684     2.4435     0.1455
  351.5000   -39.1226    18.4538    15.3316     8.0000   101.9810     0.0445     2.4363     0.1475
  352.0000   -39.1317    18.0721    15.2698     8.0073   101.1604     0.0208     2.4340     0.1485
