~VERSION INFORMATION
 VERS.                2.0:   CWLS LOG ASCII STANDARD - VERSION 2.0
 WRAP.                 NO:   ONE LINE PER DEPTH STEP
~WELL INFORMATION
#MNEM.UNIT      DATA TYPE    INFORMATION
#----------   ------------   ------------------------------
 STRT.F           50.0000:   START DEPTH
 STOP.F         1152.0000:   STOP DEPTH
 STEP.F            0.5000:   STEP LENGTH
 NULL.          -999.2500:   NO VALUE
 COMP. FENIX & SCISSON INC:   COMPANY
 WELL.  NPR 3 #65 SX14-14:   WELL
 FLD .             TEAPOT:   FIELD
 LOC .      S14 T38N R78W:   LOCATION
 CNTY.            NATRONA:   COUNTY
 STAT.            WYOMING:   STATE
 CTRY. UNITED STATES OF AMERICA:   COUNTRY
 SRVC.              Welex:   SERVICE COMPANY
 DATE.        13-JAN-1979:   LOGDATE
 API .       490251073800:   API NUMBER
~CURVE INFORMATION
#MNEM.UNIT       API CODE    CURVE DESCRIPTION
#----------   ------------   ------------------------------
 DEPT.F                  :   
 SPR .MV     07 010 01 00:   SPONTANEOUS POTENTIAL
 SGRD.OHMM   07 220 05 00:   SHALLOW GUARD RESISTIVITY
 ILD .OHMM   07 120 46 00:   INDUCTION LOG DEEP
 ILM .OHMM   07 120 44 00:   INDUCTION LOG MEDIUM
 CALD.IN     45 280 60 00:   CALIPER
 GRD .GAPI   45 310 01 00:   GAMMA RAY FROM DENSITY LOG
 RHOB.G/C3   45 350 01 00:   BULK DENSITY
 DPHI.DEC    45 890 12 00:   DENSITY POROSITY SANDSTONE
 CORR.G/C3   45 356 01 00:   DENSITY CORRECTION
~PARAMETER INFORMATION
#MNEM.UNIT          VALUE    DESCRIPTION
#----------   ------------   ------------------------------
 PD  .                 GL:   PERMANENT DATUM
 EPD .F              5312:   ELEVATION PERMANENT DATUM
 LMF .                 KB:   LOG MEASURED FROM
 DAPD.F                 4:   FEET ABOVE PERMANENT DATUM
 DMF .                 KB:   DRILLING MEASURED FROM
 EKB .F              5316:   KELLING BUSHING
 EGL .F              5312:   GROUND LEVEL
 DATE.            1-13-79:   RUN DATE
 RUN .                  1:   RUN NUMBER
 DD  .F              1167:   DEPTH DRILLER
 DL  .F              1154:   DEPTH LOGGER
 BLI .F              1152:   BOTTOM LOG INTERVAL
 TLI .F                50:   TOP LOG INTERVAL
 CS  .IN            8.625:   CASING SIZE
 CBD .F                40:   CASING BOTTOM DRILLER
 CBL .F                60:   CASING BOTTOM LOGGER
 BS  .IN            7.875:   BIT SIZE
 BSD .F              1167:   BIT SIZE AT DEPTH
 DFT .            KCL MUD:   DRILLING FLUID TYPE
 DFD .                8.8:   DRILLING FLUID DENSITY
 DFV .                 42:   DRILLING FLUID VISCOSITY
 DFPH.                8.2:   DRILLING FLUID PH
 DFL .                7.7:   DRILLING FLUID LOSS
 MSS .                PIT:   MUD SAMPLE SOURCE
 RMS .OHMM            .29:   RESISTIVITY MUD SAMPLE
 MST .F                40:   MUD SAMPLE TEMPERATURE
 RMF .OHMM            .19:   RESISTIVITY MUD FILTRATE SAMPLE
 MFST.F                40:   MUD FILTRATE SAMPLE TEMPERATURE
 RMC .OHMM            .87:   RESISTIVITY MUD CAKE
 MCST.F                40:   MUD CAKE SAMPLE TEMPERATURE
 MFSS.           MEASURED:   MUD FILTRATE SAMPLE SOURCE
 MCSS.           MEASURED:   MUD CAKE SAMPLE SOURCE
 RMB .OHMM           .119:   RESISTIVITY MUD AT BHT
 BHT .F                97:   BOTTOM HOLE TEMPERATURE
 TCS .HRS              30:   TIME CURCULATED STOPPED
 MRT .F                97:   MAXIMUM RECORDED TEMPERATURE
 LUN .               8611:   LOGGING UNIT NUMBER
 LUL .             CASPER:   LOGGING UNIT LOCATION
 ENGI.            BENTSEN:   RECORDING ENGINEER
 WITN.              AMEND:   WITNESSED BY
 CLNT.            A2DTECH:   CLIENT CODE
 ORIG.       2", 5" PRINT:   ORIGIN OF DATA
 UWI .       490251073800:   UNIQUE WELL ID
 DICO. A2D Technologies, Inc.:   DIGITIZING COMPANY
~OTHER INFORMATION
~A   DEPT      SPR       SGRD        ILD        ILM       CALD        GRD       RHOB       DPHI       CORR   
# ...
  561.0000   -31.5186     7.3645     5.8419     6.1939     7.9231   137.6279     2.2411     0.2625     0.0007
  561.5000   -31.9799     6.8671     5.2639     5.7610     7.9231   140.1221     2.2291     0.2677    -0.0102
  562.0000   -32.4393     6.3964     4.5483     5.3583     7.9231   129.3401     2.2445     0.2556    -0.0211
  562.5000   -32.9014     6.2809     3.9373     4.9838     7.9231   125.8002     2.2771     0.2367    -0.0321
  563.0000   -33.3603     6.7001     3.4072     4.4994     7.9231   124.1030     2.3173     0.2103    -0.0412
  563.5000   -33.6896     5.5785     2.9486     3.8623     7.9231   114.9582     2.3831     0.1810    -0.0271
  564.0000   -33.6004     4.6626     2.5516     3.3154     7.9231   105.9664     2.4569     0.1516    -0.0132
  564.5000   -33.5237     2.7650     2.2081     2.8460     7.9231   103.4375     2.5034     0.1222    -0.0005
  565.0000   -33.3061     2.3621     2.0977     2.6290     7.9231   104.8934     2.5058     0.0998    -0.0057
  565.5000   -32.9257     2.2109     1.9816     2.6126     7.9231   106.4222     2.4990     0.1064    -0.0114
  566.0000   -31.9966     2.2134     1.9951     2.7569     7.9231   106.6026     2.4934     0.1109    -0.0142
  566.5000   -31.0767     2.4002     2.0185     2.9204     7.9231   106.0705     2.5036     0.1023    -0.0034
  567.0000   -30.1353     2.5413     2.2433     3.1724     7.9231   106.2558     2.5277     0.0936     0.0072
  567.5000   -29.5264     2.6380     2.4756     3.5634     7.9231   106.9199     2.5215     0.0899     0.0136
  568.0000   -28.9170     4.5950     2.8084     4.0026     7.9231   106.4843     2.5095     0.1004     0.0167
  568.5000   -28.3032     7.2381     3.2021     4.4959     7.9231   105.3541     2.4974     0.1082     0.0197
  569.0000   -27.6893     8.3613     3.9799     5.0500     7.9231   107.2744     2.4853     0.1161     0.0227
  569.5000   -27.0486     8.4388     4.9922     5.6724     7.9231   109.7681     2.4736     0.1240     0.0257
  570.0000   -26.9618     8.1330     6.2615     6.3715     7.9231   113.5858     2.4578     0.1426     0.0281
  570.5000   -27.0457     9.1447     7.8705     7.0816     7.9231   121.2065     2.3665     0.1690     0.0198
  571.0000   -27.1341     9.8232     9.3323     7.3214     7.9231   127.7489     2.3406     0.2108     0.0077
  571.5000   -27.2207    10.5520     9.9305     7.5982     7.9231   119.6241     2.3263     0.2046    -0.0044
  572.0000   -27.3066    11.3380    10.0642     7.8854     7.9231   110.1308     2.3649     0.1797    -0.0119
  572.5000   -27.3925    11.3380     9.2406     8.0582     7.9231   105.7802     2.4492     0.1277    -0.0104
  573.0000   -27.4628    10.2658     8.3189     7.8925     7.9231   103.1664     2.4665     0.1264    -0.0065
  573.5000   -28.2972     9.5702     7.4864     7.7775     7.9231   101.3988     2.4666     0.1252    -0.0026
  574.0000   -28.8361     8.9746     6.7376     7.1615     7.9231   102.4754     2.4714     0.1238     0.0013
  574.5000   -29.0881     8.7630     6.0650     6.3869     7.9231   103.4742     2.4765     0.1186     0.0052
  575.0000   -28.3465     6.5117     5.5057     5.5676     7.9231   104.4699     2.4878     0.1116     0.0086
  575.5000   -28.1672     3.9714     5.1937     5.5671     7.9231   105.5064     2.5031     0.1066     0.0105
  576.0000   -27.0146     3.0296     5.0336     6.0015     7.9231   104.6733     2.4994     0.1066     0.0124
  576.5000   -25.1314     5.3211     5.3308     6.5570     7.9231   103.5863     2.4963     0.1088     0.0143
  577.0000   -24.3975     8.2861     5.5478     7.1646     7.9231   104.0998     2.4932     0.1109     0.0162
  577.5000   -23.7120    10.1841     5.7796     7.8284     7.9231   103.3636     2.4903     0.1130     0.0181
  578.0000   -23.0228     9.9761     6.2506     8.2286     7.9231   102.7000     2.4825     0.1180     0.0201
  578.5000   -22.3324     9.8591     6.7656     8.5538     7.9231   103.5738     2.4739     0.1230     0.0218
  579.0000   -21.6443     9.7825     7.8399     8.8919     7.9232   104.7646     2.4653     0.1280     0.0167
  579.5000   -20.7928     9.9225     9.0511     9.0811     7.9233   106.3230     2.4564     0.1304     0.0111
  580.0000   -19.9044    10.0843    10.1214     9.2451     7.9223   108.2778     2.4587     0.1290     0.0154
  580.5000   -19.1029    10.2500    10.6160     9.4120     7.8896   110.1045     2.4639     0.1262     0.0224
  581.0000   -18.6482    10.4181    11.1348     9.5819     7.7415   109.3237     2.4628     0.1284     0.0224
  581.5000   -18.1502    10.5890    11.6789     9.7549     7.5968   108.0620     2.4558     0.1328     0.0156
  582.0000   -17.6497    10.7626    12.2497     9.9310     7.5072   106.8015     2.4512     0.1341     0.0089
  582.5000   -17.1487    10.9391    12.6801    10.1103     7.5802   105.5440     2.4695     0.1235     0.0080
  583.0000   -16.6503    11.1185    12.9491    10.2928     7.6677   104.2806     2.4842     0.1145     0.0080
  583.5000   -16.2673    11.3380    13.2238    10.4786     7.6940   102.9719     2.4993     0.1036     0.0093
  584.0000   -16.1825    11.3380    13.5049    10.6678     7.7161   103.6553     2.4926     0.1093     0.0105
  584.5000   -16.0925    11.2213    13.7910    10.8604     7.7780   104.8484     2.4803     0.1209     0.0116
  585.0000   -16.0026    11.1072    13.8917    10.9271     7.8403   105.6123     2.4721     0.1226     0.0170
  585.5000   -15.9125    10.8521    13.8904    10.7118     7.8842   104.9384     2.4711     0.1243     0.0234
  586.0000   -15.8224    10.2914    13.8904    10.5286     7.8726   104.2809     2.4692     0.1261     0.0297
  586.5000   -15.7326    10.0524    13.8904    10.5320     7.8302   104.7365     2.4635     0.1299     0.0339
  587.0000   -15.6429    10.9186    13.8902    10.7598     7.7891   105.8390     2.4539     0.1345     0.0325
  587.5000   -15.5498    11.5947    13.8896    10.9977     7.7480   106.8156     2.4457     0.1389     0.0300
  588.0000   -15.3148    12.3127    13.8901    11.2409     7.7066   105.9547     2.4422     0.1393     0.0335
  588.5000   -14.8689    13.0752    13.8857    11.4894     7.6677   105.0492     2.4381     0.1449     0.0371
  589.0000   -14.4104    13.7627    14.3305    11.6563     7.6747   104.2887     2.4243     0.1577     0.0278
  589.5000   -14.1644    13.4925    14.6765    11.2573     7.7174   106.4606     2.4147     0.1536     0.0129
  590.0000   -13.9769    13.0286    15.0308    10.9205     7.7586   105.5812     2.4390     0.1445     0.0079
  590.5000   -13.6276    12.5806    15.3745    10.8318     7.8072   103.9738     2.4502     0.1353     0.0170
  591.0000   -13.1736    12.3387    15.6139    11.5009     7.8097   104.3959     2.4432     0.1377     0.0255
  591.5000   -12.7172    12.4535    15.8448    11.9962     7.8144   105.7359     2.4367     0.1419     0.0206
  592.0000   -12.2612    12.6472    16.0791    12.4342     7.8195   107.0948     2.4428     0.1429     0.0160
  592.5000   -11.7886    12.8439    16.3169    12.4342     7.8245   107.4844     2.4573     0.1314     0.0265
  593.0000   -11.9209    13.0437    16.5582    11.5288     7.8295   105.2318     2.4719     0.1214     0.0361
  593.5000   -11.8304    13.2467    16.8031    10.7273     7.8345   103.1543     2.4868     0.1126     0.0431
  594.0000   -11.1794    13.4527    17.0516    11.4496     7.8397   105.6405     2.4850     0.1141     0.0500
  594.5000   -11.0987    13.6363    17.3038    12.7832     7.8431   104.2048     2.4820     0.1150     0.0569
  595.0000   -11.0054    13.3869    17.5597    12.5748     7.8170   105.4398     2.4905     0.1075     0.0639
  595.5000   -10.8283    13.5988    17.8193    12.1987     7.7908   104.2550     2.5031     0.1034     0.0707
  596.0000   -10.6498    13.7627    18.0830    11.8735     7.7659   102.7448     2.4959     0.1112     0.0676
  596.5000   -10.4706    13.3063    18.3503    11.8735     7.7651   103.9029     2.4781     0.1207     0.0578
  597.0000   -10.2886    13.1421    18.8195    12.8904     7.7653   106.1357     2.4604     0.1301     0.0484
