~VERSION INFORMATION
 VERS.                2.0:   CWLS LOG ASCII STANDARD - VERSION 2.0
 WRAP.                 NO:   ONE LINE PER DEPTH STEP
~WELL INFORMATION
#MNEM.UNIT      DATA TYPE    INFORMATION
#----------   ------------   ------------------------------
 STRT.F           10.0000:   START DEPTH
 STOP.F          756.0000:   STOP DEPTH
 STEP.F            0.1000:   STEP LENGTH
 NULL.          -999.2500:   NO VALUE
 COMP. BROWN JOHN E&C INC:   COMPANY
 WELL. N P R 3 SHX- #31-1-X-14:   WELL
 FLD .             TEAPOT:   FIELD
 LOC .      S14 T38N R78W:   LOCATION
 CNTY.            NATRONA:   COUNTY
 STAT.            WYOMING:   STATE
 CTRY. UNITED STATES OF AMERICA:   COUNTRY
 SRVC.     Atlas Wireline:   SERVICE COMPANY
 DATE.        07-JAN-1992:   LOGDATE
 API .       490252249700:   API NUMBER
~CURVE INFORMATION
#MNEM.UNIT       API CODE    CURVE DESCRIPTION
#----------   ------------   ------------------------------
 DEPT.F                  :   
 GRR .GAPI   07 310 01 00:   GAMMA RAY
 RFOC.OHMM   07 220 04 00:   RESISTIVITY FOCUSED LOG RES.
 RILD.OHMM   07 120 46 00:   INDUCTION LOG DEEP RESISTIVITY
 RILM.OHMM   07 120 44 00:   INDUCTION LOG MEDIUM  RESISTIVITY
~PARAMETER INFORMATION
#MNEM.UNIT          VALUE    DESCRIPTION
#----------   ------------   ------------------------------
 PD  .                 GL:   PERMANENT DATUM
 EPD .F              5210:   ELEVATION PERMANENT DATUM
 LMF .                 KB:   LOG MEASURED FROM
 DAPD.F                10:   FEET ABOVE PERMANENT DATUM
 DMF .                 KB:   DRILLING MEASURED FROM
 EKB .F              5220:   KELLING BUSHING
 EDF .F              5219:   DRILLING FLOOR
 EGL .F              5210:   GROUND LEVEL
 DATE.        07-JAN-1992:   RUN DATE
 RUN .                  1:   RUN NUMBER
 DD  .F               762:   DEPTH DRILLER
 DL  .F               760:   DEPTH LOGGER
 BLI .F               758:   BOTTOM LOG INTERVAL
 CS  .IN            9.625:   CASING SIZE
 CBD .F                48:   CASING BOTTOM DRILLER
 CBL .F                50:   CASING BOTTOM LOGGER
 BS  .IN             8.75:   BIT SIZE
 BSD .F               762:   BIT SIZE AT DEPTH
 DFT .    FORMATION FLUID:   DRILLING FLUID TYPE
 MRT .F                90:   MAXIMUM RECORDED TEMPERATURE
 LUN .            HL-6274:   LOGGING UNIT NUMBER
 LUL .             CASPER:   LOGGING UNIT LOCATION
 ENGI.             RAUTIC:   RECORDING ENGINEER
 WITN.        GARY STRONG:   WITNESSED BY
 CLNT.            A2DTECH:   CLIENT CODE
 ORIG.           5" PRINT:   ORIGIN OF DATA
 UWI .       490252249700:   UNIQUE WELL ID
 DICO. A2D Technologies, Inc.:   DIGITIZING COMPANY
~OTHER INFORMATION
~A   DEPT       GRR      RFOC       RILD       RILM   
# ...
  141.4000   124.2352     2.5534     1.7488     1.7630
  141.5000   124.3686     2.5692     1.7374     1.7732
  141.6000   124.4374     2.5832     1.7287     1.7835
  141.7000   124.6730     2.5981     1.7187     1.8000
  141.8000   124.3724     2.6132     1.7134     1.8210
  141.9000   123.9408     2.6284     1.7108     1.8421
  142.0000   123.2749     2.6417     1.7015     1.8635
  142.1000   122.4092     2.6050     1.7134     1.8851
  142.2000   121.4695     2.6050     1.7306     1.9159
  142.3000   120.7295     2.6050     1.7441     1.9495
  142.4000   120.1500     2.6189     1.7589     1.9836
  142.5000   119.5166     2.6231     1.7821     2.0206
  142.6000   118.7650     2.6310     1.8133     2.0677
  142.7000   117.9042     2.6463     1.8496     2.1040
  142.8000   116.9015     2.6616     1.8681     2.1508
  142.9000   115.9058     2.6784     1.8971     2.1858
  143.0000   115.0214     2.6926     1.9355     2.2163
  143.1000   114.4024     2.7195     1.9778     2.2551
  143.2000   113.6508     2.7512     2.0130     2.2944
  143.3000   112.6904     2.7833     2.0671     2.3264
  143.4000   111.5432     2.8157     2.1086     2.3701
  143.5000   110.7895     2.8516     2.1663     2.4171
  143.6000   109.5906     2.9122     2.2299     2.4827
  143.7000   108.7843     3.0559     2.2918     2.5820
  143.8000   107.9324     3.2680     2.3461     2.6728
  143.9000   107.1807     3.5297     2.4255     2.7480
  144.0000   106.3807     3.8238     2.4738     2.7996
  144.1000   105.3668     4.1550     2.5415     2.8550
  144.2000   104.1273     4.5439     2.6161     2.9118
  144.3000   102.2827     5.0380     2.6967     2.9798
  144.4000   100.4221     5.7151     2.7925     3.0494
  144.5000    98.6666     6.4451     2.9263     3.1391
  144.6000    96.9111     6.8957     3.0439     3.2465
  144.7000    95.1021     7.3081     3.1883     3.3852
  144.8000    94.1300     7.4601     3.3935     3.5800
  144.9000    93.5118     7.6048     3.6899     3.8907
  145.0000    93.0111     7.7382     4.0499     4.4364
  145.1000    92.5104     7.8354     4.6621     5.4865
  145.2000    92.0484     7.8388     5.0706     6.1429
  145.3000    91.7862     7.8900     5.4684     6.5712
  145.4000    91.5489     7.9300     5.6782     6.8562
  145.5000    91.4864     7.9450     5.7190     7.0486
  145.6000    91.4876     7.9666     5.7879     7.2131
  145.7000    91.4888     8.0255     5.9462     7.4161
  145.8000    91.5239     8.1157     6.0626     7.5906
  145.9000    91.7934     8.1692     6.4187     7.8134
  146.0000    92.0282     8.2102     6.8654     8.0425
  146.1000    92.2804     8.2899     7.2226     8.2682
  146.2000    92.5325     8.3639     7.4382     8.4612
  146.3000    92.7045     8.4252     7.8522     8.6391
  146.4000    92.6767     8.5205     8.0440     8.8011
  146.5000    92.4049     8.5771     8.2499     8.9755
  146.6000    91.9484     8.6627     8.4219     9.1324
  146.7000    91.2701     8.7637     8.5807     9.3029
  146.8000    90.6449     8.8425     8.7799     9.5201
  146.9000    89.9935     8.9068     8.9609     9.7202
  147.0000    89.0634     9.0105     9.1344     9.8106
  147.1000    88.7868     9.1317     9.3484     9.9595
  147.2000    88.5639     9.2219     9.5200    10.1099
  147.3000    88.3142     9.2945     9.6308    10.2392
  147.4000    88.1861     9.3726     9.7416    10.4180
  147.5000    88.1873     9.4818     9.8084    10.5391
  147.6000    88.2078     9.5900     9.8551    10.5631
  147.7000    88.4920     9.6548     9.9123    10.4900
  147.8000    88.7122     9.7490     9.9457    10.3452
  147.9000    88.9644     9.8627     9.9582    10.1667
  148.0000    89.0997     9.9026    10.0160     9.9911
  148.1000    89.1009     9.8583    10.0849     9.8191
  148.2000    89.1021     9.8582    10.0849     9.7393
  148.3000    89.1035     9.8580    10.0849     9.6495
  148.4000    88.6759     9.8108    10.0849     9.5381
  148.5000    88.1752     9.6839    10.0603     9.4388
  148.6000    87.6746     9.5630     9.9438     9.3841
  148.7000    87.1738     9.4835     9.7404     9.2225
  148.8000    86.6828     9.3205     9.6048     9.1055
  148.9000    86.3917     9.1933     9.4067     9.0005
  149.0000    86.1833     9.0213     9.2127     8.8561
  149.1000    86.0918     8.8455     9.0433     8.6529
  149.2000    86.0930     8.6927     8.8359     8.4541
  149.3000    86.0382     9.3387     8.5948     8.1088
  149.4000    85.7933     9.1221     8.3979     7.9241
  149.5000    85.7948     8.6927     8.1867     7.9965
  149.6000    86.0004     8.4525     7.9810     7.7081
  149.7000    86.0991     8.1358     7.7441     7.3594
  149.8000    86.3049     7.7944     7.4789     6.9948
  149.9000    87.1149     7.4321     7.1738     6.6217
  150.0000    89.1239     7.0525     6.8526     6.3576
  150.1000    88.0671     6.6960     6.5113     6.0985
  150.2000    88.7235     6.3568     6.2442     6.0286
  150.3000    89.2767     6.0746     6.0715     5.9660
  150.4000    90.0399     5.8587     6.0188     5.9313
  150.5000    90.7886     5.6851     5.7795     5.9314
  150.6000    91.3466     5.4875     5.5483     5.9048
  150.7000    91.9982     5.3639     5.3914     5.8709
  150.8000    92.7541     5.2412     5.2381     5.8372
  150.9000    93.5099     5.1382     5.1062     5.8094
  151.0000    94.2840     5.0496     5.0119     5.8095
  151.1000    95.0218     4.9725     4.9653     5.7451
  151.2000    95.9718     4.9430     4.9655     5.6299
  151.3000    96.9788     4.9430     4.9374     5.3160
  151.4000    98.0780     4.9212     4.8646     4.9409
  151.5000    99.3776     4.9088     4.7491     4.7294
  151.6000   100.9451     4.8986     4.6341     4.5879
  151.7000   102.1549     4.8659     4.5593     4.5380
  151.8000   103.2226     4.8074     4.5062     4.5053
  151.9000   104.0900     4.7809     4.4553     4.4934
  152.0000   104.7573     4.7327     4.4443     4.5562
  152.1000   105.2621     4.6782     4.4748     4.7321
  152.2000   105.7935     4.6336     4.5170     4.8504
  152.3000   106.0336     4.6108     4.5482     5.0098
  152.4000   106.1003     4.8078     4.6023     5.2311
  152.5000   105.9668     5.1365     4.6551     5.4113
  152.6000   105.6330     5.3415     4.7095     5.5376
  152.7000   105.0991     5.5338     4.7807     5.6629
  152.8000   104.2974     5.7284     4.8539     5.7707
  152.9000   103.8312     5.8672     4.9156     5.8627
  153.0000   102.9648     6.0521     5.0039     5.9652
  153.1000   102.0949     6.2178     5.0898     6.0517
  153.2000   101.3438     6.4010     5.2028     6.1326
  153.3000   100.5927     6.5490     5.3070     6.2362
  153.4000    99.7803     6.6764     5.4120     6.3166
  153.5000    99.0907     6.8281     5.5332     6.4484
  153.6000    97.9802     6.9583     5.6330     7.1976
  153.7000    96.7268     7.0701     5.7617     8.0909
  153.8000    95.5512     7.1943     5.8970     8.6912
  153.9000    94.5758     7.2989     6.0355     8.8782
  154.0000    93.7525     7.3841     6.1905     8.8783
  154.1000    93.3007     7.4747     6.3785     8.8784
  154.2000    92.6248     7.6191     6.6112     8.9129
  154.3000    92.1239     7.6992     6.7615     8.9406
  154.4000    91.8751     7.8208     6.9514     8.9407
  154.5000    91.6493     7.9352     7.1322     8.9408
  154.6000    91.6522     8.0278     7.3151     8.9410
  154.7000    91.6544     8.1214     7.5153     8.9411
  154.8000    91.4844     8.2272     7.6522     8.9748
  154.9000    91.2356     8.3551     7.8253     9.0036
  155.0000    91.0574     8.4346     8.0091     9.0038
  155.1000    91.0403     8.5075     8.1703     9.0039
  155.2000    90.7604     8.6067     8.2962     9.0040
  155.3000    90.5428     8.7034     8.4008     9.0476
  155.4000    90.2941     8.7607     8.5546     9.0670
  155.5000    90.0453     8.8498     8.6503     9.0671
  155.6000    89.7966     8.9184     8.7515     9.0789
  155.7000    89.5478     8.9704     8.8537     9.1315
  155.8000    89.2644     9.0226     8.9387     9.1944
  155.9000    89.0503     9.0752     8.9990     9.1945
