~VERSION INFORMATION
 VERS.                2.0:   CWLS LOG ASCII STANDARD - VERSION 2.0
 WRAP.                 NO:   ONE LINE PER DEPTH STEP
~WELL INFORMATION
#MNEM.UNIT      DATA TYPE    INFORMATION
#----------   ------------   ------------------------------
 STRT.F            0.0000:   START DEPTH
 STOP.F          790.0000:   STOP DEPTH
 STEP.F            0.1000:   STEP LENGTH
 NULL.          -999.2500:   NO VALUE
 COMP.   FLUOR DANIEL INC:   COMPANY
 WELL.   72-2 X-34 #72-34:   WELL
 FLD .          N.P.R. #3:   FIELD
 LOC .      S34 T39N R78W:   LOCATION
 CNTY.            NATRONA:   COUNTY
 STAT.            WYOMING:   STATE
 CTRY. UNITED STATES OF AMERICA:   COUNTRY
 SRVC.      Western Atlas:   SERVICE COMPANY
 DATE.        25-MAR-1995:   LOGDATE
 API .       490252269300:   API NUMBER
~CURVE INFORMATION
#MNEM.UNIT       API CODE    CURVE DESCRIPTION
#----------   ------------   ------------------------------
 DEPT.F                  :   
 GRR .GAPI   07 310 01 00:   GAMMA RAY
 RILD.OHMM   07 120 46 00:   INDUCTION LOG DEEP RESISTIVITY
 RILM.OHMM   07 120 44 00:   INDUCTION LOG MEDIUM RESISTIVITY
~PARAMETER INFORMATION
#MNEM.UNIT          VALUE    DESCRIPTION
#----------   ------------   ------------------------------
 PD  .                 GL:   PERMANENT DATUM
 EPD .F              5058:   ELEVATION PERMANENT DATUM
 LMF .                 KB:   LOG MEASURED FROM
 DAPD.F                10:   FEET ABOVE PERMANENT DATUM
 DMF .                 KB:   DRILLING MEASURED FROM
 EKB .F              5068:   KELLING BUSHING
 EDF .F              5067:   DRILLING FLOOR
 EGL .F              5058:   GROUND LEVEL
 DATE.        25-MAR-1995:   RUN DATE
 RUN .                  1:   RUN NUMBER
 DD  .F               796:   DEPTH DRILLER
 DL  .F               798:   DEPTH LOGGER
 BLI .F               790:   BOTTOM LOG INTERVAL
 TLI .F                96:   TOP LOG INTERVAL
 CS  .IN            9.625:   CASING SIZE
 CBD .F                95:   CASING BOTTOM DRILLER
 CBL .F                96:   CASING BOTTOM LOGGER
 BS  .IN             8.75:   BIT SIZE
 BSD .F               796:   BIT SIZE AT DEPTH
 DFT .                AIR:   DRILLING FLUID TYPE
 MRT .F                97:   MAXIMUM RECORDED TEMPERATURE
 LUN .            HL 6530:   LOGGING UNIT NUMBER
 LUL .             CASPER:   LOGGING UNIT LOCATION
 ENGI.             RAUTIO:   RECORDING ENGINEER
 WITN.             STRONG:   WITNESSED BY
 CLNT.            A2DTECH:   CLIENT CODE
 ORIG.       2", 5" PRINT:   ORIGIN OF DATA
 UWI .       490252269300:   UNIQUE WELL ID
 DICO. A2D Technologies, Inc.:   DIGITIZING COMPANY
~OTHER INFORMATION
~A    DEPT      GRR      RILD       RILM   
# ...
  582.4000   132.7768     7.4093     7.4589
  582.5000   132.9238     7.4092     7.4728
  582.6000   132.9773     7.4485     7.5109
  582.7000   133.2336     7.4622     7.5109
  582.8000   133.4894     7.4621     7.5109
  582.9000   133.7452     7.4620     7.5109
  583.0000   134.0011     7.4619     7.5109
  583.1000   134.0714     7.4618     7.5109
  583.2000   133.8144     7.4617     7.5109
  583.3000   133.5409     7.4615     7.5109
  583.4000   133.3000     7.4615     7.5109
  583.5000   133.0430     7.4614     7.5109
  583.6000   132.7860     7.4613     7.5109
  583.7000   132.5289     7.4611     7.5109
  583.8000   132.2716     7.4610     7.5109
  583.9000   131.9819     7.4610     7.5109
  584.0000   131.7573     7.4608     7.5109
  584.1000   131.3306     7.4607     7.5109
  584.2000   130.9321     7.4606     7.5109
  584.3000   130.6750     7.4605     7.5109
  584.4000   130.4236     7.4604     7.5109
  584.5000   130.4229     7.4399     7.4749
  584.6000   130.4224     7.4070     7.4589
  584.7000   130.4218     7.4069     7.4589
  584.8000   130.5199     7.4067     7.4508
  584.9000   130.7317     7.4066     7.4073
  585.0000   130.7309     7.4065     7.4073
  585.1000   131.2226     7.4064     7.3754
  585.2000   131.5433     7.3985     7.3560
  585.3000   131.9363     7.3534     7.3560
  585.4000   132.4489     7.3532     7.3516
  585.5000   132.9331     7.3531     7.3051
  585.6000   133.2155     7.3531     7.3051
  585.7000   133.4448     7.3529     7.3051
  585.8000   133.7007     7.3528     7.3051
  585.9000   133.9566     7.3527     7.2954
  586.0000   134.2125     7.3141     7.2545
  586.1000   134.4684     7.3000     7.2545
  586.2000   134.7669     7.3000     7.2545
  586.3000   135.1936     7.3105     7.2545
  586.4000   135.3878     7.3522     7.2545
  586.5000   135.4919     7.3521     7.2545
  586.6000   135.6978     7.3520     7.2545
  586.7000   135.6970     7.3519     7.2545
  586.8000   135.6964     7.3687     7.2545
  586.9000   135.6958     7.4045     7.2545
  587.0000   135.6952     7.4044     7.2660
  587.1000   135.6061     7.4464     7.3051
  587.2000   135.3829     7.4903     7.3051
  587.3000   135.3822     7.5109     7.3403
  587.4000   135.1458     7.5108     7.3560
  587.5000   134.7071     7.5107     7.3560
  587.6000   133.9395     7.5106     7.3639
  587.7000   132.9855     7.5499     7.4073
  587.8000   132.2330     7.5643     7.4484
  587.9000   131.6460     7.5643     7.4589
  588.0000   130.7659     7.5642     7.4818
  588.1000   130.0699     7.5640     7.5246
  588.2000   129.6671     7.5639     7.5720
  588.3000   129.4101     7.5638     7.6690
  588.4000   129.1546     7.5637     7.7078
  588.5000   129.1539     7.5465     7.8114
  588.6000   128.9495     7.5095     7.9257
  588.7000   128.6924     7.5094     7.9954
  588.8000   128.4354     7.4672     7.9954
  588.9000   128.2183     7.4556     7.9954
  589.0000   128.2177     7.4324     7.9954
  589.1000   127.9750     7.3886     7.9954
  589.2000   127.9055     7.3493     7.9790
  589.3000   127.7719     7.3491     7.9336
  589.4000   127.5146     7.3110     7.8851
  589.5000   127.2576     7.2679     7.7615
  589.6000   126.9697     7.2059     7.6605
  589.7000   126.7433     7.1311     7.5528
  589.8000   126.6576     7.0880     7.4132
  589.9000   126.5403     6.9892     7.2410
  590.0000   126.2832     6.9228     6.9584
  590.1000   126.0336     6.8415     6.7948
  590.2000   126.0329     6.7612     6.6502
  590.3000   125.8227     6.6562     6.5226
  590.4000   125.7207     6.4131     6.3818
  590.5000   125.7201     6.3416     6.2699
  590.6000   125.7195     6.2402     6.1671
  590.7000   125.7188     6.1683     6.0370
  590.8000   125.7182     6.1209     5.9543
  590.9000   125.9109     6.0490     5.9098
  591.0000   126.4445     5.9694     5.8459
  591.1000   127.2137     5.9079     5.8087
  591.2000   127.9525     5.8614     5.6655
  591.3000   128.5144     5.8268     5.5475
  591.4000   129.2093     5.7845     5.4670
  591.5000   129.9780     5.7172     5.4119
  591.6000   130.6243     5.6770     5.3811
  591.7000   131.0686     5.6501     5.3505
  591.8000   131.3244     5.6364     5.3441
  591.9000   131.6210     5.6363     5.3441
  592.0000   131.6205     5.6362     5.3551
  592.1000   130.9750     5.6361     5.3857
  592.2000   130.0551     5.6360     5.4189
  592.3000   129.2854     5.6359     5.4763
  592.4000   128.5076     5.6359     5.5169
  592.5000   127.4914     5.6358     5.5796
  592.6000   126.4645     5.6357     5.6758
  592.7000   125.2928     5.6356     5.7719
  592.8000   123.7384     5.6647     5.8492
  592.9000   121.1464     5.6759     5.9621
  593.0000   114.8180     5.6908     6.0781
  593.1000   113.1519     5.7322     6.1546
  593.2000   112.0895     5.7995     6.1898
  593.3000   111.5770     5.8405     6.2265
  593.4000   111.3941     5.8682     6.2265
  593.5000   111.4132     5.9234     6.2799
  593.6000   111.7038     5.9803     6.3136
  593.7000   111.9250     6.0156     6.3362
  593.8000   112.5154     6.0531     6.4123
  593.9000   113.5091     6.0868     6.5367
  594.0000   114.7327     6.1227     6.6358
  594.1000   115.7663     6.1588     6.6995
  594.2000   117.6098     6.2062     6.7550
  594.3000   118.2262     6.2828     6.8592
  594.4000   118.8438     6.4095     7.0569
  594.5000   119.4526     6.5091     7.2618
  594.6000   120.0959     6.6252     7.4385
  594.7000   120.0952     6.7434     7.5851
  594.8000   119.8507     6.8636     7.7318
  594.9000   119.5935     6.9858     7.9036
  595.0000   119.3364     7.1104     8.0511
  595.1000   119.0794     7.2718     8.1791
  595.2000   118.8223     7.4453     8.3204
  595.3000   118.5362     7.6060     8.4640
  595.4000   118.3079     7.7487     8.6099
  595.5000   118.3971     7.9445     8.7558
  595.6000   118.5344     8.1229     8.8734
  595.7000   118.5337     8.3169     8.9582
  595.8000   118.5331     8.4636     9.0291
  595.9000   118.5324     8.5639     9.0602
  596.0000   118.5319     8.6652     9.0695
  596.1000   118.3743     8.7816     9.1234
  596.2000   118.1172     8.8719     9.1234
  596.3000   117.7641     8.9080     9.1234
  596.4000   116.9742     8.9079     9.0961
  596.5000   116.7239     8.9078     9.0602
  596.6000   116.0760     8.9077     9.0555
  596.7000   115.4466     8.9075     8.9975
  596.8000   115.0193     8.9074     8.9528
  596.9000   114.7620     8.9073     8.9352
  597.0000   114.4821     8.9072     8.9129
  597.1000   114.4815     8.9071     8.8734
  597.2000   114.6598     8.9069     8.8734
  597.3000   115.0402     8.9067     8.8734
  597.4000   115.6929     8.9066     8.8338
  597.5000   116.7023     8.9065     8.8120
  597.6000   117.5887     8.9064     8.8120
  597.7000   118.4580     8.9063     8.8053
  597.8000   119.3205     8.9061     8.7510
  597.9000   120.1983     8.9515     8.7969
  598.0000   121.2243     8.9699     8.8120
  598.1000   122.2513     8.9928     8.8120
  598.2000   123.0184     9.0457     8.8253
  598.3000   123.5861     9.0991     8.8734
  598.4000   124.0985     9.1529     8.8734
  598.5000   124.7031     9.2069     8.9155
  598.6000   125.4716     9.2612     8.9979
  598.7000   126.2911     9.3158     9.0806
  598.8000   126.5303     9.3707     9.1418
  598.9000   126.9715     9.4298     9.2510
  599.0000   127.4840     9.5339     9.3017
  599.1000   127.8438     9.6470     9.4346
  599.2000   127.8648     9.7323     9.5975
  599.3000   128.1536     9.8064     9.7805
  599.4000   128.3766     9.9225    10.0059
  599.5000   128.6325    10.0568    10.2669
  599.6000   128.8883    10.1592    10.4734
  599.7000   129.0843    10.2796    10.7968
  599.8000   129.0783    10.4014    11.0882
  599.9000   128.7719    10.5246    11.2795
  600.0000   127.4593    10.6491    11.4737
  600.1000   125.8362    10.9213    11.7177
  600.2000   124.2132    11.1934    11.9617
  600.3000   122.5901    11.4656    12.2056
  600.4000   121.4165    11.9989    12.4496
  600.5000   120.7379    12.1355    12.7039
