~VERSION INFORMATION
 VERS.                2.0:   CWLS LOG ASCII STANDARD - VERSION 2.0
 WRAP.                 NO:   ONE LINE PER DEPTH STEP
~WELL INFORMATION
#MNEM.UNIT      DATA TYPE    INFORMATION
#----------   ------------   ------------------------------
 STRT.F            4.0000:   START DEPTH
 STOP.F          614.0000:   STOP DEPTH
 STEP.F            0.1000:   STEP LENGTH
 NULL.          -999.2500:   NO VALUE
 COMP.   FLUOR DANIEL INC:   COMPANY
 WELL.     63-4 X 3 #63-3:   WELL
 FLD .          N.P.R. #3:   FIELD
 LOC .       S3 T38N R78W:   LOCATION
 CNTY.            NATRONA:   COUNTY
 STAT.            WYOMING:   STATE
 CTRY. UNITED STATES OF AMERICA:   COUNTRY
 SRVC.      Western Atlas:   SERVICE COMPANY
 DATE.        01-JUN-1995:   LOGDATE
 API .       490252271300:   API NUMBER
~CURVE INFORMATION
#MNEM.UNIT       API CODE    CURVE DESCRIPTION
#----------   ------------   ------------------------------
 DEPT.F                  :   
 GRR .GAPI   07 310 01 00:   GAMMA RAY
 RILD.OHMM   07 120 46 00:   INDUCTION LOG DEEP RESISTIVITY
 RILM.OHMM   07 120 44 00:   INDUCTION LOG MEDIUM RESISTIVITY
~PARAMETER INFORMATION
#MNEM.UNIT          VALUE    DESCRIPTION
#----------   ------------   ------------------------------
 PD  .                 GL:   PERMANENT DATUM
 EPD .F              5173:   ELEVATION PERMANENT DATUM
 LMF .                 KB:   LOG MEASURED FROM
 DAPD.F                10:   FEET ABOVE PERMANENT DATUM
 DMF .                 KB:   DRILLING MEASURED FROM
 EKB .F              5183:   KELLING BUSHING
 EDF .F              5182:   DRILLING FLOOR
 EGL .F              5173:   GROUND LEVEL
 DATE.        01-JUN-1995:   RUN DATE
 RUN .                  1:   RUN NUMBER
 DD  .F               626:   DEPTH DRILLER
 DL  .F               622:   DEPTH LOGGER
 BLI .F               614:   BOTTOM LOG INTERVAL
 TLI .F                95:   TOP LOG INTERVAL
 CS  .IN            9.625:   CASING SIZE
 CBD .F                95:   CASING BOTTOM DRILLER
 CBL .F                95:   CASING BOTTOM LOGGER
 BS  .IN             8.75:   BIT SIZE
 BSD .F               626:   BIT SIZE AT DEPTH
 DFT .                AIR:   DRILLING FLUID TYPE
 MRT .F               147:   MAXIMUM RECORDED TEMPERATURE
 LUN .            HL 6530:   LOGGING UNIT NUMBER
 LUL .             CASPER:   LOGGING UNIT LOCATION
 ENGI.        VERN RAUTIO:   RECORDING ENGINEER
 WITN.        STEVE HARDY:   WITNESSED BY
 CLNT.            A2DTECH:   CLIENT CODE
 ORIG.           5" PRINT:   ORIGIN OF DATA
 UWI .       490252271300:   UNIQUE WELL ID
 DICO. A2D Technologies, Inc.:   DIGITIZING COMPANY
~OTHER INFORMATION
~A    DEPT       GRR     RILD       RILM   
# ...
  258.8000   112.8205     7.6137     7.4273
  258.9000   112.8205     7.6139     7.4276
  259.0000   112.8205     7.6141     7.4277
  259.1000   112.8205     7.6102     7.3961
  259.2000   112.8205     7.5619     7.3769
  259.3000   112.8205     7.4793     7.3616
  259.4000   112.8205     7.4244     7.3190
  259.5000   112.8205     7.3546     7.2762
  259.6000   112.8205     7.2861     7.2262
  259.7000   112.8205     7.2431     7.1928
  259.8000   112.8205     7.2002     7.1512
  259.9000   112.8205     7.1548     7.1098
  260.0000   112.8205     7.0761     7.0687
  260.1000   112.8205     7.0566     7.0278
  260.2000   112.7344     7.0316     6.9816
  260.3000   112.4803     6.9900     6.9818
  260.4000   112.2172     6.9487     6.9546
  260.5000   112.2172     6.9076     6.8949
  260.6000   111.8214     6.8643     6.8270
  260.7000   111.3130     6.7882     6.7875
  260.8000   110.8046     6.7081     6.7453
  260.9000   110.2408     6.6528     6.6733
  261.0000   109.4783     6.5961     6.6245
  261.1000   108.5973     6.5182     6.5653
  261.2000   108.1677     6.4412     6.5030
  261.3000   107.6593     6.3610     6.4653
  261.4000   107.2708     6.3254     6.4274
  261.5000   107.0166     6.2880     6.3542
  261.6000   106.7624     6.2281     6.3100
  261.7000   106.4857     6.1710     6.2514
  261.8000   106.4857     6.1449     6.1791
  261.9000   106.4857     6.1450     6.1243
  262.0000   106.6225     6.1452     6.1228
  262.1000   106.9660     6.1454     6.0825
  262.2000   107.5578     6.1455     6.0522
  262.3000   108.5973     6.1457     5.9938
  262.4000   110.0885     6.1459     5.9580
  262.5000   111.0106     6.1460     5.9479
  262.6000   111.7733     6.1462     5.9134
  262.7000   112.6420     6.1464     5.8766
  262.8000   113.5412     6.1466     5.8140
  262.9000   114.0497     6.1759     5.7961
  263.0000   114.6305     6.1897     5.7779
  263.1000   114.6305     6.1899     5.7445
  263.2000   114.9716     6.1901     5.7169
  263.3000   115.2338     6.1902     5.7171
  263.4000   115.2338     6.1904     5.7832
  263.5000   115.2056     6.1906     5.8240
  263.6000   114.9321     6.1907     5.8582
  263.7000   114.6972     6.1909     5.9072
  263.8000   114.4430     6.1911     5.9603
  263.9000   114.0488     6.1913     5.9620
  264.0000   113.5404     6.1914     6.0020
  264.1000   112.9870     6.1916     6.0322
  264.2000   112.2172     6.1918     6.0677
  264.3000   111.3122     6.1919     6.1033
  264.4000   110.9036     6.1921     6.1286
  264.5000   110.3951     6.2100     6.1287
  264.6000   109.9962     6.2472     6.1289
  264.7000   109.8039     6.2847     6.1620
  264.8000   109.8039     6.3231     6.1718
  264.9000   109.8039     6.4117     6.1916
  265.0000   109.8039     6.4431     6.2280
  265.1000   109.8039     6.4818     6.2645
  265.2000   110.0565     6.5397     6.3020
  265.3000   110.5648     6.6055     6.3383
  265.4000   111.1360     6.6451     6.3755
  265.5000   112.2172     6.6854     6.4357
  265.6000   112.9315     6.7791     6.4954
  265.7000   113.3129     6.8126     6.5335
  265.8000   113.7102     6.8535     6.5735
  265.9000   114.2185     6.8946     6.6620
  266.0000   114.6787     6.9496     6.6955
  266.1000   114.9338     7.0262     6.7348
  266.2000   115.5354     7.0685     6.7743
  266.3000   115.7430     7.0687     6.8141
  266.4000   116.1572     7.0689     6.8541
  266.5000   116.5530     7.0972     6.8977
  266.6000   116.7421     7.1398     6.9348
  266.7000   116.7597     7.1683     6.9755
  266.8000   117.0437     7.1757     7.0165
  266.9000   117.0437     7.2186     7.0431
  267.0000   117.0437     7.2189     7.0571
  267.1000   117.0437     7.2551     7.1417
  267.2000   117.0437     7.2695     7.1827
  267.3000   117.0437     7.2697     7.1917
  267.4000   117.0437     7.2699     7.2172
  267.5000   116.8024     7.2701     7.2420
  267.6000   116.3543     7.2703     7.2422
  267.7000   115.9923     7.2706     7.2424
  267.8000   115.7382     7.2707     7.2426
  267.9000   115.4840     7.2417     7.2428
  268.0000   115.2257     7.2209     7.2150
  268.1000   114.6305     7.2062     7.1932
  268.2000   114.6305     7.1713     7.1934
  268.3000   114.7938     7.1708     7.1894
  268.4000   114.9321     7.1221     7.1442
  268.5000   115.0005     7.1223     7.1444
  268.6000   115.2338     7.1225     7.1446
  268.7000   115.2338     7.1007     7.1224
  268.8000   115.4615     7.0886     7.1103
  268.9000   115.3552     7.1474     7.1452
  269.0000   115.2338     7.2762     7.1454
  269.1000   115.1485     7.4264     7.1864
  269.2000   114.8943     7.4647     7.2286
  269.3000   114.6305     7.4785     7.2456
  269.4000   114.3859     7.4554     7.2633
  269.5000   113.9346     7.4113     7.2963
  269.6000   113.4263     7.3760     7.2965
  269.7000   112.7136     7.3749     7.2968
  269.8000   111.8608     7.3255     7.2609
  269.9000   111.6066     7.2881     7.2468
  270.0000   111.3122     7.2752     7.2470
  270.1000   111.0982     7.2523     7.2472
  270.2000   111.0106     7.2095     7.2432
  270.3000   111.0106     7.1755     7.1976
  270.4000   111.0106     7.1741     7.1978
  270.5000   111.0106     7.1263     7.1677
  270.6000   111.0106     7.1265     7.1486
  270.7000   111.0106     7.0968     7.1343
  270.8000   111.3774     7.0776     7.0996
  270.9000   111.8857     7.0777     7.0999
  271.0000   112.3056     7.0691     7.1001
  271.1000   112.6009     7.0292     7.0679
  271.2000   113.1222     7.0294     7.0515
  271.3000   113.3699     7.0296     7.0517
  271.4000   113.8244     7.0000     7.0427
  271.5000   114.1800     6.9586     7.0035
  271.6000   114.4342     6.9175     7.0037
  271.7000   114.7463     6.8855     6.9694
  271.8000   115.2443     6.8857     6.9291
  271.9000   115.5354     6.8859     6.8890
  272.0000   115.7527     6.8498     6.8492
  272.1000   115.8371     6.8094     6.8095
  272.2000   115.8371     6.7469     6.7666
  272.3000   115.9119     6.6981     6.6955
  272.4000   116.1388     6.6894     6.6740
  272.5000   116.1388     6.6498     6.6534
  272.6000   116.3729     6.6063     6.6283
  272.7000   116.4404     6.5715     6.6224
  272.8000   116.5796     6.5326     6.5830
  272.9000   116.7421     6.5157     6.5831
  273.0000   116.7421     6.5159     6.5833
  273.1000   116.7421     6.5161     6.5607
  273.2000   116.7421     6.5138     6.5228
  273.3000   116.7421     6.4714     6.4934
  273.4000   116.7421     6.4027     6.4923
  273.5000   116.7421     6.3547     6.4490
  273.6000   116.6810     6.3172     6.4175
  273.7000   116.4404     6.2649     6.3561
  273.8000   116.4404     6.1909     6.2826
  273.9000   116.2200     6.1177     6.2100
  274.0000   115.9658     6.0387     6.1415
  274.1000   115.7116     5.9741     6.1027
  274.2000   115.4574     5.8777     6.0070
  274.3000   115.2032     5.7934     5.9526
  274.4000   114.9321     5.7250     5.8819
  274.5000   114.6949     5.6573     5.7916
  274.6000   114.4406     5.5905     5.7195
  274.7000   114.0440     5.5187     5.6173
  274.8000   113.6306     5.4592     5.5233
  274.9000   113.3763     5.3948     5.4772
  275.0000   113.1222     5.3128     5.4083
  275.1000   112.5189     5.2316     5.3271
  275.2000   112.3121     5.1622     5.2655
  275.3000   111.8987     5.0759     5.2046
  275.4000   111.3902     5.0436     5.1351
  275.5000   110.9462     4.9888     5.0851
  275.6000   110.6582     4.9520     5.0263
  275.7000   109.8039     4.9227     4.9682
  275.8000   109.1331     4.8936     4.9187
  275.9000   108.3705     4.8647     4.8903
  276.0000   107.6078     4.8386     4.8593
  276.1000   106.7639     4.8388     4.8339
  276.2000   105.7810     4.8389     4.8060
  276.3000   104.9774     4.8611     4.7929
  276.4000   104.7369     4.9077     4.7931
  276.5000   104.2896     4.9539     4.7889
  276.6000   103.9268     4.9915     4.7603
  276.7000   103.5745     5.0484     4.7873
  276.8000   103.0660     5.0807     4.8818
  276.9000   102.5608     5.1092     4.9625
