~VERSION INFORMATION
 VERS.                2.0:   CWLS LOG ASCII STANDARD - VERSION 2.0
 WRAP.                 NO:   ONE LINE PER DEPTH STEP
~WELL INFORMATION
#MNEM.UNIT      DATA TYPE    INFORMATION
#----------   ------------   ------------------------------
 STRT.F           30.0000:   START DEPTH
 STOP.F          562.0000:   STOP DEPTH
 STEP.F            0.5000:   STEP LENGTH
 NULL.          -999.2500:   NO VALUE
 COMP. LAWRENCE/ALLISON INC:   COMPANY
 WELL. NPR 3 #53-16-SX-10:   WELL
 FLD .             TEAPOT:   FIELD
 LOC .      S10 T38N R78W:   LOCATION
 CNTY.            NATRONA:   COUNTY
 STAT.            WYOMING:   STATE
 CTRY. UNITED STATES OF AMERICA:   COUNTRY
 SRVC.      Dresser Atlas:   SERVICE COMPANY
 DATE.        27-AUG-1984:   LOGDATE
 API .       490251098200:   API NUMBER
~CURVE INFORMATION
#MNEM.UNIT       API CODE    CURVE DESCRIPTION
#----------   ------------   ------------------------------
 DEPT.F                  :   
 RILD.OHMM   07 120 46 00:   INDUCTION LOG DEEP RESISTIVITY
 RILM.OHMM   07 120 44 00:   INDUCTION LOG MEDIUM RESISTIVITY
 RFOC.OHMM   07 220 04 00:   RESISTIVITY FOCUSED LOG
 SPR .MV     07 010 01 00:   SPONTANEOUS POTENTIAL
 AC  .US/F   60 520 00 00:   ACOUSTIC SONIC
 DEN .G/C3   45 350 01 00:   COMPENSATED BULK DENSTIY
 CORR.G/C3   45 356 01 00:   DENSITY CORRECTION
 CNC .DEC    42 890 01 00:   NEUTRON POROSITY LIMESTONE
 CALD.IN     45 280 60 00:   CALIPER
 GRD .GAPI   45 310 01 00:   GAMMA RAY FROM DENSITY LOG
 PORD.DEC    45 890 10 00:   POROSITY DENSITY LIMESTONE
~PARAMETER INFORMATION
#MNEM.UNIT          VALUE    DESCRIPTION
#----------   ------------   ------------------------------
 PD  .                 GL:   PERMANENT DATUM
 EPD .F              5199:   ELEVATION PERMANENT DATUM
 LMF .                 GL:   LOG MEASURED FROM
 DMF .                 GL:   DRILLING MEASURED FROM
 EGL .F              5199:   GROUND LEVEL
 DATE.            8-27-84:   RUN DATE
 RUN .                  1:   RUN NUMBER
 DD  .F               550:   DEPTH DRILLER
 DL  .F               549:   DEPTH LOGGER
 BLI .F               547:   BOTTOM LOG INTERVAL
 TLI .F                30:   TOP LOG INTERVAL
 CS  .IN            9.625:   CASING SIZE
 CBD .F                40:   CASING BOTTOM DRILLER
 CBL .F                44:   CASING BOTTOM LOGGER
 BS  .IN            7.875:   BIT SIZE
 BSD .F               550:   BIT SIZE AT DEPTH
 DFT .          KCL/WATER:   DRILLING FLUID TYPE
 MSS .           MUD TANK:   MUD SAMPLE SOURCE
 RMS .OHMM            .28:   RESISTIVITY MUD SAMPLE
 MST .F                78:   MUD SAMPLE TEMPERATURE
 TCS .HRS               4:   TIME CURCULATED STOPPED
 LUN .               4082:   LOGGING UNIT NUMBER
 LUL .          ROOSEVELT:   LOGGING UNIT LOCATION
 ENGI.            FRANCIS:   RECORDING ENGINEER
 WITN.              FIVAS:   WITNESSED BY
 CLNT.            A2DTECH:   CLIENT CODE
 ORIG.       2", 5" PRINT:   ORIGIN OF DATA
 UWI .       490251098200:   UNIQUE WELL ID
 DICO. A2D Technologies, Inc.:   DIGITIZING COMPANY
~OTHER INFORMATION
~A   DEPT     RILD       RILM       RFOC        SPR         AC        DEN       CORR          CNC     CALD         GRD      PORD   
# ...
  121.5000     8.9857     9.3995    10.3584    20.0692   101.5982     2.4921     0.0586     0.2179     8.6861   104.6938     0.1109
  122.0000     9.0217     9.4889    10.6948    19.8120   100.7872     2.4959     0.0564     0.2123     8.6861   103.6575     0.1086
  122.5000     9.0578     9.5617    10.9710    19.7418   100.0701     2.4977     0.0353     0.2155     8.6861   105.5519     0.1076
  123.0000     9.0938     9.6343    10.7918    19.9527   100.2039     2.4895     0.0169     0.2195     8.6861   107.6710     0.1146
  123.5000     9.1200     9.7220    10.6450    20.1605   100.7909     2.4795     0.0263     0.2162     8.6861   109.9430     0.1214
  124.0000     9.0567     9.6694    10.5002    20.3694   101.5262     2.4716     0.0374     0.2136     8.6861   113.1560     0.1252
  124.5000     9.0072     9.5840    10.3573    20.5778   102.2395     2.4695     0.0486     0.2239     8.6861   118.2716     0.1258
  125.0000     8.9580     9.4993    10.2164    20.7863   102.7213     2.4658     0.0391     0.2331     8.6861   121.3808     0.1288
  125.5000     8.9091     9.4153    10.0770    20.9948   103.0240     2.4594     0.0152     0.2420     8.6861   119.6187     0.1329
  126.0000     8.8604     9.3321     9.9408    21.2032   103.2622     2.4611     0.0077     0.2404     8.6861   116.7958     0.1329
  126.5000     8.8120     9.2787     9.8205    21.4117   103.1764     2.4671     0.0198     0.2344     8.6861   115.2578     0.1281
  127.0000     8.7889     9.2553     9.9513    21.6203   103.0020     2.4662     0.0265     0.2249     8.6861   113.6584     0.1279
  127.5000     8.8226     9.2320    10.0713    21.8292   102.8290     2.4578     0.0310     0.2152     8.6861   109.9481     0.1313
  128.0000     8.8477     9.2087    10.1928    22.0427   102.6560     2.4520     0.0354     0.2059     8.6861   106.0699     0.1348
  128.5000     8.8703     9.1855    10.3157    22.0098   102.7042     2.4516     0.0433     0.2051     8.6861   102.9408     0.1361
  129.0000     8.8540     9.1624    10.3795    21.9264   102.9464     2.4621     0.0515     0.2135     8.6861   102.8195     0.1311
  129.5000     8.8385     9.1393    10.1360    21.8424   103.1886     2.4714     0.0467     0.2202     8.6861   104.2714     0.1260
  130.0000     8.8229     9.1130    10.0029    21.7588   103.1112     2.4744     0.0353     0.2236     8.6861   104.9637     0.1239
  130.5000     8.8071     9.0715     9.9782    21.6829   102.8517     2.4745     0.0301     0.2239     8.6861   105.2356     0.1235
  131.0000     8.7926     9.0302     9.9531    21.4018   102.6753     2.4781     0.0452     0.2242     8.6861   106.9826     0.1211
  131.5000     8.6966     8.9890     9.9280    21.0552   102.6753     2.4859     0.0602     0.2264     8.6861   108.9184     0.1163
  132.0000     8.5900     8.9481     9.8868    20.7060   102.7428     2.4935     0.0630     0.2305     8.6861   109.1168     0.1114
  132.5000     8.4847     8.9073     9.6990    20.3578   102.9158     2.4991     0.0530     0.2347     8.6861   107.8589     0.1064
  133.0000     8.3808     8.8668     9.5148    20.0591   102.9336     2.4962     0.0425     0.2407     8.6861   106.6011     0.1064
  133.5000     8.2781     8.8266     9.3765    20.1237   102.8570     2.4839     0.0320     0.2542     8.6861   105.3163     0.1155
  134.0000     8.1767     8.7890     9.3996    20.1809   102.6840     2.4707     0.0213     0.2553     8.6861   106.1114     0.1231
  134.5000     8.0825     8.7246     9.4845    20.2374   102.5110     2.4573     0.0199     0.2431     8.6861   108.2205     0.1313
  135.0000     8.0342     8.6650     9.5702    20.2937   102.5662     2.4506     0.0188     0.2319     8.6861   108.5883     0.1361
  135.5000     7.9862     8.6059     9.6400    20.3503   102.6753     2.4547     0.0070     0.2272     8.6861   108.2356     0.1369
  136.0000     7.9385     8.5491     9.5034    20.4083   102.5972     2.4619    -0.0046     0.2309     8.6861   107.8401     0.1316
  136.5000     7.8910     8.3139     9.3902    20.4562   102.5230     2.4692     0.0051     0.2355     8.6861   106.5964     0.1265
  137.0000     7.7467     8.0927     9.2783    20.2174   102.6052     2.4765     0.0296     0.2402     8.6861   104.1864     0.1230
  137.5000     7.5082     7.8671     9.1678    19.9630   102.9760     2.4834     0.0533     0.2432     8.6861   101.7298     0.1197
  138.0000     7.2771     7.6024     9.0585    19.7101   103.6879     2.4752     0.0807     0.2417     8.6861   100.8705     0.1177
  138.5000     7.0530     7.3339     8.6693    19.4575   104.4030     2.4644     0.1014     0.2412     8.6861   102.7190     0.1243
  139.0000     6.8491     7.0748     8.2291    19.2046   105.1169     2.4537     0.0721     0.2464     8.6861   104.6776     0.1321
  139.5000     6.7823     7.0259     7.8112    18.9529   105.8307     2.4542     0.0399     0.2527     8.6861   105.2841     0.1353
  140.0000     6.7842     7.0079     7.4145    18.6032   106.4518     2.4619     0.0458     0.2593     8.6861   104.6530     0.1339
  140.5000     6.8528     6.9910     7.1729    18.1929   106.9132     2.4769     0.0589     0.2597     8.6861   103.9882     0.1269
  141.0000     6.9036     6.9773     7.6379    17.7813   107.0842     2.4922     0.0621     0.2452     8.6861   105.2833     0.1198
  141.5000     6.9546     7.1651     8.2733    17.3697   106.7283     2.4965     0.0528     0.2369     8.6861   110.8270     0.1128
  142.0000     7.0061     7.3245     9.0364    16.9583   105.9229     2.4978     0.0466     0.2308     8.6861   116.6984     0.1092
  142.5000     7.1056     7.4877     8.9594    16.5469   105.0701     2.4971     0.0453     0.2222     8.6861   116.5160     0.1092
  143.0000     7.3135     7.6545     8.8733    16.1354   104.3051     2.4907     0.0460     0.2178     8.6861   112.0154     0.1100
  143.5000     7.5272     7.8252     8.7904    15.7240   103.9158     2.4853     0.0469     0.2186     8.6861   105.6425     0.1129
  144.0000     7.7468     7.9993     8.9842    15.3125   103.6488     2.4904     0.0629     0.2199     8.6861   101.6736     0.1156
  144.5000     7.9729     8.1632     9.2049    14.9010   103.4493     2.4990     0.0853     0.2212     8.6861    98.7080     0.1126
  145.0000     8.0882     8.1281     9.1899    14.4896   103.2906     2.5076     0.0776     0.2275     8.6861    99.5469     0.1059
  145.5000     8.0062     8.0957     9.1732    14.0781   103.5218     2.5067     0.0458     0.2336     8.6861   101.9490     0.1020
  146.0000     7.9435     8.0634     9.1561    13.6670   103.9209     2.5048     0.0427     0.2336     8.6861   106.2871     0.1032
  146.5000     7.8814     8.0313     9.1393    13.2571   104.3202     2.4983     0.0389     0.2258     8.6861   108.4975     0.1055
  147.0000     7.8200     7.9992     9.1220    12.8435   104.2957     2.4904     0.0350     0.2228     8.6861   110.1965     0.1090
  147.5000     7.7590     7.9674     9.0822    12.0231   104.1984     2.4823     0.0310     0.2250     8.6861   111.8992     0.1143
  148.0000     7.6985     7.9356     9.0257    11.1601   104.1011     2.4744     0.0291     0.2325     8.6861   111.1817     0.1196
  148.5000     7.6385     7.9039     8.9700     9.4594   104.4028     2.4757     0.0291     0.2401     8.6861   110.0075     0.1233
  149.0000     7.5789     7.8724     8.9147     7.1791   104.8275     2.4774     0.0292     0.2397     8.6861   105.3406     0.1212
  149.5000     7.5198     7.7781     8.8597     4.8889   104.8136     2.4763     0.0326     0.2372     8.6861   101.0841     0.1201
  150.0000     7.1764     7.5142     8.8050     2.6503   104.9609     2.4664     0.0407     0.2397     8.6861    99.4978     0.1248
  150.5000     6.8080     7.1070     8.6397    -0.6312   105.1804     2.4573     0.0487     0.2464     8.6861   103.2959     0.1302
  151.0000     6.4585     6.7173     8.4338    -4.0393   105.7121     2.4594     0.0567     0.2477     8.6861   108.7646     0.1314
  151.5000     6.1270     6.3496     8.2329    -7.4672   106.3413     2.4653     0.0617     0.2471     8.6861   112.8404     0.1287
