~VERSION INFORMATION
 VERS.                2.0:   CWLS LOG ASCII STANDARD - VERSION 2.0
 WRAP.                 NO:   ONE LINE PER DEPTH STEP
~WELL INFORMATION
#MNEM.UNIT      DATA TYPE    INFORMATION
#----------   ------------   ------------------------------
 STRT.F           20.0000:   START DEPTH
 STOP.F          632.0000:   STOP DEPTH
 STEP.F            0.5000:   STEP LENGTH
 NULL.          -999.2500:   NO VALUE
 COMP. FENIX & SCISSON INC:   COMPANY
 WELL.    58 SX 34 #34-34:   WELL
 FLD .             TEAPOT:   FIELD
 LOC .      S34 T39N R78W:   LOCATION
 CNTY.            NATRONA:   COUNTY
 STAT.            WYOMING:   STATE
 CTRY. UNITED STATES OF AMERICA:   COUNTRY
 SRVC.            Unknown:   SERVICE COMPANY
 DATE.        30-JAN-1979:   LOGDATE
 API .       490251077300:   API NUMBER
~CURVE INFORMATION
#MNEM.UNIT       API CODE    CURVE DESCRIPTION
#----------   ------------   ------------------------------
 DEPT.F                  :   
 SPR .MV     05 010 01 00:   SPONTANEOUS POTENTIAL FROM RES.
 SN  .OHMM   05 040 16 00:   SHORT NORMAL 16"
 ILD .OHMM   05 120 46 00:   INDUCTION LOG DEEP
 CALD.IN     45 280 60 00:   CALIPER
 CORR.G/C3   45 356 01 00:   DENSITY CORRECTION
 RHOB.G/C3   45 350 01 00:   BULK DENSITY
 GRD .GAPI   45 310 01 00:   GAMMA RAY FROM DENSITY LOG
 DPHI.DEC    45 890 12 00:   DENSITY POROSITY SANDSTONE
~PARAMETER INFORMATION
#MNEM.UNIT          VALUE    DESCRIPTION
#----------   ------------   ------------------------------
 PD  .                 GL:   PERMANENT DATUM
 LMF .                 KB:   LOG MEASURED FROM
 DAPD.F                 4:   FEET ABOVE PERMANENT DATUM
 DMF .                 KB:   DRILLING MEASURED FROM
 DATE.            1-30-79:   RUN DATE
 RUN .                  1:   RUN NUMBER
 DD  .F               635:   DEPTH DRILLER
 DL  .F               632:   DEPTH LOGGER
 BLI .F               626:   BOTTOM LOG INTERVAL
 TLI .F                35:   TOP LOG INTERVAL
 CS  .IN            8.625:   CASING SIZE
 CBD .F                40:   CASING BOTTOM DRILLER
 CBL .F                35:   CASING BOTTOM LOGGER
 BS  .IN            7.875:   BIT SIZE
 BSD .F               635:   BIT SIZE AT DEPTH
 DFT .                KCL:   DRILLING FLUID TYPE
 DFD .                8.9:   DRILLING FLUID DENSITY
 DFV .                230:   DRILLING FLUID VISCOSITY
 DFPH.                  8:   DRILLING FLUID PH
 DFL .                 30:   DRILLING FLUID LOSS
 MSS .           FLOWLINE:   MUD SAMPLE SOURCE
 RMS .OHMM            .18:   RESISTIVITY MUD SAMPLE
 MST .F                62:   MUD SAMPLE TEMPERATURE
 RMF .OHMM            .14:   RESISTIVITY MUD FILTRATE SAMPLE
 MFST.F                59:   MUD FILTRATE SAMPLE TEMPERATURE
 RMC .OHMM            .24:   RESISTIVITY MUD CAKE
 MCST.F                60:   MUD CAKE SAMPLE TEMPERATURE
 MFSS.           MEASURED:   MUD FILTRATE SAMPLE SOURCE
 MCSS.           MEASURED:   MUD CAKE SAMPLE SOURCE
 RMB .OHMM            .17:   RESISTIVITY MUD AT BHT
 BHT .F                70:   BOTTOM HOLE TEMPERATURE
 TCS .HRS               4:   TIME CURCULATED STOPPED
 MRT .F                70:   MAXIMUM RECORDED TEMPERATURE
 LUN .               3006:   LOGGING UNIT NUMBER
 LUL .             CASPER:   LOGGING UNIT LOCATION
 ENGI.            ROLLINS:   RECORDING ENGINEER
 WITN.              AMEND:   WITNESSED BY
 CLNT.            A2DTECH:   CLIENT CODE
 ORIG.         2.5" PRINT:   ORIGIN OF DATA
 UWI .       490251077300:   UNIQUE WELL ID
 DICO. A2D Technologies, Inc.:   DIGITIZING COMPANY
~OTHER INFORMATION
~A   DEPT      SPR         SN        ILD       CALD       CORR       RHOB         GRD      DPHI   
# ...
   60.5000   -33.8178    10.5216    15.9978     7.9280     0.0355     2.3403    91.5010     0.1899
   61.0000   -34.7216    10.3759    15.9605     8.0852     0.0418     2.3422    93.5927     0.1958
   61.5000   -35.6122    10.2323    15.9180     8.1874     0.0484     2.3419    92.5110     0.2016
   62.0000   -36.5298    10.0907    15.8756     8.2756     0.0550     2.3412    91.4235     0.2019
   62.5000   -37.4312     9.9511    15.8320     8.3634     0.0613     2.3407    92.5281     0.2032
   63.0000   -38.7476     9.8133    15.7910     8.3694     0.0679     2.3410    93.7071     0.2037
   63.5000   -40.1597     9.6775    15.7500     8.3377     0.0675     2.3438    94.8752     0.2027
   64.0000   -41.5799     9.5436    15.7013     8.2593     0.0669     2.3417    92.1426     0.2024
   64.5000   -43.0613     9.4115    15.7064     8.1853     0.0660     2.3380    89.3407     0.2030
   65.0000   -43.7616     9.3265    15.7013     8.1350     0.0651     2.3365    88.2124     0.2032
   65.5000   -43.6977     9.3265    15.7053     8.0922     0.0642     2.3379    90.1363     0.2029
   66.0000   -43.7002     9.0054    15.7011     8.0523     0.0598     2.3390    91.7397     0.2024
   66.5000   -43.7111     8.8220    15.7126     8.0064     0.0549     2.3392    91.8831     0.2019
   67.0000   -43.7008     8.6575    15.4134     7.9876     0.0499     2.3468    92.0632     0.2021
   67.5000   -43.7020     8.3620    14.3292     7.9682     0.0451     2.3590    92.0596     0.2025
   68.0000   -43.7005     8.0986    13.5311     7.9503     0.0402     2.3751    93.1771     0.2014
   68.5000   -43.6987     7.8435    11.9870     7.9276     0.0350     2.3903    95.2110     0.1951
   69.0000   -43.6982     7.5965    10.7856     7.9514     0.0310     2.4066    97.2630     0.1837
   69.5000   -43.6967     7.3572     9.7046     8.0044     0.0286     2.4131    99.2352     0.1724
   70.0000   -43.7003     7.1255     8.8485     8.0515     0.0260     2.4141   103.9455     0.1609
   70.5000   -43.7009     6.9011     8.3605     8.0995     0.0234     2.4184   108.3420     0.1510
   71.0000   -43.8891     6.6837     7.8994     8.1153     0.0208     2.4188   113.6283     0.1502
   71.5000   -44.1363     6.4732     7.4637     8.0728     0.0215     2.4189   112.8081     0.1486
   72.0000   -44.3834     6.1935     7.0551     8.0354     0.0236     2.4212   108.0640     0.1486
   72.5000   -44.6258     6.1959     6.7974     7.9713     0.0257     2.4238   103.9556     0.1486
   73.0000   -44.8765     6.1997     6.7974     7.8307     0.0280     2.4248    99.8103     0.1486
   73.5000   -45.1173     6.2035     6.8053     7.6961     0.0300     2.4247   100.9367     0.1491
   74.0000   -45.3125     6.2074     6.8168     7.5562     0.0324     2.4247   104.4351     0.1501
   74.5000   -45.1845     6.2112     6.8284     7.5480     0.0348     2.4247   107.9513     0.1512
   75.0000   -45.0752     6.2150     6.8399     7.5984     0.0372     2.4225   110.7184     0.1522
   75.5000   -44.9516     6.2188     6.8515     7.6504     0.0401     2.4197   110.5321     0.1532
   76.0000   -44.8325     6.2227     6.8632     7.8358     0.0462     2.4168   110.0408     0.1543
   76.5000   -44.7143     6.2265     6.8748     7.9984     0.0538     2.4138   109.4705     0.1553
   77.0000   -44.5943     6.2303     6.8865     8.0408     0.0607     2.4138   109.2135     0.1564
   77.5000   -44.4750     6.2342     6.8981     8.0779     0.0680     2.4202   109.6889     0.1574
   78.0000   -44.3559     6.2380     6.9098     8.0851     0.0664     2.4278   110.5396     0.1582
   78.5000   -44.2370     6.2418     6.9215     8.0852     0.0546     2.4356   111.1443     0.1554
   79.0000   -44.1172     6.2457     6.9333     8.0852     0.0584     2.4396   111.1966     0.1519
   79.5000   -43.9993     6.2495     6.9450     8.0850     0.0518     2.4351   110.7518     0.1485
   80.0000   -43.8804     6.2534     6.9568     8.0849     0.0428     2.4320   109.2126     0.1454
   80.5000   -43.7555     6.2572     6.9686     8.0848     0.0331     2.4308   107.7730     0.1454
   81.0000   -43.6934     6.2611     6.9804     8.0848     0.0246     2.4292   106.2737     0.1461
   81.5000   -43.6994     6.2649     6.9923     8.0847     0.0253     2.4290   107.2162     0.1469
   82.0000   -43.6991     6.2688     7.0041     8.0848     0.0260     2.4296   108.9426     0.1478
   82.5000   -43.6982     6.2726     7.0160     8.0847     0.0273     2.4301   110.6457     0.1487
   83.0000   -43.6991     6.2765     7.0279     8.0848     0.0281     2.4306   111.4691     0.1494
   83.5000   -43.6989     6.2804     7.0398     8.0854     0.0281     2.4317   112.1491     0.1494
   84.0000   -43.6990     6.2842     7.0518     8.0788     0.0281     2.4332   112.7567     0.1494
   84.5000   -43.6992     6.2880     7.0637     8.0612     0.0281     2.4354   117.2488     0.1494
   85.0000   -43.6992     6.2919     7.0757     8.0441     0.0281     2.4379   117.8386     0.1486
   85.5000   -43.6992     6.2954     7.0877     8.0259     0.0281     2.4414   116.9179     0.1486
   86.0000   -43.6992     6.2997     7.0997     8.0093     0.0281     2.4446   113.4744     0.1486
   86.5000   -43.6992     6.3035     7.1117     7.9605     0.0282     2.4485   110.1980     0.1482
   87.0000   -43.6992     6.3071     7.1237     7.8959     0.0318     2.4462   107.6756     0.1464
   87.5000   -43.6992     6.3348     7.1355     7.8363     0.0362     2.4433   106.0761     0.1447
   88.0000   -43.6992     6.4004     7.1474     7.7670     0.0401     2.4402   107.6383     0.1429
   88.5000   -43.6992     6.4665     7.1599     7.7739     0.0416     2.4372   111.0477     0.1412
   89.0000   -43.6992     6.5330     7.1728     7.7852     0.0428     2.4342   113.2511     0.1398
   89.5000   -43.6993     6.6001     7.1842     7.8001     0.0444     2.4316   113.3822     0.1398
   90.0000   -43.6994     6.6728     7.2514     7.8130     0.0485     2.4302   110.4248     0.1413
   90.5000   -43.6999     6.6620     7.3226     7.8263     0.0634     2.4292   107.7446     0.1428
   91.0000   -43.6996     6.6476     7.4195     7.8399     0.0809     2.4283   107.5598     0.1444
   91.5000   -43.6997     6.6320     7.6608     7.8532     0.0930     2.4319   108.5526     0.1459
   92.0000   -43.7016     6.6165     7.8884     7.8666     0.0962     2.4379   109.3682     0.1462
   92.5000   -43.6981     6.6010     7.8884     7.8800     0.0938     2.4444   105.9974     0.1462
   93.0000   -43.6955     6.5856     7.8884     7.8934     0.0921     2.4460   104.6173     0.1450
   93.5000   -43.5364     6.5702     7.8884     7.9067     0.0847     2.4472   105.9609     0.1437
   94.0000   -43.3478     6.5548     7.8884     7.9203     0.0779     2.4476   104.1100     0.1424
   94.5000   -43.1563     6.5395     7.8884     7.9337     0.0715     2.4493   100.7824     0.1411
   95.0000   -42.9675     6.5242     7.8884     7.9468     0.0601     2.4418   101.0215     0.1406
   95.5000   -42.7767     6.5090     7.8884     7.9606     0.0447     2.4334   101.0390     0.1408
   96.0000   -42.5888     6.4937     7.8108     7.9475     0.0381     2.4276   101.1432     0.1414
   96.5000   -42.3960     6.4785     7.7044     7.9250     0.0358     2.4246   101.0908     0.1420
   97.0000   -42.2029     6.4634     7.5994     7.9017     0.0331     2.4225   103.2137     0.1437
   97.5000   -42.1085     6.4484     7.4959     7.8419     0.0305     2.4227   106.2105     0.1458
   98.0000   -42.2330     6.4333     7.3938     7.6809     0.0281     2.4227   106.8345     0.1479
   98.5000   -42.3725     6.4260     7.3226     7.5970     0.0281     2.4227   104.4071     0.1502
   99.0000   -42.5114     6.4222     7.1876     7.5474     0.0280     2.4245   104.3815     0.1502
   99.5000   -43.0236     6.4186     7.1876     7.5235     0.0350     2.4263   104.5032     0.1510
  100.0000   -43.4640     6.4149     7.2010     7.5694     0.0448     2.4285   104.5573     0.1510
  100.5000   -43.9494     6.4113     7.2240     7.6704     0.0545     2.4270   102.1395     0.1510
