~VERSION INFORMATION
 VERS.                2.0:   CWLS LOG ASCII STANDARD - VERSION 2.0
 WRAP.                 NO:   ONE LINE PER DEPTH STEP
~WELL INFORMATION
#MNEM.UNIT      DATA TYPE    INFORMATION
#----------   ------------   ------------------------------
 STRT.F           19.0000:   START DEPTH
 STOP.F         1200.0000:   STOP DEPTH
 STEP.F            0.5000:   STEP LENGTH
 NULL.          -999.2500:   NO VALUE
 COMP.       INTEX OIL CO:   COMPANY
 WELL.     NPR 3 #73 S-14:   WELL
 FLD .             TEAPOT:   FIELD
 LOC .      S14 T38N R78W:   LOCATION
 CNTY.            NATRONA:   COUNTY
 STAT.            WYOMING:   STATE
 CTRY. UNITED STATES OF AMERICA:   COUNTRY
 SRVC.       Schlumberger:   SERVICE COMPANY
 DATE.        24-AUG-1966:   LOGDATE
 API .       490250970900:   API NUMBER
~CURVE INFORMATION
#MNEM.UNIT       API CODE    CURVE DESCRIPTION
#----------   ------------   ------------------------------
 DEPT.F                  :   
 SPR .MV     05 010 01 00:   SPONTANEOUS POTENTIAL FROM RES.
 ILD .OHMM   05 120 46 00:   INDUCTION LOG DEEP
 ASN .OHMM   05 041 16 00:   AMPLIFIED SHORT NORMAL 16"
 CILD.MMHO   05 110 46 00:   CONDUCTIVITY INDUCTION LOG DEEP
 CALD.IN     45 280 60 00:   CALIPER
 GRD .GAPI   45 310 01 00:   GAMMA RAY FROM DENSITY LOG
 CORR.G/C3   45 356 01 00:   DENSITY CORRECTION
 RHOB.G/C3   45 350 01 00:   BULK DENSITY
 DPHI.DEC    45 890 12 00:   DENSITY POROSITY SANDSTONE
~PARAMETER INFORMATION
#MNEM.UNIT          VALUE    DESCRIPTION
#----------   ------------   ------------------------------
 PD  .                 GL:   PERMANENT DATUM
 EPD .F              5274:   ELEVATION PERMANENT DATUM
 LMF .                 KB:   LOG MEASURED FROM
 DAPD.F                 5:   FEET ABOVE PERMANENT DATUM
 DMF .                 KB:   DRILLING MEASURED FROM
 EKB .F              5279:   KELLING BUSHING
 EGL .F              5274:   GROUND LEVEL
 DATE.            8-24-66:   RUN DATE
 RUN .                  1:   RUN NUMBER
 DD  .F              1200:   DEPTH DRILLER
 DL  .F              1200:   DEPTH LOGGER
 BLI .F              1199:   BOTTOM LOG INTERVAL
 TLI .F                86:   TOP LOG INTERVAL
 CS  .IN            8.625:   CASING SIZE
 CBD .F                10:   CASING BOTTOM DRILLER
 BS  .IN             6.75:   BIT SIZE
 BSD .F              1200:   BIT SIZE AT DEPTH
 DFT .                GEL:   DRILLING FLUID TYPE
 DFD .               10.1:   DRILLING FLUID DENSITY
 DFV .                 60:   DRILLING FLUID VISCOSITY
 MSS .          FLOW LINE:   MUD SAMPLE SOURCE
 RMS .OHMM            1.8:   RESISTIVITY MUD SAMPLE
 MST .F                67:   MUD SAMPLE TEMPERATURE
 RMF .OHMM            1.4:   RESISTIVITY MUD FILTRATE SAMPLE
 MFST.F                77:   MUD FILTRATE SAMPLE TEMPERATURE
 MFSS.                  M:   MUD FILTRATE SAMPLE SOURCE
 RMB .OHMM            1.1:   RESISTIVITY MUD AT BHT
 BHT .F               112:   BOTTOM HOLE TEMPERATURE
 TCS .HRS               1:   TIME CURCULATED STOPPED
 MRT .F               112:   MAXIMUM RECORDED TEMPERATURE
 LUN .               4507:   LOGGING UNIT NUMBER
 LUL .               CSPR:   LOGGING UNIT LOCATION
 ENGI.            MANGOLD:   RECORDING ENGINEER
 WITN.                MAY:   WITNESSED BY
 CLNT.            A2DTECH:   CLIENT CODE
 ORIG.           5" PRINT:   ORIGIN OF DATA
 UWI .       490250970900:   UNIQUE WELL ID
 DICO. A2D Technologies, Inc.:   DIGITIZING COMPANY
~OTHER INFORMATION
~A   DEPT      SPR        ILD        ASN       CILD       CALD         GRD        CORR     RHOB       DPHI   
# ...
  566.5000   -51.9580     4.8720     4.9110   189.2840     7.1950    89.8120     0.0420     2.4600     0.1220
  567.0000   -52.0550     4.9690     5.0050   186.3110     7.1890    90.4550     0.0490     2.4690     0.1180
  567.5000   -51.9400     5.0820     5.0980   183.3390     7.1830    90.9630     0.0530     2.4760     0.1140
  568.0000   -51.8320     5.1720     5.2110   181.3190     7.1760    91.3180     0.0540     2.4840     0.1110
  568.5000   -51.7310     5.2540     5.4820   173.4390     7.1800    90.4720     0.0490     2.4880     0.1080
  569.0000   -51.6160     5.4330     5.8010   167.4710     7.1920    88.8630     0.0440     2.4770     0.1040
  569.5000   -51.5150     5.6720     6.1580   161.5020     7.2020    87.3840     0.0380     2.4560     0.1050
  570.0000   -51.4050     5.8860     6.4640   155.5340     7.2130    86.7350     0.0320     2.4450     0.1220
  570.5000   -51.2970     6.1170     6.5290   152.3480     7.2230    94.1380     0.0250     2.4560     0.1180
  571.0000   -51.1940     6.3400     6.5350   152.8570     7.2340    93.3500     0.0270     2.4750     0.1120
  571.5000   -51.0820     6.4310     6.6140   153.8860     7.2440    92.2050     0.0350     2.4880     0.1040
  572.0000   -50.9790     6.4070     6.6400   154.9150     7.2540    91.2380     0.0390     2.4880     0.1050
  572.5000   -50.8700     6.3740     6.6260   155.9440     7.2530    91.9040     0.0300     2.4800     0.1110
  573.0000   -50.7610     6.3500     6.6090   155.8400     7.2520    93.4790     0.0230     2.4690     0.1170
  573.5000   -50.8100     6.3210     6.5470   155.0170     7.2510    94.4530     0.0160     2.4570     0.1220
  574.0000   -51.0550     6.2920     6.4900   154.1940     7.2500    94.8730     0.0210     2.4520     0.1270
  574.5000   -51.3210     6.2690     6.5020   153.3710     7.2490    95.4520     0.0330     2.4820     0.1100
  575.0000   -51.5660     6.2410     6.5360   152.3480     7.2470    96.0780     0.0460     2.4830     0.1070
  575.5000   -51.8300     6.1920     6.5650   153.5160     7.2460    97.1740     0.0480     2.4780     0.1120
  576.0000   -52.0800     6.1420     6.5810   155.0600     7.2450    98.3530     0.0440     2.4770     0.1130
  576.5000   -52.3350     6.1000     6.5680   156.6030     7.2440    99.5770     0.0400     2.4870     0.1100
  577.0000   -52.5950     6.0550     6.5460   158.1470     7.2430   100.7790     0.0420     2.4970     0.1070
  577.5000   -52.8400     6.0070     6.5170   159.6900     7.2420   102.0530     0.0460     2.5020     0.1050
  578.0000   -53.1110     5.9650     6.4760   161.2340     7.2410   102.6180     0.0490     2.4670     0.1070
  578.5000   -53.3040     5.9190     6.4400   162.7770     7.2390    98.8330     0.0430     2.4690     0.1100
  579.0000   -53.3220     5.8710     6.4060   164.3210     7.2380    96.6150     0.0370     2.4850     0.0930
  579.5000   -53.3070     5.8350     6.3660   165.8640     7.2360    97.8340     0.0340     2.4870     0.0960
  580.0000   -53.3170     5.7760     6.3320   167.3330     7.2370    99.1840     0.0430     2.4790     0.1040
  580.5000   -53.3120     5.7520     6.2990   167.3330     7.2320   100.4740     0.0500     2.4900     0.0970
  581.0000   -53.3140     5.8450     6.2560   166.5200     7.2390   100.3640     0.0440     2.4840     0.1010
  581.5000   -53.3120     5.9640     6.2740   165.1480     7.1900    99.9340     0.0390     2.4690     0.1090
  582.0000   -53.3830     6.0560     6.3900   163.7760     7.0950    98.9270     0.0340     2.4720     0.1060
  582.5000   -53.5740     6.1660     6.5420   162.4040     7.0470    96.2330     0.0400     2.4650     0.1100
  583.0000   -53.7790     6.2690     6.6720   161.3390     7.1740    93.1120     0.0430     2.4490     0.1170
  583.5000   -53.9690     6.3690     6.7460   156.9330     7.2390    91.4170     0.0270     2.4520     0.1120
  584.0000   -54.1690     6.4800     6.8070   153.3320     7.2310    91.4950     0.0210     2.4740     0.1050
  584.5000   -54.3680     6.5430     6.8860   149.7300     7.2330    92.2980     0.0220     2.4670     0.1080
  585.0000   -54.5610     6.5730     6.9580   146.1290     7.2310    94.0440     0.0280     2.4590     0.1120
  585.5000   -54.7610     6.6390     7.0320   142.5270     7.2310    96.2050     0.0290     2.4450     0.1180
  586.0000   -54.9600     6.7070     7.1030   138.9260     7.2290    94.5790     0.0260     2.4480     0.1150
  586.5000   -55.1490     6.7790     7.1500   135.3250     7.2290    91.2560     0.0220     2.4670     0.1080
  587.0000   -55.3620     6.8480     7.1240   131.3690     7.2280    91.0130     0.0260     2.4850     0.1010
  587.5000   -55.5170     6.8460     7.0140   131.3690     7.2270    90.1480     0.0390     2.4730     0.1060
  588.0000   -55.5340     6.8500     6.8920   132.3680     7.2260    88.7460     0.0450     2.4380     0.1150
  588.5000   -55.5240     6.8500     6.7690   133.3670     7.2250    91.0750     0.0350     2.4360     0.1230
  589.0000   -55.5240     6.7330     6.6580   135.3650     7.2240    92.0720     0.0240     2.4240     0.1250
  589.5000   -55.5320     6.3580     6.5390   141.6730     7.2230    90.6690     0.0230     2.4400     0.1270
  590.0000   -55.5170     5.7470     6.3360   150.4920     7.2220    89.9190     0.0340     2.4380     0.1310
  590.5000   -55.3770     5.3270     6.1230   159.3120     7.2210    92.4510     0.0440     2.4270     0.1370
  591.0000   -55.2270     4.7780     5.8840   166.3340     7.2200    91.7410     0.0510     2.4050     0.1520
  591.5000   -55.1270     3.6550     5.4670   248.6420     7.2190    89.8320     0.0490     2.3670     0.1700
  592.0000   -54.9680     2.8060     4.8880   317.0120     7.2180    88.2650     0.0470     2.3140     0.2030
  592.5000   -54.8740     2.5570     4.3150   385.3810     7.2170    94.7570     0.0420     2.2540     0.2410
  593.0000   -54.7080     2.3360     3.7310   465.0350     7.2170   102.9310     0.0450     2.1940     0.2990
  593.5000   -54.2540     2.0610     3.2690   481.1440     7.2140   111.3100     0.0540     2.1640     0.2990
  594.0000   -53.7480     1.8730     2.9870   502.4980     7.2190   119.5980     0.0560     2.1830     0.2850
  594.5000   -53.2020     1.8070     2.7040   538.4620     7.2230   118.0440     0.0630     2.2230     0.2490
  595.0000   -52.7310     1.8600     2.6350   526.4740     7.2880   110.2320     0.0960     2.2640     0.2390
  595.5000   -52.6850     2.1630     2.6620   498.5010     7.3860   102.2310     0.0910     2.3060     0.2190
  596.0000   -52.7210     2.7050     2.8490   360.6390     7.4800    95.5520     0.0760     2.3550     0.1970
  596.5000   -52.7000     3.1970     3.0430   299.4680     7.4040    91.7660     0.0550     2.4060     0.1410
  597.0000   -53.0010     3.7340     3.2430   311.0170     7.2770    87.3830     0.0360     2.4340     0.1300
  597.5000   -53.5090     4.4470     4.2100   249.6900     7.1650    83.0020     0.0140     2.4480     0.1270
  598.0000   -54.0080     5.3160     5.5710   188.3640     7.1640    81.6040     0.0220     2.4800     0.1190
  598.5000   -54.5120     6.2360     6.4510   147.6520     7.1770    80.2320     0.0400     2.4720     0.1090
  599.0000   -54.9240     7.0260     7.5160   118.4980     7.1890    76.9090     0.0410     2.4630     0.1120
  599.5000   -55.1140     8.0280     8.5500    81.4190     7.2000    75.6120     0.0470     2.4550     0.1150
  600.0000   -55.1270     8.9710     8.6480    77.4230     7.2130    74.0420     0.0560     2.4470     0.1120
  600.5000   -56.0790    10.4070    10.4820    90.5210     7.1120    68.8660     0.0690     2.4390     0.1170
  601.0000   -56.2050     9.2560    10.5390   104.2130     7.0480    72.6990     0.0670     2.4290     0.1230
  601.5000   -56.2240     7.9310    10.0400   125.7710     7.0270    78.3770     0.0540     2.4210     0.1270
  602.0000   -56.0900     6.6700    10.0000   147.3280     7.0670    84.7240     0.0430     2.4100     0.1390
  602.5000   -55.8930     5.7460     8.9110   175.3250     7.0960    90.7540     0.0380     2.3970     0.1560
