~VERSION INFORMATION
 VERS.                2.0:   CWLS LOG ASCII STANDARD - VERSION 2.0
 WRAP.                 NO:   ONE LINE PER DEPTH STEP
~WELL INFORMATION
#MNEM.UNIT      DATA TYPE    INFORMATION
#----------   ------------   ------------------------------
 STRT.F           23.0000:   START DEPTH
 STOP.F         2536.0000:   STOP DEPTH
 STEP.F            0.5000:   STEP LENGTH
 NULL.          -999.2500:   NO VALUE
 COMP. FENIX & SCISSON INC:   COMPANY
 WELL.     14 SHX 3 #14-3:   WELL
 FLD .             TEAPOT:   FIELD
 LOC .       S3 T38N R78W:   LOCATION
 CNTY.            NATRONA:   COUNTY
 STAT.            WYOMING:   STATE
 CTRY. UNITED STATES OF AMERICA:   COUNTRY
 SRVC.           BIRDWELL:   SERVICE COMPANY
 DATE.        20-MAR-1979:   LOGDATE
 API .       490251073900:   API NUMBER
~CURVE INFORMATION
#MNEM.UNIT       API CODE    CURVE DESCRIPTION
#----------   ------------   ------------------------------
 DEPT.F                  :   
 SPR .MV     07 010 01 00:   SPONTANEOUS POTENTIAL
 SN  .OHMM   07 040 16 00:   SHORT NORMAL 16'
 IL  .OHMM   07 120 00 00:   INDUCTION LOG
 GRD .GAPI   45 310 01 00:   GAMMA RAY FROM DENSITY LOG
 CALD.IN     45 280 60 00:   CALIPER
 CORR.G/C3   45 356 01 00:   DENSITY CORRECTION
 DEN .G/C3   45 350 01 00:   
 DPHI.DEC    45 890 12 00:   DENSITY POROSITY SANDSTONE
~PARAMETER INFORMATION
#MNEM.UNIT          VALUE    DESCRIPTION
#----------   ------------   ------------------------------
 PD  .                 GL:   PERMANENT DATUM
 EPD .F              5208:   ELEVATION PERMANENT DATUM
 LMF .                 KB:   LOG MEASURED FROM
 DAPD.F                10:   FEET ABOVE PERMANENT DATUM
 DMF .                 KB:   DRILLING MEASURED FROM
 EKB .F              5218:   KELLING BUSHING
 EGL .F              5208:   GROUND LEVEL
 DATE.            3-20-79:   RUN DATE
 RUN .                  1:   RUN NUMBER
 DD  .F              2580:   DEPTH DRILLER
 DL  .F              2536:   DEPTH LOGGER
 BLI .F              2536:   BOTTOM LOG INTERVAL
 TLI .F               400:   TOP LOG INTERVAL
 CS  .IN            9.625:   CASING SIZE
 CBL .F               680:   CASING BOTTOM LOGGER
 BS  .IN             8.75:   BIT SIZE
 BSD .F              2580:   BIT SIZE AT DEPTH
 DFT .                AIR:   DRILLING FLUID TYPE
 TCS .HRS               6:   TIME CURCULATED STOPPED
 LUN .               2959:   LOGGING UNIT NUMBER
 LUL .             CASPER:   LOGGING UNIT LOCATION
 ENGI.            ROLLINS:   RECORDING ENGINEER
 WITN.           DINSMORE:   WITNESSED BY
 CLNT.            A2DTECH:   CLIENT CODE
 ORIG. 1", 2", 2.5", 5" PRINT:   ORIGIN OF DATA
 UWI .       490251073900:   UNIQUE WELL ID
 DICO. A2D Technologies, Inc.:   DIGITIZING COMPANY
~OTHER INFORMATION
~A   DEPT      SPR         SN         IL        GRD       CALD       CORR        DEN       DPHI   
# ...
  185.0000   -33.4264     7.8412     8.3194    98.0959    12.6583     0.0111     2.4656     0.1359
  185.5000   -33.3332     7.4700     8.1942    98.2078    12.6568     0.0121     2.4613     0.1364
  186.0000   -34.2497     7.5972     8.2109    98.9168    12.6554     0.0147     2.4619     0.1353
  186.5000   -34.2768     7.7563     8.2512    99.6256    12.6540     0.0254     2.4719     0.1285
  187.0000   -33.9482     7.9187     8.2919   100.3357    12.6526     0.0361     2.4819     0.1218
  187.5000   -33.5349     8.0846     8.3329   101.0498    12.6512     0.0468     2.4920     0.1147
  188.0000   -33.6280     8.1183     8.3741   101.6337    12.6498     0.0448     2.4966     0.1147
  188.5000   -33.9314     7.8666     8.4242   101.3259    12.6484     0.0363     2.4922     0.1174
  189.0000   -34.1228     7.6623     8.3926    99.3542    12.6470     0.0282     2.4866     0.1203
  189.5000   -33.5430     7.4633     8.3528    98.2468    12.6456     0.0201     2.4810     0.1243
  190.0000   -32.9030     7.2656     8.3133    99.6356    12.6442     0.0120     2.4732     0.1285
  190.5000   -33.2637     7.5310     8.2739   101.6576    12.6427     0.0052     2.4638     0.1327
  191.0000   -33.6893     7.7515     8.2347   100.0611    12.6413     0.0043     2.4616     0.1355
  191.5000   -33.6974     7.4727     8.1957    97.8550    12.6399     0.0089     2.4698     0.1320
  192.0000   -33.1102     7.1325     8.1569    95.6195    12.6385     0.0132     2.4666     0.1299
  192.5000   -31.6006     7.4996     8.1183    93.4937    12.6371     0.0176     2.4780     0.1251
  193.0000   -29.4884     7.7919     8.0798    93.0705    12.6357     0.0220     2.4904     0.1183
  193.5000   -31.6855     7.4334     8.0415    93.5740    12.6343     0.0217     2.4855     0.1219
  194.0000   -32.8046     7.1987     8.0035    97.3065    12.6329     0.0170     2.4786     0.1283
  194.5000   -32.5970     7.4081     7.9656    99.6673    12.6315     0.0131     2.4747     0.1256
  195.0000   -32.3601     7.6094     7.9278    98.6885    12.6301     0.0178     2.4822     0.1215
  195.5000   -32.1282     7.3964     7.8903    98.4214    12.6287     0.0171     2.4847     0.1241
  196.0000   -31.8978     7.2648     7.8529   100.3820    12.6273     0.0144     2.4787     0.1248
  196.5000   -31.8932     7.2663     7.8157   102.2720    12.6258     0.0140     2.4831     0.1191
  197.0000   -32.1412     7.2655     7.7787   104.2586    12.6244     0.0175     2.4899     0.1175
  197.5000   -32.4121     7.2656     7.7419   104.5574    12.6230     0.0209     2.4913     0.1173
  198.0000   -32.6837     7.2656     7.7052   102.4713    12.6216     0.0191     2.4932     0.1193
  198.5000   -32.5660     7.2656     7.6801    99.6484    12.6202     0.0168     2.4849     0.1213
  199.0000   -32.4207     7.2656     7.6801    97.1465    12.6188     0.0146     2.4833     0.1224
  199.5000   -32.3459     7.2658     7.6801    97.7178    12.6174     0.0124     2.4821     0.1226
  200.0000   -32.7976     7.2664     7.8235    99.3621    12.6160     0.0101     2.4809     0.1241
  200.5000   -33.2528     7.2673     7.9004   100.8630    12.6146     0.0091     2.4797     0.1261
  201.0000   -33.2976     7.2632     7.9709   101.3364    12.6132     0.0106     2.4786     0.1245
  201.5000   -32.7626     7.4292     8.0420   101.4862    12.6118     0.0166     2.4865     0.1194
  202.0000   -32.1587     7.5590     8.1138   100.7945    12.6104     0.0229     2.4957     0.1142
  202.5000   -31.5515     7.6805     8.1862    99.3688    12.6089     0.0267     2.5006     0.1110
  203.0000   -30.9576     7.6457     8.2593    97.9381    12.6075     0.0271     2.5030     0.1060
  203.5000   -30.9063     7.6091     8.3331    96.5000    12.6061     0.0310     2.5158     0.0991
  204.0000   -30.8613     7.6354     8.4074    95.5924    12.6047     0.0364     2.5418     0.0922
  204.5000   -31.2303     7.6743     8.4825    98.6201    12.6033     0.0325     2.5345     0.0906
  205.0000   -31.5916     7.7126     8.5582   101.6456    12.6019     0.0272     2.5180     0.1003
  205.5000   -31.9574     7.7488     8.6346   102.8683    12.6005     0.0219     2.5016     0.1079
  206.0000   -32.2929     7.8263     8.7416   101.5722    12.5992     0.0191     2.4975     0.1139
  206.5000   -32.1474     7.8217     8.7416    98.3779    12.5992     0.0204     2.4985     0.1142
  207.0000   -31.9287     7.8235     8.6969    95.2024    12.5992     0.0219     2.5017     0.1134
  207.5000   -31.7097     7.8235     8.5973    92.0323    12.5992     0.0220     2.4987     0.1158
  208.0000   -31.4907     7.7561     8.4989    90.8270    12.5992     0.0173     2.4888     0.1216
  208.5000   -31.2914     7.6518     8.4016    94.7130    12.5992     0.0131     2.4785     0.1247
  209.0000   -31.2904     7.5488     8.3055    97.6843    12.5992     0.0168     2.4824     0.1204
  209.5000   -31.2676     7.4657     8.2104   100.6635    12.5992     0.0189     2.4889     0.1175
  210.0000   -30.7532     7.4466     8.1164   102.5111    12.5992     0.0143     2.4816     0.1245
  210.5000   -30.2928     7.4276     8.0235   101.2021    12.5993     0.0143     2.4695     0.1300
  211.0000   -31.5725     7.4086     7.9317    99.9279    12.5996     0.0159     2.4745     0.1253
  211.5000   -32.7036     7.2846     7.8408   102.3606    12.5974     0.0177     2.4818     0.1219
  212.0000   -32.4232     7.0974     7.7511   101.4854    12.5449     0.0194     2.4845     0.1215
  212.5000   -29.8977     6.9150     7.6624   100.0223    12.4924     0.0210     2.4844     0.1222
  213.0000   -28.5752     6.7376     7.5747    99.7159    12.4403     0.0190     2.4817     0.1237
  213.5000   -30.1871     6.5604     7.5394   100.5895    12.3881     0.0143     2.4790     0.1252
  214.0000   -31.0764     6.5598     7.5394   100.6293    12.3397     0.0097     2.4763     0.1267
  214.5000   -30.7992     7.0900     7.6013    98.5306    12.3527     0.0070     2.4746     0.1267
  215.0000   -30.4775     7.1965     7.6805    96.4806    12.3855     0.0075     2.4829     0.1219
  215.5000   -30.3343     7.3078     7.7610    95.0955    12.4179     0.0131     2.4913     0.1173
  216.0000   -30.6134     7.4345     7.8422    97.4554    12.4503     0.0227     2.5013     0.1112
  216.5000   -29.7555     7.5673     7.9242    99.8591    12.4828     0.0322     2.5179     0.1031
  217.0000   -29.2446     7.6801     8.0070    96.9208    12.5153     0.0419     2.5253     0.0970
  217.5000   -30.5499     7.6768     8.0907    99.8703    12.5479     0.0348     2.5123     0.1091
  218.0000   -27.2311     7.6560     8.1753   103.3882    12.5784     0.0249     2.4931     0.1191
  218.5000   -30.3073     7.6353     8.2607   101.1654    12.5753     0.0149     2.4749     0.1290
  219.0000   -30.8985     7.6094     8.3471    98.1290    12.5711     0.0091     2.4672     0.1336
  219.5000   -31.0097     7.6642     8.4344    94.1900    12.5670     0.0103     2.4646     0.1368
  220.0000   -31.1012     7.7380     8.5225    95.2989    12.5631     0.0163     2.4626     0.1359
  220.5000   -31.1909     7.8126     8.5814    97.5022    12.5590     0.0207     2.4607     0.1339
  221.0000   -31.2829     7.8879     8.5024    98.1705    12.5550     0.0177     2.4603     0.1346
  221.5000   -31.3640     7.9695     8.4699    94.4948    12.5511     0.0149     2.4608     0.1364
  222.0000   -29.3346     7.9490     8.4352    90.3660    12.5471     0.0205     2.4772     0.1281
  222.5000   -28.0201     7.9209     8.4006    86.9452    12.5430     0.0270     2.4954     0.1199
  223.0000   -30.0075     7.8929     8.3661    91.0307    12.5391     0.0271     2.5053     0.1121
  223.5000   -30.6538     7.8650     8.3318    95.2002    12.5351     0.0294     2.5099     0.1058
  224.0000   -31.1173     7.8372     8.2976    99.3342    12.5310     0.0277     2.5125     0.1062
  224.5000   -31.5057     7.8095     8.2635   103.4690    12.5270     0.0260     2.5062     0.1101
  225.0000   -31.2910     7.7818     8.2296   105.0481    12.5230     0.0243     2.5001     0.1139
