~VERSION INFORMATION
 VERS.                2.0:   CWLS LOG ASCII STANDARD - VERSION 2.0
 WRAP.                 NO:   ONE LINE PER DEPTH STEP
~WELL INFORMATION
#MNEM.UNIT      DATA TYPE    INFORMATION
#----------   ------------   ------------------------------
 STRT.F            0.0000:   START DEPTH
 STOP.F          600.0000:   STOP DEPTH
 STEP.F            0.5000:   STEP LENGTH
 NULL.          -999.2500:   NO VALUE
 COMP.   FLUOR DANIEL INC:   COMPANY
 WELL.   16-1 X 11 #16-11:   WELL
 FLD .             TEAPOT:   FIELD
 LOC .      S11 T38N R78W:   LOCATION
 CNTY.            NATRONA:   COUNTY
 STAT.            WYOMING:   STATE
 CTRY. UNITED STATES OF AMERICA:   COUNTRY
 SRVC.      Western Atlas:   SERVICE COMPANY
 DATE.        08-MAY-1995:   LOGDATE
 API .       490252271100:   API NUMBER
~CURVE INFORMATION
#MNEM.UNIT       API CODE    CURVE DESCRIPTION
#----------   ------------   ------------------------------
 DEPT.F                  :   
 GRR .GAPI   07 310 01 00:   GAMMA RAY
 RILD.OHMM   07 120 46 00:   INDUCTION LOG DEEP RESISTIVITY
 RILM.OHMM   07 120 44 00:   INDUCTION LOG MEDIUM RESISTIVITY
~PARAMETER INFORMATION
#MNEM.UNIT          VALUE    DESCRIPTION
#----------   ------------   ------------------------------
 PD  .                 GL:   PERMANENT DATUM
 EPD .F              5203:   ELEVATION PERMANENT DATUM
 LMF .                 KB:   LOG MEASURED FROM
 DAPD.F                10:   FEET ABOVE PERMANENT DATUM
 DMF .                 KB:   DRILLING MEASURED FROM
 EKB .F              5213:   KELLING BUSHING
 EDF .F              5212:   DRILLING FLOOR
 EGL .F              5203:   GROUND LEVEL
 DATE.        08-MAY-1995:   RUN DATE
 RUN .                  1:   RUN NUMBER
 DD  .F               605:   DEPTH DRILLER
 DL  .F               608:   DEPTH LOGGER
 BLI .F               600:   BOTTOM LOG INTERVAL
 TLI .F                46:   TOP LOG INTERVAL
 CS  .IN            9.625:   CASING SIZE
 CBD .F                46:   CASING BOTTOM DRILLER
 CBL .F                46:   CASING BOTTOM LOGGER
 BS  .IN             8.75:   BIT SIZE
 BSD .F               605:   BIT SIZE AT DEPTH
 DFT .                AIR:   DRILLING FLUID TYPE
 MRT .F                89:   MAXIMUM RECORDED TEMPERATURE
 LUN .            HL 6530:   LOGGING UNIT NUMBER
 LUL .             CASPER:   LOGGING UNIT LOCATION
 ENGI.      PAT RASMUSSEN:   RECORDING ENGINEER
 WITN.        GARY STRONG:   WITNESSED BY
 CLNT.            A2DTECH:   CLIENT CODE
 ORIG.           5" PRINT:   ORIGIN OF DATA
 UWI .       490252271100:   UNIQUE WELL ID
 DICO. A2D Technologies, Inc.:   DIGITIZING COMPANY
~OTHER INFORMATION
~A    DEPT      GRR      RILD       RILM   
# ...
  182.0000   131.9923     8.3352     8.5037
  182.5000   133.8170     8.3960     8.5051
  183.0000   135.3372     8.3988     8.5062
  183.5000   136.8573     8.4017     8.5074
  184.0000   138.3774     8.4046     8.4494
  184.5000   136.8810     8.4074     8.4508
  185.0000   135.3745     8.3521     8.4520
  185.5000   135.0947     8.2973     8.4532
  186.0000   137.2211     8.3002     8.3958
  186.5000   137.8333     8.2395     8.3386
  187.0000   132.1166     8.1349     8.1682
  187.5000   129.1089     8.0264     8.0567
  188.0000   131.8386     7.9186     7.9467
  188.5000   135.4674     7.8122     7.8352
  189.0000   133.9739     7.7067     7.6710
  189.5000   136.0974     7.6032     7.5208
  190.0000   138.8241     7.5017     7.4179
  190.5000   137.0260     7.4518     7.3166
  191.0000   135.5295     7.4029     7.2170
  191.5000   134.9291     7.3542     7.1680
  192.0000   134.0449     7.3065     7.2693
  192.5000   134.0573     7.3599     7.3209
  193.0000   134.0716     7.4662     7.4243
  193.5000   134.6867     7.6294     7.5815
  194.0000   136.8102     7.7962     7.7960
  194.5000   138.3303     7.8995     7.9061
  195.0000   138.9425     7.9571     7.9072
  195.5000   135.9407     8.0152     7.9082
  196.0000   132.0310     8.0179     7.9644
  196.5000   127.8196     8.0764     8.0210
  197.0000   126.6248     8.1353     8.0221
  197.5000   126.9383     8.1947     8.0791
  198.0000   128.7762     8.1975     8.0802
  198.5000   130.6134     8.2003     8.0882
  199.0000   131.2519     8.2031     8.1956
  199.5000   133.0218     8.1492     8.1967
  200.0000   133.0317     8.1520     8.1979
  200.5000   133.0498     8.1548     8.1990
  201.0000   134.8813     8.1576     8.1431
  201.5000   135.1962     8.1040     8.0879
  202.0000   130.9950     8.1074     8.0332
  202.5000   129.8016     8.0535     7.9236
  203.0000   134.6502     8.0569     7.8699
  203.5000   135.2668     8.0033     7.8710
  204.0000   130.4623     7.9507     7.8176
  204.5000   128.6275     7.8985     7.8187
  205.0000   132.3378     7.8466     7.8197
  205.5000   136.1106     7.8500     7.8208
  206.0000   138.0744     7.9073     7.8219
  206.5000   134.4765     7.9650     7.9878
  207.0000   135.3991     8.1351     8.1006
  207.5000   137.5284     8.2543     8.3298
  208.0000   135.7361     8.4093     8.5062
  208.5000   132.7371     8.6474     8.6863
  209.0000   131.8492     8.9541     8.8703
  209.5000   132.1691     9.1441     9.0582
  210.0000   130.6184     9.3381     9.3145
  210.5000   126.9230     9.6693     9.6447
  211.0000   121.9700     9.8122     9.9199
  211.5000   119.8761    10.1546    10.3243
  212.0000   116.5754    10.2272    10.6157
  212.5000   113.8782    10.3005    10.6904
  213.0000   111.7842    10.3025    10.6911
  213.5000   110.8924    10.3046    10.6179
  214.0000   115.1377    10.2350    10.6185
  214.5000   117.8703    10.0966    10.4729
  215.0000   116.2896     9.8226    10.1164
  215.5000   113.3807     9.6843     9.8400
  216.0000   117.9276     9.4268     9.4928
  216.5000   122.1685     9.2347     9.2454
  217.0000   124.9011     9.0466     9.0557
  217.5000   123.1088     8.9238     8.9314
  218.0000   120.7132     8.8920     8.8703
  218.5000   117.1109     8.8041     8.8095
  219.0000   116.5252     8.7455     8.8101
  219.5000   116.5430     8.7473     8.7496
  220.0000   115.9572     8.7491     8.7504
  220.5000   115.6732     8.7509     8.7509
  221.0000   117.2035     8.6922     8.7515
  221.5000   119.3328     8.6944     8.7522
  222.0000   120.2510     8.6961     8.8138
  222.5000   116.9548     8.6979     8.8144
  223.0000   116.3647     8.6996     8.8150
  223.5000   120.3083     8.7013     8.8156
  224.0000   120.3378     8.7031     8.8162
  224.5000   119.1181     8.7049     8.8168
  225.0000   117.9480     8.7068     8.8174
  225.5000   117.6684     8.7089     8.7570
  226.0000   117.0827     8.7106     8.7576
  226.5000   114.6871     8.5920     8.6375
  227.0000   111.6881     8.4755     8.5190
  227.5000   110.1975     8.3032     8.3441
  228.0000   113.5334     8.0778     8.1727
  228.5000   118.9809     7.8586     7.8399
  229.0000   121.1101     7.5900     7.6258
  229.5000   121.4299     7.3784     7.3662
  230.0000   119.3399     7.2362     7.2149
  230.5000   118.4481     7.1873     7.1159
  231.0000   120.5818     7.0902     7.0671
  231.5000   122.4094     7.0916     7.0721
  232.0000   123.6337     7.1424     7.2169
  232.5000   123.3497     7.1935     7.3183
  233.0000   121.8590     7.2450     7.3698
  233.5000   120.9713     7.2969     7.4733
  234.0000   123.4108     7.4003     7.5259
  234.5000   124.3258     7.4535     7.5264
  235.0000   124.3473     7.5069     7.5793
  235.5000   124.3649     7.6662     7.6326
  236.0000   126.1925     7.7210     7.6863
  236.5000   126.8091     7.8304     7.7974
  237.0000   124.4134     7.8864     7.9122
  237.5000   120.8156     7.9981     8.0707
  238.0000   116.6100     8.1114     8.1841
  238.5000   116.6276     8.2341     8.2991
  239.0000   120.9592     8.4012     8.3574
  239.5000   125.2086     8.4029     8.3580
  240.0000   124.2265     8.4631     8.4168
  240.5000   122.1325     8.4648     8.4760
  241.0000   120.3402     8.4665     8.4766
  241.5000   120.9611     8.4093     8.3589
  242.0000   123.9954     8.2956     8.2388
  242.5000   126.4263     8.1822     8.1325
  243.0000   125.8406     8.0721     8.0210
  243.5000   125.5566     8.0741     7.9110
  244.0000   128.0161     8.0758     7.9115
  244.5000   129.5179     8.0774     7.9121
  245.0000   130.4405     8.0790     7.9126
  245.5000   130.7598     8.1369     8.0238
  246.0000   129.5708     8.1385     8.0802
  246.5000   127.1752     8.1968     8.1370
  247.0000   124.4779     8.1984     8.0813
  247.5000   122.6856     8.2001     8.0820
  248.0000   123.0049     8.2022     8.0825
  248.5000   123.9347     8.2038     8.0831
  249.0000   126.8134     8.2055     8.0836
  249.5000   131.2070     8.2072     8.0842
  250.0000   133.6335     8.2088     8.0847
  250.5000   128.8290     8.1538     8.0293
  251.0000   124.9251     8.0990     8.0299
  251.5000   124.9427     8.0448     7.9749
  252.0000   127.6753     7.9908     7.9173
  252.5000   128.8996     7.9377     7.8116
  253.0000   128.9173     7.8844     7.7581
  253.5000   129.2539     7.8312     7.7051
  254.0000   130.5581     7.7249     7.7056
  254.5000   131.3835     7.6202     7.5999
  255.0000   130.5005     7.4653     7.5580
  255.5000   129.3071     7.2125     7.3529
  256.0000   126.6143     6.9683     7.1036
  256.5000   125.7225     6.6397     6.8627
  257.0000   126.0462     6.4148     6.6269
  257.5000   126.9688     6.2379     6.3978
  258.0000   129.3997     6.0580     6.1454
  258.5000   131.8855     5.9065     6.0200
  259.0000   131.5511     5.9080     6.1054
  259.5000   130.0604     5.9917     6.2351
  260.0000   128.8714     6.1188     6.5016
  260.5000   129.4924     6.2921     6.6397
  261.0000   130.1133     6.3812     6.7808
  261.5000   129.3172     6.5619     6.9249
  262.0000   129.6299     6.7947     7.1246
  262.5000   130.8454     6.9388     7.2307
  263.0000   127.5360     7.0907     7.4275
  263.5000   122.7183     7.2871     7.5329
  264.0000   117.5989     7.3903     7.5869
  264.5000   117.6320     7.4432     7.5359
  265.0000   123.2077     7.4447     7.5374
  265.5000   127.2807     7.4980     7.5390
  266.0000   130.3062     7.4995     7.5405
  266.5000   132.4266     7.4492     7.4899
  267.0000   130.6255     7.4507     7.3881
  267.5000   127.6178     7.3497     7.2878
  268.0000   124.3084     7.1973     7.1887
  268.5000   123.4100     7.0748     7.0914
  269.0000   126.1360     6.9098     7.0435
  269.5000   126.4544     6.7223     6.9001
  270.0000   126.4555     6.4946     6.7125
  270.5000   127.4178     6.1884     6.3955
  271.0000   128.5869     5.8558     6.0513
  271.5000   127.3891     5.5028     5.4541
  272.0000   127.0940     5.1354     5.1558
  272.5000   128.0101     4.8259     4.8435
