~VERSION INFORMATION
 VERS.                2.0:   CWLS LOG ASCII STANDARD - VERSION 2.0
 WRAP.                 NO:   ONE LINE PER DEPTH STEP
~WELL INFORMATION
#MNEM.UNIT      DATA TYPE    INFORMATION
#----------   ------------   ------------------------------
 STRT.F           10.5000:   START DEPTH
 STOP.F          604.0000:   STOP DEPTH
 STEP.F            0.5000:   STEP LENGTH
 NULL.          -999.2500:   NO VALUE
 COMP. FENIX & SCISSON INC:   COMPANY
 WELL.  NPR 3 #87 S 10-10:   WELL
 FLD .             TEAPOT:   FIELD
 LOC .      S10 T38N R78W:   LOCATION
 CNTY.            NATRONA:   COUNTY
 STAT.            WYOMING:   STATE
 CTRY. UNITED STATES OF AMERICA:   COUNTRY
 SRVC.           BIRDWELL:   SERVICE COMPANY
 DATE.        11-DEC-1978:   LOGDATE
 API .       490251075400:   API NUMBER
~CURVE INFORMATION
#MNEM.UNIT       API CODE    CURVE DESCRIPTION
#----------   ------------   ------------------------------
 DEPT.F                  :   
 SPR .MV     05 010 01 00:   SPONTANEOUS POTENTIAL FROM RES.
 SN  .OHMM   05 040 16 00:   SHORT NORMAL 16"
 IL  .OHMM   05 120 00 00:   INDUCTION LOG
 CALD.IN     45 280 60 00:   CALIPER
 GRD .GAPI   45 310 01 00:   GAMMA RAY FROM DENSITY LOG
 RHOB.G/C3   45 350 01 00:   BULK DENSITY
 DPHI.DEC    45 890 12 00:   DENSITY POROSITY SANDSTONE
 CORR.G/C3   45 356 01 00:   DENSITY CORRECTION
~PARAMETER INFORMATION
#MNEM.UNIT          VALUE    DESCRIPTION
#----------   ------------   ------------------------------
 PD  .                 GL:   PERMANENT DATUM
 LMF .                 KB:   LOG MEASURED FROM
 DAPD.F                 4:   FEET ABOVE PERMANENT DATUM
 DMF .                 KB:   DRILLING MEASURED FROM
 DATE.           12-11-78:   RUN DATE
 RUN .                  1:   RUN NUMBER
 DD  .F               600:   DEPTH DRILLER
 DL  .F               602:   DEPTH LOGGER
 BLI .F               596:   BOTTOM LOG INTERVAL
 TLI .F                60:   TOP LOG INTERVAL
 CBD .F                40:   CASING BOTTOM DRILLER
 CBL .F                35:   CASING BOTTOM LOGGER
 BS  .IN            7.875:   BIT SIZE
 BSD .F               600:   BIT SIZE AT DEPTH
 DFT .                KCC:   DRILLING FLUID TYPE
 DFD .                8.7:   DRILLING FLUID DENSITY
 DFV .                 39:   DRILLING FLUID VISCOSITY
 DFPH.               10.5:   DRILLING FLUID PH
 DFL .                 10:   DRILLING FLUID LOSS
 MSS .           FLOWLINE:   MUD SAMPLE SOURCE
 RMS .OHMM              1:   RESISTIVITY MUD SAMPLE
 MST .F                62:   MUD SAMPLE TEMPERATURE
 RMF .OHMM            .85:   RESISTIVITY MUD FILTRATE SAMPLE
 MFST.F                58:   MUD FILTRATE SAMPLE TEMPERATURE
 RMC .OHMM             .8:   RESISTIVITY MUD CAKE
 MCST.F                66:   MUD CAKE SAMPLE TEMPERATURE
 MFSS.           MEASURED:   MUD FILTRATE SAMPLE SOURCE
 MCSS.           MEASURED:   MUD CAKE SAMPLE SOURCE
 BHT .F                72:   BOTTOM HOLE TEMPERATURE
 TCS .HRS               3:   TIME CURCULATED STOPPED
 MRT .F                72:   MAXIMUM RECORDED TEMPERATURE
 LUN .               2958:   LOGGING UNIT NUMBER
 LUL .             CASPER:   LOGGING UNIT LOCATION
 ENGI.            ROLLINS:   RECORDING ENGINEER
 WITN.           DINSMORE:   WITNESSED BY
 CLNT.            A2DTECH:   CLIENT CODE
 ORIG.       2", 5" PRINT:   ORIGIN OF DATA
 UWI .       490251075400:   UNIQUE WELL ID
 DICO. A2D Technologies, Inc.:   DIGITIZING COMPANY
~OTHER INFORMATION
~A   DEPT      SPR         SN         IL       CALD        GRD       RHOB       DPHI       CORR   
# ...
  456.0000   -25.9000    18.4560    17.7590     8.4810    85.3210     2.3430     0.2090     0.0030
  456.5000   -25.9000    18.4030    17.6740     8.4810    90.3090     2.3420     0.2090     0.0040
  457.0000   -25.9000    18.3510    17.5880     8.4810    92.6740     2.3420     0.2100     0.0050
  457.5000   -25.9000    18.2980    17.5020     8.4810    92.7190     2.3410     0.2100     0.0050
  458.0000   -25.9000    18.2450    17.4160     8.4810    91.4170     2.3410     0.2110     0.0130
  458.5000   -25.9000    18.1930    17.3310     8.4810    90.1570     2.3410     0.2110     0.0240
  459.0000   -25.9000    18.1400    17.2450     8.4810    88.9210     2.3430     0.2120     0.0350
  459.5000   -25.9000    18.0870    17.1590     8.4810    88.3420     2.3520     0.2120     0.0310
  460.0000   -25.9000    18.0340    17.0740     8.4830    90.1460     2.3760     0.1970     0.0240
  460.5000   -25.8980    17.9820    16.9830     8.4110    93.4850     2.3850     0.1830     0.0130
  461.0000   -25.7490    17.9290    16.8840     8.3680    96.1820     2.3840     0.1840     0.0040
  461.5000   -25.5830    17.8760    16.7840     8.3940    98.1410     2.3790     0.1850     0.0010
  462.0000   -25.4170    17.8210    16.6840     8.4200    97.3640     2.3720     0.1900    -0.0010
  462.5000   -25.2510    17.6400    16.5850     8.4220    92.6310     2.3650     0.1960    -0.0010
  463.0000   -25.0920    17.4490    16.4850     8.4230    90.8790     2.3660     0.1970    -0.0020
  463.5000   -24.9130    17.2580    16.3720     8.4240    91.7300     2.3690     0.1960    -0.0030
  464.0000   -25.0460    17.0670    16.1840     8.4250    92.1620     2.3760     0.1920    -0.0030
  464.5000   -25.2060    16.8760    15.9970     8.4260    91.2570     2.3830     0.1880    -0.0040
  465.0000   -25.3680    16.6850    15.8100     8.4270    89.5720     2.3890     0.1840    -0.0040
  465.5000   -25.5290    16.4940    15.6230     8.4280    85.7030     2.3870     0.1830    -0.0030
  466.0000   -25.6900    16.3030    15.4350     8.4290    82.5160     2.3810     0.1850    -0.0010
  466.5000   -25.8560    16.1120    15.2480     8.4300    82.9870     2.3810     0.1870     0.0010
  467.0000   -25.9240    15.9350    15.0610     8.4310    85.7830     2.3880     0.1840     0.0040
  467.5000   -25.9630    15.8270    14.8740     8.4320    89.2450     2.3910     0.1810     0.0080
  468.0000   -26.0000    15.7200    14.6810     8.4330    91.1330     2.3920     0.1790     0.0120
  468.5000   -26.0370    15.6130    14.7600     8.4340    93.0780     2.3960     0.1760     0.0170
  469.0000   -26.0740    15.5060    14.8400     8.4350    93.7230     2.4030     0.1740     0.0210
  469.5000   -26.1110    15.3750    14.9550     8.4360    92.9930     2.4060     0.1720     0.0210
  470.0000   -26.1480    15.4000    14.8770     8.4370    92.7230     2.4100     0.1720     0.0210
  470.5000   -26.1850    15.4320    14.7420     8.4380    92.4600     2.4130     0.1680     0.0210
  471.0000   -26.2220    15.4650    14.6070     8.4390    92.7550     2.4150     0.1660     0.0210
  471.5000   -26.2600    15.4970    14.4720     8.4400    93.7780     2.4150     0.1660     0.0200
  472.0000   -26.2970    15.5350    14.3370     8.4410    94.6190     2.4150     0.1660     0.0160
  472.5000   -26.2750    15.5800    14.2030     8.4380    93.7290     2.4110     0.1680     0.0130
  473.0000   -26.2470    15.6250    14.0680     8.4350    91.1650     2.4070     0.1700     0.0130
  473.5000   -26.2190    15.6610    13.9330     8.4310    88.9680     2.4030     0.1740     0.0140
  474.0000   -26.1920    15.1480    13.7980     8.4280    94.9070     2.3990     0.1760     0.0140
  474.5000   -26.1640    14.7190    13.6630     8.4240    96.1630     2.4010     0.1760     0.0130
  475.0000   -26.1360    14.5320    13.6360     8.4180    89.6160     2.4040     0.1730     0.0130
  475.5000   -26.1080    14.4970    13.6360     8.3660    89.8050     2.4100     0.1690     0.0210
  476.0000   -26.0810    14.4610    13.6360     8.2510    91.9380     2.4150     0.1660     0.0290
  476.5000   -26.0530    14.4260    13.6360     8.0720    92.9670     2.4200     0.1620     0.0380
  477.0000   -26.0250    14.3900    13.6360     7.8930    91.6810     2.4250     0.1580     0.0350
  477.5000   -25.9970    14.3540    13.6360     7.8060    90.2550     2.4300     0.1540     0.0300
  478.0000   -25.9700    14.3190    13.6360     7.8170    89.1840     2.4260     0.1550     0.0300
  478.5000   -25.9420    14.2830    13.6360     7.8270    93.0520     2.4200     0.1600     0.0300
  479.0000   -25.9140    14.2480    13.6360     7.8380   100.0480     2.4140     0.1640     0.0300
  479.5000   -25.9160    14.2120    13.6360     7.8730   101.1340     2.4080     0.1690     0.0340
  480.0000   -25.9470    14.1770    13.6360     7.9550    98.6490     2.3940     0.1780     0.0460
  480.5000   -25.9780    14.1490    13.6360     8.0610    95.7250     2.3760     0.1890     0.0570
  481.0000   -26.0090    14.2640    13.6360     8.1660    94.4900     2.3680     0.1940     0.0640
  481.5000   -26.0410    14.3580    13.6360     8.2620    94.5220     2.3730     0.1930     0.0640
  482.0000   -26.0720    14.4510    13.6360     8.3010    94.9480     2.3840     0.1870     0.0650
  482.5000   -26.1030    14.5450    13.5630     8.3010    93.8610     2.4020     0.1810     0.0650
  483.0000   -26.1340    14.6390    13.4450     8.3010    92.1270     2.4180     0.1640     0.0790
  483.5000   -26.1660    14.7330    13.3280     8.3010    93.7420     2.4250     0.1600     0.0950
  484.0000   -26.1970    14.8270    13.2100     8.3010    97.2390     2.4320     0.1550     0.1090
  484.5000   -26.2280    14.9440    13.0930     8.3010    99.5660     2.4490     0.1430     0.1070
  485.0000   -26.2590    14.8180    12.9750     8.3010    99.6850     2.4680     0.1330     0.0910
  485.5000   -26.2910    14.6050    12.8580     8.3020    99.6860     2.4780     0.1280     0.0650
  486.0000   -26.2870    14.3920    12.7410     8.3020    98.0840     2.4760     0.1270     0.0380
  486.5000   -26.2620    14.1790    12.6230     8.3020    96.4420     2.4690     0.1320     0.0120
  487.0000   -26.2370    13.9650    12.5060     8.3310    96.4390     2.4450     0.1500     0.0080
  487.5000   -26.2120    13.8900    12.3880     8.3900    98.0960     2.4210     0.1680     0.0080
  488.0000   -26.1880    13.8900    12.2070     8.4480    99.6690     2.4060     0.1710     0.0080
  488.5000   -26.1630    13.8900    12.4720     8.5020   101.2760     2.4040     0.1720     0.0080
  489.0000   -26.1400    13.8900    13.0580     8.5330   101.1250     2.3960     0.1730     0.0080
  489.5000   -26.1140    13.9910    13.6140     8.5400   100.4430     2.3740     0.1880     0.0090
  490.0000   -26.3160    14.2110    14.1650     8.5410    96.4110     2.3470     0.2050     0.0160
  490.5000   -26.7460    14.4310    14.6810     8.5410    91.6220     2.3200     0.2220     0.0230
  491.0000   -27.1840    14.6510    15.8110     8.5410    86.7600     2.2960     0.2380     0.0300
  491.5000   -27.3480    14.8500    16.8750     8.5410    83.1160     2.2870     0.2450     0.0320
  492.0000   -27.4280    15.4820    18.5700     8.5400    80.1030     2.2860     0.2460     0.0330
  492.5000   -27.5510    16.6100    20.3630     8.5080    77.6500     2.2850     0.2460     0.0330
  493.0000   -28.5130    17.7390    22.1560     8.4710    75.1820     2.2840     0.2460     0.0380
  493.5000   -29.4420    18.8680    23.9490     8.4340    75.1320     2.2820     0.2460     0.0450
  494.0000   -30.1580    19.9960    25.7420     8.4010    79.1720     2.2810     0.2470     0.0510
  494.5000   -30.2990    21.1250    27.5350     8.3800    79.5990     2.2900     0.2490     0.0530
  495.0000   -30.3330    22.2530    27.8060     8.3610    79.5920     2.3320     0.2290     0.0620
  495.5000   -30.3650    23.2900    27.8660     8.3420    79.5310     2.3870     0.2010     0.0800
  496.0000   -30.3960    24.2850    27.9270     8.3220    79.4860     2.4420     0.1580     0.0910
