~VERSION INFORMATION
 VERS.                2.0:   CWLS LOG ASCII STANDARD - VERSION 2.0
 WRAP.                 NO:   ONE LINE PER DEPTH STEP
~WELL INFORMATION
#MNEM.UNIT      DATA TYPE    INFORMATION
#----------   ------------   ------------------------------
 STRT.F           21.0000:   START DEPTH
 STOP.F          543.0000:   STOP DEPTH
 STEP.F            0.5000:   STEP LENGTH
 NULL.          -999.2500:   NO VALUE
 COMP. FENIX & SCISSON INC:   COMPANY
 WELL.      NPR #3 #46-10:   WELL
 FLD .             TEAPOT:   FIELD
 LOC .      S10 T38N R78W:   LOCATION
 CNTY.            NATRONA:   COUNTY
 STAT.            WYOMING:   STATE
 CTRY. UNITED STATES OF AMERICA:   COUNTRY
 SRVC.              Welex:   SERVICE COMPANY
 DATE.        08-MAY-1980:   LOGDATE
 API .       490251081100:   API NUMBER
~CURVE INFORMATION
#MNEM.UNIT       API CODE    CURVE DESCRIPTION
#----------   ------------   ------------------------------
 DEPT.F                  :   
 SGRD.OHMM   07 220 05 00:   SHALLOW GUARD RESISTIVITY
 ILD .OHMM   07 120 46 00:   INDUCTION LOG DEEP RESISTIVITY
 ILM .OHMM   07 120 44 00:   INDUCTION LOG MEDIUM
 SPR .MV     07 010 01 00:   SPONTANEOUS POTENTIAL
 CALD.IN     45 280 60 00:   CALIPER
 GRD .GAPI   45 310 01 00:   GAMMA RAY FROM DENSITY LOG
 CORR.G/C3   45 356 01 00:   DENSITY CORRECTION
 RHOB.G/C3   45 350 01 00:   BULK DENSITY
 DPHI.DEC    45 890 12 00:   DENSITY POROSITY SANDSTONE
~PARAMETER INFORMATION
#MNEM.UNIT          VALUE    DESCRIPTION
#----------   ------------   ------------------------------
 PD  .                 GL:   PERMANENT DATUM
 EPD .F              5206:   ELEVATION PERMANENT DATUM
 LMF .                 KB:   LOG MEASURED FROM
 DAPD.F                 5:   FEET ABOVE PERMANENT DATUM
 DMF .                 KB:   DRILLING MEASURED FROM
 EKB .F              5211:   KELLING BUSHING
 EGL .F              5206:   GROUND LEVEL
 DATE.             5-8-80:   RUN DATE
 RUN .                  1:   RUN NUMBER
 DD  .F               530:   DEPTH DRILLER
 DL  .F               543:   DEPTH LOGGER
 BLI .F               541:   BOTTOM LOG INTERVAL
 TLI .F                30:   TOP LOG INTERVAL
 BS  .IN            7.875:   BIT SIZE
 BSD .F               530:   BIT SIZE AT DEPTH
 DFT .            KCL MUD:   DRILLING FLUID TYPE
 DFD .                9.1:   DRILLING FLUID DENSITY
 DFV .                 43:   DRILLING FLUID VISCOSITY
 MSS .                PIT:   MUD SAMPLE SOURCE
 RMS .OHMM            .89:   RESISTIVITY MUD SAMPLE
 MST .F                75:   MUD SAMPLE TEMPERATURE
 RMF .OHMM            .71:   RESISTIVITY MUD FILTRATE SAMPLE
 MFST.F                75:   MUD FILTRATE SAMPLE TEMPERATURE
 RMC .OHMM           1.08:   RESISTIVITY MUD CAKE
 MCST.F                75:   MUD CAKE SAMPLE TEMPERATURE
 MFSS.           MEASURED:   MUD FILTRATE SAMPLE SOURCE
 MCSS.           MEASURED:   MUD CAKE SAMPLE SOURCE
 BHT .F               100:   BOTTOM HOLE TEMPERATURE
 TCS .HRS               2:   TIME CURCULATED STOPPED
 MRT .F               100:   MAXIMUM RECORDED TEMPERATURE
 LUN .               9685:   LOGGING UNIT NUMBER
 LUL .             CASPER:   LOGGING UNIT LOCATION
 ENGI.            TOTHILL:   RECORDING ENGINEER
 WITN.              AMEND:   WITNESSED BY
 CLNT.            A2DTECH:   CLIENT CODE
 ORIG.           5" PRINT:   ORIGIN OF DATA
 UWI .       490251081100:   UNIQUE WELL ID
 DICO. A2D Technologies, Inc.:   DIGITIZING COMPANY
~OTHER INFORMATION
~A   DEPT     SGRD        ILD        ILM        SPR        CALD        GRD        CORR       RHOB     DPHI   
# ...
  459.0000    12.0880     5.7725     9.3020   -27.7242     7.8201    97.0468     0.0022     2.3819     0.1744
  459.5000    12.5181     6.2457     9.6494   -27.7235     7.8196    96.4808    -0.0072     2.3638     0.1852
  460.0000    12.8503     6.7576    10.0552   -27.7226     7.8191    95.9117    -0.0090     2.3634     0.1875
  460.5000    11.9368     7.3214    10.4965   -27.7268     7.8198    95.3362    -0.0004     2.3894     0.1723
  461.0000    12.6133     7.6621    10.4847   -27.9412     7.8208    94.7779     0.0090     2.4130     0.1608
  461.5000    12.4849     7.9548    10.4883   -28.1804     7.8218    94.8599     0.0164     2.4239     0.1528
  462.0000    12.3829     8.3184    10.4894   -28.4570     7.8228    95.0353     0.0196     2.4323     0.1456
  462.5000    12.8346     8.5736    10.4894   -28.5059     7.8237    95.2096     0.0222     2.4320     0.1470
  463.0000    13.3491     8.6430    10.5667   -28.3962     7.8247    95.3831     0.0246     2.4393     0.1432
  463.5000    13.5910     8.7231    10.7749   -28.0574     7.8257    95.5557     0.0317     2.4494     0.1354
  464.0000    13.7639     9.0171    10.9872   -27.6846     7.8266    95.6611     0.0350     2.4519     0.1317
  464.5000    13.9390     9.5023    11.2037   -27.5318     7.8276    95.6583     0.0256     2.4412     0.1396
  465.0000    14.1484     9.8338    11.4245   -27.5350     7.8286    95.5567     0.0218     2.4393     0.1416
  465.5000    14.5421     9.9249    11.6496   -27.7383     7.8295    95.0183     0.0181     2.4298     0.1456
  466.0000    14.9468     9.9249    11.8605   -27.7636     7.8305    94.4902     0.0169     2.4277     0.1504
  466.5000    15.1674     9.9249    12.0134   -27.8282     7.8315    93.9658     0.0262     2.4509     0.1348
  467.0000    15.1674    10.1258    12.1683   -27.8962     7.8324    93.5535     0.0330     2.4585     0.1312
  467.5000    15.1674    10.3443    12.2692   -27.9642     7.8334    93.5625     0.0384     2.4761     0.1238
  468.0000    15.5700    10.3931    12.3829   -28.0292     7.8344    93.5625     0.0525     2.4953     0.1094
  468.5000    16.1785    10.4421    12.5592   -28.0862     7.8354    93.5102     0.0527     2.5121     0.0978
  469.0000    15.8260    10.4908    12.7302   -28.3002     7.8363    93.2539     0.0481     2.5022     0.1043
  469.5000    15.4257    10.5396    12.7302   -28.2411     7.8373    92.9229     0.0405     2.4675     0.1166
  470.0000    15.0282    10.5887    12.7291   -27.9283     7.8382    92.6048     0.0290     2.4415     0.1306
  470.5000    15.3534    10.6381    12.7290   -27.6238     7.8339    92.5597     0.0247     2.4461     0.1420
  471.0000    15.6924    10.6846    12.9795   -27.3233     7.8108    93.4734     0.0321     2.4553     0.1317
  471.5000    16.0387    10.6846    13.0903   -27.1817     7.7915    94.3578     0.0320     2.4519     0.1342
  472.0000    16.4796    10.7436    12.7536   -27.2925     7.7849    94.0892     0.0305     2.4429     0.1368
  472.5000    16.2314    10.7844    12.3790   -27.4003     7.8112    93.5489     0.0236     2.4254     0.1477
  473.0000    15.9098    10.7988    12.3800   -27.5095     7.8361    93.0002     0.0195     2.4211     0.1500
  473.5000    15.5866    10.8181    12.6277   -27.6210     7.8387    92.4545     0.0112     2.4051     0.1579
  474.0000    15.5877    10.8374    12.8481   -27.7078     7.8383    92.0188     0.0171     2.4246     0.1628
  474.5000    15.5940    10.8567    12.7642   -27.2975     7.8378    91.8610     0.0246     2.4324     0.1448
  475.0000    15.0238    10.8760    12.6497   -26.8566     7.8373    91.7037     0.0202     2.4276     0.1471
  475.5000    15.0271    10.9842    12.5363   -26.8429     7.8369    91.5450     0.0152     2.4154     0.1516
  476.0000    15.2387    10.8980    12.4976   -27.1398     7.8365    91.6618     0.0074     2.3994     0.1614
  476.5000    15.5927    10.7679    12.8481   -27.3285     7.8360    92.0453    -0.0046     2.3764     0.1806
  477.0000    15.7371    10.5865    12.6786   -27.3336     7.8356    92.1355     0.0028     2.3985     0.1741
  477.5000    15.3998    10.4894    12.3829   -27.3319     7.8352    92.2273     0.0099     2.4139     0.1621
  478.0000    15.1552    10.4894    12.5704   -27.5021     7.8347    92.3196     0.0151     2.4230     0.1546
  478.5000    14.9145    10.5193    12.7302   -27.7322     7.8343    92.6270     0.0203     2.4413     0.1431
  479.0000    14.6776    10.5865    12.5320   -27.9080     7.8338    93.1285     0.0256     2.4488     0.1369
  479.5000    14.4446    10.6846    12.3150   -28.0963     7.8334    93.7690     0.0284     2.4518     0.1337
  480.0000    14.2151    10.3244    12.1566   -28.0597     7.8330    95.2712     0.0235     2.4439     0.1379
  480.5000    13.9852    10.0168    12.1566   -28.0185     7.8325    95.8558     0.0198     2.4345     0.1432
  481.0000    13.6980     9.9249    12.1566   -27.9759     7.8321    95.7106     0.0252     2.4532     0.1368
  481.5000    13.7091     9.9257    11.8811   -27.9333     7.8317    94.9804     0.0309     2.4640     0.1270
  482.0000    13.7982     9.9270    11.5024   -27.9177     7.8312    94.0402     0.0244     2.4427     0.1361
  482.5000    13.9231     9.9276    11.2923   -27.9189     7.8308    94.4969     0.0174     2.4322     0.1452
  483.0000    14.0889     9.5444    11.2923   -28.0807     7.8303    95.3278     0.0169     2.4358     0.1442
  483.5000    13.9432     9.2192    11.2923   -28.2619     7.8299    96.1651     0.0162     2.4290     0.1464
  484.0000    13.7333     8.8854    11.1685   -28.4431     7.8295    96.8490     0.0158     2.4278     0.1492
  484.5000    13.5276     8.7257    11.0352   -28.6233     7.8290    96.6607     0.0187     2.4286     0.1492
  485.0000    13.3296     8.6411    10.8834   -28.8040     7.8286    96.2746     0.0217     2.4332     0.1467
  485.5000    13.0222     8.6416    10.8700   -28.8864     7.8282    95.4872     0.0248     2.4380     0.1444
  486.0000    12.7304     8.6430    10.8410   -28.8786     7.8277    96.0284     0.0298     2.4540     0.1369
  486.5000    12.4459     8.3728    10.8138   -28.8688     7.8273    96.5185     0.0330     2.4638     0.1261
  487.0000    12.3829     8.1385    10.7786   -28.8590     7.8268    96.2728     0.0289     2.4563     0.1294
  487.5000    12.2692     7.9093    10.8834   -28.8494     7.8264    96.0348     0.0246     2.4445     0.1346
  488.0000    12.2692     7.6917    10.6436   -28.8397     7.8260    95.8009     0.0203     2.4432     0.1404
  488.5000    12.3640     7.5939    10.4894   -28.8301     7.8255    95.8371     0.0197     2.4448     0.1388
  489.0000    12.5510     7.5267    10.4894   -28.8205     7.8251    96.8307     0.0206     2.4453     0.1381
  489.5000    12.7408     7.7054    10.5127   -28.8108     7.8247    97.8068     0.0184     2.4385     0.1404
  490.0000    12.8481     7.8927    10.5424   -28.8012     7.8242    98.7927     0.0175     2.4244     0.1482
  490.5000    12.5017     8.0256    10.5723   -28.7915     7.8238    99.0313     0.0169     2.4295     0.1488
  491.0000    12.2669     7.8177    10.5865   -28.7819     7.8233    99.4401     0.0224     2.4405     0.1440
  491.5000    12.0365     7.6760    10.3011   -28.7723     7.8229    99.8368     0.0280     2.4488     0.1353
  492.0000    11.8104     7.5267    10.0572   -28.7626     7.8225   100.2344     0.0250     2.4416     0.1380
  492.5000    11.5886     7.3892     9.8301   -28.7530     7.8220   100.6326     0.0242     2.4442     0.1396
  493.0000    11.3709     7.2542     9.7393   -28.7434     7.8216   101.0303     0.0269     2.4445     0.1395
  493.5000    11.1738     7.2080     9.6425   -28.7337     7.8212   101.4259     0.0277     2.4452     0.1389
  494.0000    11.0736     7.1217     9.5045   -28.7241     7.8207   101.5916     0.0286     2.4420     0.1401
  494.5000    10.9743     7.1217     9.4778   -28.7143     7.8203   101.4643     0.0294     2.4445     0.1384
  495.0000    10.8759     7.0563     9.4776   -28.7046     7.8198   101.3550     0.0314     2.4550     0.1337
