~VERSION INFORMATION
 VERS.                2.0:   CWLS LOG ASCII STANDARD - VERSION 2.0
 WRAP.                 NO:   ONE LINE PER DEPTH STEP
~WELL INFORMATION
#MNEM.UNIT      DATA TYPE    INFORMATION
#----------   ------------   ------------------------------
 STRT.F           24.0000:   START DEPTH
 STOP.F          472.0000:   STOP DEPTH
 STEP.F            0.5000:   STEP LENGTH
 NULL.          -999.2500:   NO VALUE
 COMP. FENIX & SCISSON INC:   COMPANY
 WELL. 55-66 SX-3-FP #55-3:   WELL
 FLD .             WLDCAT:   FIELD
 LOC .       S3 T38N R78W:   LOCATION
 CNTY.            NATRONA:   COUNTY
 STAT.            WYOMING:   STATE
 CTRY. UNITED STATES OF AMERICA:   COUNTRY
 SRVC.              Welex:   SERVICE COMPANY
 DATE.        11-JUN-1980:   LOGDATE
 API .       490251082200:   API NUMBER
~CURVE INFORMATION
#MNEM.UNIT       API CODE    CURVE DESCRIPTION
#----------   ------------   ------------------------------
 DEPT.F                  :   
 SPR .MV     07 010 01 00:   SPONTANEOUS POTENTIAL
 GURD.OHMM   07 220 05 00:   GUARD RESISTIVITY
 ILD .OHMM   07 120 46 00:   INDUCTION LOG DEEP RESISTIVITY
 ILM .OHMM   07 120 44 00:   INDUCTION LOG MEDIUM
 DPHI.DEC    45 890 12 00:   DENSITY POROSITY SANDSTONE
 NPHI.DEC    42 890 03 00:   NEUTRON POROSITY SANDSTONE
 CORR.G/C3   45 356 01 00:   DENSITY CORRECTION
 RHOB.G/C3   45 350 01 00:   BULK DENSITY
 CALD.IN     45 280 60 00:   CALIPER
 GRD .GAPI   45 310 01 00:   GAMMA RAY FROM DENSITY LOG
~PARAMETER INFORMATION
#MNEM.UNIT          VALUE    DESCRIPTION
#----------   ------------   ------------------------------
 PD  .                 GL:   PERMANENT DATUM
 EPD .F              5169:   ELEVATION PERMANENT DATUM
 LMF .                 KB:   LOG MEASURED FROM
 DAPD.F                 5:   FEET ABOVE PERMANENT DATUM
 DMF .                 KB:   DRILLING MEASURED FROM
 EKB .F              5174:   KELLING BUSHING
 EGL .F              5169:   GROUND LEVEL
 DATE.            6-11-80:   RUN DATE
 RUN .                  1:   RUN NUMBER
 DD  .F               472:   DEPTH DRILLER
 DL  .F               472:   DEPTH LOGGER
 BLI .F               470:   BOTTOM LOG INTERVAL
 TLI .F                30:   TOP LOG INTERVAL
 BS  .IN            9.875:   BIT SIZE
 BSD .F               472:   BIT SIZE AT DEPTH
 DFT .                KCL:   DRILLING FLUID TYPE
 DFD .                9.5:   DRILLING FLUID DENSITY
 DFV .                 47:   DRILLING FLUID VISCOSITY
 DFPH.                 12:   DRILLING FLUID PH
 DFL .                7.2:   DRILLING FLUID LOSS
 MSS .           MUD TANK:   MUD SAMPLE SOURCE
 RMS .OHMM            .26:   RESISTIVITY MUD SAMPLE
 MST .F                75:   MUD SAMPLE TEMPERATURE
 RMF .OHMM            .21:   RESISTIVITY MUD FILTRATE SAMPLE
 MFST.F                75:   MUD FILTRATE SAMPLE TEMPERATURE
 RMC .OHMM            .31:   RESISTIVITY MUD CAKE
 MCST.F                75:   MUD CAKE SAMPLE TEMPERATURE
 MFSS.           MEASURED:   MUD FILTRATE SAMPLE SOURCE
 MCSS.           MEASURED:   MUD CAKE SAMPLE SOURCE
 RMB .OHMM            .26:   RESISTIVITY MUD AT BHT
 BHT .F                75:   BOTTOM HOLE TEMPERATURE
 TCS .HRS             1.5:   TIME CURCULATED STOPPED
 MRT .F                75:   MAXIMUM RECORDED TEMPERATURE
 LUN .               9685:   LOGGING UNIT NUMBER
 LUL .             CASPER:   LOGGING UNIT LOCATION
 ENGI.               REIN:   RECORDING ENGINEER
 WITN.          DINSMOORE:   WITNESSED BY
 CLNT.            A2DTECH:   CLIENT CODE
 ORIG.           5" PRINT:   ORIGIN OF DATA
 UWI .       490251082200:   UNIQUE WELL ID
 DICO. A2D Technologies, Inc.:   DIGITIZING COMPANY
~OTHER INFORMATION
~A   DEPT      SPR       GURD        ILD        ILM         DPHI       NPHI     CORR       RHOB        CALD       GRD   
# ...
   57.5000   -60.2974    10.4486     6.3701     7.1395     0.1166     0.3199     0.0603     2.4473    10.1137   105.8517
   58.0000   -60.3042    10.5506     6.3935     7.1616     0.1208     0.3211     0.0480     2.4385    10.1137   104.5888
   58.5000   -60.3110    10.6537     6.4170     7.1837     0.1233     0.3187     0.0362     2.4244    10.1137   104.8617
   59.0000   -60.3178    10.7969     6.4406     7.2059     0.1227     0.3191     0.0373     2.4223    10.1137   105.6832
   59.5000   -60.3246    10.6783     6.4549     7.2282     0.1207     0.3195     0.0447     2.4494    10.1136   105.3135
   60.0000   -60.3314    10.4918     6.4797     7.2506     0.1136     0.3168     0.0632     2.4520    10.1135   103.1492
   60.5000   -60.3382    10.3114     6.5044     7.2732     0.1100     0.3135     0.0527     2.4538    10.1133   100.9968
   61.0000   -60.3450    10.3478     6.5293     7.2955     0.1050     0.3137     0.0624     2.4660    10.1132   100.0843
   61.5000   -60.3518    10.4072     6.5543     7.3181     0.0997     0.3143     0.0797     2.4804    10.1130   100.7123
   62.0000   -60.3586    10.4670     6.5794     7.3361     0.0970     0.3149     0.0857     2.4880    10.1129   102.2455
   62.5000   -60.3654    10.5029     6.6046     7.2286     0.0950     0.3152     0.0941     2.4755    10.1127   103.7668
   63.0000   -60.3722    10.3573     6.6299     7.1788     0.0929     0.3148     0.1027     2.4910    10.1126   105.3078
   63.5000   -60.3790    10.2546     6.5597     7.1293     0.0950     0.3092     0.1026     2.4953    10.1124   106.5650
   64.0000   -60.3858    10.1530     6.4900     7.0802     0.0994     0.3040     0.0869     2.4772    10.1123   106.7256
   64.5000   -60.3926    10.0524     6.4209     7.0314     0.0951     0.3022     0.0966     2.4896    10.1122   105.9438
   65.0000   -60.3994    10.0307     6.3527     6.9829     0.0895     0.3082     0.1099     2.5024    10.1120   105.1863
   65.5000   -60.4062    10.0837     6.2851     6.9348     0.0876     0.3142     0.1019     2.5027    10.1119   104.4271
   66.0000   -60.4129    10.1234     6.2182     6.8870     0.0951     0.3202     0.0847     2.4921    10.1117   104.9995
   66.5000   -60.4198     9.9057     6.1521     6.8395     0.0987     0.3231     0.0768     2.4821    10.1116   106.3543
   67.0000   -60.4265     9.6302     6.0867     6.7937     0.1035     0.3205     0.0702     2.4760    10.1114   107.6719
   67.5000   -60.4333     9.4050     6.0220     6.6912     0.1093     0.3173     0.0602     2.4546    10.1113   108.9896
   68.0000   -60.4402     9.6584     5.9578     6.7276     0.1040     0.3141     0.0871     2.4448    10.1111   110.1809
   68.5000   -60.4471     9.7576     5.8939     6.7933     0.0977     0.3101     0.1107     2.5010    10.1110   110.3359
   69.0000   -60.4532     9.5174     5.8286     6.8596     0.0947     0.3153     0.1099     2.4934    10.1108   110.0395
   69.5000   -60.4235     9.2714     5.9214     6.9267     0.0966     0.3199     0.0878     2.4818    10.1107   108.5787
   70.0000   -60.3185     9.0651     6.0480     6.9944     0.0987     0.3175     0.0821     2.4774    10.1105   107.1256
   70.5000   -60.2147     9.6323     6.0045     7.0627     0.0998     0.3145     0.0898     2.4804    10.1104   105.6865
   71.0000   -60.1109    10.5103     5.9268     7.1364     0.0978     0.3115     0.0818     2.4865    10.1103   104.2467
   71.5000   -60.0070    10.1204     5.8289     7.1364     0.0944     0.3095     0.0865     2.4926    10.1101   102.8150
   72.0000   -59.9032     9.5796     5.9649     7.0745     0.0911     0.3089     0.0806     2.4988    10.1100   101.7484
   72.5000   -59.7994     9.8116     6.1557     7.0284     0.0915     0.3089     0.0956     2.5012    10.1098   100.7618
   73.0000   -59.6956    10.2170     6.3314     7.0062     0.0975     0.3149     0.0874     2.4851    10.1097    99.7757
   73.5000   -59.5918     9.6682     6.3070     7.1420     0.1035     0.3209     0.0790     2.4704    10.1095    98.7545
   74.0000   -59.4880    10.5029     6.2848     7.2023     0.1045     0.3238     0.0888     2.4834    10.1094    98.9000
   74.5000   -59.3841    10.2838     6.2738     7.2023     0.0962     0.3237     0.0881     2.4964    10.1092   100.1568
   75.0000   -59.2803     9.8643     6.3883     7.2023     0.0980     0.3236     0.0868     2.4983    10.1091   101.4223
   75.5000   -59.1765     9.5796     6.4937     7.2023     0.0992     0.3219     0.0770     2.4776    10.1089   102.7197
   76.0000   -59.0727     9.8480     6.5692     7.3138     0.1002     0.3169     0.0592     2.4529    10.1088   102.5417
   76.5000   -58.9689    10.0994     6.7204     7.7070     0.1087     0.3119     0.0667     2.4610    10.1086   101.8255
   77.0000   -58.8645    10.3571     6.8618     7.7525     0.1069     0.3073     0.0752     2.4727    10.1085   102.4063
   77.5000   -58.7592    10.6000     6.8785     7.5943     0.1023     0.3076     0.0852     2.4770    10.1083   103.2532
   78.0000   -58.6766    10.1991     6.7756     7.4736     0.0951     0.3136     0.1020     2.4999    10.1082   103.1761
   78.5000   -58.8880     9.9681     6.6818     7.3546     0.0896     0.3120     0.1142     2.5116    10.1080   102.4410
   79.0000   -59.0997     9.7423     6.5893     7.2694     0.0843     0.3086     0.1129     2.5206    10.1079   102.3591
   79.5000   -59.3072     9.5636     6.4980     7.2373     0.0812     0.3077     0.1158     2.5231    10.1077   103.2608
   80.0000   -59.4208     9.5034     6.3904     7.1900     0.0761     0.3204     0.1333     2.5111    10.1076   104.1576
   80.5000   -59.2126     9.4435     6.3486     7.1431     0.0699     0.3313     0.1264     2.5054    10.1075   104.5084
   81.0000   -59.0136     9.3840     6.3003     7.1364     0.0831     0.3309     0.1164     2.5017    10.1073   104.0400
   81.5000   -58.8151     9.3249     6.2523     7.1463     0.0899     0.3246     0.1077     2.4960    10.1072   103.3573
   82.0000   -58.6167     9.2661     6.2048     7.1863     0.0841     0.3191     0.1142     2.5053    10.1070   102.6674
   82.5000   -58.4183     9.2335     6.1584     7.2266     0.0802     0.3216     0.1222     2.5174    10.1069   102.4862
   83.0000   -58.2199     9.4508     6.2129     7.2671     0.0789     0.3238     0.1213     2.5218    10.1067   102.3606
   83.5000   -58.0215     9.6052     6.2997     7.3078     0.0939     0.3238     0.1136     2.4912    10.1066   101.5416
   84.0000   -57.8231     9.7579     6.3869     7.3488     0.1116     0.3174     0.0910     2.4578    10.1064   100.6834
   84.5000   -57.6244     9.8837     6.4754     7.3899     0.1071     0.3131     0.0865     2.4513    10.1063   100.3219
   85.0000   -57.4263    10.0080     6.5650     7.4311     0.1006     0.3105     0.0949     2.4706    10.1061    99.9264
   85.5000   -57.2582    10.1339     6.6558     7.4728     0.0959     0.3080     0.1017     2.4857    10.1060    99.2008
   86.0000   -57.2144    10.2613     6.7480     7.5880     0.0959     0.3054     0.0972     2.4862    10.1058    98.2583
   86.5000   -57.1686    10.3904     6.8414     7.7800     0.1092     0.3029     0.0778     2.4795    10.1057    97.5518
   87.0000   -57.1225    10.5210     6.9361     7.9769     0.1221     0.2970     0.0505     2.4481    10.1055    98.1569
   87.5000   -57.0764    10.6000     7.0321     8.1788     0.1357     0.2956     0.0285     2.4136    10.1054    98.7457
   88.0000   -57.0302    10.7587     7.1337     8.3858     0.1377     0.2951     0.0413     2.4014    10.1053    99.3303
   88.5000   -56.9841    10.9198     7.2940     8.5981     0.1204     0.2946     0.0583     2.4426    10.1051    99.9338
   89.0000   -56.9379    11.0833     7.4579     8.8157     0.1176     0.2944     0.0552     2.4505    10.1050   100.0527
   89.5000   -56.8924    11.2492     7.6254     9.0388     0.1227     0.2947     0.0548     2.4304    10.1048    99.8430
   90.0000   -56.7840    11.4176     7.7967     9.2675     0.1139     0.2968     0.0701     2.4504    10.1047    99.6254
   90.5000   -56.6331    11.5887     7.9719     9.3642     0.1077     0.3026     0.0785     2.4796    10.1045    99.4066
