~VERSION INFORMATION
 VERS.                2.0:   CWLS LOG ASCII STANDARD - VERSION 2.0
 WRAP.                 NO:   ONE LINE PER DEPTH STEP
~WELL INFORMATION
#MNEM.UNIT      DATA TYPE    INFORMATION
#----------   ------------   ------------------------------
 STRT.F            1.0000:   START DEPTH
 STOP.F          508.0000:   STOP DEPTH
 STEP.F            0.1000:   STEP LENGTH
 NULL.          -999.2500:   NO VALUE
 COMP.       F D SERV INC:   COMPANY
 WELL. NAVAL PETROLEUM RESERVE 3 SX-1 #83-4-10:   WELL
 FLD .             TEAPOT:   FIELD
 LOC .      S10 T38N R78W:   LOCATION
 CNTY.            NATRONA:   COUNTY
 STAT.            WYOMING:   STATE
 CTRY. UNITED STATES OF AMERICA:   COUNTRY
 SRVC.     Atlas Wireline:   SERVICE COMPANY
 DATE.        26-JAN-1993:   LOGDATE
 API .       490252258300:   API NUMBER
~CURVE INFORMATION
#MNEM.UNIT       API CODE    CURVE DESCRIPTION
#----------   ------------   ------------------------------
 DEPT.F                  :   
 GRR .GAPI   07 310 01 00:   GAMMA RAY
 RILD.OHMM   07 120 46 00:   INDUCTION LOG DEEP RESISTIVITY
 RILM.OHMM   07 120 44 00:   INDUCTION LOG MEDIUM RESISTIVITY
~PARAMETER INFORMATION
#MNEM.UNIT          VALUE    DESCRIPTION
#----------   ------------   ------------------------------
 PD  .                 GL:   PERMANENT DATUM
 EPD .F              5152:   ELEVATION PERMANENT DATUM
 LMF .                 KB:   LOG MEASURED FROM
 DAPD.F                10:   FEET ABOVE PERMANENT DATUM
 DMF .                 KB:   DRILLING MEASURED FROM
 EKB .F              5162:   KELLING BUSHING
 EDF .F              5161:   DRILLING FLOOR
 EGL .F              5152:   GROUND LEVEL
 DATE.        26-JAN-1993:   RUN DATE
 RUN .                  1:   RUN NUMBER
 DD  .F               515:   DEPTH DRILLER
 DL  .F               516:   DEPTH LOGGER
 BLI .F               508:   BOTTOM LOG INTERVAL
 CS  .IN            8.625:   CASING SIZE
 CBD .F                55:   CASING BOTTOM DRILLER
 CBL .F                55:   CASING BOTTOM LOGGER
 BS  .IN            7.875:   BIT SIZE
 BSD .F               515:   BIT SIZE AT DEPTH
 DFT .                AIR:   DRILLING FLUID TYPE
 MRT .F                63:   MAXIMUM RECORDED TEMPERATURE
 LUN .           HL- 6274:   LOGGING UNIT NUMBER
 LUL .             CASPER:   LOGGING UNIT LOCATION
 ENGI.       P. RASMUSSEN:   RECORDING ENGINEER
 WITN.          G. STRONG:   WITNESSED BY
 CLNT.            A2DTECH:   CLIENT CODE
 ORIG.           5" PRINT:   ORIGIN OF DATA
 UWI .       490252258300:   UNIQUE WELL ID
 DICO. A2D Technologies, Inc.:   DIGITIZING COMPANY
~OTHER INFORMATION
~A    DEPT     GRR       RILD       RILM   
# ...
  201.2000   137.6072     5.1811     4.9627
  201.3000   137.6036     5.1809     4.9710
  201.4000   137.5999     5.1808     5.0212
  201.5000   137.8969     5.1806     5.0607
  201.6000   137.4747     5.1805     5.0909
  201.7000   136.2903     5.1803     5.1323
  201.8000   134.4939     5.1802     5.1938
  201.9000   132.2686     5.1801     5.2572
  202.0000   129.6143     5.1799     5.3639
  202.1000   126.4300     5.1798     5.3920
  202.2000   123.7150     5.1796     5.4474
  202.3000   122.6760     5.1795     5.5127
  202.4000   122.0386     5.1793     5.5788
  202.5000   121.7771     5.1792     5.6378
  202.6000   121.5157     5.1996     5.6714
  202.7000   121.2884     5.2304     5.7083
  202.8000   122.3198     5.2510     5.7706
  202.9000   123.2318     5.2559     5.8137
  203.0000   124.1439     5.2872     5.8484
  203.1000   125.0559     5.3238     5.8833
  203.2000   125.9679     5.3497     5.9184
  203.3000   126.9106     5.3813     5.9575
  203.4000   128.3132     5.4288     6.0329
  203.5000   129.2651     5.5037     6.1012
  203.6000   131.2818     5.5972     6.1455
  203.7000   132.6909     5.6652     6.1822
  203.8000   133.3566     5.7840     6.2364
  203.9000   133.8751     5.8396     6.3111
  204.0000   134.3374     5.9090     6.3760
  204.1000   134.3374     5.9793     6.3759
  204.2000   134.3374     6.0503     6.4647
  204.3000   133.9305     6.1222     6.5281
  204.4000   133.4121     6.1977     6.5547
  204.5000   132.8936     6.2687     6.5741
  204.6000   132.3751     6.3134     6.6133
  204.7000   131.8566     6.3744     6.6597
  204.8000   131.3253     6.4327     6.7385
  204.9000   131.0241     6.4818     6.7384
  205.0000   130.8132     6.5588     6.7726
  205.1000   130.7229     6.6408     6.8130
  205.2000   130.7229     6.7157     6.8537
  205.3000   130.8078     6.7642     6.8946
  205.4000   131.0671     6.8042     6.9272
  205.5000   131.3273     6.8624     6.9290
  205.6000   131.9277     6.9440     6.9751
  205.7000   132.3642     7.0179     7.0120
  205.8000   133.0590     7.0177     7.0234
  205.9000   133.8368     7.0956     7.0708
  206.0000   134.6145     7.1475     7.1211
  206.1000   135.3922     7.1898     7.1210
  206.2000   136.1614     7.2140     7.1278
  206.3000   136.7470     7.2248     7.2201
  206.4000   137.1983     7.2675     7.2200
  206.5000   137.7168     7.3140     7.2527
  206.6000   137.9518     7.3138     7.2960
  206.7000   138.1514     7.3462     7.3204
  206.8000   138.6120     7.3896     7.3203
  206.9000   138.8554     7.4152     7.3252
  207.0000   138.8554     7.4150     7.3710
  207.1000   138.8554     7.4180     7.4130
  207.2000   138.6642     7.4661     7.4220
  207.3000   138.2558     7.5060     7.4219
  207.4000   137.7374     7.5176     7.4427
  207.5000   137.2189     7.5174     7.4871
  207.6000   136.7004     7.5349     7.5251
  207.7000   136.1446     7.5692     7.5250
  207.8000   136.1446     7.5716     7.5249
  207.9000   135.9460     7.6214     7.5248
  208.0000   135.8434     7.6212     7.5247
  208.1000   135.7287     7.6210     7.5473
  208.2000   135.5422     7.6457     7.5924
  208.3000   135.5422     7.6909     7.6293
  208.4000   135.5422     7.7266     7.6292
  208.5000   135.5422     7.7264     7.6291
  208.6000   135.5422     7.7262     7.6290
  208.7000   135.5422     7.7661     7.6608
  208.8000   135.5422     7.8120     7.7066
  208.9000   135.5422     7.8333     7.7351
  209.0000   135.5422     7.8331     7.7350
  209.1000   135.5422     7.8329     7.7349
  209.2000   135.5422     7.8326     7.7347
  209.3000   135.7556     7.8324     7.7761
  209.4000   136.0148     7.8722     7.8225
  209.5000   136.4036     7.8864     7.8423
  209.6000   136.8345     7.9106     7.8422
  209.7000   137.1849     7.9408     7.8539
  209.8000   137.9590     7.9406     7.8965
  209.9000   138.5542     7.9403     7.8964
  210.0000   139.2169     7.9401     7.9401
  210.1000   140.3525     7.9797     7.9510
  210.2000   142.1965     7.9949     7.9509
  210.3000   144.0547     8.0187     7.9508
  210.4000   144.9325     8.0500     7.9642
  210.5000   145.2028     8.0497     8.0118
  210.6000   145.7831     8.0495     8.0613
  210.7000   145.7831     8.0493     8.0612
  210.8000   145.9695     8.0887     8.0998
  210.9000   146.0843     8.1366     8.1170
  211.0000   145.9819     8.1609     8.1402
  211.1000   145.6622     8.1607     8.1732
  211.2000   145.1438     8.1604     8.1731
  211.3000   144.5783     8.1602     8.1730
  211.4000   143.6354     8.2166     8.1728
  211.5000   142.5984     8.2562     8.1728
  211.6000   141.2579     8.2733     8.2057
  211.7000   139.9221     8.2731     8.2293
  211.8000   138.8852     8.2729     8.2292
  211.9000   137.9518     8.2726     8.2385
  212.0000   137.9518     8.2724     8.2862
  212.1000   137.9518     8.2722     8.2860
  212.2000   138.5555     8.2719     8.2859
  212.3000   139.3331     8.2717     8.2858
  212.4000   139.9935     8.2715     8.2857
  212.5000   140.5120     8.2713     8.2856
  212.6000   141.0638     8.2710     8.2855
  212.7000   141.8675     8.2708     8.2854
  212.8000   142.4699     8.2706     8.2852
  212.9000   142.6785     8.2703     8.2851
  213.0000   143.1044     8.3004     8.2850
  213.1000   143.6229     8.3495     8.2849
  213.2000   143.9759     8.3850     8.2848
  213.3000   143.9759     8.3848     8.2847
  213.4000   143.9759     8.3845     8.2846
  213.5000   143.9759     8.3843     8.2844
  213.6000   144.1920     8.3841     8.2843
  213.7000   144.2771     8.3838     8.3227
  213.8000   144.2771     8.3836     8.3417
  213.9000   144.2771     8.3834     8.3415
  214.0000   144.2771     8.3831     8.3414
  214.1000   144.2834     8.3829     8.3480
  214.2000   144.5783     8.4287     8.3992
  214.3000   143.9079     8.4407     8.3990
  214.4000   143.1302     8.4404     8.3989
  214.5000   142.6315     8.4402     8.3988
  214.6000   142.3723     8.4524     8.3987
  214.7000   142.1687     8.4984     8.3986
  214.8000   142.1687     8.4981     8.3985
  214.9000   142.1687     8.4979     8.3983
  215.0000   142.1687     8.4977     8.3982
  215.1000   142.3576     8.4975     8.3981
  215.2000   142.4699     8.4972     8.3980
  215.3000   142.5749     8.4970     8.3979
  215.4000   142.7711     8.4967     8.3978
  215.5000   142.7711     8.4965     8.3977
  215.6000   142.7711     8.4963     8.3975
  215.7000   142.7711     8.4960     8.3974
  215.8000   142.7711     8.4958     8.3973
  215.9000   142.3078     8.4913     8.3972
  216.0000   141.4177     8.4802     8.3971
  216.1000   140.4512     8.4690     8.3970
  216.2000   139.7020     8.4578     8.3968
  216.3000   139.1566     8.4466     8.3967
  216.4000   139.1566     8.4354     8.3966
  216.5000   139.1566     8.4243     8.3965
  216.6000   139.1566     8.4040     8.3964
  216.7000   139.2765     8.3538     8.3963
  216.8000   139.5357     8.2999     8.3747
  216.9000   139.7950     8.2999     8.3381
  217.0000   140.0602     8.2999     8.3380
  217.1000   140.0602     8.2999     8.3378
  217.2000   140.2715     8.2999     8.3377
  217.3000   140.3615     8.2854     8.3376
  217.4000   140.3615     8.2427     8.3375
  217.5000   140.3615     8.2427     8.3374
  217.6000   140.3615     8.2427     8.3222
  217.7000   140.3615     8.2021     8.2796
  217.8000   140.3615     8.1858     8.2795
  217.9000   140.3615     8.1858     8.2794
  218.0000   140.5382     8.1858     8.2793
  218.1000   140.7974     8.1858     8.2792
  218.2000   141.1494     8.1858     8.2790
  218.3000   141.5663     8.1858     8.2789
  218.4000   141.5751     8.1858     8.2788
  218.5000   141.8675     8.1858     8.2779
  218.6000   142.0936     8.1858     8.2214
  218.7000   142.5369     8.1858     8.2213
  218.8000   143.0554     8.1858     8.2212
  218.9000   143.5739     8.1808     8.1951
  219.0000   144.1506     8.1293     8.1643
  219.1000   144.8958     8.1293     8.1642
  219.2000   145.1807     8.0910     8.1640
  219.3000   145.6478     8.0732     8.1639
