~VERSION INFORMATION
 VERS.                2.0:   CWLS LOG ASCII STANDARD - VERSION 2.0
 WRAP.                 NO:   ONE LINE PER DEPTH STEP
~WELL INFORMATION
#MNEM.UNIT      DATA TYPE    INFORMATION
#----------   ------------   ------------------------------
 STRT.F           12.0000:   START DEPTH
 STOP.F          563.5000:   STOP DEPTH
 STEP.F            0.5000:   STEP LENGTH
 NULL.          -999.2500:   NO VALUE
 COMP.       F D SERV INC:   COMPANY
 WELL. N P R 3 SX-3 #52-3:   WELL
 FLD .             TEAPOT:   FIELD
 LOC .       S3 T38N R78W:   LOCATION
 CNTY.            NATRONA:   COUNTY
 STAT.            WYOMING:   STATE
 CTRY. UNITED STATES OF AMERICA:   COUNTRY
 SRVC.     Atlas Wireline:   SERVICE COMPANY
 DATE.        27-APR-1992:   LOGDATE
 API .       490252252000:   API NUMBER
~CURVE INFORMATION
#MNEM.UNIT       API CODE    CURVE DESCRIPTION
#----------   ------------   ------------------------------
 DEPT.F                  :   
 PORZ.DEC    45 890 12 00:   DENSITY POROSITY
 CNC .DEC    42 890 03 00:   NEUTRON POROSITY SANDSTONE
 CALD.IN     45 280 60 00:   CALIPER FROM DENSITY
 GRD .GAPI   45 310 01 00:   GAMMA RAY FROM DENSITY LOG
 ZCOR.G/C3   45 356 01 00:   DENSITY CORRECTION
 ZDEN.G/C3   45 350 01 00:   BULK DENSITY
 RILD.OHMM   07 120 46 00:   INDUCTION LOG DEEP RESISTIVITY
 RILM.OHMM   07 120 44 00:   INDUCTION LOG MEDIUM RESISTIVITY
 RFOC.OHMM   07 220 04 00:   RESISTIVITY FOCUSED LOG
~PARAMETER INFORMATION
#MNEM.UNIT          VALUE    DESCRIPTION
#----------   ------------   ------------------------------
 PD  .                 GL:   PERMANENT DATUM
 EPD .F              5145:   ELEVATION PERMANENT DATUM
 LMF .                 KB:   LOG MEASURED FROM
 DAPD.F                 5:   FEET ABOVE PERMANENT DATUM
 DMF .                 KB:   DRILLING MEASURED FROM
 EKB .F              5150:   KELLING BUSHING
 EDF .F              5149:   DRILLING FLOOR
 EGL .F              5145:   GROUND LEVEL
 DATE.        27-APR-1992:   RUN DATE
 RUN .                  1:   RUN NUMBER
 DD  .F               565:   DEPTH DRILLER
 DL  .F               565:   DEPTH LOGGER
 BLI .F               563:   BOTTOM LOG INTERVAL
 CS  .IN            8.625:   CASING SIZE
 CBD .F                48:   CASING BOTTOM DRILLER
 CBL .F                51:   CASING BOTTOM LOGGER
 BS  .IN            7.875:   BIT SIZE
 BSD .F               565:   BIT SIZE AT DEPTH
 DFT .              WATER:   DRILLING FLUID TYPE
 TCS .HRS            0200:   TIME CURCULATED STOPPED
 MRT .F                88:   MAXIMUM RECORDED TEMPERATURE
 LUN .           HL- 6274:   LOGGING UNIT NUMBER
 LUL .             CASPER:   LOGGING UNIT LOCATION
 ENGI.             RAUTIO:   RECORDING ENGINEER
 WITN.        GARY STRONG:   WITNESSED BY
 CLNT.            A2DTECH:   CLIENT CODE
 ORIG.           5" PRINT:   ORIGIN OF DATA
 UWI .       490252252000:   UNIQUE WELL ID
 DICO. A2D Technologies, Inc.:   DIGITIZING COMPANY
~OTHER INFORMATION
~A   DEPT     PORZ        CNC       CALD        GRD       ZCOR       ZDEN       RILD       RILM       RFOC   
# ...
   48.5000  -999.2500    -0.0119  -999.2500   122.4379  -999.2500  -999.2500  -999.2500  -999.2500  -999.2500
   49.0000  -999.2500    -0.0122  -999.2500   122.7430  -999.2500  -999.2500  -999.2500  -999.2500  -999.2500
   49.5000  -999.2500    -0.0126  -999.2500   123.0482  -999.2500  -999.2500  -999.2500  -999.2500  -999.2500
   50.0000  -999.2500    -0.0137  -999.2500   124.2515  -999.2500  -999.2500  -999.2500  -999.2500  -999.2500
   50.5000  -999.2500    -0.0149  -999.2500   127.2461  -999.2500  -999.2500  -999.2500  -999.2500  -999.2500
   51.0000     0.1494    -0.0161  -999.2500   136.2340  -999.2500  -999.2500     0.9478    68.9643   185.9752
   51.5000     0.1305    -0.0171     8.2184   155.9974     0.0234     2.4187     0.9546    26.7074  9924.3350
   52.0000     0.1374    -0.0186     8.2033   163.1859     0.0476     2.4323     0.9616     2.7092  9856.3076
   52.5000     0.1379    -0.0198     8.1881   163.7876     0.0416     2.4225     1.4281     2.7469  9857.3330
   53.0000     0.1355    -0.0201     8.1730   164.6886     0.0325     2.4247     4.0149     4.1959  9858.1543
   53.5000     0.1337    -0.0201     8.1579   165.9751     0.0371     2.4278    10.6040     4.3741  9859.1807
   54.0000     0.1400    -0.0198     8.1577   169.7849     0.0401     2.4233    62.6129     4.9219  9860.0020
   54.5000     0.1448    -0.0198     8.1575   173.6800     0.0280     2.4150  9234.8291     5.8391  9860.8232
   55.0000     0.1456    -0.0198     8.1574   175.7787     0.0220     2.4097    29.4167     7.3113  9930.3301
   55.5000     0.1456    -0.0198     8.1573   176.6798     0.0266     2.4097    10.0423     8.6971  9931.1572
   56.0000     0.1447    -0.0201     8.1571   176.9821     0.0341     2.4112     9.8374     7.8359 10001.1592
   56.5000     0.1437    -0.0204     8.1570   177.2844     0.0402     2.4127    10.5472     5.9759  9932.8115
   57.0000     0.1422    -0.0204     8.1718   177.8867     0.0402     2.4151    10.9981     6.1438  9933.8457
   57.5000     0.1413    -0.0207     8.1716   179.0872     0.0404     2.4180    11.2322     7.4951  9934.6729
   58.0000     0.1431    -0.0210     8.1715   181.1859     0.0447     2.4158    11.0043     8.9384  9866.5742
   58.5000     0.1439    -0.0210     8.1713   181.7876     0.0448     2.4120    10.7058     8.6926  9867.6016
   59.0000     0.1421    -0.0213     8.1712   183.8863     0.0372     2.4128    10.1305     8.2793  9937.1553
   59.5000     0.1373    -0.0213     8.1711   187.5439     0.0297     2.4181     9.1954     7.9961  9938.1904
   60.0000     0.1363    -0.0213     8.1709   188.3830     0.0295     2.4233     7.9511     7.9954  9939.0176
   60.5000     0.1408    -0.0213     8.1707   185.9914     0.0328     2.4241     7.7355     8.1064  9870.8896
   61.0000     0.1420    -0.0210     8.1706   182.7009     0.0390     2.4158     7.7918     8.5096  9871.9170
   61.5000     0.1396    -0.0210     8.1854   177.3145     0.0569     2.4188     7.9576     8.6880  9872.7393
   62.0000     0.1308    -0.0210     8.1853   174.0240     0.0660     2.4354     8.2404     8.7480  9942.3301
   62.5000     0.1226    -0.0210     8.1852   173.4281     0.0554     2.4452     8.7127     8.8695  9874.3838
   63.0000     0.1214    -0.0210     8.2000   175.5275     0.0419     2.4475     9.1516     9.0618  9875.4121
   63.5000     0.1214    -0.0210     8.1998   178.2250     0.0343     2.4490     9.4087     9.4399  9807.9238
   64.0000     0.1217    -0.0211     8.1847   180.0235     0.0389     2.4513     9.3454     9.5714  9740.8975
   64.5000     0.1225    -0.0211     8.1845   174.3385     0.0387     2.4498     9.4134     9.7042  9741.7090
   65.0000     0.1249    -0.0214     8.1844   168.3534     0.0359     2.4475     9.5472     9.7713  9878.7031
   65.5000     0.1270    -0.0217     8.1993   165.9610     0.0374     2.4475     9.8183     9.9760  9948.5420
   66.0000     0.1270    -0.0214     8.1991   165.9646     0.0405     2.4490    10.1005    10.1217  9949.3711
   66.5000     0.1254    -0.0214     8.1989   167.7639     0.0435     2.4521    10.2412    10.3266  9950.1992
   67.0000     0.1188    -0.0214     8.2138   168.9644     0.0420     2.4575    10.3190    10.4704  9951.0283
   67.5000     0.1146    -0.0214     8.2136   168.9673     0.0390     2.4634    10.4146    10.4693 10021.1709
   68.0000     0.1124    -0.0214     8.2135   168.0719     0.0219     2.4626    10.4641    10.4684  9952.6865
   68.5000     0.1139    -0.0214     8.2133   167.1637     0.0164     2.4611    10.5402    10.5405 10023.0488
   69.0000     0.1164    -0.0217     8.1982   166.2813     0.0194     2.4559    10.5429    10.5397  9954.3438
   69.5000     0.1232    -0.0220     8.1980   165.9848     0.0270     2.4416    10.5455    10.4656  9955.3809
   70.0000     0.1319    -0.0223     8.1829   165.9884     0.0315     2.4273    10.4746    10.4647  9956.2100
   70.5000     0.1373    -0.0229     8.1827   165.9912     0.0346     2.4250    10.3335    10.3914  9819.7764
   71.0000     0.1366    -0.0229     8.1826   167.1917     0.0361     2.4280    10.1232    10.2472   641.9730
   71.5000     0.1321    -0.0220     8.1825   170.5090     0.0361     2.4310     9.9179     9.9639   191.8954
   72.0000     0.1324    -0.0214     8.1823   172.2880     0.0361     2.4295     9.9204     9.8956   126.5441
   72.5000     0.1332    -0.0211     8.1821   170.7939     0.0301     2.4303     9.8536     9.8948   125.6766
   73.0000     0.1314    -0.0211     8.1820   168.1021     0.0256     2.4348     9.8567     9.8940   123.9570
   73.5000     0.1266    -0.0208     8.1818   166.9074     0.0256     2.4463     9.8592     9.8931   105.6764
   74.0000     0.1190    -0.0208     8.1817   167.2097     0.0271     2.4574     9.7935     9.8923    76.7990
   74.5000     0.1154    -0.0208     8.1816   167.5120     0.0286     2.4612     9.8647     9.8915    36.0446
   75.0000     0.1120    -0.0208     8.1814   166.8663     0.0304     2.4665    10.7981    10.5285    14.9299
   75.5000     0.1105    -0.0208     8.1963   165.1232     0.0317     2.4673    11.1819    11.2851     9.8454
   76.0000     0.1136    -0.0208     8.1811   164.8260     0.0196     2.4605    10.3632    10.8233     9.9148
   76.5000     0.1216    -0.0205     8.1809   166.0272     0.0181     2.4530     9.8745     9.6841    10.7769
   77.0000     0.1255    -0.0202     8.1808   167.8265     0.0212     2.4475     9.4744     9.6162    12.9992
   77.5000     0.1279    -0.0202     8.1807   169.6258     0.0257     2.4402     9.5433     9.5489    17.7667
   78.0000     0.1287    -0.0202     8.1805   168.3433     0.0303     2.4372     9.6791     9.6146    23.4539
   78.5000     0.1290    -0.0199     8.1803   166.3388     0.0351     2.4349     9.6815     9.6136    45.6694
   79.0000     0.1293    -0.0199     8.1802   166.0416     0.0408     2.4349     9.6839     9.6128    52.1104
   79.5000     0.1302    -0.0199     8.1800   166.6440     0.0409     2.4349     9.6194     9.6120    41.4474
   80.0000     0.1298    -0.0199     8.1799   168.4433     0.0348     2.4357     9.6224     9.5447    32.5111
   80.5000     0.1274    -0.0199     8.1948   179.2246     0.0273     2.4382     9.6248     9.4777    41.1684
   81.0000     0.1225    -0.0199     8.1946   188.8084     0.0228     2.4485     9.6272     9.3461    51.4113
   81.5000     0.1180    -0.0203     8.1944   186.4167     0.0213     2.4553     9.5624     9.2807    80.1704
   82.0000     0.1174    -0.0203     8.1943   165.7609     0.0198     2.4545     9.4992     9.1519    97.3738
   82.5000     0.1180    -0.0203     8.2092   153.7877     0.0198     2.4500     9.4360     9.0878   100.8229
   83.0000     0.1203    -0.0203     8.2090   137.6229     0.0214     2.4448     9.3089     9.0870   114.2491
   83.5000     0.1281    -0.0206     8.2088   134.9311     0.0244     2.4363     9.1830     9.0232   115.8558
   84.0000     0.1347    -0.0206     8.2087   136.1637     0.0319     2.4169     9.0582     9.0224   113.4778
   84.5000     0.1413    -0.0206     8.2085   138.5305     0.0380     2.4094     8.9356     9.0217   119.9695
