~VERSION INFORMATION
 VERS.                2.0:   CWLS LOG ASCII STANDARD - VERSION 2.0
 WRAP.                 NO:   ONE LINE PER DEPTH STEP
~WELL INFORMATION
#MNEM.UNIT      DATA TYPE    INFORMATION
#----------   ------------   ------------------------------
 STRT.F           21.0000:   START DEPTH
 STOP.F          543.0000:   STOP DEPTH
 STEP.F            0.5000:   STEP LENGTH
 NULL.          -999.2500:   NO VALUE
 COMP. FENIX & SCISSON INC:   COMPANY
 WELL.      NPR #3 #46-10:   WELL
 FLD .             TEAPOT:   FIELD
 LOC .      S10 T38N R78W:   LOCATION
 CNTY.            NATRONA:   COUNTY
 STAT.            WYOMING:   STATE
 CTRY. UNITED STATES OF AMERICA:   COUNTRY
 SRVC.              Welex:   SERVICE COMPANY
 DATE.        08-MAY-1980:   LOGDATE
 API .       490251081100:   API NUMBER
~CURVE INFORMATION
#MNEM.UNIT       API CODE    CURVE DESCRIPTION
#----------   ------------   ------------------------------
 DEPT.F                  :   
 SGRD.OHMM   07 220 05 00:   SHALLOW GUARD RESISTIVITY
 ILD .OHMM   07 120 46 00:   INDUCTION LOG DEEP RESISTIVITY
 ILM .OHMM   07 120 44 00:   INDUCTION LOG MEDIUM
 SPR .MV     07 010 01 00:   SPONTANEOUS POTENTIAL
 CALD.IN     45 280 60 00:   CALIPER
 GRD .GAPI   45 310 01 00:   GAMMA RAY FROM DENSITY LOG
 CORR.G/C3   45 356 01 00:   DENSITY CORRECTION
 RHOB.G/C3   45 350 01 00:   BULK DENSITY
 DPHI.DEC    45 890 12 00:   DENSITY POROSITY SANDSTONE
~PARAMETER INFORMATION
#MNEM.UNIT          VALUE    DESCRIPTION
#----------   ------------   ------------------------------
 PD  .                 GL:   PERMANENT DATUM
 EPD .F              5206:   ELEVATION PERMANENT DATUM
 LMF .                 KB:   LOG MEASURED FROM
 DAPD.F                 5:   FEET ABOVE PERMANENT DATUM
 DMF .                 KB:   DRILLING MEASURED FROM
 EKB .F              5211:   KELLING BUSHING
 EGL .F              5206:   GROUND LEVEL
 DATE.             5-8-80:   RUN DATE
 RUN .                  1:   RUN NUMBER
 DD  .F               530:   DEPTH DRILLER
 DL  .F               543:   DEPTH LOGGER
 BLI .F               541:   BOTTOM LOG INTERVAL
 TLI .F                30:   TOP LOG INTERVAL
 BS  .IN            7.875:   BIT SIZE
 BSD .F               530:   BIT SIZE AT DEPTH
 DFT .            KCL MUD:   DRILLING FLUID TYPE
 DFD .                9.1:   DRILLING FLUID DENSITY
 DFV .                 43:   DRILLING FLUID VISCOSITY
 MSS .                PIT:   MUD SAMPLE SOURCE
 RMS .OHMM            .89:   RESISTIVITY MUD SAMPLE
 MST .F                75:   MUD SAMPLE TEMPERATURE
 RMF .OHMM            .71:   RESISTIVITY MUD FILTRATE SAMPLE
 MFST.F                75:   MUD FILTRATE SAMPLE TEMPERATURE
 RMC .OHMM           1.08:   RESISTIVITY MUD CAKE
 MCST.F                75:   MUD CAKE SAMPLE TEMPERATURE
 MFSS.           MEASURED:   MUD FILTRATE SAMPLE SOURCE
 MCSS.           MEASURED:   MUD CAKE SAMPLE SOURCE
 BHT .F               100:   BOTTOM HOLE TEMPERATURE
 TCS .HRS               2:   TIME CURCULATED STOPPED
 MRT .F               100:   MAXIMUM RECORDED TEMPERATURE
 LUN .               9685:   LOGGING UNIT NUMBER
 LUL .             CASPER:   LOGGING UNIT LOCATION
 ENGI.            TOTHILL:   RECORDING ENGINEER
 WITN.              AMEND:   WITNESSED BY
 CLNT.            A2DTECH:   CLIENT CODE
 ORIG.           5" PRINT:   ORIGIN OF DATA
 UWI .       490251081100:   UNIQUE WELL ID
 DICO. A2D Technologies, Inc.:   DIGITIZING COMPANY
~OTHER INFORMATION
~A   DEPT     SGRD        ILD        ILM        SPR        CALD        GRD        CORR       RHOB     DPHI   
# ...
  167.0000    15.3177    10.2728    11.9416   -33.7907     7.8391    99.5465     0.0203     2.4163     0.1552
  167.5000    14.6615    10.5393    11.7518   -33.9338     7.8388    99.5649     0.0246     2.4236     0.1529
  168.0000    14.0236    10.5865    11.6090   -33.9500     7.8279    99.8402     0.0303     2.4328     0.1455
  168.5000    13.5720    10.5865    11.5024   -33.9497     7.8049   100.0907     0.0307     2.4368     0.1446
  169.0000    13.6484    10.4963    11.6151   -33.9494     7.7821   100.8498     0.0306     2.4280     0.1471
  169.5000    13.7046    10.3676    11.7433   -33.9494     7.7843   101.4410     0.0316     2.4329     0.1476
  170.0000    13.5288    10.2407    11.9345   -33.9490     7.7901   101.0967     0.0340     2.4351     0.1436
  170.5000    13.3462    10.1151    11.9345   -33.9517     7.7960    99.9035     0.0368     2.4368     0.1422
  171.0000    13.2083     9.9911    11.8588   -34.0001     7.8018    98.7139     0.0374     2.4420     0.1404
  171.5000    13.2672     9.8338    11.7668   -34.0472     7.8077    97.7198     0.0346     2.4328     0.1448
  172.0000    13.3309     9.8338    11.6756   -34.0940     7.8135    96.9773     0.0333     2.4344     0.1461
  172.5000    13.1987     9.8336    11.5851   -34.1408     7.8188    96.5798     0.0290     2.4204     0.1516
  173.0000    12.9499     9.8338    11.4952   -34.1876     7.8138    96.2506     0.0244     2.4158     0.1545
  173.5000    12.7302     9.8343    11.4061   -34.2345     7.8085    95.8790     0.0203     2.4044     0.1599
  174.0000    12.8803     9.8308    11.3176   -34.2814     7.8033    95.6878     0.0208     2.4023     0.1640
  174.5000    13.0887     9.8419    11.2299   -34.3326     7.7981    95.8596     0.0221     2.4102     0.1584
  175.0000    12.8845     9.4376    11.1428   -34.1998     7.7929    96.0237     0.0191     2.4018     0.1631
  175.5000    12.7293     8.9726    11.0564   -34.0205     7.7877    96.1948     0.0172     2.3953     0.1679
  176.0000    12.7302     8.7160    10.9842   -33.8401     7.7826    95.9088     0.0213     2.4015     0.1655
  176.5000    12.6476     8.8065    10.9528   -33.6598     7.7794    95.3313     0.0288     2.4203     0.1553
  177.0000    12.8294     8.9696    10.9202   -33.4835     7.7799    94.7470     0.0280     2.4297     0.1468
  177.5000    12.9671     8.9683    10.8878   -33.4523     7.7803    94.1565     0.0243     2.4194     0.1468
  178.0000    12.8481     8.5657    10.8556   -33.7081     7.7807    93.6190     0.0206     2.4160     0.1549
  178.5000    13.0493     8.4055    10.8233   -33.9584     7.7810    94.7021     0.0180     2.4112     0.1588
  179.0000    13.2084     8.4399    10.7911   -34.1484     7.7814    94.7666     0.0203     2.4172     0.1544
  179.5000    12.5904     8.4846    10.6884   -34.1436     7.7818    94.4087     0.0190     2.4074     0.1614
  180.0000    12.0771     8.5296    10.5651   -34.0841     7.7822    93.8588     0.0187     2.3987     0.1658
  180.5000    11.6090     8.5637    10.4433   -33.8934     7.7826    93.9601     0.0214     2.4015     0.1635
  181.0000    11.5024     8.6430    10.3228   -33.7049     7.7830    94.0494     0.0248     2.4150     0.1579
  181.5000    11.8168     8.6300    10.2037   -33.5162     7.7834    94.1399     0.0316     2.4216     0.1524
  182.0000    12.0451     8.5153    10.0860   -33.3269     7.7838    93.9390     0.0384     2.4287     0.1504
  182.5000    11.6795     8.4022     9.9696   -33.1379     7.7842    93.5520     0.0336     2.4102     0.1565
  183.0000    11.2923     8.2905     9.8546   -32.9808     7.7846    93.7548     0.0345     2.4092     0.1595
  183.5000    11.1887     8.1802     9.7436   -33.0525     7.7850    93.2620     0.0316     2.4062     0.1618
  184.0000    11.2140     8.0709     9.7932   -33.1200     7.7854    92.6484     0.0252     2.3930     0.1678
  184.5000    11.2345     7.9536     9.8512   -33.1872     7.7857    93.2251     0.0194     2.3797     0.1771
  185.0000    11.2551     7.9557     9.9100   -33.2545     7.7861    93.3520     0.0187     2.3770     0.1787
  185.5000    11.2757     7.8991     9.9691   -33.3212     7.7865    92.7240     0.0224     2.3833     0.1774
  186.0000    11.2923     7.8818    10.0168   -33.3649     7.7869    92.1197     0.0274     2.3945     0.1690
  186.5000    11.1135     7.8095    10.0052   -33.2707     7.7873    91.5108     0.0276     2.4004     0.1636
  187.0000    10.9666     7.7000     9.9936   -33.1695     7.7877    90.9031     0.0244     2.3962     0.1667
  187.5000    10.8212     7.6171     9.9820   -33.0645     7.7881    90.5697     0.0295     2.4047     0.1651
  188.0000    10.6782     7.5352     9.9704   -33.0069     7.7885    90.3220     0.0361     2.4309     0.1470
  188.5000    10.5865     7.4542     9.9588   -33.1811     7.7889    89.9819     0.0373     2.4226     0.1496
  189.0000    10.7704     7.3892     9.9473   -33.2092     7.7893    90.0980     0.0370     2.4234     0.1497
  189.5000    10.9842     7.3892     9.9297   -33.2304     7.7897    90.2323     0.0366     2.4264     0.1499
  190.0000    10.9842     7.3892     9.9340   -33.2520     7.7901    90.5928     0.0374     2.4310     0.1491
  190.5000    10.6846     7.3892     9.7362   -33.2738     7.7905    90.8537     0.0325     2.4229     0.1506
  191.0000    10.5865     7.3892     9.7472   -33.2957     7.7909    91.5273     0.0268     2.4105     0.1583
  191.5000    10.8149     7.3897     9.7436   -33.3176     7.7913    92.0768     0.0286     2.4120     0.1584
  192.0000    10.9878     7.3917     9.7436   -33.3395     7.7916    92.0671     0.0327     2.4243     0.1500
  192.5000    10.7949     7.3946     9.7436   -33.3613     7.7920    92.2374     0.0305     2.4183     0.1533
  193.0000    10.6789     7.3214     9.6658   -33.3832     7.7924    93.2450     0.0293     2.4089     0.1605
  193.5000    10.5666     7.1876     9.4905   -33.4050     7.7928    94.2470     0.0305     2.4129     0.1577
  194.0000    10.4603     6.9915     9.3185   -33.4269     7.7932    95.3242     0.0322     2.4130     0.1572
  194.5000    10.3657     6.8918     9.1495   -33.4488     7.7936    95.9922     0.0364     2.4220     0.1511
  195.0000    10.2723     6.7566     8.9836   -33.4706     7.7940    96.0576     0.0329     2.4137     0.1550
  195.5000    10.1798     6.6240     8.8854   -33.4925     7.7944    96.1374     0.0273     2.3998     0.1638
  196.0000    10.1096     6.4939     8.8854   -33.5146     7.7948    96.2234     0.0219     2.3831     0.1727
  196.5000    10.1096     6.3758     8.9163   -33.5365     7.7952    96.0674     0.0278     2.3909     0.1742
  197.0000    10.1423     6.2018     9.0327   -33.5624     7.7956    94.7152     0.0349     2.4038     0.1650
  197.5000    10.1795     6.2219     9.1346   -33.3206     7.7959    93.0513     0.0340     2.4058     0.1618
  198.0000    10.2170     6.2583     9.1346   -32.9880     7.7964    91.3666     0.0276     2.3844     0.1726
  198.5000    10.2545     6.2959     9.1346   -32.9799     7.7967    90.8926     0.0254     2.3814     0.1766
  199.0000    10.2922     6.3336     9.1339   -33.1771     7.7971    91.4753     0.0289     2.3895     0.1733
  199.5000    10.3301     6.3715     9.1068   -33.3674     7.7975    92.4092     0.0335     2.3990     0.1657
  200.0000    10.3687     6.4096     9.0801   -33.2415     7.7979    93.7200     0.0384     2.4087     0.1627
  200.5000    10.3931     6.4348     9.0535   -33.1721     7.7983    94.8498     0.0389     2.4093     0.1605
  201.0000    10.3001     6.4348     9.0269   -33.1085     7.7987    96.0141     0.0393     2.4091     0.1596
  201.5000    10.2045     6.4348     9.0004   -32.9479     7.7991    97.1876     0.0409     2.4175     0.1575
  202.0000    10.1098     6.4775     8.9740   -32.7967     7.7992    97.8731     0.0440     2.4230     0.1516
  202.5000    10.0168     6.5173     8.9677   -32.4267     7.7992    98.1338     0.0448     2.4304     0.1469
  203.0000    10.0168     6.5573     9.0792   -31.9633     7.7991    98.3854     0.0436     2.4287     0.1476
