~VERSION INFORMATION
 VERS.                2.0:   CWLS LOG ASCII STANDARD - VERSION 2.0
 WRAP.                 NO:   ONE LINE PER DEPTH STEP
~WELL INFORMATION
#MNEM.UNIT      DATA TYPE    INFORMATION
#----------   ------------   ------------------------------
 STRT.F            0.0000:   START DEPTH
 STOP.F          635.0000:   STOP DEPTH
 STEP.F            0.1000:   STEP LENGTH
 NULL.          -999.2500:   NO VALUE
 COMP.   FLUOR DANIEL INC:   COMPANY
 WELL. NAVAL PETROLEUM RESERVE 3 SX-3 #72-7-3:   WELL
 FLD .             TEAPOT:   FIELD
 LOC .       S3 T38N R78W:   LOCATION
 CNTY.            NATRONA:   COUNTY
 STAT.            WYOMING:   STATE
 CTRY. UNITED STATES OF AMERICA:   COUNTRY
 SRVC.      Western Atlas:   SERVICE COMPANY
 DATE.        11-JAN-1995:   LOGDATE
 API .       490252264900:   API NUMBER
~CURVE INFORMATION
#MNEM.UNIT       API CODE    CURVE DESCRIPTION
#----------   ------------   ------------------------------
 DEPT.F                  :   
 GRR .GAPI   07 310 01 00:   GAMMA RAY
 RILD.OHMM   07 120 46 00:   INDUCTION LOG DEEP RESISTIVITY
 RILM.OHMM   07 120 44 00:   RESITIVITY LONG MEDIUM
~PARAMETER INFORMATION
#MNEM.UNIT          VALUE    DESCRIPTION
#----------   ------------   ------------------------------
 PD  .                 GL:   PERMANENT DATUM
 EPD .F              5144:   ELEVATION PERMANENT DATUM
 LMF .                 KB:   LOG MEASURED FROM
 DAPD.F                10:   FEET ABOVE PERMANENT DATUM
 DMF .                 KB:   DRILLING MEASURED FROM
 EKB .F              5154:   KELLING BUSHING
 EDF .F              5153:   DRILLING FLOOR
 EGL .F              5144:   GROUND LEVEL
 DATE.        11-JAN-1995:   RUN DATE
 RUN .                  1:   RUN NUMBER
 DD  .F               641:   DEPTH DRILLER
 DL  .F               642:   DEPTH LOGGER
 BLI .F               635:   BOTTOM LOG INTERVAL
 CS  .IN            9.625:   CASING SIZE
 CBD .F                97:   CASING BOTTOM DRILLER
 CBL .F                97:   CASING BOTTOM LOGGER
 BS  .IN             8.75:   BIT SIZE
 BSD .F               641:   BIT SIZE AT DEPTH
 DFT .                AIR:   DRILLING FLUID TYPE
 MRT .F                89:   MAXIMUM RECORDED TEMPERATURE
 LUN .            HL 6530:   LOGGING UNIT NUMBER
 LUL .             CASPER:   LOGGING UNIT LOCATION
 ENGI.      PAT RASMUSSEN:   RECORDING ENGINEER
 WITN.        STEVE HARDY:   WITNESSED BY
 CLNT.            A2DTECH:   CLIENT CODE
 ORIG.           5" PRINT:   ORIGIN OF DATA
 UWI .       490252264900:   UNIQUE WELL ID
 DICO. A2D Technologies, Inc.:   DIGITIZING COMPANY
~OTHER INFORMATION
~A    DEPT      GRR      RILD       RILM   
# ...
  273.0000   120.3988     8.1769     8.4094
  273.1000   120.6834     8.2044     8.4543
  273.2000   120.9168     8.2046     8.4548
  273.3000   121.1758     8.2048     8.5026
  273.4000   121.4349     8.2050     8.5536
  273.5000   121.7956     8.2513     8.5743
  273.6000   122.3130     8.2626     8.6189
  273.7000   122.8305     8.2927     8.6950
  273.8000   123.4067     8.3205     8.7002
  273.9000   123.4073     8.3344     8.7566
  274.0000   123.5932     8.3842     8.8050
  274.1000   123.5690     8.4373     8.8578
  274.2000   123.4091     8.4375     8.9110
  274.3000   123.2473     8.4378     8.9426
  274.4000   122.4622     8.4687     8.9559
  274.5000   121.2962     8.4969     9.0096
  274.6000   120.6210     8.4972     9.0691
  274.7000   120.0279     8.4974     9.0695
  274.8000   119.2361     8.4976     9.0700
  274.9000   118.2972     8.5457     9.0705
  275.0000   117.5730     8.5572     9.0710
  275.1000   117.0503     8.5574     9.0715
  275.2000   116.1644     8.5577     9.0720
  275.3000   115.7223     8.5579     9.0726
  275.4000   115.2061     8.5639     9.0730
  275.5000   114.9577     8.6179     9.0735
  275.6000   114.8681     8.6181     9.0740
  275.7000   114.6567     8.6184     9.0746
  275.8000   114.9653     8.6501     9.0751
  275.9000   115.5644     8.6788     9.0756
  276.0000   116.2177     8.6790     9.0761
  276.1000   117.8625     8.6793     9.0766
  276.2000   119.5399     8.6795     9.0771
  276.3000   120.5734     8.6798     9.0776
  276.4000   121.0908     8.6800     9.0781
  276.5000   121.6103     8.6802     9.0883
  276.6000   121.6110     8.6805     9.1423
  276.7000   121.6115     8.6663     9.1429
  276.8000   121.4421     8.6210     9.1433
  276.9000   121.1843     8.6213     9.1438
  277.0000   121.0091     8.5731     9.1173
  277.1000   121.0097     8.5622     9.0816
  277.2000   121.0103     8.5624     9.0821
  277.3000   121.0110     8.5399     9.0826
  277.4000   121.0115     8.5038     9.0832
  277.5000   121.0121     8.5040     9.0836
  277.6000   121.2576     8.5042     9.0841
  277.7000   121.7750     8.5045     9.0846
  277.8000   122.3625     8.5047     9.0686
  277.9000   123.4314     8.5049     9.0154
  278.0000   124.1813     8.5052     8.9610
  278.1000   124.7511     8.5054     8.9615
  278.2000   125.1062     8.4997     8.9197
  278.3000   125.1279     8.4471     8.8675
  278.4000   124.8701     8.4474     8.8395
  278.5000   124.5498     8.4476     8.8249
  278.6000   123.7378     8.4478     8.7732
  278.7000   123.0006     8.4481     8.7192
  278.8000   122.4282     8.4340     8.7197
  278.9000   121.7534     8.3902     8.6801
  279.0000   120.9788     8.3904     8.6604
  279.1000   120.2753     8.3433     8.6384
  279.2000   119.7866     8.3329     8.6015
  279.3000   119.5124     8.3332     8.6019
  279.4000   119.2710     8.3334     8.6024
  279.5000   119.2115     8.3336     8.6029
  279.6000   119.2121     8.3339     8.6034
  279.7000   119.1017     8.3341     8.5740
  279.8000   118.9785     8.3343     8.5449
  279.9000   119.2139     8.3346     8.5453
  280.0000   119.2145     8.3348     8.5419
  280.1000   119.4534     8.3350     8.4873
  280.2000   120.1015     8.3352     8.4877
  280.3000   120.7264     8.3355     8.4882
  280.4000   121.4580     8.3357     8.4886
  280.5000   122.4289     8.3359     8.4891
  280.6000   123.2047     8.3362     8.4896
  280.7000   124.0526     8.3364     8.4900
  280.8000   124.5221     8.3366     8.4906
  280.9000   124.6580     8.3369     8.4910
  281.0000   124.6586     8.3371     8.4914
  281.1000   124.6592     8.3373     8.4919
  281.2000   124.6002     8.3376     8.5115
  281.3000   124.3107     8.3378     8.5520
  281.4000   123.4526     8.3380     8.5524
  281.5000   122.9920     8.3383     8.5530
  281.6000   122.2889     8.3385     8.5534
  281.7000   121.2279     8.3387     8.5539
  281.8000   120.2349     8.3390     8.5543
  281.9000   119.8302     8.3392     8.5548
  282.0000   119.8187     8.3394     8.5553
  282.1000   119.5294     8.3396     8.5558
  282.2000   119.5299     8.3399     8.5563
  282.3000   119.7136     8.3401     8.5567
  282.4000   119.8332     8.3403     8.5572
  282.5000   120.1208     8.3406     8.5577
  282.6000   120.8966     8.3408     8.5581
  282.7000   121.6642     8.3410     8.5671
  282.8000   122.2527     8.3413     8.6187
  282.9000   122.4761     8.3415     8.6192
  283.0000   122.5559     8.3417     8.6196
  283.1000   122.5565     8.3420     8.6201
  283.2000   122.6489     8.3422     8.6206
  283.3000   122.8598     8.3424     8.6049
  283.4000   122.8604     8.3033     8.5619
  283.5000   122.8611     8.2853     8.5624
  283.6000   122.8616     8.2855     8.5630
  283.7000   122.8622     8.2711     8.5634
  283.8000   122.9946     8.2287     8.5316
  283.9000   123.1656     8.2290     8.5051
  284.0000   123.2105     8.2292     8.5056
  284.1000   123.4689     8.2294     8.5061
  284.2000   123.4696     8.2296     8.5066
  284.3000   123.9006     8.2299     8.5070
  284.4000   124.2465     8.2155     8.4680
  284.5000   124.5055     8.1734     8.4492
  284.6000   124.8488     8.1737     8.4496
  284.7000   125.3662     8.1739     8.4363
  284.8000   125.8900     8.1742     8.3921
  284.9000   126.4950     8.1744     8.3926
  285.0000   127.1300     8.1520     8.3931
  285.1000   127.5702     8.1184     8.3935
  285.2000   127.9533     8.1186     8.3940
  285.3000   128.3100     8.1188     8.3945
  285.4000   128.3472     8.1191     8.3823
  285.5000   128.6133     8.0808     8.3373
  285.6000   128.3119     8.0634     8.3379
  285.7000   128.1048     8.0637     8.2932
  285.8000   127.8469     8.0495     8.2811
  285.9000   127.3485     8.0084     8.2816
  286.0000   126.5739     8.0086     8.2821
  286.1000   125.7993     8.0089     8.2710
  286.2000   124.9922     8.0091     8.2257
  286.3000   124.4976     8.0093     8.2262
  286.4000   123.7777     8.0095     8.2266
  286.5000   122.8430     8.0097     8.2271
  286.6000   122.1591     8.0100     8.2006
  286.7000   121.9013     8.0102     8.1711
  286.8000   121.6724     8.0104     8.1716
  286.9000   121.6731     8.0106     8.1721
  287.0000   121.6737     8.0108     8.1726
  287.1000   121.8744     7.9887     8.1730
  287.2000   122.1334     7.9560     8.1394
  287.3000   122.2798     7.9562     8.1174
  287.4000   122.2804     7.9564     8.1003
  287.5000   122.2558     7.9567     8.0621
  287.6000   121.9795     7.9189     8.0626
  287.7000   121.7402     7.9021     8.0631
  287.8000   121.2862     7.9023     8.0635
  287.9000   120.6176     7.9026     8.0640
  288.0000   119.8429     7.9028     8.0399
  288.1000   119.1334     7.9030     8.0091
  288.2000   118.6171     7.9033     8.0096
  288.3000   118.0563     7.8657     8.0100
  288.4000   117.3486     7.8491     7.9552
  288.5000   116.3817     7.8493     7.9555
  288.6000   115.7946     7.8352     7.9560
  288.7000   115.4318     7.7955     7.9564
  288.8000   115.0993     7.7957     7.9416
  288.9000   115.3583     7.7421     7.8951
  289.0000   115.6436     7.7423     7.8481
  289.1000   116.1086     7.7131     7.8486
  289.2000   116.2489     7.6893     7.8112
  289.3000   116.5392     7.6754     7.7655
  289.4000   117.0566     7.6366     7.7417
  289.5000   117.5166     7.6368     7.7282
  289.6000   117.7756     7.5843     7.6830
  289.7000   118.0647     7.5845     7.6364
  289.8000   118.5221     7.5558     7.5933
  289.9000   119.0395     7.5112     7.5488
  290.0000   119.5569     7.4532     7.5324
  290.1000   120.1716     7.3653     7.5126
  290.2000   120.8939     7.2766     7.4686
  290.3000   121.4113     7.1766     7.4249
  290.4000   121.9965     7.0402     7.3790
  290.5000   122.2215     6.9276     7.3382
  290.6000   122.6613     6.8267     7.2620
  290.7000   122.9045     6.6940     7.2024
  290.8000   122.9051     6.5423     7.1420
  290.9000   122.9057     6.4244     7.0691
  291.0000   122.9063     6.3362     7.0239
  291.1000   122.9070     6.2755     6.9352
