~VERSION INFORMATION
 VERS.                2.0:   CWLS LOG ASCII STANDARD - VERSION 2.0
 WRAP.                 NO:   ONE LINE PER DEPTH STEP
~WELL INFORMATION
#MNEM.UNIT      DATA TYPE    INFORMATION
#----------   ------------   ------------------------------
 STRT.F           20.0000:   START DEPTH
 STOP.F          508.0000:   STOP DEPTH
 STEP.F            0.5000:   STEP LENGTH
 NULL.          -999.2500:   NO VALUE
 COMP. FENIX & SCISSON INC:   COMPANY
 WELL.      NPR #3 #45-10:   WELL
 FLD .             TEAPOT:   FIELD
 LOC .      S10 T38N R78W:   LOCATION
 CNTY.            NATRONA:   COUNTY
 STAT.            WYOMING:   STATE
 CTRY. UNITED STATES OF AMERICA:   COUNTRY
 SRVC.              Welex:   SERVICE COMPANY
 DATE.        09-MAY-1980:   LOGDATE
 API .       490251081000:   API NUMBER
~CURVE INFORMATION
#MNEM.UNIT       API CODE    CURVE DESCRIPTION
#----------   ------------   ------------------------------
 DEPT.F                  :   
 SPR .MV     07 010 01 00:   SPONTANEOUS POTENTIAL
 SGRD.OHMM   07 220 05 00:   SHALLOW GUARD RESISTIVITY
 ILD .OHMM   07 120 46 00:   INDUCTION LOG DEEP RESISTIVITY
 ILM .OHMM   07 120 44 00:   INDUCTION LOG MEDIUM
 GRD .GAPI   45 310 01 00:   GAMMA RAY FROM DENSITY LOG
 CALD.IN     45 280 60 00:   CALIPER
 CORR.G/C3   45 356 01 00:   DENSITY CORRECTION
 RHOB.G/C3   45 350 01 00:   BULK DENSITY
 DPHI.DEC    45 890 12 00:   DENSITY POROSITY SANDSTONE
~PARAMETER INFORMATION
#MNEM.UNIT          VALUE    DESCRIPTION
#----------   ------------   ------------------------------
 PD  .                 GL:   PERMANENT DATUM
 EPD .F              5228:   ELEVATION PERMANENT DATUM
 LMF .                 KB:   LOG MEASURED FROM
 DAPD.F                 5:   FEET ABOVE PERMANENT DATUM
 DMF .                 KB:   DRILLING MEASURED FROM
 EKB .F              5233:   KELLING BUSHING
 EGL .F              5228:   GROUND LEVEL
 DATE.             5-9-80:   RUN DATE
 RUN .                  1:   RUN NUMBER
 DD  .F               507:   DEPTH DRILLER
 DL  .F               510:   DEPTH LOGGER
 BLI .F               508:   BOTTOM LOG INTERVAL
 TLI .F                20:   TOP LOG INTERVAL
 BS  .IN            7.875:   BIT SIZE
 BSD .F               507:   BIT SIZE AT DEPTH
 DFT .                KCL:   DRILLING FLUID TYPE
 DFD .                8.9:   DRILLING FLUID DENSITY
 DFV .                 42:   DRILLING FLUID VISCOSITY
 MSS .                PIT:   MUD SAMPLE SOURCE
 RMS .OHMM            .36:   RESISTIVITY MUD SAMPLE
 MST .F                75:   MUD SAMPLE TEMPERATURE
 RMF .OHMM            .29:   RESISTIVITY MUD FILTRATE SAMPLE
 MFST.F                75:   MUD FILTRATE SAMPLE TEMPERATURE
 RMC .OHMM            .43:   RESISTIVITY MUD CAKE
 MCST.F                75:   MUD CAKE SAMPLE TEMPERATURE
 MFSS.           MEASURED:   MUD FILTRATE SAMPLE SOURCE
 MCSS.           MEASURED:   MUD CAKE SAMPLE SOURCE
 TCS .HRS               2:   TIME CURCULATED STOPPED
 MRT .F               100:   MAXIMUM RECORDED TEMPERATURE
 LUN .               9685:   LOGGING UNIT NUMBER
 LUL .             CASPER:   LOGGING UNIT LOCATION
 ENGI.            TOTHILL:   RECORDING ENGINEER
 WITN.           DINSMORE:   WITNESSED BY
 CLNT.            A2DTECH:   CLIENT CODE
 ORIG.         2.5" PRINT:   ORIGIN OF DATA
 UWI .       490251081000:   UNIQUE WELL ID
 DICO. A2D Technologies, Inc.:   DIGITIZING COMPANY
~OTHER INFORMATION
~A   DEPT      SPR       SGRD        ILD        ILM         GRD        CALD       CORR       RHOB       DPHI 
# ...
  166.0000   -44.1883     7.9659     6.9110     7.2034    99.8997     7.9858     0.0469     2.4346     0.1399
  166.5000   -44.0665     8.0962     6.8913     7.1439   100.6597     7.9022     0.0342     2.4214     0.1513
  167.0000   -44.0370     8.4329     6.8547     7.0850   100.2769     7.8315     0.0370     2.4223     0.1493
  167.5000   -44.3120     8.9171     6.7530     7.0265    99.8807     7.8277     0.0435     2.4296     0.1452
  168.0000   -44.5895     8.7978     6.6527     6.9139    99.4449     7.8419     0.0481     2.4364     0.1410
  168.5000   -44.8569     8.2961     6.5540     6.7710    99.0195     7.9111     0.0211     2.4208     0.1492
  169.0000   -45.1615     8.1264     6.4566     6.6311    98.7952     7.9712     0.0090     2.4048     0.1572
  169.5000   -45.1773     7.9231     6.3607     6.4941    98.6622     8.0187    -0.0072     2.3990     0.1653
  170.0000   -45.1838     7.5005     6.2661     6.3599    98.5284     7.9864    -0.0089     2.3993     0.1724
  170.5000   -45.1896     7.1004     6.1729     6.2285    98.3906     7.9577     0.0026     2.4097     0.1623
  171.0000   -45.0900     6.7217     6.0821     6.0998    98.2576     7.8976     0.0075     2.4133     0.1547
  171.5000   -44.9363     6.1508     6.0377     6.0377    98.1217     7.8321    -0.0043     2.4083     0.1596
  172.0000   -44.7809     6.5704     6.0588     6.1133    97.9863     7.8225    -0.0057     2.4167     0.1575
  172.5000   -44.5212     7.9769     6.0778     6.2200    97.8564     7.9023     0.0035     2.4247     0.1491
  173.0000   -44.4291     7.9120     6.0968     6.3286    97.7172     8.0228     0.0125     2.4332     0.1464
  173.5000   -44.6691     7.7283     6.1160     6.4391    97.8561     7.9820     0.0138     2.4283     0.1515
  174.0000   -44.7901     7.5447     6.1352     6.5515    98.1211     7.9432     0.0153     2.4253     0.1480
  174.5000   -44.7744     7.7960     6.1508     6.6659    98.3811     7.9629     0.0282     2.4406     0.1410
  175.0000   -44.7800     8.0620     6.2320     6.7823    98.6385     8.0067     0.0312     2.4394     0.1406
  175.5000   -44.7801     8.2788     6.3012     6.8589    98.8983     8.0300     0.0360     2.4429     0.1407
  176.0000   -44.7783     8.1775     6.3713     6.7788    99.1539     8.0280     0.0394     2.4530     0.1357
  176.5000   -44.7805     7.9409     6.4421     6.6996    99.4178     8.0281     0.0542     2.4625     0.1307
  177.0000   -44.7786     7.5988     6.5137     6.6251    99.5028     8.0283     0.0460     2.4557     0.1282
  177.5000   -44.7749     7.6087     6.5861     6.7007    99.4965     8.0281     0.0361     2.4437     0.1362
  178.0000   -44.6832     7.8631     6.6508     6.7738    99.5040     8.0282     0.0327     2.4351     0.1429
  178.5000   -44.5702     8.1260     6.7061     6.8476    99.4188     8.0282     0.0302     2.4264     0.1491
  179.0000   -44.4445     8.3977     6.7620     6.9259    99.2544     8.0281     0.0278     2.4317     0.1466
  179.5000   -44.4087     8.5920     6.8182     7.0086    99.0985     8.0281     0.0356     2.4340     0.1443
  180.0000   -44.5471     8.5690     6.8750     7.1399    98.9429     8.0281     0.0460     2.4471     0.1401
  180.5000   -44.6713     8.5244     6.9322     7.1325    98.8874     8.0282     0.0503     2.4471     0.1386
  181.0000   -44.7775     8.4800     6.9892     7.1334    98.8804     8.0281     0.0562     2.4453     0.1370
  181.5000   -44.7760     8.4339     6.9580     7.1344    98.9000     8.0281     0.0716     2.4683     0.1330
  182.0000   -44.7794     8.2672     6.8960     7.1366    98.9295     8.0284     0.0637     2.4507     0.1320
  182.5000   -44.5850     8.0963     6.8345     7.1362    99.5703     8.0259     0.0530     2.4650     0.1311
  183.0000   -44.3293     7.8302     6.7737     7.1357   100.1242     8.0188     0.0730     2.4814     0.1241
  183.5000   -44.0868     7.8723     6.7133     7.1357   100.6607     8.0123     0.0868     2.4980     0.1105
  184.0000   -43.6965     7.9786     6.6535     7.1359   100.8623     8.0048     0.0769     2.4903     0.1081
  184.5000   -43.2044     8.1264     6.5942     7.1364   101.2694     7.9980     0.0648     2.4878     0.1129
  185.0000   -43.4099     8.0464     6.5355     7.1291   100.7811     7.9936     0.0791     2.4949     0.1131
  185.5000   -43.6232     7.9769     6.5032     7.1171    99.8525     7.9628     0.0680     2.4934     0.1134
  186.0000   -43.8568     8.1264     6.4765     7.1054    98.9165     7.9119     0.0402     2.4766     0.1137
  186.5000   -44.0805     8.1264     6.4512     7.0940    99.1332     7.8724     0.0249     2.4588     0.1215
  187.0000   -44.3106     8.0448     6.4260     7.0824    99.5935     7.9370     0.0146     2.4515     0.1322
  187.5000   -44.5294     7.9695     6.4009     7.0710   100.0795     7.9954     0.0075     2.4455     0.1370
  188.0000   -44.7650     7.8950     6.3759     7.0594   100.5032     8.0312    -0.0027     2.4288     0.1424
  188.5000   -44.7768     7.8302     6.3509     7.0474   101.1037     8.0278    -0.0218     2.4112     0.1543
  189.0000   -44.7820     7.7607     6.3261     7.0368   101.8442     8.0278    -0.0180     2.4000     0.1668
  189.5000   -44.7829     7.5551     6.3014     7.0261   102.5173     8.0288    -0.0072     2.4041     0.1617
  190.0000   -44.7131     7.3550     6.2768     7.0106   103.0795     8.0280     0.0016     2.4103     0.1587
  190.5000   -44.4923     7.2697     6.1508     7.0132   102.6750     8.0281    -0.0123     2.3880     0.1647
  191.0000   -44.3517     7.5237     6.1156     6.8775   102.3206     8.0292    -0.0234     2.3948     0.1737
  191.5000   -44.5402     7.7479     6.0704     6.7706   101.9193     8.0266    -0.0078     2.4041     0.1625
  192.0000   -44.8318     7.9769     6.0255     6.6654   101.5076     8.0259     0.0068     2.4152     0.1563
  192.5000   -45.1633     7.6986     5.9810     6.5618   101.3879     7.9522     0.0165     2.4266     0.1518
  193.0000   -45.1081     7.4321     5.9368     6.4599   101.6906     7.9122     0.0237     2.4335     0.1426
  193.5000   -44.9437     7.1359     5.8929     6.3595   101.9855     7.9409     0.0230     2.4242     0.1471
  194.0000   -44.7669     7.1359     5.8494     6.2607   102.9333     7.9785     0.0080     2.4244     0.1532
  194.5000   -44.5987     7.1359     5.7815     6.1634   103.6552     8.0175     0.0191     2.4365     0.1438
  195.0000   -44.4394     7.1359     5.6472     6.0676   103.0268     8.0309     0.0339     2.4500     0.1322
  195.5000   -44.2537     7.0046     5.5161     5.9734   102.4640     8.0253     0.0304     2.4448     0.1379
  196.0000   -44.0313     6.6234     5.3881     5.8805   101.8395     8.0184     0.0185     2.4358     0.1443
  196.5000   -44.2034     6.2213     5.2630     5.7892   101.2439     7.9074     0.0210     2.4416     0.1394
  197.0000   -44.5538     5.6055     5.1084     5.7105   100.6296     7.9539     0.0099     2.4240     0.1449
  197.5000   -44.8937     5.7722     5.2042     5.7952   100.0432     8.0001     0.0152     2.4296     0.1488
  198.0000   -45.2336     6.2984     5.2667     5.8714    99.5372     8.0538     0.0229     2.4307     0.1404
  198.5000   -45.5667     7.1359     5.3315     5.9486    99.9742     8.0662     0.0119     2.4153     0.1468
  199.0000   -45.9049     7.0223     5.4006     6.0268   100.3750     8.0536     0.0044     2.4108     0.1579
  199.5000   -45.8508     6.8271     5.4704     6.1061   100.7848     8.0428     0.0231     2.4188     0.1496
  200.0000   -45.6656     6.7492     5.5409     6.1864   101.2325     8.0322     0.0385     2.4457     0.1374
  200.5000   -45.4817     7.0644     5.6120     6.2661   101.0664     8.0213     0.0543     2.4723     0.1209
  201.0000   -45.3042     7.5447     5.6839     6.2742   100.5873     8.0098     0.0479     2.4641     0.1242
  201.5000   -45.1189     7.4988     5.7565     6.2871   100.4316     7.9998     0.0416     2.4570     0.1298
  202.0000   -44.9448     7.3980     5.8300     6.3001   101.4504     7.9894     0.0395     2.4622     0.1266
