~VERSION INFORMATION
 VERS.                2.0:   CWLS LOG ASCII STANDARD - VERSION 2.0
 WRAP.                 NO:   ONE LINE PER DEPTH STEP
~WELL INFORMATION
#MNEM.UNIT      DATA TYPE    INFORMATION
#----------   ------------   ------------------------------
 STRT.F           93.0000:   START DEPTH
 STOP.F         1921.0000:   STOP DEPTH
 STEP.F            0.5000:   STEP LENGTH
 NULL.          -999.2500:   NO VALUE
 COMP. LAWRENCE-ALLISON &AS:   COMPANY
 WELL.  NPR 3 #15-1SHX2/T:   WELL
 FLD .             NPR #3:   :   FIELD
 LOC .       S2 T38N R78W:   LOCATION
 CNTY.            NATRONA:   COUNTY
 STAT.            WYOMING:   STATE
 CTRY. UNITED STATES OF AMERICA:   COUNTRY
 SRVC.       Schlumberger:   SERVICE COMPANY
 DATE.        10-JUN-1982:   LOGDATE
 API .       490251077600:   API NUMBER
~CURVE INFORMATION
#MNEM.UNIT       API CODE    CURVE DESCRIPTION
#----------   ------------   ------------------------------
 DEPT.F                  :   
 GR  .GAPI   70 310 01 00:   GAMMA RAY
 CALI.IN     70 280 01 00:   CALIPER
~PARAMETER INFORMATION
#MNEM.UNIT          VALUE    DESCRIPTION
#----------   ------------   ------------------------------
 PD  .                 GL:   PERMANENT DATUM
 EPD .F              5116:   ELEVATION PERMANENT DATUM
 LMF .                 KB:   LOG MEASURED FROM
 DAPD.F                10:   FEET ABOVE PERMANENT DATUM
 DMF .                 KB:   DRILLING MEASURED FROM
 EKB .F              5126:   KELLING BUSHING
 EGL .F              5116:   GROUND LEVEL
 DATE.        10-JUN-1982:   RUN DATE
 RUN .                  1:   RUN NUMBER
 DD  .F              2100:   DEPTH DRILLER
 DL  .F              1924:   DEPTH LOGGER
 BLI .F              1921:   BOTTOM LOG INTERVAL
 TLI .F               100:   TOP LOG INTERVAL
 CS  .IN            10.75:   CASING SIZE
 BS  .IN             8.75:   BIT SIZE
 BSD .F              2100:   BIT SIZE AT DEPTH
 DFT .                AIR:   DRILLING FLUID TYPE
 ENGI.        C. MARRINER:   RECORDING ENGINEER
 WITN.             SCOTTY:   WITNESSED BY
 CLNT.            A2DTECH:   CLIENT CODE
 ORIG.           5" PRINT:   ORIGIN OF DATA
 UWI .       490251077600:   UNIQUE WELL ID
 DICO. A2D Technologies, Inc.:   DIGITIZING COMPANY
~OTHER INFORMATION
~A   DEPT       GR       CALI   
# ...
 1551.0000   143.2133    16.3852
 1551.5000   141.4725    16.8769
 1552.0000   136.4227    16.9823
 1552.5000   132.0348    17.5177
 1553.0000   129.1909    18.3644
 1553.5000   134.5089    18.5817
 1554.0000   138.5033    18.3042
 1554.5000   142.2930    18.3064
 1555.0000   143.4038    17.9251
 1555.5000   139.5882    17.3963
 1556.0000   133.7515    17.6639
 1556.5000   131.3488    18.7871
 1557.0000   132.2550    18.8624
 1557.5000   133.8229    18.1424
 1558.0000   134.2879    18.1888
 1558.5000   132.7676    17.9550
 1559.0000   134.5561    17.6763
 1559.5000   138.1093    17.6479
 1560.0000   138.6618    17.1210
 1560.5000   131.5393    17.1379
 1561.0000   126.6965    17.8383
 1561.5000   125.1899    18.6201
 1562.0000   128.7147    18.8708
 1562.5000   133.6258    19.4923
 1563.0000   136.5172    19.1813
 1563.5000   138.7469    18.0502
 1564.0000   139.6531    17.2728
 1564.5000   139.4563    16.0197
 1565.0000   136.2000    15.1228
 1565.5000   132.4472    14.0188
 1566.0000   129.7675    13.7107
 1566.5000   127.8584    15.7047
 1567.0000   129.8734    17.1228
 1567.5000   131.8826    16.0772
 1568.0000   132.5622    15.9024
 1568.5000   130.6066    15.9936
 1569.0000   130.1833    16.0706
 1569.5000   133.7425    15.9974
 1570.0000   137.7369    15.4415
 1570.5000   136.8783    13.8846
 1571.0000   131.8926    12.5388
 1571.5000   127.4426    11.7592
 1572.0000   125.4812    11.7614
 1572.5000   127.2697    12.3093
 1573.0000   131.4846    16.0430
 1573.5000   134.8173    16.0452
 1574.0000   137.2705    15.9884
 1574.5000   138.1940    15.0608
 1575.0000   137.6840    15.6977
 1575.5000   137.1184    16.4377
 1576.0000   137.3687    18.1213
 1576.5000   137.6072    18.5654
 1577.0000   131.9017    16.3826
 1577.5000   128.8346    15.5910
 1578.0000   133.7120    15.9176
 1578.5000   141.0723    16.8488
 1579.0000   145.5516    16.0071
 1579.5000   146.5775    15.7176
 1580.0000   140.8720    14.0826
 1580.5000   138.4693    13.0229
 1581.0000   137.1696    13.3598
 1581.5000   137.1934    13.7840
 1582.0000   136.1760    14.4606
 1582.5000   134.1508    15.8195
 1583.0000   133.9540    16.5001
 1583.5000   134.2896    17.5643
 1584.0000   137.0959    18.7906
 1584.5000   137.4623    18.8813
 1585.0000   137.1435    18.2592
 1585.5000   134.9614    15.9951
 1586.0000   131.0146    14.8764
 1586.5000   127.9502    15.5275
 1587.0000   127.0917    16.3116
 1587.5000   128.2184    17.1249
 1588.0000   132.8746    17.3036
 1588.5000   137.0895    16.7458
 1589.0000   139.0986    16.6737
 1589.5000   140.4460    16.9714
 1590.0000   137.0441    17.9028
 1590.5000   134.5437    18.1316
 1591.0000   133.8997    17.4794
 1591.5000   135.6942    16.3155
 1592.0000   138.5857    16.3490
 1592.5000   140.1536    17.0838
 1593.0000   141.0598    17.4438
 1593.5000   141.5247    16.9593
 1594.0000   141.3220    17.4339
 1594.5000   142.8959    18.9405
 1595.0000   143.8021    20.2696
 1595.5000   138.3112    19.2841
 1596.0000   130.3230    16.3196
 1596.5000   127.1088    14.6490
 1597.0000   133.7562    14.0250
 1597.5000   136.6477    15.1153
 1598.0000   134.9068    16.2865
 1598.5000   130.2982    17.1878
 1599.0000   127.8955    16.1010
 1599.5000   131.2282    15.3935
 1600.0000   137.2560    14.3164
 1600.5000   141.6455    13.1700
 1601.0000   142.1105    14.7565
 1601.5000   140.8108    16.2536
 1602.0000   139.0699    18.4576
 1602.5000   140.1967    20.0375
 1603.0000   141.3235    19.6862
 1603.5000   142.2297    19.4081
 1604.0000   141.1506    18.9531
 1604.5000   135.6598    17.5836
 1605.0000   134.3601    17.4082
 1605.5000   136.6360    17.5290
 1606.0000   138.4557    17.7229
 1606.5000   135.0994    18.0490
 1607.0000   131.6617    17.4323
 1607.5000   128.2723    16.1769
 1608.0000   127.2258    15.2099
 1608.5000   128.3585    13.9141
 1609.0000   127.5000    13.2378
 1609.5000   124.2150    12.4140
 1610.0000   120.9300    12.4605
 1610.5000   123.6010    13.3476
 1611.0000   130.0219    13.2908
 1611.5000   134.0163    12.5998
 1612.0000   135.1371    12.5571
 1612.5000   133.1816    13.1498
 1613.0000   132.9838    13.2695
 1613.5000   133.0087    12.7560
 1614.0000   132.1502    12.8467
 1614.5000   129.7346    13.1143
 1615.0000   128.2058    13.1460
 1615.5000   127.1118    13.1308
 1616.0000   126.7309    12.9436
 1616.5000   127.4225    12.5484
 1617.0000   128.1081    12.3878
 1617.5000   128.7937    12.5085
 1618.0000   127.2734    12.7319
 1618.5000   127.7385    13.5305
 1619.0000   131.0712    13.6502
 1619.5000   134.1832    13.4907
 1620.0000   137.2953    12.9174
 1620.5000   136.2162    12.7869
 1621.0000   131.3871    13.0024
 1621.5000   128.3206    13.8473
 1622.0000   127.9054    15.3851
 1622.5000   128.1507    15.5021
 1623.0000   129.2826    14.0074
 1623.5000   130.1888    12.7412
 1624.0000   131.7568    12.8716
 1624.5000   134.4277    14.0054
 1625.0000   138.2015    14.5029
 1625.5000   141.0930    15.1546
 1626.0000   138.4698    16.4102
 1626.5000   131.6554    16.2939
 1627.0000   131.2321    16.0158
 1627.5000   136.1149    15.9891
 1628.0000   138.7858    15.1063
 1628.5000   136.3831    15.0347
 1629.0000   132.3833    14.6534
 1629.5000   131.5779    13.4019
 1630.0000   134.4754    13.8839
 1630.5000   136.4845    16.0466
 1631.0000   137.3907    15.9185
 1631.5000   134.5469    15.6973
 1632.0000   130.6002    15.4930
 1632.5000   127.7564    14.5217
 1633.0000   127.7802    12.9753
 1633.5000   127.8040    12.6967
 1634.0000   125.8426    13.0091
 1634.5000   122.5576    13.2620
 1635.0000   123.0227    13.4855
 1635.5000   126.1347    14.1956
 1636.0000   128.8328    14.3005
 1636.5000   129.2707    14.1257
 1637.0000   129.0739    14.0989
 1637.5000   130.6479    13.7618
 1638.0000   132.4364    13.5719
 1638.5000   134.2250    13.8135
 1639.0000   136.2341    14.1462
 1639.5000   137.6969    14.5018
 1640.0000   139.2091    15.1597
 1640.5000   140.1406    15.3831
 1641.0000   129.0653    15.2231
 1641.5000   126.5003    14.0453
 1642.0000   127.3440    12.9118
 1642.5000   134.7061    11.9548
 1643.0000   139.3581    12.2525
 1643.5000   142.0247    12.7266
 1644.0000   142.9799    13.0680
 1644.5000   143.8257    13.1287
 1645.0000   142.6543    12.8807
 1645.5000   139.7717    12.8723
 1646.0000   135.7272    13.2980
 1646.5000   134.2027    13.8754
 1647.0000   135.9870    14.4528
 1647.5000   137.7713    15.1312
 1648.0000   138.4527    16.3602
 1648.5000   137.8105    16.0762
 1649.0000   132.5360    15.9661
 1649.5000   130.7909    13.7412
 1650.0000   131.0311    12.1873
 1650.5000   132.5948    12.4832
 1651.0000   133.2761    13.2029
 1651.5000   131.7516    13.5587
 1652.0000   130.2271    13.5610
 1652.5000   132.0114    13.2542
 1653.0000   133.5751    12.3420
 1653.5000   134.4770    12.1373
 1654.0000   130.0032    12.2435
 1654.5000   127.2368    12.0240
 1655.0000   131.8936    12.0711
 1655.5000   138.0897    12.7372
 1656.0000   141.1975    13.3590
 1656.5000   137.9083    14.0251
 1657.0000   135.0602    14.2781
 1657.5000   137.5063    14.1625
 1658.0000   141.4965    13.9436
 1658.5000   143.2808    14.7276
 1659.0000   137.7856    16.0206
 1659.5000   133.6141    16.4508
 1660.0000   131.8689    17.2439
 1660.5000   132.9915    17.1704
 1661.0000   138.3052    17.5421
 1661.5000   141.4130    16.1727
 1662.0000   139.8885    15.9975
 1662.5000   134.6140    14.6287
 1663.0000   129.3043    12.3154
 1663.5000   126.4212    12.0664
 1664.0000   125.1875    13.7360
 1664.5000   129.4031    15.7042
 1665.0000   132.2904    16.8233
 1665.5000   135.3982    17.3418
 1666.0000   136.5207    18.0374
 1666.5000   136.7609    17.9217
 1667.0000   136.7805    15.9921
 1667.5000   135.9177    15.9945
 1668.0000   136.3785    16.2918
 1668.5000   137.7216    17.4003
 1669.0000   137.9618    17.2109
 1669.5000   137.0990    16.7118
 1670.0000   135.7951    16.1979
 1670.5000   135.8147    15.9792
 1671.0000   136.4960    15.9225
 1671.5000   133.4274    15.1284
 1672.0000   128.8090    14.2753
