~VERSION INFORMATION
 VERS.                2.0:   CWLS LOG ASCII STANDARD - VERSION 2.0
 WRAP.                 NO:   ONE LINE PER DEPTH STEP
~WELL INFORMATION
#MNEM.UNIT      DATA TYPE    INFORMATION
#----------   ------------   ------------------------------
 STRT.F            4.0000:   START DEPTH
 STOP.F          508.0000:   STOP DEPTH
 STEP.F            0.5000:   STEP LENGTH
 NULL.          -999.2500:   NO VALUE
 COMP. LAWRENCE-ALLISON &AS:   COMPANY
 WELL. NPR ##3 58-65-SX-3-UPI:   WELL
 FLD .             TEAPOT:   FIELD
 LOC .       S3 T38N R78W:   LOCATION
 CNTY.            NATRONA:   COUNTY
 STAT.            WYOMING:   STATE
 CTRY. UNITED STATES OF AMERICA:   COUNTRY
 SRVC.      Dresser Atlas:   SERVICE COMPANY
 DATE.        07-DEC-1984:   LOGDATE
 API .       490251102500:   API NUMBER
~CURVE INFORMATION
#MNEM.UNIT       API CODE    CURVE DESCRIPTION
#----------   ------------   ------------------------------
 DEPT.F                  :   
 SPR .MV     07 010 01 00:   SPONTANEOUS POTENTIAL
 RILD.OHMM   07 120 46 00:   INDUCTION LOG DEEP RESISTIVITY
 RILM.OHMM   07 120 44 00:   INDUCTION LOG MEDIUM RESISTIVITY
 RFOC.OHMM   07 220 04 00:   RESISTIVITY FOCUSED LOG
 CALS.IN     60 280 50 00:   CALIPER FROM SONIC LOG
 GRS .GAPI   60 310 01 00:   GAMMA RAY FROM SONIC LOG
 AC  .US/F   60 520 00 00:   ACCOUSTIC SONIC
~PARAMETER INFORMATION
#MNEM.UNIT          VALUE    DESCRIPTION
#----------   ------------   ------------------------------
 PD  .                 GL:   PERMANENT DATUM
 EPD .F              5184:   ELEVATION PERMANENT DATUM
 LMF .                 GL:   LOG MEASURED FROM
 DMF .                 GL:   DRILLING MEASURED FROM
 EGL .F              5184:   GROUND LEVEL
 DATE.        07-DEC-1984:   RUN DATE
 RUN .                  1:   RUN NUMBER
 DD  .F               510:   DEPTH DRILLER
 DL  .F               510:   DEPTH LOGGER
 BLI .F               508:   BOTTOM LOG INTERVAL
 TLI .F                20:   TOP LOG INTERVAL
 CS  .IN            8.625:   CASING SIZE
 CBD .F                20:   CASING BOTTOM DRILLER
 CBL .F                20:   CASING BOTTOM LOGGER
 BS  .IN            7.875:   BIT SIZE
 BSD .F               510:   BIT SIZE AT DEPTH
 DFT .          KCL WATER:   DRILLING FLUID TYPE
 MSS .            MUD PIT:   MUD SAMPLE SOURCE
 RMS .OHMM            .14:   RESISTIVITY MUD SAMPLE
 MST .F                55:   MUD SAMPLE TEMPERATURE
 RMF .OHMM             .1:   RESISTIVITY MUD FILTRATE SAMPLE
 MFST.F                55:   MUD FILTRATE SAMPLE TEMPERATURE
 RMC .OHMM            .17:   RESISTIVITY MUD CAKE
 MCST.F                55:   MUD CAKE SAMPLE TEMPERATURE
 MFSS.               CALC:   MUD FILTRATE SAMPLE SOURCE
 MCSS.               CALC:   MUD CAKE SAMPLE SOURCE
 RMB .OHMM            .08:   RESISTIVITY MUD AT BHT
 BHT .F                86:   BOTTOM HOLE TEMPERATURE
 TCS .HRS               3:   TIME CURCULATED STOPPED
 MRT .F               100:   MAXIMUM RECORDED TEMPERATURE
 LUN .               6270:   LOGGING UNIT NUMBER
 LUL .                 FM:   LOGGING UNIT LOCATION
 ENGI.          E. GOVETT:   RECORDING ENGINEER
 WITN.      GROOMS, LUERS:   WITNESSED BY
 CLNT.            A2DTECH:   CLIENT CODE
 ORIG.           5" PRINT:   ORIGIN OF DATA
 UWI .       490251102500:   UNIQUE WELL ID
 DICO. A2D Technologies, Inc.:   DIGITIZING COMPANY
~OTHER INFORMATION
~A    DEPT     SPR       RILD       RILM       RFOC       CALS         GRS        AC   
# ...
   95.0000   -53.3065    10.6629     7.6801    11.0893     7.5952    89.6598   103.0314
   95.5000   -53.4476    10.4483     7.6854    10.8867     7.5964    91.9006   103.3269
   96.0000   -53.5862    10.1673     7.6908    10.7864     7.5976    90.8725   103.0946
   96.5000   -53.5297     9.8938     7.6754    10.8416     7.5839    87.0213   102.3343
   97.0000   -53.4618     9.6947     7.6482    11.0047     7.5851    85.1017   101.8003
   97.5000   -53.4048     9.6323     7.6313    11.1703     7.5863    84.9621   101.6449
   98.0000   -53.3943     9.5041     7.5601    11.3384     7.5875    85.1530   102.2406
   98.5000   -53.5355     9.3777     7.5063    11.2493     7.5888    86.2422   102.7624
   99.0000   -53.6740     9.3173     7.4872    10.6888     7.5900    88.6690   102.9841
   99.5000   -53.8099     9.2573     7.4398    10.3349     7.5912    91.6969   102.6748
  100.0000   -53.8384     9.1342     7.4454    10.4626     7.5921    90.3940   102.1413
  100.5000   -54.0558     9.2231     7.5011    10.7199     7.5907    85.3247   102.2888
  101.0000   -54.0865     9.3008     7.5542    10.5782     7.5895    82.0603   102.5112
  101.5000   -53.7595     9.3715     7.6076    10.4381     7.5883    83.2535   103.0353
  102.0000   -53.4479     9.4427     7.5591    10.2989     7.5871    87.5364   103.7102
  102.5000   -53.4343     9.4487     7.3856    10.1641     7.5859    92.0777   103.8582
  103.0000   -53.4207     9.5205     7.2140    10.1699     7.5848    91.9732   103.7780
  103.5000   -53.5596     9.5266     7.1311    10.1756     7.5836    87.9063   103.6988
  104.0000   -53.6950     9.5326     7.0789    10.1095     7.5845    86.0980   103.6950
  104.5000   -53.8305     9.5386     7.0340    10.1166     7.5854    88.8118   103.9174
  105.0000   -54.1116     9.4772     7.0381    10.1223     7.5863    92.9421   104.2907
  105.5000   -54.0980     9.4834     7.0420    10.0566     7.5872    93.1000   104.6639
  106.0000   -54.2368     9.4235     7.0459    10.1337     7.5881    89.2363   104.5847
  106.5000   -54.2198     9.4295     7.0498    10.2810     7.5890    87.1605   104.2038
  107.0000   -54.2063     9.3702     7.0538    10.3584     7.5899    88.0566   103.8230
  107.5000   -54.1927     9.3112     7.0577    10.3631     7.5908    89.3984   103.7437
  108.0000   -54.1818     9.1252     7.0128    10.3688     7.5917    89.8487   103.9662
  108.5000   -54.1689     9.0048     6.8250    10.3744     7.5926    90.7447   104.3394
  109.0000   -54.3190     8.8251     6.5963    10.2373     7.5935    95.0583   104.9389
  109.5000   -54.5961     8.5295     6.2874    10.1019     7.5944    95.6560   105.5659
  110.0000   -55.0224     8.1867     6.0347     9.6286     7.5802    94.0260   106.3952
  110.5000   -55.3068     7.8578     5.9542     8.9885     7.5813    94.1802   107.0468
  111.0000   -55.5913     7.5420     5.9164     8.1050     7.5822    93.8875   106.8783
  111.5000   -55.7273     7.3402     5.9617     7.6177     7.5831    92.1090   106.1268
  112.0000   -55.8629     7.2928     6.0483     8.4589     7.5840    90.6276   105.3695
  112.5000   -55.9977     7.4006     6.1362     8.9465     7.5849    88.8490   105.0640
  113.0000   -55.9841     7.5611     6.3122     9.0766     7.5858    87.5162   105.5127
  113.5000   -56.1195     7.6717     6.4933     9.0176     7.5867    87.8179   105.9614
  114.0000   -56.1059     7.7838     6.6795     8.9603     7.6025    91.2399   105.8821
  114.5000   -56.0924     7.8430     6.8237     8.9666     7.6033    92.7303   105.5013
  115.0000   -56.2312     7.9016     6.8742     9.0970     7.6043    92.7348   105.2712
  115.5000   -56.2142     7.9616     6.7832     9.1655     7.6052    91.4020   105.1920
  116.0000   -56.2006     7.9703     6.7402     9.2344     7.6061    90.6624   105.4144
  116.5000   -56.0380     8.0270     6.6974     9.1758     7.6070    92.3025   105.5624
  117.0000   -55.8754     8.0881     6.7011     9.1680     7.6079    93.7326   105.6340
  117.5000   -55.8618     8.2063     6.7985     9.1213     7.6088    94.5642   105.3276
  118.0000   -55.7019     8.2687     6.8972     9.1901     7.5948    95.0292   104.7204
  118.5000   -55.5395     8.3896     6.9974     9.2591     7.5957    96.6434   104.0379
  119.0000   -55.5261     8.5122     7.0991     9.3732     7.5964    97.0788   103.4308
  119.5000   -55.5126     8.6367     7.1525     9.5587     7.5973    96.4641   103.1253
  120.0000   -55.4993     8.7630     7.1565     9.7442     7.5982    93.2244   102.9706
  120.5000   -55.4857     8.8911     7.1605     9.8875     7.5991    92.9267   103.1186
  121.0000   -55.3231     8.9587     7.1645     9.8828     7.6000    93.0848   103.3544
  121.5000   -55.4590     9.0268     7.1685     9.8885     7.6009    94.4266   103.7245
  122.0000   -55.4449     8.9080     7.0738     9.8939     7.6018    96.8085   104.1699
  122.5000   -55.4313     8.7299     6.8843     9.8311     7.6027    95.3271   104.6946
  123.0000   -55.4178     8.5554     6.6998     9.5675     7.6036    95.1531   105.3634
  123.5000   -55.4042     8.3844     6.5657     9.3109     7.6045    96.8220   105.9615
  124.0000   -55.3906     8.3304     6.4780     9.1865     7.6054    97.7180   106.1839
  124.5000   -55.3770     8.2780     6.3933     9.1282     7.6063    95.1965   105.9539
  125.0000   -55.3634     8.2259     6.4406     9.1982     7.6072    91.4863   105.4976
  125.5000   -55.3498     8.2314     6.4442     9.3319     7.6081    91.4908   104.8904
  126.0000   -55.3363     8.2938     6.4927     9.5334     7.6239    92.6840   104.2833
  126.5000   -55.3227     8.2990     6.4962     9.6720     7.6248    95.5116   104.0542
  127.0000   -55.4615     8.3042     6.4550     9.8113     7.6257    97.2992   104.5019
  127.5000   -55.5970     8.3095     6.4140     9.5495     7.6266    95.9664   104.8752
  128.0000   -55.5827     8.3147     6.4176     9.4220     7.6275    94.6325   105.0986
  128.5000   -55.5693     8.3200     6.4212     9.3621     7.6133    94.7867   105.0184
  129.0000   -55.7053     8.3253     6.4695     9.3687     7.6144    93.3053   104.8638
  129.5000   -55.8407     8.2729     6.4731     9.3850     7.6153    91.3781   104.7091
  130.0000   -55.8271     8.2781     6.5218     9.5091     7.6011    92.8685   104.9316
  130.5000   -55.9628     8.2248     6.5255     9.4434     7.6022    97.0335   105.1540
  131.0000   -56.0983     8.2313     6.5746     9.3236     7.6031    99.5629   105.2265
  131.5000   -56.2335     8.1425     6.5782     9.2643     7.6040    94.3679   105.0710
  132.0000   -56.2199     8.0427     6.6277     9.1419     7.5898    91.3995   104.9917
  132.5000   -56.5044     7.9430     6.6314     9.0836     7.5909    94.0540   104.9132
  133.0000   -56.6432     7.8604     6.5884     9.0261     7.5918    96.6290   104.9095
  133.5000   -56.9243     7.8110     6.6851     9.0312     7.5927    96.0044   104.9057
  134.0000   -57.2088     7.7606     6.7822     8.9725     7.5936    95.8751   104.9020
  134.5000   -57.4933     7.5541     6.8332     8.9788     7.5794    97.9747   104.8982
  135.0000   -57.6321     7.3011     6.7343     8.9839     7.5805    99.1530   104.9698
  135.5000   -57.9132     7.1056     6.4555     8.9256     7.5812    99.3061   105.1168
  136.0000   -58.0520     6.9154     6.0776     8.8088     7.5821    99.1520   105.7163
  136.5000   -58.1875     6.7772     5.7976     8.6323     7.5830    99.1813   106.6175
  137.0000   -58.3229     6.6870     5.6822     8.3427     7.5839    97.6851   107.2170
  137.5000   -58.4584     6.5990     5.6854     7.8969     7.5997    94.4207   107.3650
  138.0000   -58.4441     6.6033     5.8485     7.3210     7.6006    93.9197   106.8323
  138.5000   -58.2817     6.5616     6.0162     6.7870     7.6015    96.6585   106.2252
  139.0000   -57.9702     6.6116     6.1461     6.6964     7.6024    99.0404   105.9197
  139.5000   -57.6587     6.6618     6.1923     7.2939     7.6033    99.7879   105.9913
  140.0000   -57.4963     6.7592     6.0264     7.8126     7.6191    99.0494   106.2892
