~VERSION INFORMATION
 VERS.                2.0:   CWLS LOG ASCII STANDARD - VERSION 2.0
 WRAP.                 NO:   ONE LINE PER DEPTH STEP
~WELL INFORMATION
#MNEM.UNIT      DATA TYPE    INFORMATION
#----------   ------------   ------------------------------
 STRT.F          458.0000:   START DEPTH
 STOP.F         2155.0000:   STOP DEPTH
 STEP.F            0.5000:   STEP LENGTH
 NULL.          -999.2500:   NO VALUE
 COMP.   FLUOR DANIEL INC:   COMPANY
 WELL. NAVAL PETROLEUM RESERVE 3 SHX- 1 #33-29:   WELL
 FLD .             TEAPOT:   FIELD
 LOC .      S29 T39N R78W:   LOCATION
 CNTY.            NATRONA:   COUNTY
 STAT.            WYOMING:   STATE
 CTRY. UNITED STATES OF AMERICA:   COUNTRY
 SRVC.            Unknown:   SERVICE COMPANY
 DATE.        29-JUN-1995:   LOGDATE
 API .       490252272500:   API NUMBER
~CURVE INFORMATION
#MNEM.UNIT       API CODE    CURVE DESCRIPTION
#----------   ------------   ------------------------------
 DEPT.F                  :   
 C1  .VF     91 831 01 00:   METHANE
 C2  .VF     91 832 01 00:   ETHANE
 C3  .VF     91 833 01 00:   PROPANE
 C4  .VF     91 834 01 00:   BUTANE
 ROP .FT/HR  91 810 01 00:   RAT OF DRILLING PENETRATION
 TGAS.TC/CC  91 830 01 00:   TOTAL GAS UNIT
~PARAMETER INFORMATION
#MNEM.UNIT          VALUE    DESCRIPTION
#----------   ------------   ------------------------------
 EKB .F              5020:   KELLING BUSHING
 EGL .F              5010:   GROUND LEVEL
 DATE.        29-JUN-1995:   RUN DATE
 RUN .                  1:   RUN NUMBER
 BLI .F              2155:   BOTTOM LOG INTERVAL
 TLI .F               460:   TOP LOG INTERVAL
 ENGI.     C.TOWER/R.HUSK:   RECORDING ENGINEER
 CLNT.            A2DTECH:   CLIENT CODE
 ORIG.           5" PRINT:   ORIGIN OF DATA
 UWI .       490252272500:   UNIQUE WELL ID
 DICO. A2D Technologies, Inc.:   DIGITIZING COMPANY
~OTHER INFORMATION
~A   DEPT       C1         C2         C3         C4          ROP       TGAS 
# ...
  926.0000     3.9302     0.6501     0.0000     0.0000     0.4708    27.7531
  926.5000     3.9256     0.6483     0.0000     0.0000     0.4708    27.8786
  927.0000     3.9220     0.6465     0.0000     0.0000     0.4708    28.6763
  927.5000     3.9187     0.6446     0.0000     0.0000     0.4708    28.6648
  928.0000     3.9150     0.6428     0.0000     0.0000     0.4708    27.7142
  928.5000     3.9111     0.6410     0.0000     0.0000     0.4708    26.7636
  929.0000     3.9075     0.6393     0.0000     0.0000     0.4708    25.8130
  929.5000     3.9037     0.6374     0.0000     0.0000     0.4708    24.8624
  930.0000     3.9000     0.6355     0.0000     0.0000     0.5461    24.8533
  930.5000     3.8963     0.6336     0.0000     0.0000     0.5461    24.8441
  931.0000     3.8919     0.6318     0.0000     0.0000     0.5461    25.7763
  931.5000     3.8888     0.6299     0.0000     0.0000     0.5461    25.7667
  932.0000     3.8846     0.6278     0.0000     0.0000     0.5461    25.7557
  932.5000     3.8810     0.6259     0.0000     0.0000     0.6403    25.7465
  933.0000     3.8775     0.6243     0.0000     0.0000     0.6403    24.7959
  933.5000     3.8737     0.5293     0.0000     0.0000     0.6403    24.7867
  934.0000     3.8700     0.6206     0.0000     0.0000     0.6309    24.7775
  934.5000     3.8663     0.6187     0.0000     0.0000     0.6309    23.8269
  935.0000     3.8618     0.6168     0.0000     0.0000     0.6403    22.8763
  935.5000     3.8587     0.6150     0.0000     0.0000     0.6403    22.8672
  936.0000     3.8550     0.6127     0.0000     0.0000     0.6403    21.8159
  936.5000     3.8509     0.5178     0.0000     0.0000     0.6408    20.9637
  937.0000     3.8469     0.5159     0.0000     0.0000     0.6416    20.0131
  937.5000     3.8438     0.5138     0.0000     0.0000     0.6423    20.0039
  938.0000     3.8400     0.5120     0.0000     0.0000     0.6431    19.9947
  938.5000     3.8363     0.4167     0.0000     0.0000     0.6438    19.9855
  939.0000     3.8325     0.4150     0.0000     0.0000     0.6446    20.9178
  939.5000     3.8287     0.4131     0.0000     0.0000     0.6453    22.7915
  940.0000     3.8250     0.4112     0.0000     0.0000     0.6461    24.6651
  940.5000     3.8208     0.5028     0.0000     0.0000     0.6468    24.6559
  941.0000     3.8175     0.5103     0.0000     0.0000     0.6476    25.5882
  941.5000     3.8135     0.5927     0.0000     0.0000     0.6483    26.5181
  942.0000     3.8099     0.5904     0.0000     0.0000     0.6491    26.5090
  942.5000     3.8062     0.5886     0.0000     0.0000     0.6489    27.4435
  943.0000     3.8025     0.5867     0.0000     0.0000     0.6487    27.4320
  943.5000     3.7980     0.5850     0.0000     0.0000     0.6392    27.4229
  944.0000     3.7944     0.5831     0.0000     0.0000     0.6390    27.4137
  944.5000     3.7907     0.5813     0.0000     0.0000     0.6389    27.4045
  945.0000     3.7871     0.5794     0.0000     0.0000     0.6387    27.3953
  945.5000     3.7834     0.5776     0.0000     0.0000     0.7516    27.3200
  946.0000     3.7798     0.5753     0.0000     0.0000     0.7797    25.4937
  946.5000     3.5886     0.5738     0.0000     0.0000     0.7795    25.4827
  947.0000     3.5850     0.5720     0.0000     0.0000     0.7793    25.4735
  947.5000     3.5812     0.6633     0.0000     0.0000     0.7792    25.4643
  948.0000     3.5775     0.7548     0.0000     0.0000     0.7657    25.4551
  948.5000     3.5731     0.7533     0.0000     0.0000     0.5999    25.4459
  949.0000     3.5695     0.7513     0.0000     0.0000     0.5998    24.4953
  949.5000     3.5658     0.7495     0.0000     0.0000     0.5996    24.4862
  950.0000     3.5625     0.6542     0.0000     0.0000     0.5995    24.4770
  950.5000     3.5585     0.5589     0.0000     0.0000     0.5993    23.5261
  951.0000     3.5549     0.3697     0.0000     0.0000     0.5992    23.5149
  951.5000     3.5512     0.3679     0.0000     0.0000     0.5990    23.5057
  952.0000     3.5475     0.2726     0.0000     0.0000     0.5989    23.4966
  952.5000     3.5431     0.2710     0.0000     0.0000     0.5987    23.4874
  953.0000     3.5394     0.2690     0.0000     0.0000     0.5986    23.4782
  953.5000     3.5358     0.3611     0.0000     0.0000     0.7396    23.4690
  954.0000     3.5325     0.3589     0.0000     0.0000     0.7395    23.4599
  954.5000     3.5285     0.4504     0.0000     0.0000     0.7393    23.4508
  955.0000     3.5993     0.5421     0.0000     0.0000     0.7392    23.4414
  955.5000     3.6470     0.4880     0.0000     0.0000     0.7390    24.3737
  956.0000     3.6375     0.4816     0.0000     0.0000     0.7388    24.3623
  956.5000     3.6264     0.4753     0.0000     0.0000     0.7387    24.3531
  957.0000     3.6173     0.4689     0.0000     0.0000     0.7385    25.2876
  957.5000     3.6081     0.4625     0.0000     0.0000     0.7384    25.2762
  958.0000     3.5990     0.3589     0.0000     0.0000     0.7382    25.2670
  958.5000     3.7796     0.2626     0.0000     0.0000     0.7381    25.2578
  959.0000     3.7687     0.2561     0.0000     0.0000     0.7379    25.2486
  959.5000     3.7590     0.2485     0.0000     0.0000     0.7377    26.1810
  960.0000     3.7498     0.2421     0.0000     0.0000     0.7376    26.1088
  960.5000     3.7406     0.2364     0.0000     0.0000     0.7469    25.2207
  961.0000     3.7312     0.2294     0.0000     0.0000     0.7467    24.2682
  961.5000     3.7201     0.2234     0.0000     0.0000     0.7465    24.2590
  962.0000     3.7125     0.2167     0.0000     0.0000     0.7464    24.2499
  962.5000     3.7018     0.3037     0.0000     0.0000     0.7462    24.2407
  963.0000     3.6926     0.3489     0.0000     0.0000     0.7367    24.2315
  963.5000     3.6835     0.3841     0.0000     0.0000     0.7375    23.2809
  964.0000     3.6743     0.4715     0.0000     0.0000     0.7458    23.2717
  964.5000     3.6652     0.5216     0.0000     0.0000     0.7456    24.2040
  965.0000     3.6562     0.5514     0.0000     0.0000     0.7454    24.1946
  965.5000     3.6469     0.6393     0.0000     0.0000     0.7359    24.1833
  966.0000     3.6375     0.7248     0.0000     0.0000     0.6604    24.1741
  966.5000     3.5255     0.7187     0.0000     0.0000     0.6508    24.1650
  967.0000     3.4296     0.7121     0.0000     0.0000     0.6507    25.0995
  967.5000     3.4205     0.7056     0.0000     0.0000     0.6505    26.0317
  968.0000     3.4125     0.6991     0.0000     0.0000     0.6503    26.9640
  968.5000     3.4031     0.6914     0.0000     0.0000     0.6502    27.8944
  969.0000     3.3937     0.7785     0.0000     0.0000     0.6487    28.8264
  969.5000     3.3838     0.7721     0.0000     0.0000     0.6404    28.8169
  970.0000     3.3750     0.7657     0.0000     0.0000     0.6403    28.8075
  970.5000     3.3655     0.7593     0.0000     0.0000     0.6307    27.8549
  971.0000     3.3563     0.7530     0.0000     0.0000     0.6400    27.8458
  971.5000     3.1594     0.8402     0.0000     0.0000     0.6398    27.8366
  972.0000     3.1500     0.8324     0.0000     0.0000     0.6302    27.8274
  972.5000     3.1391     0.7835     0.0000     0.0000     0.6301    26.8776
  973.0000     3.1313     0.8206     0.0000     0.0000     0.6394    26.8676
  973.5000     3.1208     0.8130     0.0000     0.0000     0.6392    26.8585
  974.0000     3.1125     0.8075     0.0000     0.0000     0.6390    26.8493
  974.5000     3.1031     0.8002     0.0000     0.0000     0.6389    27.7815
  975.0000     3.0934     0.7939     0.0000     0.0000     0.6387    27.7720
  975.5000     3.2717     0.7875     0.0000     0.0000     0.6386    27.7609
  976.0000     3.2625     0.8748     0.0000     0.0000     0.6478    27.7517
  976.5000     3.2531     0.7747     0.0000     0.0000     0.6477    27.7425
  977.0000     3.2420     0.7682     0.0000     0.0000     0.6475    27.7333
  977.5000     3.2328     0.6669     0.0000     0.0000     0.6474    27.7242
