~VERSION INFORMATION
 VERS.                2.0:   CWLS LOG ASCII STANDARD - VERSION 2.0
 WRAP.                 NO:   ONE LINE PER DEPTH STEP
~WELL INFORMATION
#MNEM.UNIT      DATA TYPE    INFORMATION
#----------   ------------   ------------------------------
 STRT.F           30.0000:   START DEPTH
 STOP.F          509.0000:   STOP DEPTH
 STEP.F            0.5000:   STEP LENGTH
 NULL.          -999.2500:   NO VALUE
 COMP. FENIX & SCISSON INC:   COMPANY
 WELL.   NPR 3 #45 SX 3-3:   WELL
 FLD .             TEAPOT:   FIELD
 LOC .       S3 T38N R78W:   LOCATION
 CNTY.            NATRONA:   COUNTY
 STAT.            WYOMING:   STATE
 CTRY. UNITED STATES OF AMERICA:   COUNTRY
 SRVC.            Unknown:   SERVICE COMPANY
 DATE.        05-OCT-1978:   LOGDATE
 API .       490251071700:   API NUMBER
~CURVE INFORMATION
#MNEM.UNIT       API CODE    CURVE DESCRIPTION
#----------   ------------   ------------------------------
 DEPT.F                  :   
 SPR .MV     05 010 01 00:   SPONTANEOUS POTENTIAL FROM RES.
 SN  .OHMM   05 040 16 00:   SHORT NORMAL 16"
 ILD .OHMM   05 120 46 00:   INDUCTION LOG DEEP
 GRD .GAPI   45 310 01 00:   GAMMA RAY FROM DENSITY LOG
 CALD.IN     45 280 60 00:   CALIPER
 RHOB.G/C3   45 350 01 00:   BULK DENSITY
 DPHI.DEC    45 890 12 00:   DENSITY POROSITY SANDSTONE
 CORR.G/C3   45 356 01 00:   DENSITY CORRECTION
~PARAMETER INFORMATION
#MNEM.UNIT          VALUE    DESCRIPTION
#----------   ------------   ------------------------------
 PD  .                 GL:   PERMANENT DATUM
 EPD .F              5188:   ELEVATION PERMANENT DATUM
 LMF .                 KB:   LOG MEASURED FROM
 DAPD.F                 4:   FEET ABOVE PERMANENT DATUM
 DMF .                 KB:   DRILLING MEASURED FROM
 EKB .F              5192:   KELLING BUSHING
 EGL .F              5188:   GROUND LEVEL
 DATE.            10-5-78:   RUN DATE
 RUN .                  1:   RUN NUMBER
 DD  .F               510:   DEPTH DRILLER
 DL  .F               509:   DEPTH LOGGER
 BLI .F               503:   BOTTOM LOG INTERVAL
 TLI .F                48:   TOP LOG INTERVAL
 CS  .IN            8.625:   CASING SIZE
 CBL .F                46:   CASING BOTTOM LOGGER
 BS  .IN            7.875:   BIT SIZE
 BSD .F               510:   BIT SIZE AT DEPTH
 DFT .                KCL:   DRILLING FLUID TYPE
 DFD .                8.7:   DRILLING FLUID DENSITY
 DFV .                 37:   DRILLING FLUID VISCOSITY
 DFPH.                  9:   DRILLING FLUID PH
 DFL .               10.4:   DRILLING FLUID LOSS
 MSS .            MUD PIT:   MUD SAMPLE SOURCE
 RMS .OHMM            .28:   RESISTIVITY MUD SAMPLE
 MST .F                58:   MUD SAMPLE TEMPERATURE
 RMF .OHMM            .32:   RESISTIVITY MUD FILTRATE SAMPLE
 MFST.F                54:   MUD FILTRATE SAMPLE TEMPERATURE
 RMC .OHMM            .24:   RESISTIVITY MUD CAKE
 MCST.F                56:   MUD CAKE SAMPLE TEMPERATURE
 MFSS.               MEAS:   MUD FILTRATE SAMPLE SOURCE
 MCSS.               MEAS:   MUD CAKE SAMPLE SOURCE
 BHT .F                64:   BOTTOM HOLE TEMPERATURE
 TCS .HRS               2:   TIME CURCULATED STOPPED
 MRT .F                64:   MAXIMUM RECORDED TEMPERATURE
 LUN .               2958:   LOGGING UNIT NUMBER
 LUL .               CASP:   LOGGING UNIT LOCATION
 ENGI.             MILLER:   RECORDING ENGINEER
 WITN.           DINSMORE:   WITNESSED BY
 CLNT.            A2DTECH:   CLIENT CODE
 ORIG.       2", 5" PRINT:   ORIGIN OF DATA
 UWI .       490251071700:   UNIQUE WELL ID
 DICO. A2D Technologies, Inc.:   DIGITIZING COMPANY
~OTHER INFORMATION
~A   DEPT      SPR         SN        ILD         GRD      CALD       RHOB       DPHI       CORR   
# ...
  232.5000   -12.2024     7.4771     7.1462   111.8166     7.4120     2.4638     0.1370     0.0121
  233.0000   -12.2024     7.3445     7.0005   111.0167     7.4139     2.4743     0.1266     0.0153
  233.5000   -12.2024     7.2143     6.7787   108.0857     7.4159     2.4782     0.1241     0.0123
  234.0000   -12.2024     7.0864     6.5464   107.5585     7.4179     2.4784     0.1237     0.0091
  234.5000   -12.2024     6.9607     6.2871   107.3255     7.4198     2.4727     0.1259     0.0047
  235.0000   -12.2024     6.8249     6.0161   107.1893     7.4277     2.4611     0.1341    -0.0013
  235.5000   -12.2024     6.6068     5.7575   107.0774     7.4371     2.4473     0.1466    -0.0023
  236.0000   -12.2024     6.6222     5.5478   106.1475     7.4465     2.4333     0.1592    -0.0021
  236.5000   -12.2028     6.6385     5.5625   105.0644     7.4559     2.4204     0.1619    -0.0018
  237.0000   -12.2045     6.6550     5.5745   103.2500     7.4743     2.4244     0.1587    -0.0016
  237.5000   -12.1926     6.7083     5.5866   101.8661     7.4996     2.4378     0.1516    -0.0014
  238.0000   -11.8699     6.9260     5.5992   101.3955     7.5104     2.4621     0.1409    -0.0011
  238.5000   -11.5317     7.1490     5.6883   101.5105     7.5207     2.4810     0.1280    -0.0009
  239.0000   -11.3454     7.3794     5.8410   105.4336     7.5311     2.4829     0.1212    -0.0006
  239.5000   -11.2505     7.6172     6.2203   111.5699     7.5374     2.4830     0.1218     0.0016
  240.0000   -10.7100     7.8063     6.6243   112.4623     7.5165     2.4832     0.1224     0.0068
  240.5000   -10.0250     7.9900     7.0546   112.8181     7.4912     2.4860     0.1206     0.0095
  241.0000    -9.9190     8.1622     7.3393   112.8091     7.4452     2.4881     0.1188     0.0095
  241.5000    -9.8297     8.2212     7.5835   112.8089     7.3997     2.4885     0.1187     0.0093
  242.0000    -9.8475     8.2762     7.7255   112.8097     7.3542     2.4889     0.1193     0.0159
  242.5000    -9.8772     8.3591     7.7213   112.2515     7.3092     2.4927     0.1167     0.0242
  243.0000    -9.9070     8.5069     7.7104   111.4906     7.2771     2.5083     0.1118     0.0327
  243.5000    -9.9364     8.6559     7.7030   111.2541     7.2680     2.5163     0.1083     0.0360
  244.0000    -9.9651     8.7896     7.6956   112.5280     7.2586     2.5125     0.1065     0.0367
  244.5000    -9.9951     8.8085     7.6883   113.9724     7.2493     2.5052     0.1063     0.0375
  245.0000   -10.0907     8.8293     7.6810   114.0341     7.2344     2.5081     0.1068     0.0383
  245.5000   -10.5257     8.8497     7.6738   113.4836     7.1856     2.5109     0.1046     0.0389
  246.0000   -10.9557     8.8703     7.6666   112.9389     7.1366     2.5139     0.1023     0.0346
  246.5000   -11.2861     8.8910     7.6592   112.4145     7.0880     2.5181     0.0989     0.0232
  247.0000   -11.4649     8.9117     7.6413   111.4677     7.0753     2.5237     0.0950     0.0119
  247.5000   -11.6457     8.9324     7.5868   108.9873     7.1121     2.5332     0.0888     0.0005
  248.0000   -11.8261     8.9480     7.5327   105.8973     7.1936     2.5418     0.0877    -0.0082
  248.5000   -12.0067     8.5022     7.5037   104.8829     7.2636     2.5417     0.0896    -0.0117
  249.0000   -12.1872     8.3650     7.4879   104.5499     7.2672     2.5149     0.0997    -0.0095
  249.5000   -12.3677     8.3266     7.4721   105.0602     7.2723     2.4957     0.1080    -0.0073
  250.0000   -12.5484     8.2890     7.4564   107.1107     7.2774     2.4884     0.1142    -0.0050
  250.5000   -12.7284     8.2515     7.4406   110.0844     7.2826     2.4868     0.1190    -0.0043
  251.0000   -12.9095     8.2140     7.4249   112.4487     7.2877     2.4851     0.1208    -0.0041
  251.5000   -13.0176     8.1767     7.4092   114.2850     7.2929     2.4845     0.1204    -0.0039
  252.0000   -13.0636     8.1395     7.3932   115.9711     7.2981     2.4839     0.1201    -0.0037
  252.5000   -13.1082     8.1025     7.3773   117.4395     7.3054     2.4833     0.1198    -0.0035
  253.0000   -13.1525     8.0657     7.2849   118.3836     7.3153     2.4827     0.1195    -0.0033
  253.5000   -13.1969     8.0291     7.0147   119.3109     7.3251     2.4824     0.1192    -0.0031
  254.0000   -13.2414     7.9093     6.5437   120.2371     7.3350     2.4719     0.1284    -0.0029
  254.5000   -13.2857     7.6386     6.5477   121.0335     7.3448     2.4586     0.1380    -0.0027
  255.0000   -13.3304     7.3773     6.5466   122.2879     7.3547     2.4460     0.1457    -0.0024
  255.5000   -13.3736     7.3510     6.5460   123.4409     7.3645     2.4423     0.1481    -0.0022
  256.0000   -13.5182     7.3246     6.4646   123.7490     7.3744     2.4496     0.1445    -0.0020
  256.5000   -13.7278     7.2987     6.3654   123.8691     7.3842     2.4588     0.1384    -0.0018
  257.0000   -13.9387     7.2726     6.2677   123.5821     7.3941     2.4626     0.1323    -0.0016
  257.5000   -14.1507     7.2467     6.1714   122.9601     7.4039     2.4659     0.1300    -0.0014
  258.0000   -14.2397     7.2072     6.0823   119.8320     7.4137     2.4630     0.1319    -0.0012
  258.5000   -14.3043     7.1493     5.9683   115.4758     7.4204     2.4600     0.1349    -0.0010
  259.0000   -14.3686     7.0479     5.8627   114.9925     7.4203     2.4471     0.1380    -0.0008
  259.5000   -14.4330     6.9176     5.8090   116.1709     7.4203     2.4308     0.1547    -0.0005
  260.0000   -14.4977     6.9473     5.8233   117.5811     7.4202     2.4224     0.1598    -0.0025
  260.5000   -14.5618     6.9904     5.8330   118.2337     7.4277     2.4410     0.1432    -0.0051
  261.0000   -14.6450     7.0338     5.8427   117.8917     7.4385     2.4598     0.1279    -0.0077
  261.5000   -14.7352     7.2406     5.8524   116.4008     7.4494     2.4757     0.1247    -0.0104
  262.0000   -14.8261     7.5189     5.8617   110.8636     7.4603     2.4825     0.1216    -0.0105
  262.5000   -14.9170     7.9402     6.0287   109.8021     7.4712     2.4818     0.1239    -0.0105
  263.0000   -15.0079     7.9300     6.7866   109.8030     7.4821     2.4785     0.1264    -0.0100
  263.5000   -15.0988     7.9116     6.9875   109.8651     7.4928     2.4753     0.1288    -0.0075
  264.0000   -15.1899     7.8933     7.1476   110.4202     7.4935     2.4730     0.1292    -0.0050
  264.5000   -15.2817     7.8750     7.2431   113.1353     7.4738     2.4731     0.1286    -0.0026
  265.0000   -15.3722     7.8315     7.0964   113.8474     7.4545     2.4771     0.1281    -0.0025
  265.5000   -15.3260     7.7411     6.8869   113.9579     7.4350     2.4796     0.1217    -0.0025
  266.0000   -15.2698     7.5231     6.4501   113.8357     7.4156     2.4811     0.1229    -0.0025
  266.5000   -15.2103     7.2826     6.0409   113.7170     7.3962     2.4808     0.1240    -0.0019
  267.0000   -14.9978     7.0498     5.6578   113.5625     7.3809     2.4757     0.1290     0.0008
  267.5000   -14.5716     6.8244     5.5993   115.4251     7.3861     2.4557     0.1423     0.0084
  268.0000   -14.5849     6.7558     5.5993   117.6718     7.3910     2.4320     0.1557     0.0179
  268.5000   -14.2421     6.7142     5.5993   118.8948     7.3958     2.4226     0.1591     0.0214
  269.0000   -13.7395     6.6678     5.5993   119.3804     7.4006     2.4413     0.1452     0.0214
  269.5000   -13.5314     6.9244     5.5993   119.3300     7.4054     2.4626     0.1354     0.0265
  270.0000   -13.3187     7.2276     5.5993   118.6565     7.4102     2.4716     0.1275     0.0338
  270.5000   -13.1984     7.5440     6.1053   114.2498     7.4151     2.4804     0.1236     0.0376
  271.0000   -13.2120     7.8742     6.6052   109.5513     7.4198     2.4875     0.1161     0.0404
  271.5000   -13.2239     8.2190     7.1461   108.0479     7.4152     2.4966     0.1085     0.0432
  272.0000   -13.2362     8.4204     7.7313   107.9432     7.4094     2.5101     0.1009     0.0460
  272.5000   -13.2484     8.5682     8.0271   107.8882     7.4037     2.5120     0.0984     0.0519
