~VERSION INFORMATION
 VERS.                2.0:   CWLS LOG ASCII STANDARD - VERSION 2.0
 WRAP.                 NO:   ONE LINE PER DEPTH STEP
~WELL INFORMATION
#MNEM.UNIT      DATA TYPE    INFORMATION
#----------   ------------   ------------------------------
 STRT.F           29.0000:   START DEPTH
 STOP.F          539.0000:   STOP DEPTH
 STEP.F            0.1000:   STEP LENGTH
 NULL.          -999.2500:   NO VALUE
 COMP. LAWRENCE/ALLISON INC:   COMPANY
 WELL. NPR 3 81-11 STX #10-10:   WELL
 FLD .             TEAPOT:   FIELD
 LOC .      S10 T38N R78W:   LOCATION
 CNTY.            NATRONA:   COUNTY
 STAT.            WYOMING:   STATE
 CTRY. UNITED STATES OF AMERICA:   COUNTRY
 SRVC.           Gearhart:   SERVICE COMPANY
 DATE.        01-JUN-1987:   LOGDATE
 API .       490251113000:   API NUMBER
~CURVE INFORMATION
#MNEM.UNIT       API CODE    CURVE DESCRIPTION
#----------   ------------   ------------------------------
 DEPT.F                  :   
 GRR .GAPI   07 310 01 00:   GAMMA RAY FROM RES. LOG.
 ILD .OHMM   07 120 46 00:   INDUCTION LOG DEEP RESISTIVITY
 RILM.OHMM   07 120 44 00:   INDUCTION LOG MEDIUM RESISTIVITY
~PARAMETER INFORMATION
#MNEM.UNIT          VALUE    DESCRIPTION
#----------   ------------   ------------------------------
 PD  .                 GL:   PERMANENT DATUM
 EPD .F              5156:   ELEVATION PERMANENT DATUM
 LMF .                 KB:   LOG MEASURED FROM
 DAPD.F                 8:   FEET ABOVE PERMANENT DATUM
 DMF .                 KB:   DRILLING MEASURED FROM
 EKB .F              5164:   KELLING BUSHING
 EDF .F              5162:   DRILLING FLOOR
 EGL .F              5156:   GROUND LEVEL
 DATE.             6-1-87:   RUN DATE
 RUN .                  1:   RUN NUMBER
 DD  .F               550:   DEPTH DRILLER
 DL  .F               546:   DEPTH LOGGER
 BLI .F               540:   BOTTOM LOG INTERVAL
 TLI .F                30:   TOP LOG INTERVAL
 CS  .IN            8.625:   CASING SIZE
 CBD .F                50:   CASING BOTTOM DRILLER
 CBL .F                49:   CASING BOTTOM LOGGER
 BS  .IN            7.875:   BIT SIZE
 BSD .F               550:   BIT SIZE AT DEPTH
 DFT .                AIR:   DRILLING FLUID TYPE
 TLAB.HRS            0634:   TIME LOGGER AT BOTTOM
 MRT .F                80:   MAXIMUM RECORDED TEMPERATURE
 LUN .               7597:   LOGGING UNIT NUMBER
 LUL .           GILLETTE:   LOGGING UNIT LOCATION
 ENGI. WEATHERMON/JOHNSTON:   RECORDING ENGINEER
 WITN.             STRONG:   WITNESSED BY
 CLNT.            A2DTECH:   CLIENT CODE
 ORIG.       2", 5" PRINT:   ORIGIN OF DATA
 UWI .       490251113000:   UNIQUE WELL ID
 DICO. A2D Technologies, Inc.:   DIGITIZING COMPANY
~OTHER INFORMATION
~A   DEPT       GRR       ILD       RILM   
# ...
  101.8000   120.2717     8.1853     7.7774
  101.9000   120.4721     8.2068     7.8235
  102.0000   120.6725     8.2283     7.8696
  102.1000   120.4981     8.2499     7.9177
  102.2000   120.3236     8.2714     7.9657
  102.3000   120.1491     8.2929     8.0137
  102.4000   119.9746     8.3144     8.0618
  102.5000   119.8002     8.3359     8.1098
  102.6000   119.5705     8.3578     8.1470
  102.7000   119.3409     8.3796     8.1841
  102.8000   119.1113     8.4014     8.2213
  102.9000   118.8816     8.4232     8.2585
  103.0000   118.6520     8.4450     8.2956
  103.1000   118.4211     8.4671     8.3103
  103.2000   118.1902     8.4892     8.3249
  103.3000   117.9593     8.5113     8.3395
  103.4000   117.7284     8.5333     8.3541
  103.5000   117.4975     8.5554     8.3688
  103.6000   117.2697     8.5778     8.3832
  103.7000   117.0419     8.6002     8.3977
  103.8000   116.8142     8.6226     8.4121
  103.9000   116.5864     8.6449     8.4266
  104.0000   116.3587     8.6673     8.4410
  104.1000   116.1749     8.6909     8.4550
  104.2000   115.9911     8.7145     8.4690
  104.3000   115.8073     8.7381     8.4830
  104.4000   115.6235     8.7617     8.4970
  104.5000   115.4397     8.7852     8.5110
  104.6000   115.7291     8.8123     8.4938
  104.7000   116.0186     8.8393     8.4766
  104.8000   116.3080     8.8664     8.4595
  104.9000   116.5975     8.8934     8.4423
  105.0000   116.8869     8.9204     8.4251
  105.1000   117.3001     8.9476     8.4106
  105.2000   117.7132     8.9749     8.3961
  105.3000   118.1264     9.0021     8.3817
  105.4000   118.5395     9.0293     8.3672
  105.5000   118.9527     9.0565     8.3527
  105.6000   119.2400     9.0800     8.3876
  105.7000   119.5274     9.1036     8.4226
  105.8000   119.8147     9.1271     8.4576
  105.9000   120.1021     9.1507     8.4925
  106.0000   120.3894     9.1742     8.5275
  106.1000   120.2195     9.1679     8.5663
  106.2000   120.0495     9.1617     8.6051
  106.3000   119.8795     9.1554     8.6439
  106.4000   119.7096     9.1491     8.6826
  106.5000   119.5396     9.1428     8.7214
  106.6000   119.2592     9.1374     8.7445
  106.7000   118.9789     9.1320     8.7675
  106.8000   118.6985     9.1266     8.7906
  106.9000   118.4181     9.1212     8.8136
  107.0000   118.1377     9.1158     8.8367
  107.1000   118.2053     9.1103     8.8088
  107.2000   118.2728     9.1048     8.7809
  107.3000   118.3404     9.0993     8.7531
  107.4000   118.4079     9.0938     8.7252
  107.5000   118.4754     9.0883     8.6973
  107.6000   119.0192     9.0590     8.6749
  107.7000   119.5629     9.0297     8.6524
  107.8000   120.1067     9.0004     8.6300
  107.9000   120.6504     8.9711     8.6075
  108.0000   121.1942     8.9418     8.5850
  108.1000   121.8319     8.9143     8.5629
  108.2000   122.4696     8.8869     8.5407
  108.3000   123.1073     8.8594     8.5185
  108.4000   123.7450     8.8320     8.4964
  108.5000   124.3827     8.8045     8.4742
  108.6000   124.8980     8.7775     8.4523
  108.7000   125.4134     8.7504     8.4304
  108.8000   125.9287     8.7234     8.4086
  108.9000   126.4440     8.6964     8.3867
  109.0000   126.9593     8.6693     8.3648
  109.1000   127.1003     8.6537     8.3432
  109.2000   127.2413     8.6381     8.3216
  109.3000   127.3822     8.6225     8.3000
  109.4000   127.5232     8.6069     8.2784
  109.5000   127.6642     8.5913     8.2568
  109.6000   127.4552     8.5913     8.2449
  109.7000   127.2462     8.5913     8.2330
  109.8000   127.0371     8.5913     8.2211
  109.9000   126.8281     8.5913     8.2092
  110.0000   126.6191     8.5913     8.1973
  110.1000   126.5908     8.5913     8.2055
  110.2000   126.5624     8.5913     8.2138
  110.3000   126.5341     8.5913     8.2221
  110.4000   126.5057     8.5913     8.2303
  110.5000   126.4774     8.5913     8.2386
  110.6000   126.6949     8.5766     8.2457
  110.7000   126.9125     8.5619     8.2529
  110.8000   127.1301     8.5471     8.2601
  110.9000   127.3476     8.5324     8.2673
  111.0000   127.5652     8.5177     8.2745
  111.1000   127.5387     8.5016     8.2625
  111.2000   127.5123     8.4854     8.2505
  111.3000   127.4858     8.4692     8.2386
  111.4000   127.4593     8.4531     8.2266
  111.5000   127.4329     8.4369     8.2147
  111.6000   127.1985     8.4209     8.1988
  111.7000   126.9641     8.4049     8.1829
  111.8000   126.7297     8.3889     8.1670
  111.9000   126.4953     8.3729     8.1511
  112.0000   126.2609     8.3569     8.1352
  112.1000   126.0231     8.3410     8.1194
  112.2000   125.7853     8.3251     8.1036
  112.3000   125.5475     8.3093     8.0877
  112.4000   125.3097     8.2934     8.0719
  112.5000   125.0719     8.2776     8.0561
  112.6000   124.9458     8.2619     8.0405
  112.7000   124.8197     8.2462     8.0249
  112.8000   124.6936     8.2304     8.0093
  112.9000   124.5675     8.2147     7.9936
  113.0000   124.4414     8.1990     7.9780
  113.1000   124.4931     8.1835     7.9625
  113.2000   124.5448     8.1679     7.9471
  113.3000   124.5964     8.1524     7.9316
  113.4000   124.6481     8.1368     7.9161
  113.5000   124.6998     8.1212     7.9006
  113.6000   124.8669     8.1058     7.8853
  113.7000   125.0341     8.0904     7.8700
  113.8000   125.2012     8.0750     7.8547
  113.9000   125.3683     8.0596     7.8393
  114.0000   125.5355     8.0442     7.8240
  114.1000   125.5087     8.0289     7.8088
  114.2000   125.4819     8.0136     7.7937
  114.3000   125.4551     7.9984     7.7785
  114.4000   125.4283     7.9831     7.7633
  114.5000   125.4015     7.9679     7.7481
  114.6000   125.0441     7.9533     7.7331
  114.7000   124.6868     7.9388     7.7181
  114.8000   124.3294     7.9242     7.7030
  114.9000   123.9721     7.9097     7.6880
  115.0000   123.6147     7.8952     7.6730
  115.1000   123.2944     7.8952     7.6592
  115.2000   122.9741     7.8952     7.6454
  115.3000   122.6537     7.8952     7.6317
  115.4000   122.3334     7.8952     7.6179
  115.5000   122.0131     7.8952     7.6041
  115.6000   122.0098     7.9214     7.6323
  115.7000   122.0064     7.9476     7.6605
  115.8000   122.0031     7.9738     7.6887
  115.9000   121.9997     8.0001     7.7169
  116.0000   121.9964     8.0263     7.7450
  116.1000   122.0801     8.0473     7.7721
  116.2000   122.1639     8.0683     7.7991
  116.3000   122.2476     8.0893     7.8262
  116.4000   122.3314     8.1103     7.8532
  116.5000   122.4151     8.1313     7.8803
  116.6000   122.1242     8.1525     7.9077
  116.7000   121.8333     8.1738     7.9351
  116.8000   121.5424     8.1951     7.9625
  116.9000   121.2515     8.2163     7.9899
  117.0000   120.9606     8.2376     8.0173
  117.1000   120.6073     8.2592     8.0406
  117.2000   120.2540     8.2807     8.0640
  117.3000   119.9007     8.3023     8.0873
  117.4000   119.5473     8.3238     8.1106
  117.5000   119.1940     8.3454     8.1339
  117.6000   119.2580     8.3672     8.1564
  117.7000   119.3219     8.3890     8.1790
  117.8000   119.3859     8.4108     8.2015
  117.9000   119.4498     8.4327     8.2241
  118.0000   119.5138     8.4545     8.2467
  118.1000   119.6850     8.4784     8.2695
  118.2000   119.8563     8.5023     8.2924
  118.3000   120.0276     8.5262     8.3153
  118.4000   120.1988     8.5501     8.3381
  118.5000   120.3701     8.5740     8.3610
  118.6000   120.5393     8.6001     8.3842
  118.7000   120.7085     8.6262     8.4074
  118.8000   120.8777     8.6524     8.4306
  118.9000   121.0469     8.6785     8.4538
  119.0000   121.2161     8.7046     8.4769
  119.1000   121.3550     8.7311     8.5004
  119.2000   121.4939     8.7577     8.5240
  119.3000   121.6327     8.7842     8.5475
  119.4000   121.7716     8.8107     8.5710
  119.5000   121.9105     8.8372     8.5945
  119.6000   122.0298     8.8642     8.6183
  119.7000   122.1491     8.8911     8.6421
  119.8000   122.2684     8.9180     8.6660
  119.9000   122.3878     8.9450     8.6898
