~VERSION INFORMATION
 VERS.                2.0:   CWLS LOG ASCII STANDARD - VERSION 2.0
 WRAP.                 NO:   ONE LINE PER DEPTH STEP
~WELL INFORMATION
#MNEM.UNIT      DATA TYPE    INFORMATION
#----------   ------------   ------------------------------
 STRT.F            5.0000:   START DEPTH
 STOP.F          640.0000:   STOP DEPTH
 STEP.F            0.5000:   STEP LENGTH
 NULL.          -999.2500:   NO VALUE
 COMP. BROWN JOHN E&C INC:   COMPANY
 WELL.     85-1 X 3 #85-3:   WELL
 FLD .             TEAPOT:   FIELD
 LOC .       S3 T38N R78W:   LOCATION
 CNTY.            NATRONA:   COUNTY
 STAT.            WYOMING:   STATE
 CTRY. UNITED STATES OF AMERICA:   COUNTRY
 SRVC.     Atlas Wireline:   SERVICE COMPANY
 DATE.        30-DEC-1991:   LOGDATE
 API .       490252249400:   API NUMBER
~CURVE INFORMATION
#MNEM.UNIT       API CODE    CURVE DESCRIPTION
#----------   ------------   ------------------------------
 DEPT.F                  :   
 GRR .GAPI   06 310 01 00:   GAMMA RAY FROM RESISTIVITY
 RFOC.OHMM   06 220 04 00:   RESISTIVITY FOCUSED LOG RES.
 RILD.OHMM   06 120 46 00:   DEEP INDUCTION RESISTIVITY
 RILM.OHMM   06 120 44 00:   INDUCTION LOG MEDIUM RESISTIVITY
 SPR .MV     06 010 01 00:   SPONTANEOUS POTENTIAL FROM RES.
 CALD.IN     45 280 60 00:   CALIPER FROM DENSITY LOG
 CORR.G/C3   45 356 01 00:   DENSITY CORRECTION
 DEN .G/C3   45 350 01 00:   COMPENSATED BULK DENSTIY
 PORD.DEC    45 890 12 00:   POROSITY DENSITY SANDSTONE
 CNC .DEC    42 890 03 00:   NEUTRON POROSITY SANDSTONE
~PARAMETER INFORMATION
#MNEM.UNIT          VALUE    DESCRIPTION
#----------   ------------   ------------------------------
 PD  .                 GL:   PERMANENT DATUM
 EPD .F              5156:   ELEVATION PERMANENT DATUM
 LMF .                 KB:   LOG MEASURED FROM
 DAPD.F                10:   FEET ABOVE PERMANENT DATUM
 DMF .                 KB:   DRILLING MEASURED FROM
 EKB .F              5166:   KELLING BUSHING
 EGL .F              5156:   GROUND LEVEL
 DATE.        30-DEC-1991:   RUN DATE
 RUN .                  1:   RUN NUMBER
 DD  .F               641:   DEPTH DRILLER
 DL  .F               642:   DEPTH LOGGER
 BLI .F               261:   BOTTOM LOG INTERVAL
 TLI .F               172:   TOP LOG INTERVAL
 CS  .IN            8.625:   CASING SIZE
 CBD .F               163:   CASING BOTTOM DRILLER
 CBL .F               172:   CASING BOTTOM LOGGER
 BS  .IN            7.875:   BIT SIZE
 BSD .F               641:   BIT SIZE AT DEPTH
 DFT .               CHEM:   DRILLING FLUID TYPE
 DFD .               17.1:   DRILLING FLUID DENSITY
 DFV .                 47:   DRILLING FLUID VISCOSITY
 DFPH.                9.0:   DRILLING FLUID PH
 DFL .                6.8:   DRILLING FLUID LOSS
 MSS .                PIT:   MUD SAMPLE SOURCE
 RMS .OHMM           1.40:   RESISTIVITY MUD SAMPLE
 MST .F               100:   MUD SAMPLE TEMPERATURE
 RMF .OHMM           1.12:   RESISTIVITY MUD FILTRATE SAMPLE
 MFST.F               100:   MUD FILTRATE SAMPLE TEMPERATURE
 RMC .OHMM           1.75:   RESISTIVITY MUD CAKE
 MCST.F               100:   MUD CAKE SAMPLE TEMPERATURE
 MFSS.               MEAS:   MUD FILTRATE SAMPLE SOURCE
 MCSS.               CALC:   MUD CAKE SAMPLE SOURCE
 RMB .OHMM           .536:   RESISTIVITY MUD AT BHT
 BHT .F               261:   BOTTOM HOLE TEMPERATURE
 TCS .HRS               4:   TIME CURCULATED STOPPED
 MRT .F               261:   MAXIMUM RECORDED TEMPERATURE
 LUN .            HL-6387:   LOGGING UNIT NUMBER
 LUL .          CASPER/WT:   LOGGING UNIT LOCATION
 ENGI.             ZIEGER:   RECORDING ENGINEER
 WITN.         LOFRENIERI:   WITNESSED BY
 CLNT.            A2DTECH:   CLIENT CODE
 ORIG.           5" PRINT:   ORIGIN OF DATA
 UWI .       490252249400:   UNIQUE WELL ID
 DICO. A2D Technologies, Inc.:   DIGITIZING COMPANY
~OTHER INFORMATION
~A    DEPT      GRR      RFOC       RILD       RILM        SPR       CALD       CORR        DEN       PORD        CNC   
# ...
  206.0000    90.0170     6.9065     6.7053     6.6876   -69.2025     9.7461    -0.0081     2.4811     0.1199     0.3185
  206.5000    93.5746     6.9065     6.7565     6.7345   -69.0529     9.7464    -0.0096     2.4902     0.1145     0.3229
  207.0000    93.8830     6.9548     6.8452     6.8769   -68.9033     9.7467    -0.0051     2.4909     0.1123     0.3265
  207.5000    92.0735     7.0525     6.8922     6.9202   -69.0562     9.7470    -0.0112     2.4819     0.1163     0.3281
  208.0000    88.7511     7.1018     7.0367     7.0605   -69.0576     9.7473    -0.0322     2.4758     0.1208     0.3232
  208.5000    89.0595     7.2036     7.0852     7.2102   -69.0591     9.7476    -0.0261     2.4719     0.1235     0.3160
  209.0000    87.5525     7.3109     7.0840     7.2611   -69.2116     9.6854    -0.0110     2.4690     0.1251     0.3093
  209.5000    86.6505     7.5092     7.0830     7.3124   -69.3641     9.6573    -0.0020     2.4713     0.1253     0.3039
  210.0000    86.6566     7.6147     7.0821     7.3129   -69.3656     9.6728    -0.0020     2.4781     0.1196     0.3015
  210.5000    88.5487     7.7216     7.0716     7.3134   -69.5181     9.6731    -0.0036     2.4826     0.1169     0.3024
  211.0000    91.8135     7.7756     7.0716     7.2126   -69.6710     9.6734    -0.0004     2.4796     0.1178     0.3045
  211.5000    94.5426     7.7216     7.0716     7.2131   -69.6724     9.6737     0.0026     2.4751     0.1205     0.3078
  212.0000    95.4562     7.5092     7.0224     7.2137   -69.5225     9.6739     0.0011     2.4811     0.1190     0.3132
  212.5000    95.1595     7.3027     6.9736     7.2142   -69.5243     9.6591    -0.0034     2.4811     0.1184     0.3190
  213.0000    93.3499     7.3027     6.9251     7.1147   -69.3747     9.6595    -0.0064     2.4804     0.1193     0.3193
  213.5000    90.9352     7.3027     6.8769     7.0166   -69.2251     9.6597    -0.0094     2.4773     0.1214     0.3186
  214.0000    89.4281     7.3027     6.8291     6.9683   -68.9245     9.6600    -0.0064     2.4751     0.1226     0.3199
  214.5000    90.0545     7.1515     6.8291     6.9204   -68.6238     9.6755    -0.0048     2.4751     0.1229     0.3220
  215.0000    92.2138     7.0525     6.8291     6.8729   -68.4742     9.6758    -0.0078     2.4736     0.1229     0.3233
  215.5000    93.3808     7.1018     6.8291     6.8734   -68.4761     9.6761    -0.0078     2.4690     0.1235     0.3238
  216.0000    92.7815     7.3027     6.8769     6.8738   -68.4775     9.6764     0.0014     2.4637     0.1274     0.3192
  216.5000    90.3668     7.4052     6.9251     6.8744   -68.4790     9.6615     0.0103     2.4600     0.1304     0.3138
  217.0000    88.2547     7.2986     6.9251     6.8749   -68.4805     9.6619     0.0148     2.4592     0.1310     0.3087
  217.5000    88.5631     7.2016     6.9736     6.9234   -68.4819     9.6622     0.0103     2.4659     0.1219     0.3102
  218.0000    90.0819     7.2519     7.0224     6.9239   -68.4834     9.6473    -0.0017     2.4940     0.1096     0.3074
  218.5000    91.2981     7.4570     7.1211     7.0707   -68.4849     9.6173    -0.0077     2.5144     0.0972     0.3026
  219.0000    90.9107     7.6679     7.2211     7.2712   -68.6377     9.6176    -0.0062     2.5211     0.0966     0.2914
  219.5000    87.9830     7.7216     7.3226     7.3745   -68.9413     9.6027    -0.0032     2.5174     0.1053     0.2887
  220.0000    88.2914     7.7216     7.4775     7.4779   -69.3959     9.5879     0.0014     2.4947     0.1147     0.2884
  220.5000    87.9933     7.7216     7.6357     7.5308   -69.5485     9.5730     0.0074     2.4758     0.1195     0.2887
  221.0000    86.1852     7.7216     7.7430     7.6371   -69.7010     9.6037     0.0119     2.4736     0.1213     0.2890
  221.5000    84.3756     7.7843     7.7430     7.6910   -69.7024     9.6040     0.0135     2.4758     0.1210     0.2887
  222.0000    83.7749     7.9955     7.7972     7.7996   -69.7039     9.6194     0.0120     2.4743     0.1222     0.2884
  222.5000    85.5977     8.0515     7.8518     7.9096   -69.5547     9.6349     0.0105     2.4773     0.1216     0.2875
  223.0000    88.0242     7.9955     7.9621     7.9655   -69.5561     9.6200     0.0105     2.4841     0.1183     0.2851
  223.5000    87.6369     7.9400     8.0740     8.0779   -69.4062     9.5900     0.0105     2.5030     0.1135     0.2820
  224.0000    85.6168     7.9400     8.3026     8.2546   -69.1059     9.5600     0.0090     2.5189     0.0993     0.2772
  224.5000    85.0161     7.9955     8.4782     8.5426   -68.9559     9.5604     0.0045     2.5227     0.0947     0.2738
  225.0000    84.7209     8.3371     8.6575     8.8462   -68.6556     9.5606     0.0015     2.5174     0.0959     0.2745
  225.5000    82.3062     8.7006     8.8407     8.9711   -68.5060     9.5609     0.0030     2.5023     0.1024     0.2763
  226.0000    80.7992     9.0646     9.0277     9.0344   -68.5075     9.5612     0.0076     2.5000     0.1080     0.2748
  226.5000    81.7128     8.9391     9.2186     9.0350   -68.5093     9.5767     0.0091     2.5008     0.1062     0.2726
  227.0000    84.7444     8.6933     9.3482     9.0989   -68.5108     9.5921     0.0106     2.5015     0.1056     0.2711
  227.5000    86.8936     8.4542     9.4136     9.1632   -68.6633     9.5925     0.0091     2.4992     0.1086     0.2693
  228.0000    85.6653     8.5729     9.4795     9.1638   -68.8158     9.6079     0.0061     2.4932     0.1116     0.2693
  228.5000    82.6455     8.8153     9.4795     9.1007   -69.1194     9.6234     0.0016     2.4864     0.1149     0.2729
  229.0000    81.1385     9.0017     9.4136     9.1652   -69.2719     9.6691     0.0016     2.4856     0.1155     0.2766
  229.5000    82.9598     9.0646     9.4136     9.1020   -69.4245     9.6391     0.0032     2.4849     0.1152     0.2790
  230.0000    84.1760     8.9391     9.4136     9.1027   -69.5770     9.5788     0.0030     2.4834     0.1173     0.2793
  230.5000    83.5767     8.8770     9.4136     9.1033   -69.5788     9.5639    -0.0013     2.4811     0.1204     0.2720
  231.0000    80.2543     8.8153     9.3482     9.1040   -69.5803     9.5945    -0.0028     2.4781     0.1210     0.2735
  231.5000    77.5270     8.8153     9.1545     8.9785   -69.5817     9.6252    -0.0043     2.4743     0.1213     0.2775
  232.0000    76.3326     8.6933     8.9649     8.8548   -69.4318     9.6558    -0.0073     2.4713     0.1258     0.2796
  232.5000    77.8528     8.6329     8.8407     8.7938   -69.2822     9.6712    -0.0073     2.4683     0.1270     0.2787
  233.0000    82.3973     8.6329     8.7181     8.7946   -69.1329     9.6715    -0.0058     2.4728     0.1264     0.2765
  233.5000    88.1520     8.5133     8.6575     8.7339   -68.8258     9.6718    -0.0012     2.4736     0.1246     0.2759
  234.0000    90.8811     8.3861     8.5973     8.6137   -68.3806     9.6721     0.0033     2.4668     0.1254     0.2759
  234.5000    89.3741     8.2216     8.5973     8.5543   -68.3824     9.6572     0.0048     2.4630     0.1291     0.2747
  235.0000    83.6311     8.1078     8.6575     8.5550   -68.0818     9.6273     0.0063     2.4630     0.1306     0.2705
  235.5000    81.8216     8.1078     8.6575     8.5556   -67.7811     9.6124     0.0018     2.4630     0.1312     0.2656
  236.0000    84.8533     8.3371     8.6575     8.5562   -67.4805     9.5824    -0.0012     2.4675     0.1300     0.2638
  236.5000    84.2554     8.5133     8.6575     8.6166   -67.4819     9.5676    -0.0027     2.4819     0.1227     0.2629
  237.0000    83.3535     8.4542     8.7181     8.6776   -67.3323     9.5831    -0.0072     2.5000     0.1128     0.2605
  237.5000    80.9388     8.3371     8.7792     8.6782   -67.3338     9.5834    -0.0102     2.5076     0.1052     0.2596
  238.0000    79.4318     8.1010     8.7792     8.6788   -67.1842     9.5684    -0.0132     2.5068     0.1016     0.2620
  238.5000    77.9249     8.2216     8.8407     8.6794   -67.0346     9.5688    -0.0086     2.4947     0.1067     0.2650
  239.0000    77.0230     8.5729     8.8407     8.6800   -66.8850     9.5539    -0.0011     2.4819     0.1164     0.2699
