~VERSION INFORMATION
 VERS.                2.0:   CWLS LOG ASCII STANDARD - VERSION 2.0
 WRAP.                 NO:   ONE LINE PER DEPTH STEP
~WELL INFORMATION
#MNEM.UNIT      DATA TYPE    INFORMATION
#----------   ------------   ------------------------------
 STRT.F           64.0000:   START DEPTH
 STOP.F          532.0000:   STOP DEPTH
 STEP.F            0.5000:   STEP LENGTH
 NULL.          -999.2500:   NO VALUE
 COMP.       F D SERV INC:   COMPANY
 WELL.  81-3 SX 10 #81-10:   WELL
 FLD .             TEAPOT:   FIELD
 LOC .      S10 T38N R78W:   LOCATION
 CNTY.            NATRONA:   COUNTY
 STAT.            WYOMING:   STATE
 CTRY. UNITED STATES OF AMERICA:   COUNTRY
 SRVC.     Atlas Wireline:   SERVICE COMPANY
 DATE.        29-JAN-1993:   LOGDATE
 API .       490252258400:   API NUMBER
~CURVE INFORMATION
#MNEM.UNIT       API CODE    CURVE DESCRIPTION
#----------   ------------   ------------------------------
 DEPT.F                  :   
 C13 .IN     45 280 13 00:   
 ZCOR.G/C3   45 356 01 00:   DENSITY CORRECTION
 ZDEN.G/C3   45 350 01 00:   BULK DENSITY
 GRD .GAPI   45 310 01 00:   GAMMA RAY FROM DENSITY LOG
 PORS.DEC    42 890 00 00:   
 PORZ.DEC    45 890 00 00:   DENSITY POROSITY
 RILD.OHMM   07 120 46 00:   INDUCTION LOG DEEP RESISTIVITY
 RILM.OHMM   07 120 44 00:   INDUCTION LOG MEDIUM RESISTIVITY
~PARAMETER INFORMATION
#MNEM.UNIT          VALUE    DESCRIPTION
#----------   ------------   ------------------------------
 PD  .                 GL:   PERMANENT DATUM
 EPD .F              5161:   ELEVATION PERMANENT DATUM
 LMF .                 KB:   LOG MEASURED FROM
 DAPD.F                10:   FEET ABOVE PERMANENT DATUM
 DMF .                 KB:   DRILLING MEASURED FROM
 EKB .F              5171:   KELLING BUSHING
 EDF .F              5170:   DRILLING FLOOR
 EGL .F              5161:   GROUND LEVEL
 DATE.        29-JAN-1993:   RUN DATE
 RUN .                  1:   RUN NUMBER
 DD  .F               536:   DEPTH DRILLER
 DL  .F               536:   DEPTH LOGGER
 BLI .F               527:   BOTTOM LOG INTERVAL
 TLI .F                96:   TOP LOG INTERVAL
 CS  .IN            8.625:   CASING SIZE
 CBD .F                96:   CASING BOTTOM DRILLER
 CBL .F                96:   CASING BOTTOM LOGGER
 BS  .IN            7.875:   BIT SIZE
 BSD .F               536:   BIT SIZE AT DEPTH
 DFT .                AIR:   DRILLING FLUID TYPE
 MRT .F                65:   MAXIMUM RECORDED TEMPERATURE
 LUN .            HL-6274:   LOGGING UNIT NUMBER
 LUL .             CASPER:   LOGGING UNIT LOCATION
 ENGI.        P.RASMUSSEN:   RECORDING ENGINEER
 WITN.           G.STRONG:   WITNESSED BY
 CLNT.            A2DTECH:   CLIENT CODE
 ORIG.           5" PRINT:   ORIGIN OF DATA
 UWI .       490252258400:   UNIQUE WELL ID
 DICO. A2D Technologies, Inc.:   DIGITIZING COMPANY
~OTHER INFORMATION
~A   DEPT      C13       ZCOR       ZDEN        GRD       PORS       PORZ       RILD       RILM   
# ...
  307.0000     8.3231    -0.0168     2.4985   161.1021     0.2914     0.0901     8.1451     8.1987
  307.5000     8.3228    -0.0138     2.5036   159.8944     0.2914     0.0883     8.1464     8.2003
  308.0000     8.3076    -0.0092     2.5044   162.0363     0.2926     0.0877     8.0909     8.2023
  308.5000     8.3222    -0.0092     2.5021   165.6110     0.2950     0.0898     8.0923     8.2039
  309.0000     8.3219    -0.0107     2.4984   166.5125     0.2962     0.0922     8.0933     8.2056
  309.5000     8.3066    -0.0106     2.4954   165.9065     0.2956     0.0943     8.2075     8.2072
  310.0000     8.3063    -0.0076     2.4947   163.4135     0.2899     0.0928     8.3231     8.2663
  310.5000     8.3059    -0.0031     2.4977   160.1773     0.2848     0.0894     8.4989     8.3834
  311.0000     8.3057    -0.0016     2.5060   159.5721     0.2800     0.0861     8.6186     8.4434
  311.5000     8.3054    -0.0030     2.5105   159.2681     0.2763     0.0846     8.3845     8.4450
  312.0000     8.3057    -0.0045     2.5120   158.9633     0.2743     0.0840     8.0443     8.1028
  312.5000     8.3048    -0.0075     2.5105   159.8641     0.2740     0.0849     7.5592     7.6140
  313.0000     8.3045    -0.0120     2.5000   164.3793     0.2788     0.0966     6.8943     6.9108
  313.5000     8.3042    -0.0134     2.4835   169.2239     0.2966     0.1074     6.1857     5.9206
  314.0000     8.3038    -0.0014     2.4685   172.8067     0.3293     0.1218     5.8530     5.4995
  314.5000     8.3036     0.0166     2.4490   171.5991     0.3263     0.1296     5.8134     5.6946
  315.0000     8.3033     0.0274     2.4347   168.2830     0.3065     0.1284     5.8142     5.9791
  315.5000     8.3030     0.0286     2.4415   165.4850     0.2986     0.1146     5.8151     6.5904
  316.0000     8.3027     0.0196     2.4655   161.9514     0.2719     0.0990     6.0626     7.1637
  316.5000     8.3024     0.0047     2.4874   159.5389     0.2668     0.0899     6.6346     7.6797
  317.0000     8.2819    -0.0117     2.5009   157.7289     0.2674     0.0815     7.0728     8.1759
  317.5000     8.2966    -0.0191     2.5129   156.5213     0.2681     0.0797     7.9458     8.7047
  318.0000     8.2961    -0.0161     2.5182   159.5298     0.2695     0.0830     8.6954     9.2031
  318.5000     8.2956    -0.0041     2.5167   160.4313     0.2714     0.0854     9.2559     9.5960
  319.0000     8.2951    -0.0071     2.5122   158.8895     0.2732     0.0857     9.5224     9.7997
  319.5000     8.2947    -0.0130     2.5092   157.7134     0.2769     0.0857     9.7860     9.9390
  320.0000     8.2943    -0.0160     2.5077   157.7106     0.2801     0.0851     9.9927    10.1499
  320.5000     8.2938    -0.0054     2.5108   158.0090     0.2834     0.0851    10.2038    10.2225
  321.0000     8.2933     0.0020     2.5108   159.5114     0.2867     0.0844    10.4937    10.5987
  321.5000     8.3079     0.0050     2.5115   161.3159     0.2895     0.0841    11.0147    11.6675
  322.0000     8.3075    -0.0024     2.5108   162.5186     0.2909     0.0877    11.8881    12.6826
  322.5000     8.3221    -0.0054     2.5026   161.9126     0.2741     0.0916    13.1001    13.5960
  323.0000     8.3216     0.0021     2.4943   153.4754     0.2621     0.1103    14.9484    16.3778
  323.5000     8.3212     0.0096     2.4768   137.5087     0.2468     0.1229    16.8140    19.7813
  324.0000     8.3207     0.0037     2.4425   125.7589     0.2212     0.1421    19.0486    21.8026
  324.5000     8.3202    -0.0471     2.3832   116.9127     0.2122     0.1995    22.1864    24.5356
  325.0000     8.3198    -0.0531     2.2930   110.0899     0.2098     0.2641    25.6626    27.6126
  325.5000     8.3043    -0.0246     2.1907   106.7738     0.2099     0.3025    29.0741    29.6015
  326.0000     8.3038     0.0024     2.1180   105.5662     0.2185     0.3260    30.9479    30.8653
  326.5000     8.3034     0.0203     2.1368   110.0807     0.2296     0.3118    30.9519    31.7397
  327.0000     8.3030     0.0263     2.1856   113.6924     0.2417     0.2845    30.5302    31.0937
  327.5000     8.3026     0.0158     2.2330   115.1956     0.2474     0.2568    28.8895    29.6260
  328.0000     8.3020    -0.0009     2.2495   116.0964     0.2483     0.2466    27.3361    28.2276
  328.5000     8.2866    -0.0065     2.2450   117.2977     0.2486     0.2463    26.4084    27.2671
  329.0000     8.2862    -0.0035     2.2383   120.3069     0.2489     0.2460    26.4127    26.7145
  329.5000     8.2972     0.0085     2.2436   123.0149     0.2489     0.2460    26.9715    27.2828
  330.0000     8.3003     0.0130     2.2511   124.5181     0.2495     0.2460    27.9254    28.2510
  330.5000     8.2848     0.0130     2.2421   118.7917     0.2492     0.2460    28.9131    28.8507
  331.0000     8.2844     0.0146     2.2382   115.7768     0.2486     0.2471    29.7290    28.8577
  331.5000     8.2839     0.0056     2.2324   115.4387     0.2474     0.2523    29.7339    29.0642
  332.0000     8.2834    -0.0033     2.2136   116.3736     0.2420     0.2664    29.1263    29.2722
  332.5000     8.2830     0.0176     2.2107   114.8641     0.2354     0.2646    29.1301    29.2780
  333.0000     8.2826     0.0057     2.2452   116.3673     0.2291     0.2441    29.1232    29.2850
  333.5000     8.2820    -0.0097     2.2828   121.1837     0.2335     0.2220    29.9571    29.6999
  334.0000     8.2816    -0.0301     2.3166   126.9031     0.2397     0.1975    30.3789    29.9124
  334.5000     8.2963    -0.0271     2.3121   128.1058     0.2433     0.2110    30.3828    30.1279
  335.0000     8.2958    -0.0181     2.2588   124.7890     0.2451     0.2420    30.3868    30.1338
  335.5000     8.3104    -0.0061     2.2310   122.0311     0.2405     0.2563    30.6030    30.1397
  336.0000     8.3099     0.0059     2.2250   119.6622     0.2388     0.2441    30.8196    30.3554
  336.5000     8.3245     0.0089     2.2484   120.8642     0.2391     0.2341    31.2535    30.5726
  337.0000     8.3240    -0.0105     2.2678   122.0662     0.2388     0.2284    31.4748    30.5801
  337.5000     8.3236    -0.0060     2.2731   122.0627     0.2381     0.2384    31.4800    30.3746
  338.0000     8.3381     0.0060     2.2649   120.5538     0.2340     0.2455    31.4841    30.3806
  338.5000     8.3377     0.0031     2.2479   120.2505     0.2346     0.2515    31.4882    30.3880
  339.0000     8.3372    -0.0089     2.2318   122.3554     0.2367     0.2542    31.4923    30.8185
  339.5000     8.3217     0.0076     2.2341   124.7615     0.2385     0.2469    31.9367    31.0390
  340.0000     8.3213     0.0151     2.2521   125.9642     0.2406     0.2356    32.1628    31.4788
  340.5000     8.3209     0.0032     2.2634   123.8523     0.2403     0.2341    32.1670    31.4864
  341.0000     8.3053    -0.0088     2.2604   122.0422     0.2376     0.2398    32.1712    31.4925
  341.5000     8.2899     0.0017     2.2544   123.2435     0.2317     0.2328    32.1756    31.2807
  342.0000     8.2744     0.0167     2.2666   124.4462     0.2202     0.2151    31.9575    31.0452
  342.5000     8.2440     0.0183     2.3228   124.4427     0.2175     0.1871    31.9628    30.6488
  343.0000     8.2134    -0.0071     2.3702   125.0416     0.2208     0.1673    31.9669    30.6563
  343.5000     8.2130    -0.0146     2.3792   128.0508     0.2264     0.1664    31.9712    30.4503
  344.0000     8.1976    -0.0116     2.3654   135.8793     0.2335     0.1811    31.5365    30.2458
  344.5000     8.1821    -0.0145     2.3267   144.3102     0.2383     0.1949    30.8921    30.0426
  345.0000     8.1816    -0.0220     2.2959   148.5236     0.2407     0.2093    30.0520    29.4312
  345.5000     8.1812    -0.0204     2.2726   141.8943     0.2422     0.2351    28.8102    28.6315
  346.0000     8.1808    -0.0070     2.2456   117.1926     0.2407     0.2448    27.4729    27.4712
  346.5000     8.1803     0.0083     2.2531    96.4470     0.2386     0.2342    26.5413    26.3566
  347.0000     8.1798     0.0185     2.2771    89.7767     0.2389     0.2192    25.6414    25.1125
