~VERSION INFORMATION
 VERS.                2.0:   CWLS LOG ASCII STANDARD - VERSION 2.0
 WRAP.                 NO:   ONE LINE PER DEPTH STEP
~WELL INFORMATION
#MNEM.UNIT      DATA TYPE    INFORMATION
#----------   ------------   ------------------------------
 STRT.F           30.0000:   START DEPTH
 STOP.F          626.0000:   STOP DEPTH
 STEP.F            0.5000:   STEP LENGTH
 NULL.          -999.2500:   NO VALUE
 COMP.       F D SERV INC:   COMPANY
 WELL.    63-2 SX-3 #63-3:   WELL
 FLD .             TEAPOT:   FIELD
 LOC .       S3 T38N R78W:   LOCATION
 CNTY.            NATRONA:   COUNTY
 STAT.            WYOMING:   STATE
 CTRY. UNITED STATES OF AMERICA:   COUNTRY
 SRVC.     Atlas Wireline:   SERVICE COMPANY
 DATE.        29-APR-1992:   LOGDATE
 API .       490252251900:   API NUMBER
~CURVE INFORMATION
#MNEM.UNIT       API CODE    CURVE DESCRIPTION
#----------   ------------   ------------------------------
 DEPT.F                  :   
 CALD.IN     45 280 60 00:   CALIPER FROM DENSITY
 CORR.G/C3   45 356 01 00:   DENSITY CORRECTION
 DEN .G/C3   45 350 01 00:   COMPENSATED BULK DENSTIY
 GRD .GAPI   45 310 01 00:   GAMMA RAY FROM DENSITY LOG
 PORD.DEC    45 890 12 00:   POROSITY DENSITY SANDSTONE
 RILD.OHMM   07 120 46 00:   INDUCTION LOG DEEP RESISTIVITY
 RILM.OHMM   07 120 44 00:   INDUCTION LOG MEDIUM RESISTIVITY
~PARAMETER INFORMATION
#MNEM.UNIT          VALUE    DESCRIPTION
#----------   ------------   ------------------------------
 PD  .                 GL:   PERMANENT DATUM
 EPD .F              5160:   ELEVATION PERMANENT DATUM
 LMF .                 KB:   LOG MEASURED FROM
 DAPD.F                 5:   FEET ABOVE PERMANENT DATUM
 DMF .                 KB:   DRILLING MEASURED FROM
 EKB .F              5165:   KELLING BUSHING
 EGL .F              5160:   GROUND LEVEL
 DATE.        29-APR-1992:   RUN DATE
 RUN .                  1:   RUN NUMBER
 DD  .F               630:   DEPTH DRILLER
 DL  .F               629:   DEPTH LOGGER
 BLI .F               626:   BOTTOM LOG INTERVAL
 CS  .IN            8.625:   CASING SIZE
 CBD .F                45:   CASING BOTTOM DRILLER
 CBL .F                45:   CASING BOTTOM LOGGER
 BS  .IN            7.875:   BIT SIZE
 BSD .F               630:   BIT SIZE AT DEPTH
 DFT .                AIR:   DRILLING FLUID TYPE
 LUN .            HL-6212:   LOGGING UNIT NUMBER
 LUL .             CASPER:   LOGGING UNIT LOCATION
 ENGI.             ZIEGEN:   RECORDING ENGINEER
 WITN.             STRONG:   WITNESSED BY
 CLNT.            A2DTECH:   CLIENT CODE
 ORIG.           5" PRINT:   ORIGIN OF DATA
 UWI .       490252251900:   UNIQUE WELL ID
 DICO. A2D Technologies, Inc.:   DIGITIZING COMPANY
~OTHER INFORMATION
~A   DEPT     CALD       CORR        DEN        GRD       PORD       RILD       RILM   
# ...
  212.0000     8.2850     0.0030     2.4669   170.3295     0.1079     8.4005     7.7373
  212.5000     8.2700     0.0030     2.4661   170.9190     0.1097     8.1691     7.7357
  213.0000     8.2689     0.0030     2.4661   177.8529     0.1121     8.1115     7.7885
  213.5000     8.2680     0.0046     2.4713   182.3698     0.1103     8.0543     7.8408
  214.0000     8.2672     0.0076     2.4789   179.3339     0.1040     8.1095     7.9489
  214.5000     8.2663     0.0031     2.4803   173.5790     0.1025     8.1081     8.0026
  215.0000     8.2654     0.0031     2.4781   170.2410     0.1046     8.1070     8.1694
  215.5000     8.2798     0.0031     2.4782   169.6220     0.1044     8.1059     8.1678
  216.0000     8.2787     0.0046     2.4871   171.4199     0.1004     8.1613     8.1657
  216.5000     8.2778     0.0046     2.4938   171.0785     0.0947     8.3319     8.1640
  217.0000     8.2920     0.0047     2.4961   170.4834     0.0932     8.3888     8.1624
  217.5000     8.3062     0.0047     2.4968   169.8613     0.0920     8.4461     8.1607
  218.0000     8.3051     0.0046     2.4968   169.2423     0.0923     8.5627     8.1590
  218.5000     8.3042     0.0032     2.4961   171.6445     0.0933     8.6214     8.2142
  219.0000     8.3187    -0.0013     2.4938   179.1826     0.0943     8.6200     8.3274
  219.5000     8.3329    -0.0043     2.4900   190.3461     0.0957     8.7396     8.4423
  220.0000     8.3471    -0.0043     2.4862   193.0541     0.0984     8.7992     8.6182
  220.5000     8.3912    -0.0013     2.4802   188.5039     0.1020     8.8593     8.7993
  221.0000     8.4054     0.0048     2.4755   180.3320     0.1072     8.8578     8.9192
  221.5000     8.4045     0.0078     2.4703   174.2512     0.1102     8.8566     9.0421
  222.0000     8.3886     0.0093     2.4741   170.6348     0.1057     9.0417     9.1032
  222.5000     8.3424     0.0154     2.4861   176.0545     0.0984     9.0436     9.1009
  223.0000     8.2961     0.0169     2.4929   179.0645     0.0921     9.1110     9.0991
  223.5000     8.2650     0.0109     2.4989   177.2334     0.0897     9.1644     9.0972
  224.0000     8.2491     0.0079     2.5012   175.7081     0.0891     9.0995     9.0954
  224.5000     8.2331     0.0095     2.5011   176.2975     0.0885     8.9728     9.0306
  225.0000     8.2171     0.0139     2.5004   177.4912     0.0885     8.9095     8.9042
  225.5000     8.2162     0.0079     2.4996   180.7997     0.0898     8.8467     8.8407
  226.0000     8.2455     0.0034     2.4988   185.6188     0.0910     8.8455     8.6567
  226.5000     8.2748     0.0049     2.4957   187.4167     0.0934     8.7831     8.7152
  227.0000     8.3041     0.0065     2.4935   186.7733     0.0949     8.7819     8.3573
  227.5000     8.3032     0.0005     2.4920   184.6274     0.0970     8.7777     8.3556
  228.0000     8.3174    -0.0071     2.4890   182.5349     0.0979     8.7795     8.5893
  228.5000     8.3163    -0.0101     2.4837   180.1032     0.0995     8.7176     8.7081
  229.0000     8.3003    -0.0146     2.4799   176.4631     0.1037     8.7772     8.6456
  229.5000     8.2542    -0.0085     2.4746   177.3547     0.1070     8.7757     8.6439
  230.0000     8.2232    -0.0025     2.4716   182.1738     0.1079     8.7745     8.5823
  230.5000     8.2074     0.0051     2.4708   183.6696     0.1085     8.7733     8.5805
  231.0000     8.2365     0.0157     2.4716   182.7485     0.1092     8.7721     8.5788
  231.5000     8.2658     0.0202     2.4813   180.0147     0.1046     8.7709     8.5770
  232.0000     8.3101     0.0157     2.4927   177.2809     0.0968     8.7697     8.5753
  232.5000     8.3092     0.0081     2.4964   178.2324     0.0911     8.7685     8.6333
  233.0000     8.3081     0.0036     2.4979   180.2725     0.0896     8.7067     8.6311
  233.5000     8.3223    -0.0024     2.4986   178.1392     0.0899     8.5855     8.6294
  234.0000     8.3215    -0.0069     2.4978   172.3843     0.0911     8.5843     8.5679
  234.5000     8.3206    -0.0084     2.4978   173.2759     0.0920     8.5235     8.3895
  235.0000     8.3197    -0.0038     2.5008   174.7754     0.0905     8.3467     8.3297
  235.5000     8.3188     0.0037     2.5016   175.0627     0.0896     8.2879     8.2131
  236.0000     8.3179     0.0052     2.4978   175.0443     0.0912     8.1160     8.0982
  236.5000     8.3170     0.0022     2.4932   176.8422     0.0948     8.0588     7.9295
  237.0000     8.3162     0.0053     2.4947   177.7341     0.0947     7.8916     7.7644
  237.5000     8.3153     0.0083     2.4978   177.4169     0.0912     7.8360     7.6470
  238.0000     8.3142     0.0036     2.4985   177.0997     0.0924     7.5677     7.3329
  238.5000     8.3286    -0.0007     2.4962   178.2937     0.0939     7.3595     6.9915
  239.0000     8.3275     0.0023     2.4924   178.5774     0.0969     7.0573     6.5665
  239.5000     8.3266     0.0114     2.4894   177.0521     0.0982     6.8013     6.2972
  240.0000     8.3410     0.0204     2.4924   172.5056     0.0970     6.5830     6.1234
  240.5000     8.3399     0.0174     2.4976   165.2401     0.0924     6.4914     6.1651
  241.0000     8.3541     0.0009     2.5014   162.8121     0.0888     6.5359     6.3372
  241.5000     8.3532    -0.0036     2.5037   166.4190     0.0867     6.6262     6.5148
  242.0000     8.3524    -0.0036     2.5014   174.8635     0.0892     6.6717     6.6966
  242.5000     8.3514     0.0039     2.4983   181.4952     0.0931     6.8585     6.9318
  243.0000     8.3504     0.0115     2.4983   180.8598     0.0937     7.1988     7.2291
  243.5000     8.3495     0.0115     2.4967   178.9757     0.0949     7.4005     7.4792
  244.0000     8.3486     0.0039     2.4923   178.4261     0.0970     7.5551     7.6883
  244.5000     8.3477    -0.0041     2.4885   179.3177     0.0991     7.6602     7.9029
  245.0000     8.3468    -0.0156     2.4862   179.6087     0.1001     7.8742     7.9568
  245.5000     8.3460    -0.0080     2.4892   179.8961     0.0974     8.0386     8.0665
  246.0000     8.3451    -0.0020     2.4907   179.5755     0.0968     8.0937     8.1210
  246.5000     8.3442    -0.0005     2.4892   178.3523     0.0974     8.0923     8.1190
  247.0000     8.3433    -0.0095     2.4854   181.3587     0.0998     8.0912     8.1173
  247.5000     8.3424    -0.0125     2.4831   184.0630     0.1013     7.9234     8.0595
  248.0000     8.3413    -0.0065     2.4846   185.5588     0.0989     7.8131     7.8917
  248.5000     8.3555    -0.0004     2.4900   182.4584     0.0953     7.6511     7.6108
  249.0000     8.3546     0.0086     2.4952   177.7987     0.0931     7.4924     7.2575
  249.5000     8.3538     0.0147     2.4951   176.7532     0.0941     7.3881     7.0569
  250.0000     8.3557     0.0132     2.4926   180.4845     0.0964     7.1849     6.9492
  250.5000     8.3676     0.0087     2.4895   185.7936     0.0992     7.1104     6.8149
  251.0000     8.3658     0.0057     2.4853   185.4855     0.1014     6.8431     6.5823
  251.5000     8.3516     0.0013     2.4800   184.8754     0.1041     6.4283     6.3136
  252.0000     8.3512    -0.0017     2.4725   183.3588     0.1080     6.1230     6.0981
  252.5000     8.3355     0.0014     2.4574   180.3317     0.1140     5.8322     5.7685
  253.0000     8.3351     0.0074     2.4424   172.7728     0.1249     5.6721     5.3441
  253.5000     8.3195     0.0165     2.4182   168.2351     0.1396     5.5164     5.0203
  254.0000     8.2889     0.0286     2.3941   163.3968     0.1523     5.5161     4.9855
  254.5000     8.2885     0.0257     2.4122   170.3380     0.1508     5.5928     5.1617
  255.0000     8.2729     0.0151     2.4439   176.6765     0.1330     5.7101     5.4567
  255.5000     8.2574     0.0061     2.4672   176.8095     0.1116     5.8299     5.8492
  256.0000     8.2419    -0.0013     2.4800   172.1328     0.1011     6.0352     6.0981
  256.5000     8.2414    -0.0043     2.4906   173.0331     0.0956     6.3353     6.4465
  257.0000     8.2410    -0.0043     2.4966   179.3716     0.0926     6.6042     6.6281
