~VERSION INFORMATION
 VERS.                2.0:   CWLS LOG ASCII STANDARD - VERSION 2.0
 WRAP.                 NO:   ONE LINE PER DEPTH STEP
~WELL INFORMATION
#MNEM.UNIT      DATA TYPE    INFORMATION
#----------   ------------   ------------------------------
 STRT.F            3.0000:   START DEPTH
 STOP.F          523.0000:   STOP DEPTH
 STEP.F            0.1000:   STEP LENGTH
 NULL.          -999.2500:   NO VALUE
 COMP.     BROWN JOHN E&C:   COMPANY
 WELL.   NPR 3 #52-2-SX-3:   WELL
 FLD .             TEAPOT:   FIELD
 LOC .       S3 T38N R78W:   LOCATION
 CNTY.            NATRONA:   COUNTY
 STAT.            WYOMING:   STATE
 CTRY. UNITED STATES OF AMERICA:   COUNTRY
 SRVC.     Atlas Wireline:   SERVICE COMPANY
 DATE.        18-APR-1992:   LOGDATE
 API .       490252251500:   API NUMBER
~CURVE INFORMATION
#MNEM.UNIT       API CODE    CURVE DESCRIPTION
#----------   ------------   ------------------------------
 DEPT.F                  :   
 GRR .GAPI   07 310 01 00:   GAMMA RAY
 RILD.OHMM   07 120 46 00:   INDUCTION LOG DEEP RESISTIVITY
 RILM.OHMM   07 120 44 00:   INDUCTION LOG MEDIUM RESISTIVITY
~PARAMETER INFORMATION
#MNEM.UNIT          VALUE    DESCRIPTION
#----------   ------------   ------------------------------
 PD  .                 GL:   PERMANENT DATUM
 EPD .F              5128:   ELEVATION PERMANENT DATUM
 LMF .                 KB:   LOG MEASURED FROM
 DAPD.F                 5:   FEET ABOVE PERMANENT DATUM
 DMF .                 KB:   DRILLING MEASURED FROM
 EKB .F              5133:   KELLING BUSHING
 EDF .F              5132:   DRILLING FLOOR
 EGL .F              5128:   GROUND LEVEL
 DATE.        18-APR-1992:   RUN DATE
 RUN .                  1:   RUN NUMBER
 DD  .F               525:   DEPTH DRILLER
 DL  .F               526:   DEPTH LOGGER
 BLI .F               524:   BOTTOM LOG INTERVAL
 CS  .IN            8.625:   CASING SIZE
 CBD .F                48:   CASING BOTTOM DRILLER
 CBL .F                49:   CASING BOTTOM LOGGER
 BS  .IN            7.875:   BIT SIZE
 BSD .F               525:   BIT SIZE AT DEPTH
 DFT .                AIR:   DRILLING FLUID TYPE
 TCS .HRS               2:   TIME CURCULATED STOPPED
 MRT .F                87:   MAXIMUM RECORDED TEMPERATURE
 LUN .            HL 6274:   LOGGING UNIT NUMBER
 LUL .             CASPER:   LOGGING UNIT LOCATION
 ENGI.            LEBSOCK:   RECORDING ENGINEER
 WITN.             STRONG:   WITNESSED BY
 CLNT.            A2DTECH:   CLIENT CODE
 ORIG.       2", 5" PRINT:   ORIGIN OF DATA
 UWI .       490252251500:   UNIQUE WELL ID
 DICO. A2D Technologies, Inc.:   DIGITIZING COMPANY
~OTHER INFORMATION
~A    DEPT     GRR       RILD       RILM   
# ...
   39.4000    82.6004  -999.2500  -999.2500
   39.5000    81.6303  -999.2500  -999.2500
   39.6000    81.1386  -999.2500  -999.2500
   39.7000    81.0339  -999.2500  -999.2500
   39.8000    81.0327  -999.2500  -999.2500
   39.9000    81.0315  -999.2500  -999.2500
   40.0000    81.0303  -999.2500  -999.2500
   40.1000    81.0289  -999.2500  -999.2500
   40.2000    80.4049  -999.2500  -999.2500
   40.3000    79.3681  -999.2500  -999.2500
   40.4000    78.4170  -999.2500  -999.2500
   40.5000    77.9596  -999.2500  -999.2500
   40.6000    77.6896  -999.2500  -999.2500
   40.7000    77.6885  -999.2500  -999.2500
   40.8000    77.6873  -999.2500  -999.2500
   40.9000    77.6861  -999.2500  -999.2500
   41.0000    77.7818  -999.2500  -999.2500
   41.1000    78.2896  -999.2500  -999.2500
   41.2000    78.7604  -999.2500  -999.2500
   41.3000    79.4279  -999.2500  -999.2500
   41.4000    80.4032  -999.2500  -999.2500
   41.5000    81.5657  -999.2500  -999.2500
   41.6000    82.5503  -999.2500  -999.2500
   41.7000    83.7753  -999.2500  -999.2500
   41.8000    85.0004  -999.2500  -999.2500
   41.9000    86.3600  -999.2500  -999.2500
   42.0000    87.6768  -999.2500  -999.2500
   42.1000    88.6376  -999.2500  -999.2500
   42.2000    89.4883  -999.2500  -999.2500
   42.3000    89.6937  -999.2500  -999.2500
   42.4000    89.7891  -999.2500  -999.2500
   42.5000    89.6970  -999.2500  -999.2500
   42.6000    89.4505  -999.2500  -999.2500
   42.7000    89.1793  -999.2500  -999.2500
   42.8000    88.9576  -999.2500  -999.2500
   42.9000    88.7111  -999.2500  -999.2500
   43.0000    88.4646  -999.2500  -999.2500
   43.1000    88.1709  -999.2500  -999.2500
   43.2000    87.6581  -999.2500  -999.2500
   43.3000    87.1875  -999.2500  -999.2500
   43.4000    86.6958  -999.2500  -999.2500
   43.5000    86.2040  -999.2500  -999.2500
   43.6000    85.7737  -999.2500  -999.2500
   43.7000    85.5273  -999.2500  -999.2500
   43.8000    85.2808  -999.2500  -999.2500
   43.9000    85.0343  -999.2500  -999.2500
   44.0000    84.7879  -999.2500  -999.2500
   44.1000    84.5414  -999.2500  -999.2500
   44.2000    84.2950  -999.2500  -999.2500
   44.3000    84.0083  -999.2500  -999.2500
   44.4000    84.0073  -999.2500  -999.2500
   44.5000    84.0061  -999.2500  -999.2500
   44.6000    84.0049  -999.2500  -999.2500
   44.7000    84.0036  -999.2500  -999.2500
   44.8000    84.0023  -999.2500  -999.2500
   44.9000    84.0012  -999.2500  -999.2500
   45.0000    84.0000  -999.2500  -999.2500
   45.1000    83.9988  -999.2500  -999.2500
   45.2000    83.9976  -999.2500  -999.2500
   45.3000    83.9963  -999.2500  -999.2500
   45.4000    83.9952  -999.2500  -999.2500
   45.5000    83.9939  -999.2500  -999.2500
   45.6000    83.9927  -999.2500  -999.2500
   45.7000    83.9915  -999.2500  -999.2500
   45.8000    83.9903  -999.2500  -999.2500
   45.9000    83.9891  -999.2500  -999.2500
   46.0000    83.7980  -999.2500  -999.2500
   46.1000    83.4194  -999.2500  -999.2500
   46.2000    82.8533  -999.2500  -999.2500
   46.3000    82.1164  -999.2500  -999.2500
   46.4000    81.2556  -999.2500  -999.2500
   46.5000    80.8465  -999.2500  -999.2500
   46.6000    80.3547  -999.2500  -999.2500
   46.7000    79.9515  -999.2500  -999.2500
   46.8000    79.7050  -999.2500  -999.2500
   46.9000    79.4314  -999.2500  -999.2500
   47.0000    79.4303  -999.2500  -999.2500
   47.1000    79.5895  -999.2500  -999.2500
   47.2000    79.8335  -999.2500  -999.2500
   47.3000    80.1224  -999.2500  -999.2500
   47.4000    80.6375  -999.2500  -999.2500
   47.5000    81.3334  -999.2500  -999.2500
   47.6000    81.8933  -999.2500  -999.2500
   47.7000    82.4994  -999.2500  -999.2500
   47.8000    83.3519  -999.2500  -999.2500
   47.9000    84.5758  -999.2500  -999.2500
   48.0000    85.5556  -999.2500  -999.2500
   48.1000    86.1580  -999.2500  -999.2500
   48.2000    86.6473  -999.2500  -999.2500
   48.3000    87.0634  -999.2500  -999.2500
   48.4000    87.3382  -999.2500  -999.2500
   48.5000    88.1998  -999.2500  -999.2500
   48.6000    88.8073  -999.2500  -999.2500
   48.7000    89.3968  -999.2500  -999.2500
   48.8000    89.9733  -999.2500  -999.2500
   48.9000    90.7079  -999.2500  -999.2500
   49.0000    91.5271  -999.2500  -999.2500
   49.1000    92.6109     0.9915  -999.2500
   49.2000    93.6768     0.9914  -999.2500
   49.3000    94.4537     0.9914  -999.2500
   49.4000    95.0303     0.9913  -999.2500
   49.5000    96.0666     0.9912  -999.2500
   49.6000    97.6832     0.9912  -999.2500
   49.7000   102.5187     0.9911  -999.2500
   49.8000   109.1111     0.9910  -999.2500
   49.9000   115.8178     0.9909  -999.2500
   50.0000   121.2121     0.9909  -999.2500
   50.1000   120.2158     0.9908  -999.2500
   50.2000   121.9515     0.9907  -999.2500
   50.3000   124.3012     0.9907  -999.2500
   50.4000   126.4558     0.9906  -999.2500
   50.5000   128.5485     0.9905  -999.2500
   50.6000   131.5152     0.9905     4.0967
   50.7000   133.5715     0.9904     3.3914
   50.8000   135.1151     0.9903     3.1167
   50.9000   136.2400     0.9993     3.0403
   51.0000   137.1697     1.1628     2.9873
   51.1000   137.9042     1.3303     2.9605
   51.2000   138.4848     1.4953     2.9435
   51.3000   138.4848     1.7002     2.9265
   51.4000   138.3309     2.0199     2.9099
   51.5000   138.1818     2.4725     2.8933
   51.6000   138.1818     3.2967     2.9805
   51.7000   138.1818     4.0114     3.1947
   51.8000   138.1818     4.6856     3.4745
   51.9000   138.1818     5.5185     3.6088
   52.0000   138.1818     6.7640     3.7221
   52.1000   138.1818     8.9408     3.8373
   52.2000   138.1818     9.9596     3.9175
   52.3000   138.1818    11.5178     3.9518
   52.4000   138.1818    13.2550     3.9521
   52.5000   138.3485    15.0222     3.9748
   52.6000   138.4848    17.0860     3.9976
   52.7000   138.4848    34.0269     4.0474
   52.8000   138.4945    47.8126     4.1174
   52.9000   139.0909    79.2950     4.1887
   53.0000   139.0909   131.7328     4.2671
   53.1000   139.3830   219.4620     4.4282
   53.2000   139.7891   347.6687     4.5909
   53.3000   140.0382   493.2320     4.7514
   53.4000   140.3030   493.1900     4.9402
   53.5000   141.0030   277.6725     5.1976
   53.6000   141.7503   106.7356     5.4490
   53.7000   142.7485    73.3650     5.5794
   53.8000   144.0655    45.9584     5.7016
   53.9000   145.5248    31.1774     5.7875
   54.0000   146.6667    24.7140     5.8541
   54.1000   147.5176    18.8584     5.9253
   54.2000   148.5139    14.7800     5.9573
   54.3000   149.3006    13.0245     5.9915
   54.4000   149.7479    11.9139     5.9911
   54.5000   150.0000    10.9651     5.9568
   54.6000   150.0000    10.6290     5.9227
   54.7000   150.0000    10.6282     5.8835
   54.8000   150.0000    10.6816     5.8268
   54.9000   149.9158    10.7013     5.7810
   55.0000   149.6667    10.7006     5.7612
   55.1000   149.3939    10.6998     5.7611
   55.2000   148.9430    10.6991     5.7611
   55.3000   148.4449    10.6983     5.7930
   55.4000   147.9467    10.7463     5.8013
   55.5000   147.3849    10.7718     5.8188
   55.6000   146.6376    10.7711     5.8418
   55.7000   145.7576    10.7620     5.8447
   55.8000   145.1430    10.6945     5.8826
   55.9000   143.9430    10.6938     5.8825
   56.0000   142.4485    10.6504     5.8824
   56.1000   141.0400    10.6179     5.8969
   56.2000   140.0000    10.6171     5.9380
   56.3000   140.0000    10.6138     6.0068
   56.4000   140.1842    10.5416     6.3971
   56.5000   140.3030    10.5410     6.7839
   56.6000   140.3030    10.5037     7.0454
   56.7000   140.3479    10.4199     7.1806
   56.8000   140.9091    10.3102     7.2584
   56.9000   141.7794    10.2475     7.3044
   57.0000   142.7758    10.0265     7.3419
   57.1000   143.5527     9.9637     7.2989
   57.2000   144.0509     9.9630     7.2344
   57.3000   144.5491     9.9623     7.1929
   57.4000   145.0473     9.9402     7.1504
   57.5000   145.3485     9.6188     7.0286
