~VERSION INFORMATION
 VERS.                2.0:   CWLS LOG ASCII STANDARD - VERSION 2.0
 WRAP.                 NO:   ONE LINE PER DEPTH STEP
~WELL INFORMATION
#MNEM.UNIT      DATA TYPE    INFORMATION
#----------   ------------   ------------------------------
 STRT.F            0.0000:   START DEPTH
 STOP.F          448.0000:   STOP DEPTH
 STEP.F            0.5000:   STEP LENGTH
 NULL.          -999.2500:   NO VALUE
 COMP.       F D SERV INC:   COMPANY
 WELL.  65-1 SX-10 #65-10:   WELL
 FLD .             TEAPOT:   FIELD
 LOC .      S10 T38N R78W:   LOCATION
 CNTY.            NATRONA:   COUNTY
 STAT.            WYOMING:   STATE
 CTRY. UNITED STATES OF AMERICA:   COUNTRY
 SRVC.     Atlas Wireline:   SERVICE COMPANY
 DATE.        09-APR-1992:   LOGDATE
 API .       490252252700:   API NUMBER
~CURVE INFORMATION
#MNEM.UNIT       API CODE    CURVE DESCRIPTION
#----------   ------------   ------------------------------
 DEPT.F                  :   
 GRR .GAPI   07 310 01 00:   GAMMA RAY
 SPR .MV     07 010 01 00:   SPONTANEOUS POTENTIAL
 RILD.OHMM   07 120 46 00:   INDUCTION LOG DEEP RESISTIVITY
 RILM.OHMM   07 120 44 00:   INDUCTION LOG MEDIUM RESISTIVITY
 RFOC.OHMM   07 220 04 00:   RESISTIVITY FOCUSED LOG
~PARAMETER INFORMATION
#MNEM.UNIT          VALUE    DESCRIPTION
#----------   ------------   ------------------------------
 PD  .                 GL:   PERMANENT DATUM
 EPD .F              5192:   ELEVATION PERMANENT DATUM
 LMF .                 KB:   LOG MEASURED FROM
 DAPD.F                10:   FEET ABOVE PERMANENT DATUM
 DMF .                 KB:   DRILLING MEASURED FROM
 EKB .F              5202:   KELLING BUSHING
 EDF .F              5201:   DRILLING FLOOR
 EGL .F              5192:   GROUND LEVEL
 DATE.        09-APR-1992:   RUN DATE
 RUN .                  1:   RUN NUMBER
 DD  .F               450:   DEPTH DRILLER
 DL  .F               450:   DEPTH LOGGER
 BLI .F               448:   BOTTOM LOG INTERVAL
 CS  .IN            8.625:   CASING SIZE
 CBD .F               133:   CASING BOTTOM DRILLER
 CBL .F               135:   CASING BOTTOM LOGGER
 BS  .IN            7.875:   BIT SIZE
 BSD .F               450:   BIT SIZE AT DEPTH
 DFT .          CHEM. GEL:   DRILLING FLUID TYPE
 DFD .               12.7:   DRILLING FLUID DENSITY
 DFV .                 47:   DRILLING FLUID VISCOSITY
 DFPH.                  9:   DRILLING FLUID PH
 DFL .                9.2:   DRILLING FLUID LOSS
 MSS .            MUDTANK:   MUD SAMPLE SOURCE
 RMS .OHMM           3.14:   RESISTIVITY MUD SAMPLE
 MST .F                75:   MUD SAMPLE TEMPERATURE
 RMF .OHMM           1.79:   RESISTIVITY MUD FILTRATE SAMPLE
 MFST.F                75:   MUD FILTRATE SAMPLE TEMPERATURE
 RMC .OHMM           4.47:   RESISTIVITY MUD CAKE
 MCST.F                75:   MUD CAKE SAMPLE TEMPERATURE
 MFSS.               MEAS:   MUD FILTRATE SAMPLE SOURCE
 MCSS.               MEAS:   MUD CAKE SAMPLE SOURCE
 RMB .OHMM           2.14:   RESISTIVITY MUD AT BHT
 BHT .F               110:   BOTTOM HOLE TEMPERATURE
 TCS .HRS               2:   TIME CURCULATED STOPPED
 MRT .F               110:   MAXIMUM RECORDED TEMPERATURE
 LUN .            HL-6274:   LOGGING UNIT NUMBER
 LUL .             CASPER:   LOGGING UNIT LOCATION
 ENGI.             RAUTIO:   RECORDING ENGINEER
 WITN.        GARY STRONG:   WITNESSED BY
 CLNT.            A2DTECH:   CLIENT CODE
 ORIG.           5" PRINT:   ORIGIN OF DATA
 UWI .       490252252700:   UNIQUE WELL ID
 DICO. A2D Technologies, Inc.:   DIGITIZING COMPANY
~OTHER INFORMATION
~A    DEPT     GRR        SPR       RILD       RILM       RFOC   
# ...
  183.0000    89.4678   -62.8793     5.5175     5.4516     6.0108
  183.5000    90.3535   -63.2022     5.1423     5.2631     5.9657
  184.0000    92.7497   -63.0719     4.3459     5.0106     5.8389
  184.5000    92.4262   -62.4833     4.1361     4.8374     5.6751
  185.0000    92.7140   -62.0509     4.0481     4.7028     5.1801
  185.5000    94.8001   -61.9207     4.1606     4.6041     4.1413
  186.0000    91.1677   -61.9467     4.3832     4.6354     4.3766
  186.5000    87.5354   -61.9675     4.9142     4.7322     4.6577
  187.0000    86.3127   -62.1393     5.2670     4.9675     5.1687
  187.5000    86.2948   -62.1601     5.7647     5.2883     6.3245
  188.0000    87.7830   -62.0299     6.1355     5.6692     6.5454
  188.5000    88.9709   -61.8600     6.4848     6.0352     6.6351
  189.0000    91.4176   -61.0193     6.8538     6.2917     6.8178
  189.5000    96.2983   -60.1337     7.2439     6.6069     6.6595
  190.0000   100.0608   -59.6962     7.4462     6.8890     6.3949
  190.5000    99.6345   -59.5659     7.5998     7.0844     6.5640
  191.0000    95.8037   -59.7430     7.6489     7.1765     6.7466
  191.5000    92.1714   -59.7638     7.6972     7.3263     6.8381
  192.0000    89.7439   -59.9356     7.7470     7.3756     6.9794
  192.5000    88.2200   -60.2585     7.7970     7.4248     7.0273
  193.0000    87.9054   -60.7325     7.7926     7.4752     7.1202
  193.5000    89.9915   -61.0554     7.8430     7.5256     7.1166
  194.0000    92.3832   -61.6805     7.8376     7.5230     7.1125
  194.5000    94.4782   -61.8523     7.8882     7.4166     7.1091
  195.0000    93.5523   -61.8731     7.9403     7.3629     7.1056
  195.5000    92.3281   -61.7429     7.8796     7.3609     7.1022
  196.0000    91.7078   -61.5932     7.8752     7.3589     7.0381
  196.5000    92.8947   -61.3313     7.8161     7.3568     7.0458
  197.0000    94.6886   -61.2010     7.8118     7.3548     7.0855
  197.5000    96.1722   -61.2270     7.8075     7.3528     7.0843
  198.0000    96.7612   -61.3989     7.7489     7.3507     7.0834
  198.5000    96.7389   -61.5708     7.7989     7.3487     7.0824
  199.0000    96.7210   -61.5916     7.7946     7.3467     7.0814
  199.5000    96.7031   -61.6124     7.7904     7.3447     7.0804
  200.0000    96.6872   -61.6332     7.7861     7.3426     7.0795
  200.5000    96.9707   -61.4977     7.7257     7.3919     7.0785
  201.0000    98.4619   -61.3726     7.7204     7.3384     7.0282
  201.5000   100.5555   -61.3934     7.5024     7.2854     6.9296
  202.0000   101.1468   -60.9607     7.2906     7.1324     6.8804
  202.5000   100.2247   -61.4350     7.1345     6.9826     6.5952
  203.0000    98.1014   -61.6173     6.9817     6.8806     6.3172
  203.5000   100.1950   -62.1017     6.7374     6.6739     5.9668
  204.0000   104.0959   -62.4090     6.5472     6.1524     5.6535
  204.5000   106.7919   -62.4298     6.5426     5.8573     5.7323
  205.0000   108.8855   -62.2943     6.5304     5.8149     5.8941
  205.5000   107.2240   -62.1641     6.1774     5.8545     6.1890
  206.0000   101.4658   -61.5859     5.8785     5.8524     6.4533
  206.5000    97.0904   -61.4504     5.4780     5.6108     6.6821
  207.0000    96.4732   -61.6275     4.9295     5.1945     6.8707
  207.5000    97.3620   -61.9504     4.1655     4.7094     6.8219
  208.0000    98.8532   -62.2733     4.1343     4.1811     5.6473
  208.5000    97.9348   -61.9868     4.3683     4.1223     4.9786
  209.0000    96.7151   -59.8049     4.6487     4.4189     4.0927
  209.5000    95.1943   -59.2063     4.9471     4.7704     4.0351
  210.0000    95.1795   -59.2155     5.1915     5.1859     5.3709
  210.5000    95.4696   -59.8271     5.4926     5.5286     6.6075
  211.0000    97.8607   -60.5898     5.7639     5.8011     6.9598
  211.5000    99.0507   -61.3525     6.2995     6.0417     7.0077
  212.0000    99.0359   -61.2088     6.9909     6.4021     6.9092
  212.5000    97.8163   -60.4609     7.4396     7.0905     6.7648
  213.0000    96.5964   -59.8640     7.6465     7.2899     6.7170
  213.5000    97.5251   -59.5549     7.1243     7.0866     6.8584
  214.0000    97.7718   -59.2746     6.7796     6.5609     6.9538
  214.5000    95.0425   -59.2838     5.7289     6.0741     6.9044
  215.0000    93.2204   -59.4423     5.0837     5.6629     6.9035
  215.5000    94.4117   -60.0539     4.6067     5.3091     6.6189
  216.0000    92.8908   -60.5144     4.2928     4.9820     6.0852
  216.5000    91.0688   -60.5218     4.3503     4.7516     4.9675
  217.0000    92.8612   -60.5292     4.4445     4.7172     3.9432
  217.5000    97.0633   -60.2326     4.6255     4.7822     4.2566
  218.0000   100.0605   -59.9398     4.8203     4.8821     5.4000
  218.5000    98.7600   -59.7961     4.9883     5.0545     6.1665
  219.0000    94.9067   -59.5014     5.4209     5.3431     6.5664
  219.5000    92.4822   -59.5091     5.7287     5.6485     5.7888
  220.0000    90.0578   -59.3669     6.0118     5.9714     5.9939
  220.5000    87.9345   -59.3743     6.3531     6.3127     6.5635
  221.0000    87.0198   -58.9267     6.9041     6.6736     7.1371
  221.5000    89.1097   -58.1806     7.3987     7.0551     7.4419
  222.0000    90.0022   -57.1306     7.7643     7.4584     7.5989
  222.5000    88.7789   -56.5319     7.9882     7.6675     7.6608
  223.0000    86.9568   -56.6922     8.1995     7.7768     7.5966
  223.5000    86.6408   -57.1528     8.2514     7.8804     7.5955
  224.0000    87.8313   -57.6133     8.3036     7.9884     7.5945
  224.5000    88.1376   -58.8293     8.3561     8.0986     7.5986
  225.0000    86.8976   -58.7865     8.3489     8.0963     7.6457
  225.5000    86.5813   -58.2397     8.4031     8.2079     7.6444
  226.0000    86.9478   -58.2489     8.3960     8.2638     7.6433
  226.5000    88.6567   -58.2563     8.5083     8.3194     7.6423
  227.0000    89.5455   -58.2637     8.6221     8.3165     7.6948
  227.5000    88.9283   -58.2711     8.6162     8.3142     7.6938
  228.0000    88.9134   -58.2785     8.6104     8.3119     7.6927
  228.5000    89.2011   -58.2859     8.6043     8.3685     7.7459
  229.0000    88.8850   -57.9911     8.5983     8.3656     7.7446
  229.5000    87.6654   -57.3943     8.5912     8.3633     7.6896
  230.0000    86.4458   -57.0896     8.5853     8.3610     7.4764
  230.5000    86.4310   -56.8048     8.5795     8.4173     7.3716
  231.0000    87.6210   -56.8141     8.5736     8.4228     7.3705
  231.5000    85.1928   -57.1236     8.8724     8.5304     7.6359
  232.0000    82.7684   -57.2820     9.1176     8.5878     7.9659
  232.5000    80.6451   -57.2894     8.9849     8.6462     8.3555
  233.0000    79.1243   -57.2968     8.5501     8.2886     8.5914
  233.5000    77.3022   -57.1513     8.0797     7.6203     8.7727
  234.0000    75.4802   -57.0095     7.0703     6.9087     8.8950
  234.5000    76.6702   -56.5637     6.0059     6.0910     8.4096
  235.0000    81.7759   -56.2689     5.7184     4.5415     6.7696
  235.5000    88.6888   -56.1253     5.6815     4.6041     4.9411
  236.0000    94.0956   -56.1551     5.7575     4.9703     3.7089
  236.5000    94.1215   -56.5951     5.9989     5.2912     4.0049
  237.0000    92.2588   -56.6025     6.2515     5.8330     4.9047
  237.5000    89.3962   -56.6098     6.6528     6.2970     7.1043
  238.0000    86.2026   -56.3133     7.1794     6.9032     8.7615
  238.5000    85.2842   -56.0204     7.8021     7.5749     8.9496
  239.0000    84.9681   -55.7257     8.7191     8.4947     9.0076
  239.5000    84.6521   -55.1288     9.4753     9.1704     9.0692
  240.0000    82.8301   -54.8338     9.6021     9.4943     9.0680
  240.5000    81.3093   -53.7841     9.5954     9.5582     9.1307
  241.0000    80.9932   -51.8207     9.5887     9.5549     9.1291
  241.5000    80.9784   -50.4139     9.9214     9.7551     9.0643
  242.0000    80.0600   -50.1809    10.4117    10.0983     9.0630
  242.5000    79.4428   -51.8517    11.0799    10.6755     9.1254
  243.0000    79.1265   -53.5207    12.1253    11.4445     9.6491
  243.5000    79.0713   -54.8876    13.9346    12.4414    10.2029
