~VERSION INFORMATION
 VERS.                2.0:   CWLS LOG ASCII STANDARD - VERSION 2.0
 WRAP.                 NO:   ONE LINE PER DEPTH STEP
~WELL INFORMATION
#MNEM.UNIT      DATA TYPE    INFORMATION
#----------   ------------   ------------------------------
 STRT.F            0.0000:   START DEPTH
 STOP.F         4113.0000:   STOP DEPTH
 STEP.F            0.5000:   STEP LENGTH
 NULL.          -999.2500:   NO VALUE
 COMP. LAWRENCE/ALLISON INC:   COMPANY
 WELL.  NPR # #3 76 -MX-3:   WELL
 FLD .             TEAPOT:   FIELD
 LOC .       S3 T38N R78W:   LOCATION
 CNTY.            NATRONA:   COUNTY
 STAT.            WYOMING:   STATE
 CTRY. UNITED STATES OF AMERICA:   COUNTRY
 SRVC.      Dresser Atlas:   SERVICE COMPANY
 DATE.        04-SEP-1983:   LOGDATE
 API .       490251094300:   API NUMBER
~CURVE INFORMATION
#MNEM.UNIT       API CODE    CURVE DESCRIPTION
#----------   ------------   ------------------------------
 DEPT.F                  :   
 GRR .GAPI   07 310 01 00:   GAMMA RAY
 SPR .MV     07 010 01 00:   SPONTANEOUS POTENTIAL
 RILD.OHMM   07 120 46 00:   INDUCTION LOG DEEP RESISTIVITY
 RILM.OHMM   07 120 44 00:   INDUCTION LOG MEDIUM RESISTIVITY
 RFOC.OHMM   07 220 04 00:   RESISTIVITY FOCUSED LOG
 CNCF.DEC    42 890 03 00:   NEUTRON POROSITY SANDSTONE
 PORD.DEC    45 890 12 00:   POROSITY DENSITY SANDSTONE
 CALD.IN     45 280 60 00:   CALIPER FROM DENSITY LOG
 CORR.G/C3   45 356 01 00:   DENSITY CORRECTION
 DEN .G/C3   45 350 01 00:   COMPENSATED BULK DENSTIY
 AC  .US/F   60 520 00 00:   ACCOUSTIC
~PARAMETER INFORMATION
#MNEM.UNIT          VALUE    DESCRIPTION
#----------   ------------   ------------------------------
 PD  .                 GL:   PERMANENT DATUM
 EPD .F              5147:   ELEVATION PERMANENT DATUM
 LMF .                 KB:   LOG MEASURED FROM
 DAPD.F                10:   FEET ABOVE PERMANENT DATUM
 DMF .                 KB:   DRILLING MEASURED FROM
 EKB .F              5157:   KELLING BUSHING
 EGL .F              5147:   GROUND LEVEL
 DATE.        04-SEP-1983:   RUN DATE
 RUN .                  1:   RUN NUMBER
 DD  .F              4119:   DEPTH DRILLER
 DL  .F              4115:   DEPTH LOGGER
 BLI .F              4112:   BOTTOM LOG INTERVAL
 CS  .IN            9.625:   CASING SIZE
 CBD .F               491:   CASING BOTTOM DRILLER
 CBL .F               494:   CASING BOTTOM LOGGER
 BS  .IN             8.75:   BIT SIZE
 BSD .F              4119:   BIT SIZE AT DEPTH
 DFT .            KCL GEL:   DRILLING FLUID TYPE
 DFD .                8.9:   DRILLING FLUID DENSITY
 DFV .                 46:   DRILLING FLUID VISCOSITY
 DFPH.                9.0:   DRILLING FLUID PH
 DFL .               13.6:   DRILLING FLUID LOSS
 MSS .           MUD TANK:   MUD SAMPLE SOURCE
 RMS .OHMM           .315:   RESISTIVITY MUD SAMPLE
 MST .F                92:   MUD SAMPLE TEMPERATURE
 RMF .OHMM            .25:   RESISTIVITY MUD FILTRATE SAMPLE
 MFST.F                84:   MUD FILTRATE SAMPLE TEMPERATURE
 RMC .OHMM             .4:   RESISTIVITY MUD CAKE
 MCST.F                92:   MUD CAKE SAMPLE TEMPERATURE
 MFSS.               MEAS:   MUD FILTRATE SAMPLE SOURCE
 MCSS.               CALC:   MUD CAKE SAMPLE SOURCE
 RMB .OHMM            .22:   RESISTIVITY MUD AT BHT
 BHT .F               132:   BOTTOM HOLE TEMPERATURE
 TCS .HRS               4:   TIME CURCULATED STOPPED
 MRT .F               132:   MAXIMUM RECORDED TEMPERATURE
 LUN .               6274:   LOGGING UNIT NUMBER
 LUL .              GLTE.:   LOGGING UNIT LOCATION
 ENGI.             RAUTIO:   RECORDING ENGINEER
 WITN.             STRONG:   WITNESSED BY
 CLNT.            A2DTECH:   CLIENT CODE
 ORIG.        2" 5" PRINT:   ORIGIN OF DATA
 UWI .       490251094300:   UNIQUE WELL ID
 DICO. A2D Technologies, Inc.:   DIGITIZING COMPANY
~OTHER INFORMATION
~A    DEPT     GRR        SPR       RILD       RILM       RFOC       CNCF       PORD       CALD       CORR        DEN         AC   
# ...
 4087.0000  -999.2500   -34.8669    21.9412    23.4978    27.5526     0.0723     0.0136     8.8372     0.0229     2.6243  -999.2500
 4087.5000  -999.2500   -34.0927    20.5622    21.8510    25.6239     0.0733     0.0142     8.8373     0.0185     2.6228  -999.2500
 4088.0000  -999.2500   -33.3184    19.4017    20.6156    23.4879     0.0772     0.0142     8.8375     0.0186     2.6206  -999.2500
 4088.5000  -999.2500   -32.6674    17.7933    19.3099    21.0677     0.0818     0.0157     8.8376     0.0232     2.6176  -999.2500
 4089.0000  -999.2500   -32.0532    16.0865    17.6989    19.0340     0.0898     0.0181     8.8378     0.0323     2.6147  -999.2500
 4089.5000  -999.2500   -31.4393    14.6392    15.7598    17.9597     0.0928     0.0193     8.8379     0.0354     2.6079  -999.2500
 4090.0000  -999.2500   -30.8257    12.9425    12.8671    16.5821     0.0952     0.0241     8.8338     0.0339     2.6005  -999.2500
 4090.5000  -999.2500   -30.2115    10.5676    10.6583    15.8742     0.1024     0.0306     8.8232     0.0236     2.5952  -999.2500
 4091.0000  -999.2500   -29.6111     9.4789     9.4907    15.0869     0.1109     0.0346     8.8234     0.0087     2.5915  -999.2500
 4091.5000  -999.2500   -29.2975     8.5022     8.4509    13.1463     0.1295     0.0361     8.8235    -0.0003     2.5869  -999.2500
 4092.0000  -999.2500   -28.8463     7.2499     7.4184    10.1296     0.1502     0.0373     8.8237     0.0059     2.5818  -999.2500
 4092.5000  -999.2500   -28.3828     6.3176     6.5659     7.5824     0.1626     0.0413     8.8238     0.0210     2.5773  -999.2500
 4093.0000  -999.2500   -27.7680     5.8330     5.9556     6.4186     0.1866     0.0446     8.8240     0.0392     2.5721  -999.2500
 4093.5000  -999.2500   -27.3073     5.5837     5.6215     5.8836     0.2032     0.0467     8.8343     0.0303     2.5699  -999.2500
 4094.0000  -999.2500   -27.0031     5.4230     5.3447     6.2328     0.2194     0.0482     8.8393     0.0078     2.5707  -999.2500
 4094.5000  -999.2500   -26.5425     5.0799     5.1184     6.7967     0.2200     0.0449     8.8395     0.0154     2.5790  -999.2500
 4095.0000  -999.2500   -26.2385     4.6229     4.5599     7.3050     0.2083     0.0358     8.8546     0.0411     2.5875  -999.2500
 4095.5000  -999.2500   -25.7777     4.2375     4.1795     7.5725     0.2077     0.0337     8.8547     0.0533     2.5911  -999.2500
 4096.0000  -999.2500   -25.1602     3.9982     4.0296     6.5036     0.2146     0.0364     8.8549     0.0398     2.5836  -999.2500
 4096.5000  -999.2500   -24.3860     3.7998     3.8572     5.6671     0.2308     0.0443     8.8550     0.0188     2.5746  -999.2500
 4097.0000  -999.2500   -23.9248     3.5338     3.6391     5.2100     0.2420     0.0486     8.8552     0.0114     2.5656  -999.2500
 4097.5000  -999.2500   -23.4621     3.3342     3.3758     4.8605     0.2492     0.0503     8.8553     0.0115     2.5649  -999.2500
 4098.0000  -999.2500   -23.0037     3.1459     3.3032     4.7954     0.2516     0.0497     8.8583     0.0146     2.5665  -999.2500
 4098.5000  -999.2500   -22.6973     3.0554     3.2914     4.7944     0.2528     0.0485     8.8706     0.0072     2.5672  -999.2500
 4099.0000  -999.2500   -22.5500     3.0769     3.2796     4.7933     0.2588     0.0485     8.8708     0.0013     2.5665  -999.2500
 4099.5000  -999.2500   -22.5619     3.1208     3.2678     4.7923     0.2651     0.0494     8.8709    -0.0212     2.5658  -999.2500
 4100.0000  -999.2500   -22.5713     3.1425     3.2323     4.7912     0.2663     0.0518     8.8711    -0.0241     2.5651  -999.2500
 4100.5000  -999.2500   -22.7375     3.1187     3.2785     4.7557     0.2636     0.0527     8.8714    -0.0134     2.5659  -999.2500
 4101.0000  -999.2500   -22.7470     3.1404     3.3496     4.7546     0.2636     0.0496     8.8717     0.0017     2.5674  -999.2500
 4101.5000  -999.2500   -23.3834     3.2787     3.4471     4.8229     0.2640     0.0485     8.8720     0.0216     2.5690  -999.2500
 4102.0000  -999.2500   -24.0198     3.3741     3.5475     4.9634     0.2601     0.0485     8.8723     0.0366     2.5705  -999.2500
 4102.5000  -999.2500   -24.8130     3.3976     3.6508     5.0712  -999.2500     0.0485     8.8726     0.0427     2.5751  -999.2500
 4103.0000  -999.2500   -25.2927     3.4251     3.7844     5.1814  -999.2500     0.0434     8.8729     0.0383     2.5796  -999.2500
 4103.5000  -999.2500   -25.4589  -999.2500     3.9515     5.2942  -999.2500     0.0413     8.8625     0.0248     2.5842  -999.2500
 4104.0000  -999.2500   -25.4683  -999.2500     4.0961     5.4089  -999.2500     0.0373     8.8585     0.0189     2.5865  -999.2500
 4104.5000  -999.2500   -25.4778  -999.2500     4.3080     5.5263  -999.2500     0.0373     8.8588     0.0160     2.5865  -999.2500
 4105.0000  -999.2500   -25.3281  -999.2500     4.5003     5.6464  -999.2500     0.0373     8.8591     0.0161     2.5865  -999.2500
 4105.5000  -999.2500   -25.1808  -999.2500     4.7345     6.0687  -999.2500     0.0370     8.8594     0.0162     2.5873  -999.2500
 4106.0000  -999.2500   -25.0336  -999.2500     4.8739     6.7141  -999.2500     0.0361     8.8597     0.0148     2.5874  -999.2500
 4106.5000  -999.2500   -24.8863  -999.2500  -999.2500     7.2687  -999.2500     0.0361     8.8605     0.0059     2.5851  -999.2500
 4107.0000  -999.2500   -24.8981  -999.2500  -999.2500     7.5353  -999.2500     0.0377     8.8753    -0.0015     2.5807  -999.2500
 4107.5000  -999.2500   -24.9076  -999.2500  -999.2500     6.9569  -999.2500     0.0401     8.8756    -0.0014     2.5799  -999.2500
 4108.0000  -999.2500   -24.7579  -999.2500  -999.2500     6.4233  -999.2500     0.0422     8.8759     0.0017     2.5800  -999.2500
 4108.5000  -999.2500   -24.7697  -999.2500  -999.2500     6.0607  -999.2500     0.0425     8.8762     0.0153     2.5800  -999.2500
 4109.0000  -999.2500   -24.7792  -999.2500  -999.2500     5.8020  -999.2500     0.0404     8.8765     0.0456     2.5786  -999.2500
 4109.5000  -999.2500   -24.7887  -999.2500  -999.2500     5.5543  -999.2500     0.0407     8.8768     0.0549     2.5741  -999.2500
 4110.0000  -999.2500   -24.7651  -999.2500  -999.2500     5.3558  -999.2500     0.0410     8.8708     0.0533     2.5666  -999.2500
 4110.5000  -999.2500   -24.6485  -999.2500  -999.2500     5.3160  -999.2500     0.0473     8.8483     0.0339     2.5606  -999.2500
 4111.0000  -999.2500   -24.6583  -999.2500  -999.2500     5.5909  -999.2500     0.0526     8.8170     0.0226     2.5547  -999.2500
 4111.5000  -999.2500   -24.6677  -999.2500  -999.2500     6.0528  -999.2500  -999.2500     8.7856  -999.2500  -999.2500  -999.2500
 4112.0000  -999.2500   -24.6771  -999.2500  -999.2500     5.9910  -999.2500  -999.2500  -999.2500  -999.2500  -999.2500  -999.2500
 4112.5000  -999.2500  -999.2500  -999.2500  -999.2500     5.6554  -999.2500  -999.2500  -999.2500  -999.2500  -999.2500  -999.2500
 4113.0000  -999.2500  -999.2500  -999.2500  -999.2500     5.3388  -999.2500  -999.2500  -999.2500  -999.2500  -999.2500  -999.2500
