~VERSION INFORMATION
 VERS.                2.0:   CWLS LOG ASCII STANDARD - VERSION 2.0
 WRAP.                 NO:   ONE LINE PER DEPTH STEP
~WELL INFORMATION
#MNEM.UNIT      DATA TYPE    INFORMATION
#----------   ------------   ------------------------------
 STRT.F           17.0000:   START DEPTH
 STOP.F          634.0000:   STOP DEPTH
 STEP.F            0.5000:   STEP LENGTH
 NULL.          -999.2500:   NO VALUE
 COMP. FENIX & SCISSON INC:   COMPANY
 WELL.        NPR 3 #72-3:   WELL
 FLD .             TEAPOT:   FIELD
 LOC .       S3 T38N R78W:   LOCATION
 CNTY.            NATRONA:   COUNTY
 STAT.            WYOMING:   STATE
 CTRY. UNITED STATES OF AMERICA:   COUNTRY
 SRVC.           BIRDWELL:   SERVICE COMPANY
 DATE.        24-SEP-1978:   LOGDATE
 API .       490251069100:   API NUMBER
~CURVE INFORMATION
#MNEM.UNIT       API CODE    CURVE DESCRIPTION
#----------   ------------   ------------------------------
 DEPT.F                  :   
 SPR .MV     05 010 01 00:   SPONTANEOUS POTENTIAL FROM RES.
 SN  .OHMM   05 040 16 00:   SHORT NORMAL 16"
 ILD .OHMM   05 120 46 00:   INDUCTION LOG DEEP
 GRD .GAPI   45 310 01 00:   GAMMA RAY FROM DENSITY LOG
 CALD.IN     45 280 60 00:   CALIPER
 DEN .G/C3   45 350 01 00:   COMPENSATED BULK DENSTIY
 DPHI.DEC    45 890 12 00:   DENSITY POROSITY SANDSTONE
 CORR.G/C3   45 356 01 00:   DENSITY CORRECTION
~PARAMETER INFORMATION
#MNEM.UNIT          VALUE    DESCRIPTION
#----------   ------------   ------------------------------
 PD  .                 GL:   PERMANENT DATUM
 EPD .F              5155:   ELEVATION PERMANENT DATUM
 LMF .                 KB:   LOG MEASURED FROM
 DAPD.F                 4:   FEET ABOVE PERMANENT DATUM
 DMF .                 KB:   DRILLING MEASURED FROM
 EKB .F              5159:   KELLING BUSHING
 EGL .F              5155:   GROUND LEVEL
 DATE.            9-24-78:   RUN DATE
 RUN .                  1:   RUN NUMBER
 DD  .F               635:   DEPTH DRILLER
 DL  .F               634:   DEPTH LOGGER
 BLI .F               627:   BOTTOM LOG INTERVAL
 TLI .F                30:   TOP LOG INTERVAL
 CS  .IN            8.625:   CASING SIZE
 CBD .F                34:   CASING BOTTOM DRILLER
 CBL .F                34:   CASING BOTTOM LOGGER
 BS  .IN            7.875:   BIT SIZE
 BSD .F               635:   BIT SIZE AT DEPTH
 DFT .                KCL:   DRILLING FLUID TYPE
 DFD .                8.7:   DRILLING FLUID DENSITY
 DFV .                 36:   DRILLING FLUID VISCOSITY
 DFPH.                9.5:   DRILLING FLUID PH
 DFL .                8.2:   DRILLING FLUID LOSS
 MSS .          FLOW LINE:   MUD SAMPLE SOURCE
 RMS .OHMM             .2:   RESISTIVITY MUD SAMPLE
 MST .F                68:   MUD SAMPLE TEMPERATURE
 RMF .OHMM            .18:   RESISTIVITY MUD FILTRATE SAMPLE
 MFST.F                76:   MUD FILTRATE SAMPLE TEMPERATURE
 RMC .OHMM            .32:   RESISTIVITY MUD CAKE
 MCST.F                76:   MUD CAKE SAMPLE TEMPERATURE
 MFSS.               MEAS:   MUD FILTRATE SAMPLE SOURCE
 RMB .OHMM             .2:   RESISTIVITY MUD AT BHT
 BHT .F                70:   BOTTOM HOLE TEMPERATURE
 TCS .HRS               3:   TIME CURCULATED STOPPED
 MRT .F                70:   MAXIMUM RECORDED TEMPERATURE
 LUN .               2958:   LOGGING UNIT NUMBER
 LUL .               CASP:   LOGGING UNIT LOCATION
 ENGI.           REYNOLDS:   RECORDING ENGINEER
 WITN.              AMEND:   WITNESSED BY
 CLNT.            A2DTECH:   CLIENT CODE
 ORIG.           5" PRINT:   ORIGIN OF DATA
 UWI .       490251069100:   UNIQUE WELL ID
 DICO. A2D Technologies, Inc.:   DIGITIZING COMPANY
~OTHER INFORMATION
~A   DEPT      SPR         SN        ILD         GRD      CALD        DEN       DPHI       CORR   
# ...
   98.0000   -62.5675     7.0382     6.7328   125.1885     7.8575     2.4669     0.1282     0.0286
   98.5000   -62.4308     7.0117     6.7133   120.5631     7.8674     2.4673     0.1254     0.0285
   99.0000   -62.2525     6.9854     6.6938   119.2778     7.8774     2.4742     0.1213     0.0285
   99.5000   -62.0750     6.9605     6.6742   119.0054     7.8875     2.4811     0.1199     0.0285
  100.0000   -61.9938     6.9390     6.6532   119.9458     7.8979     2.4833     0.1197     0.0285
  100.5000   -62.1971     6.9176     6.6910   123.4639     7.8985     2.4839     0.1194     0.0285
  101.0000   -62.3904     6.9029     6.7336   126.7963     7.8984     2.4840     0.1189     0.0285
  101.5000   -62.5828     7.1012     6.7762   129.3590     7.8984     2.4847     0.1184     0.0285
  102.0000   -62.7559     7.2564     6.8192   130.0250     7.8943     2.4877     0.1173     0.0281
  102.5000   -62.7518     7.3786     6.8956   131.9438     7.8816     2.4923     0.1160     0.0244
  103.0000   -62.7511     7.4276     7.0023   135.6000     7.8690     2.5017     0.1113     0.0206
  103.5000   -62.7512     7.4769     7.1033   134.1507     7.8565     2.5114     0.1057     0.0170
  104.0000   -62.7505     7.5085     7.1465   126.7039     7.8438     2.5215     0.1000     0.0142
  104.5000   -62.7198     7.5251     7.1908   119.2985     7.8430     2.5334     0.0944     0.0134
  105.0000   -62.6865     7.5417     7.2353   111.9371     7.8500     2.5485     0.0887     0.0126
  105.5000   -62.6534     7.5586     7.2801   105.9258     7.8572     2.5494     0.0840     0.0142
  106.0000   -62.6203     7.5684     7.3252   106.3351     7.8644     2.5437     0.0953     0.0160
  106.5000   -62.5871     7.5209     7.3626   114.4466     7.8716     2.5179     0.1051     0.0179
  107.0000   -62.5540     7.4862     7.2960   125.4304     7.8785     2.4945     0.1148     0.0197
  107.5000   -62.5209     7.4516     7.2399   125.5261     7.8821     2.4840     0.1184     0.0215
  108.0000   -62.4878     7.4172     7.1842   121.7661     7.8854     2.4846     0.1156     0.0233
  108.5000   -62.4547     7.3829     7.1234   122.0355     7.8889     2.4849     0.1151     0.0251
  109.0000   -62.4216     7.3488     7.0595   122.3335     7.8923     2.4835     0.1174     0.0265
  109.5000   -62.3893     7.3148     6.9962   120.4042     7.8957     2.4831     0.1175     0.0260
  110.0000   -62.3615     7.2669     6.9335   117.6399     7.8991     2.4836     0.1173     0.0256
  110.5000   -62.0949     7.1999     6.8713   117.7328     7.9025     2.4840     0.1173     0.0252
  111.0000   -61.7883     7.1335     6.8096   118.1630     7.9059     2.4843     0.1177     0.0248
  111.5000   -61.4908     7.0677     6.7483   120.8215     7.9093     2.4846     0.1180     0.0247
  112.0000   -61.3508     7.0025     6.7143   126.5992     7.9127     2.4850     0.1177     0.0252
  112.5000   -61.3441     6.9668     6.7293   126.5749     7.9161     2.4863     0.1169     0.0256
  113.0000   -61.3450     6.9943     6.7436   122.2418     7.9167     2.4876     0.1164     0.0261
  113.5000   -61.3454     7.0128     6.7579   116.7204     7.9118     2.4883     0.1161     0.0264
  114.0000   -61.3452     7.0318     6.7722   116.2557     7.9070     2.4907     0.1126     0.0230
  114.5000   -61.3440     7.1328     6.8205   116.0061     7.9022     2.5050     0.1074     0.0196
  115.0000   -61.3930     7.2304     6.8862   115.4364     7.8975     2.5124     0.1022     0.0166
  115.5000   -61.4476     7.3288     6.9526   114.6688     7.8927     2.5180     0.0970     0.0173
  116.0000   -61.5023     7.4285     7.0195   116.5246     7.8879     2.5179     0.0940     0.0180
  116.5000   -61.5569     7.4995     7.0871   119.0265     7.8830     2.5174     0.0940     0.0185
  117.0000   -61.6115     7.4995     7.1619   121.5332     7.8788     2.5057     0.1019     0.0190
  117.5000   -61.6659     7.4995     7.1506   121.8722     7.8855     2.4890     0.1125     0.0196
  118.0000   -61.7210     7.4995     7.1382   121.6346     7.8925     2.4846     0.1160     0.0201
  118.5000   -61.7674     7.4995     7.1257   120.1050     7.8993     2.4836     0.1163     0.0205
  119.0000   -61.8363     7.4995     7.1132   118.5779     7.9062     2.4827     0.1165     0.0199
  119.5000   -61.9015     7.4995     7.1008   118.1327     7.9131     2.4818     0.1167     0.0193
  120.0000   -61.8624     7.4996     7.0884   118.6393     7.9199     2.4809     0.1168     0.0186
  120.5000   -61.5952     7.4992     7.0760   120.5768     7.9268     2.4794     0.1182     0.0198
  121.0000   -61.3319     7.4819     7.0636   126.1870     7.9336     2.4777     0.1201     0.0216
  121.5000   -61.0677     7.4633     7.0513   127.4340     7.9370     2.4769     0.1220     0.0233
  122.0000   -60.7973     7.4448     7.0391   127.0794     7.9265     2.4771     0.1236     0.0250
  122.5000   -60.7229     7.4264     7.0313   125.2883     7.9161     2.4843     0.1156     0.0251
  123.0000   -60.6868     7.4080     7.0312   124.4797     7.9057     2.4917     0.1120     0.0245
  123.5000   -60.6519     7.3896     7.0312   124.3735     7.8953     2.4914     0.1120     0.0245
  124.0000   -60.6166     7.3713     7.0312   124.4651     7.8849     2.4906     0.1124     0.0245
  124.5000   -60.5811     7.3530     7.0312   125.4882     7.8773     2.4889     0.1160     0.0245
  125.0000   -60.5457     7.3348     7.0312   126.4980     7.8743     2.4828     0.1196     0.0245
  125.5000   -60.5103     7.3165     7.0312   123.5547     7.8713     2.4771     0.1228     0.0245
  126.0000   -60.4748     7.2955     7.0312   119.0358     7.8683     2.4762     0.1207     0.0245
  126.5000   -60.4393     7.3181     7.0312   118.6788     7.8653     2.4827     0.1154     0.0245
  127.0000   -60.4037     7.3463     7.0312   118.7034     7.8622     2.4927     0.1101     0.0245
  127.5000   -60.3685     7.3747     7.0312   118.6488     7.8592     2.4931     0.1096     0.0245
  128.0000   -60.3498     7.4033     7.0312   122.1096     7.8562     2.4910     0.1160     0.0245
  128.5000   -60.3954     7.4307     7.0312   127.1870     7.8532     2.4929     0.1130     0.0245
  129.0000   -60.4396     7.4398     7.0312   129.9370     7.8502     2.4947     0.1106     0.0245
  129.5000   -60.4835     7.4487     7.0312   129.3859     7.8471     2.4965     0.1097     0.0246
  130.0000   -60.5265     7.4576     7.0312   127.1733     7.8441     2.4983     0.1079     0.0249
  130.5000   -60.4644     7.4665     7.0312   124.7659     7.8411     2.5000     0.1052     0.0251
  131.0000   -60.2962     7.4754     7.0312   122.2779     7.8381     2.5004     0.1062     0.0253
  131.5000   -60.1340     7.4842     7.0313   121.4812     7.8351     2.5010     0.1064     0.0256
  132.0000   -59.9900     7.4934     7.0370   122.1022     7.8320     2.4991     0.1064     0.0258
  132.5000   -59.5393     7.5187     7.0484   123.5031     7.8290     2.4963     0.1098     0.0260
  133.0000   -59.1280     7.5896     7.0601   126.8178     7.8260     2.4935     0.1130     0.0263
  133.5000   -59.1149     7.6602     7.0719   130.4016     7.8230     2.4901     0.1156     0.0265
  134.0000   -59.0949     7.7264     7.0836   130.8773     7.8199     2.4908     0.1128     0.0269
  134.5000   -59.0752     7.7817     7.0963   129.2094     7.8232     2.4921     0.1092     0.0274
  135.0000   -59.0554     7.8377     7.1519   127.4577     7.8307     2.4923     0.1099     0.0279
  135.5000   -59.0356     7.9135     7.2132   125.7269     7.8382     2.4901     0.1148     0.0283
  136.0000   -59.0158     7.9984     7.2750   124.6539     7.8458     2.4901     0.1141     0.0288
  136.5000   -58.9960     8.0729     7.3373   125.0480     7.8533     2.4980     0.1059     0.0293
  137.0000   -58.9760     8.0729     7.4002   125.7989     7.8609     2.5031     0.1047     0.0298
  137.5000   -58.9557     8.1413     7.4637   126.2992     7.8684     2.4992     0.1093     0.0302
  138.0000   -58.9417     8.2681     7.5276   125.9836     7.8761     2.4943     0.1132     0.0303
