~VERSION INFORMATION
 VERS.                2.0:   CWLS LOG ASCII STANDARD - VERSION 2.0
 WRAP.                 NO:   ONE LINE PER DEPTH STEP
~WELL INFORMATION
#MNEM.UNIT      DATA TYPE    INFORMATION
#----------   ------------   ------------------------------
 STRT.F           20.0000:   START DEPTH
 STOP.F          626.0000:   STOP DEPTH
 STEP.F            0.5000:   STEP LENGTH
 NULL.          -999.2500:   NO VALUE
 COMP. FENIX & SCISSON INC:   COMPANY
 WELL. NPR-3  38-S-34 #38-34:   WELL
 FLD .             TEAPOT:   FIELD
 LOC .      S34 T39N R78W:   LOCATION
 CNTY.            NATRONA:   COUNTY
 STAT.            WYOMING:   STATE
 CTRY. UNITED STATES OF AMERICA:   COUNTRY
 SRVC.           BIRDWELL:   SERVICE COMPANY
 DATE.        08-AUG-1978:   LOGDATE
 API .       490251068300:   API NUMBER
~CURVE INFORMATION
#MNEM.UNIT       API CODE    CURVE DESCRIPTION
#----------   ------------   ------------------------------
 DEPT.F                  :   
 SPR .MV     05 010 01 00:   SPONTANEOUS POTENTIAL FROM RES.
 SN  .OHMM   05 040 16 00:   SHORT NORMAL 16"
 IL  .OHMM   05 120 00 00:   INDUCTION LOG
 RHOB.G/C3   45 350 01 00:   BULK DENSITY
 DPHI.DEC    45 890 12 00:   DENSITY POROSITY SANDSTONE
 CORR.G/C3   45 356 01 00:   DENSITY CORRECTION
 GRD .GAPI   45 310 01 00:   GAMMA RAY FROM DENSITY LOG
 CALD.IN     45 280 60 00:   CALIPER
~PARAMETER INFORMATION
#MNEM.UNIT          VALUE    DESCRIPTION
#----------   ------------   ------------------------------
 PD  .                 GL:   PERMANENT DATUM
 EPD .F              5213:   ELEVATION PERMANENT DATUM
 LMF .                 KB:   LOG MEASURED FROM
 DAPD.F                 4:   FEET ABOVE PERMANENT DATUM
 DMF .                 KB:   DRILLING MEASURED FROM
 EKB .F              5217:   KELLING BUSHING
 EGL .F              5213:   GROUND LEVEL
 DATE.             8-8-78:   RUN DATE
 RUN .                  1:   RUN NUMBER
 DD  .F               620:   DEPTH DRILLER
 DL  .F               632:   DEPTH LOGGER
 BLI .F               626:   BOTTOM LOG INTERVAL
 TLI .F                35:   TOP LOG INTERVAL
 CS  .IN            8.625:   CASING SIZE
 CBL .F                35:   CASING BOTTOM LOGGER
 BS  .IN            7.875:   BIT SIZE
 BSD .F               620:   BIT SIZE AT DEPTH
 DFT .                KCL:   DRILLING FLUID TYPE
 DFD .                8.7:   DRILLING FLUID DENSITY
 DFV .                 33:   DRILLING FLUID VISCOSITY
 DFPH.                  9:   DRILLING FLUID PH
 DFL .                  5:   DRILLING FLUID LOSS
 MSS .          FLOW LINE:   MUD SAMPLE SOURCE
 RMS .OHMM            .12:   RESISTIVITY MUD SAMPLE
 MST .F                80:   MUD SAMPLE TEMPERATURE
 RMF .OHMM            .13:   RESISTIVITY MUD FILTRATE SAMPLE
 MFST.F                83:   MUD FILTRATE SAMPLE TEMPERATURE
 RMC .OHMM            .16:   RESISTIVITY MUD CAKE
 MCST.F                84:   MUD CAKE SAMPLE TEMPERATURE
 MFSS.               MEAS:   MUD FILTRATE SAMPLE SOURCE
 TCS .HRS               1:   TIME CURCULATED STOPPED
 LUN .               3006:   LOGGING UNIT NUMBER
 LUL .               CASP:   LOGGING UNIT LOCATION
 ENGI.             MILLER:   RECORDING ENGINEER
 WITN.           MCGINLEY:   WITNESSED BY
 CLNT.            A2DTECH:   CLIENT CODE
 ORIG.           5" PRINT:   ORIGIN OF DATA
 UWI .       490251068300:   UNIQUE WELL ID
 DICO. A2D Technologies, Inc.:   DIGITIZING COMPANY
~OTHER INFORMATION
~A   DEPT      SPR         SN         IL       RHOB       DPHI       CORR         GRD      CALD   
# ...
  546.5000   -15.8998    10.3252    11.2061     2.3092     0.2189     0.0434    71.8371     7.2202
  547.0000   -16.2218    10.3034    11.4782     2.3091     0.2175     0.0474    71.6942     7.2112
  547.5000   -16.7553    10.2815    11.7569     2.3128     0.2210     0.0475    71.4538     7.2025
  548.0000   -17.2749    10.2598    12.0081     2.3040     0.2243     0.0474    73.3544     7.1638
  548.5000   -17.8046    10.2381    11.8958     2.2966     0.2277     0.0476    76.8412     7.0247
  549.0000   -17.9010    10.2164    11.7758     2.2923     0.2287     0.0525    75.6833     6.9965
  549.5000   -17.9014    10.1948    11.6571     2.2883     0.2284     0.0577    74.7076     7.1138
  550.0000   -17.8996    10.1732    11.5397     2.2918     0.2212     0.0630    73.9377     7.2975
  550.5000   -17.8963    10.1517    11.4236     2.3171     0.2075     0.0667    77.1747     7.4824
  551.0000   -17.9122    10.1302    11.3081     2.3483     0.1935     0.0595    80.7861     7.6481
  551.5000   -18.4976    10.1088    11.0876     2.3574     0.1895     0.0525    81.0972     7.7052
  552.0000   -19.1221    10.0874    10.7957     2.3574     0.1918     0.0482    80.4409     7.7651
  552.5000   -19.7449     9.9658    10.5124     2.3512     0.1947     0.0686    79.2741     7.8253
  553.0000   -20.2922     9.7804    10.2770     2.3473     0.1903     0.0887    76.4678     7.8855
  553.5000   -20.2395     9.5998    10.0974     2.3577     0.1855     0.1088    73.7318     7.9456
  554.0000   -20.1799     9.4226     9.9190     2.3731     0.1737     0.1287    72.2724     7.9972
  554.5000   -20.1201     9.2487     9.6720     2.3948     0.1619     0.1438    74.7546     8.0169
  555.0000   -20.1773     9.1141     9.3156     2.4169     0.1491     0.1394    76.7519     7.8472
  555.5000   -20.3252     9.1219     8.9723     2.4313     0.1484     0.1350    78.0346     7.6588
  556.0000   -20.9061     9.1342     8.6416     2.4244     0.1584     0.1305    78.7402     7.4694
  556.5000   -21.3371     9.1466     8.2376     2.4079     0.1671     0.1401    79.2244     7.3653
  557.0000   -21.4301     9.1590     8.2543     2.3861     0.1758     0.1535    78.9427     7.2885
  557.5000   -21.5282     9.1715     8.2773     2.3812     0.1767     0.1574    78.6702     7.1437
  558.0000   -21.6277     9.1840     8.3005     2.3744     0.1823     0.1618    79.1270     6.9827
  558.5000   -21.8428     9.1990     8.3792     2.3669     0.1842     0.1731    79.7635     6.8212
  559.0000   -22.4727     9.1732     8.5334     2.3701     0.1683     0.1783    79.3345     6.6604
  559.5000   -22.6097     9.1212     8.7047     2.3983     0.1593     0.1521    78.4789     6.4985
  560.0000   -22.7205     9.0690     8.6156     2.4191     0.1543     0.1259    78.7508     6.4243
  560.5000   -22.8347     9.0170     8.5189     2.4175     0.1576     0.0998    79.6650     6.5250
  561.0000   -22.9502     8.9653     8.4232     2.4111     0.1719     0.0772    78.3177     6.6362
  561.5000   -23.0621     8.9139     8.3286     2.3853     0.1755     0.0683    76.5996     6.7472
  562.0000   -23.3076     8.8628     8.3004     2.3833     0.1691     0.0592    74.7661     6.8580
  562.5000   -23.7278     8.8120     8.2847     2.3957     0.1651     0.0512    78.1634     6.9686
  563.0000   -24.4260     8.7615     8.2690     2.4010     0.1644     0.0496    84.8359     7.0907
  563.5000   -24.6954     8.7113     8.2533     2.4011     0.1636     0.0478    86.3438     7.2320
  564.0000   -24.7018     8.6613     8.2377     2.4009     0.1612     0.0440    83.8492     7.3582
  564.5000   -24.7064     8.6117     8.2220     2.4096     0.1571     0.0397    81.3356     7.4465
  565.0000   -24.9180     8.5623     8.2065     2.4160     0.1563     0.0356    79.7935     7.5336
  565.5000   -25.2309     8.5367     8.1909     2.4152     0.1567     0.0372    80.2643     7.6211
  566.0000   -25.5871     8.5228     8.1754     2.4146     0.1547     0.0391    80.6679     7.6806
  566.5000   -25.9463     8.5089     8.1599     2.4200     0.1473     0.0409    78.1609     7.7240
  567.0000   -26.3048     8.4950     8.1444     2.4332     0.1436     0.0413    75.3821     7.7672
  567.5000   -26.6556     8.4811     8.1290     2.4350     0.1444     0.0411    78.1766     7.8106
  568.0000   -26.8851     8.4672     8.1136     2.4353     0.1431     0.0408    77.1906     7.8512
  568.5000   -27.0917     8.4534     8.0981     2.4384     0.1390     0.0406    76.0477     7.8312
  569.0000   -27.2988     8.4396     8.0810     2.4414     0.1378     0.0403    75.8560     7.8090
  569.5000   -27.5064     8.4258     8.0588     2.4445     0.1367     0.0400    77.6995     7.7874
  570.0000   -27.6967     8.4120     8.0368     2.4496     0.1329     0.0397    79.9805     7.7764
  570.5000   -27.6875     8.3986     8.0149     2.4624     0.1301     0.0395    82.2994     7.7857
  571.0000   -27.6736     8.3679     7.9930     2.4589     0.1308     0.0421    82.3226     7.7947
  571.5000   -27.6605     8.3159     7.9712     2.4550     0.1314     0.0479    81.7370     7.8042
  572.0000   -27.6476     8.2641     7.9495     2.4553     0.1294     0.0537    81.4359     7.8116
  572.5000   -27.6346     8.2127     7.9278     2.4641     0.1252     0.0576    82.9166     7.7410
  573.0000   -27.6217     8.1616     7.9062     2.4713     0.1235     0.0578    84.3942     7.6639
  573.5000   -27.6088     8.1109     7.8847     2.4679     0.1268     0.0581    85.8566     7.5884
  574.0000   -27.5958     8.0604     7.8632     2.4640     0.1303     0.0583    86.4347     7.5753
  574.5000   -27.5829     8.0135     7.8417     2.4615     0.1298     0.0586    84.3506     7.7256
  575.0000   -27.5700     7.9994     7.8204     2.4604     0.1292     0.0589    82.0180     7.7017
  575.5000   -27.5571     7.9862     7.7990     2.4585     0.1318     0.0591    82.6371     7.6346
  576.0000   -27.5441     7.9730     7.7778     2.4547     0.1344     0.0592    83.8653     7.5662
  576.5000   -27.5308     7.9598     7.7566     2.4510     0.1371     0.0689    85.1487     7.4996
  577.0000   -27.5186     7.9467     7.7354     2.4472     0.1388     0.0824    84.9227     7.4676
  577.5000   -27.5028     7.9335     7.7144     2.4454     0.1325     0.0960    84.0262     7.5343
  578.0000   -27.8048     7.9204     7.6933     2.4568     0.1252     0.1098    85.4704     7.4595
  578.5000   -28.3178     7.9073     7.6723     2.4691     0.1215     0.1025    87.3266     7.4959
  579.0000   -28.7706     7.8942     7.6514     2.4726     0.1212     0.0921    85.5642     7.5775
  579.5000   -29.0490     7.8812     7.6306     2.4741     0.1216     0.0816    82.1101     7.5750
  580.0000   -29.3229     7.8682     7.6098     2.4704     0.1258     0.0710    84.8895     7.5060
  580.5000   -29.5707     7.8552     7.5890     2.4614     0.1324     0.0723    88.6143     7.5117
  581.0000   -29.7637     7.8422     7.5683     2.4541     0.1324     0.0758    89.0769     7.5371
  581.5000   -29.9580     7.8292     7.5477     2.4553     0.1309     0.0792    89.1773     7.5634
  582.0000   -30.1518     7.8162     7.5271     2.4570     0.1304     0.0790    87.4937     7.5583
  582.5000   -30.3459     7.8033     7.4923     2.4559     0.1327     0.0722    85.6567     7.5304
  583.0000   -30.5398     7.7680     7.4333     2.4531     0.1350     0.0654    84.6488     7.5022
  583.5000   -30.7208     7.6992     7.3748     2.4503     0.1373     0.0667    85.4528     7.4739
  584.0000   -30.8214     7.6310     7.3167     2.4479     0.1338     0.0712    86.2696     7.4455
  584.5000   -30.9246     7.5634     7.2591     2.4484     0.1280     0.0759    85.2203     7.4179
  585.0000   -31.0280     7.4965     7.2020     2.4621     0.1238     0.0805    83.1715     7.3896
  585.5000   -31.1315     7.4301     7.1452     2.4680     0.1246     0.0851    81.5887     7.4247
  586.0000   -31.2343     7.3643     7.0890     2.4680     0.1246     0.0862    82.0842     7.4965
  586.5000   -31.3189     7.2991     7.0328     2.4686     0.1226     0.0822    83.5316     7.5692
