~VERSION INFORMATION
 VERS.                2.0:   CWLS LOG ASCII STANDARD - VERSION 2.0
 WRAP.                 NO:   ONE LINE PER DEPTH STEP
~WELL INFORMATION
#MNEM.UNIT      DATA TYPE    INFORMATION
#----------   ------------   ------------------------------
 STRT.F           32.0000:   START DEPTH
 STOP.F         1006.0000:   STOP DEPTH
 STEP.F            0.5000:   STEP LENGTH
 NULL.          -999.2500:   NO VALUE
 COMP. FENIX & SCISSON INC:   COMPANY
 WELL.        NPR-3 #54-2:   WELL
 FLD .             TEAPOT:   FIELD
 LOC .       S2 T38N R78W:   LOCATION
 CNTY.            NATRONA:   COUNTY
 STAT.            WYOMING:   STATE
 CTRY. UNITED STATES OF AMERICA:   COUNTRY
 SRVC.              Welex:   SERVICE COMPANY
 DATE.        08-SEP-1977:   LOGDATE
 API .       490251041600:   API NUMBER
~CURVE INFORMATION
#MNEM.UNIT       API CODE    CURVE DESCRIPTION
#----------   ------------   ------------------------------
 DEPT.F                  :   
 CALD.IN     45 280 60 00:   CALIPER FROM DENSITY LOG
 GRD .GAPI   45 310 01 00:   GAMMA RAY FROM DENSITY LOG
 CORR.G/C3   45 356 01 00:   DENSITY CORRECTION
 DPHI.DEC    45 890 12 00:   DENSITY POROSITY SANDSTONE
 RHOB.G/C3   45 350 01 00:   BULK DENSITY
 SPR .MV     07 010 01 00:   SPONTANEOUS POTENTIAL
 ILD .OHMM   07 120 46 00:   INDUCTION LOG DEEP
 ILM .OHMM   07 120 44 00:   INDUCTION LOG MEDIUM
 SGRD.OHMM   07 221 05 00:   SHALLOW SHORT GUARD RESISTIVITY
~PARAMETER INFORMATION
#MNEM.UNIT          VALUE    DESCRIPTION
#----------   ------------   ------------------------------
 PD  .                 GL:   PERMANENT DATUM
 EPD .F              5160:   ELEVATION PERMANENT DATUM
 LMF .                 KB:   LOG MEASURED FROM
 DAPD.F                10:   FEET ABOVE PERMANENT DATUM
 DMF .                 KB:   DRILLING MEASURED FROM
 EKB .F              5170:   KELLING BUSHING
 EGL .F              5160:   GROUND LEVEL
 DATE.        08-SEP-1977:   RUN DATE
 RUN .                  1:   RUN NUMBER
 DD  .F              1000:   DEPTH DRILLER
 DL  .F              1008:   DEPTH LOGGER
 BLI .F              1006:   BOTTOM LOG INTERVAL
 TLI .F                47:   TOP LOG INTERVAL
 CS  .IN            8.625:   CASING SIZE
 BS  .IN             6.75:   BIT SIZE
 BSD .F              1000:   BIT SIZE AT DEPTH
 DFT .            KCL MUD:   DRILLING FLUID TYPE
 DFD .                9.1:   DRILLING FLUID DENSITY
 BHT .F               100:   BOTTOM HOLE TEMPERATURE
 TCS .HRS            0230:   TIME CURCULATED STOPPED
 MRT .F               100:   MAXIMUM RECORDED TEMPERATURE
 ENGI.          D. LAWSON:   RECORDING ENGINEER
 WITN.         HARRINGTON:   WITNESSED BY
 CLNT.            A2DTECH:   CLIENT CODE
 ORIG.           5" PRINT:   ORIGIN OF DATA
 UWI .       490251041600:   UNIQUE WELL ID
 DICO. A2D Technologies, Inc.:   DIGITIZING COMPANY
~OTHER INFORMATION
~A   DEPT     CALD         GRD       CORR      DPHI         RHOB      SPR        ILD        ILM       SGRD   
# ...
  725.5000     6.9300    83.5976     0.0197     0.2124     2.3301   -46.9196     3.9990     4.0607     7.0818
  726.0000     6.9315    86.5648     0.0168     0.2217     2.3100   -47.3531     3.5181     3.5623     6.3866
  726.5000     6.9330    85.2950     0.0125     0.2234     2.2966   -47.4914     3.1250     3.2803     5.7164
  727.0000     6.9342    78.7893     0.0082     0.2170     2.2975   -47.4728     2.6971     2.8977     4.9978
  727.5000     6.9357    76.5698     0.0038     0.2093     2.3141   -47.3084     2.5013     2.6316     4.2254
  728.0000     6.9372    81.3757     0.0040     0.1707     2.3862   -46.9946     2.3358     2.4741     3.3413
  728.5000     6.9387    86.7795     0.0042     0.1579     2.4035   -46.6807     2.3376     2.6528     2.8711
  729.0000     6.9402    90.0907     0.0058     0.1509     2.4149   -46.3669     2.3394     2.8642     2.7177
  729.5000     6.9418    89.2165     0.0090     0.1363     2.4285   -46.0530     2.3903     3.0924     3.2342
  730.0000     6.9284    88.4861     0.0137     0.1258     2.4384   -45.7392     2.5108     3.3854     4.4296
  730.5000     6.9298    89.7103     0.0214     0.1207     2.4505   -45.4253     2.6192     3.7577     6.4725
  731.0000     6.9313    90.9288     0.0246     0.1200     2.4521   -45.2609     2.9057     4.2881     4.8769
  731.5000     6.9328    92.7451     0.0262     0.1218     2.4470   -44.9471     3.2781     4.7597     7.7079
  732.0000     6.9343    95.3089     0.0249     0.1244     2.4411   -44.4838     3.6506     5.1390     8.7372
  732.5000     6.9358    98.0222     0.0221     0.1289     2.4345   -44.3194     4.0231     5.4345     8.7433
  733.0000     6.9223   101.0552     0.0192     0.1329     2.4271   -44.1550     4.5103     5.6679     8.7493
  733.5000     6.8936    94.7790     0.0142     0.1370     2.4183   -43.9906     5.0772     5.8302     8.7554
  734.0000     6.8656    90.7658     0.0041     0.1425     2.4147   -43.8263     5.5593     5.9558     8.7614
  734.5000     6.8519    89.1442    -0.0060     0.1500     2.4125   -43.8114     5.7994     6.0841     8.7070
  735.0000     6.8383    90.8111    -0.0102     0.1533     2.4119   -43.7965     5.8847     6.1723     8.3584
  735.5000     6.8344    93.5244    -0.0101     0.1499     2.4106   -43.7816     5.8892     6.2185     8.2477
  736.0000     6.8264    95.7892    -0.0084     0.1484     2.4077   -43.7667     5.8519     6.2652     8.6050
  736.5000     6.8283    97.0792    -0.0067     0.1507     2.4041   -44.0508     5.7360     6.2686     8.8529
  737.0000     6.8298    98.2212    -0.0050     0.1557     2.4005   -44.3348     5.5847     6.1858     9.0450
  737.5000     6.8313    98.5421    -0.0019     0.1617     2.3967   -44.9178     5.2880     5.8559     9.1774
  738.0000     6.8328    97.9611    -0.0002     0.1584     2.3932   -45.5008     5.0418     5.3903     9.3119
  738.5000     6.8343    97.0927     0.0000     0.1443     2.4034   -45.7888     4.8404     5.0309     9.3814
  739.0000     6.8205    96.0690     0.0016     0.1269     2.4183   -46.0748     4.6793     4.7965     8.5812
  739.5000     6.8224    91.0095     0.0018     0.1242     2.4340   -46.2035     4.5236     4.6673     6.2880
  740.0000     6.8239    84.3057     0.0020     0.1261     2.4409   -45.8794     4.3731     4.5772     4.6710
  740.5000     6.8403    82.7535     0.0021     0.1299     2.4313   -45.2646     4.2497     4.5798     7.2823
  741.0000     6.8418    87.6395     0.0008     0.1343     2.4164   -44.8132     4.1198     4.6202     7.4920
  741.5000     6.8433    97.6771    -0.0020     0.1384     2.4083   -44.6487     4.0662     4.8801     7.9229
  742.0000     6.8445    95.0092    -0.0109     0.1393     2.4115   -44.4843     4.2421     5.1251     4.7493
  742.5000     6.8460    88.9033    -0.0123     0.1326     2.4348   -44.4694     4.3945     5.4198     8.3294
  743.0000     6.8625    87.2761    -0.0104     0.1245     2.4525   -44.4544     4.5523     5.6919     8.5101
  743.5000     6.8640    90.1445    -0.0043     0.1144     2.4748   -44.4395     4.7485     5.9777     8.3988
  744.0000     6.8804    93.7546     0.0018     0.1107     2.4839   -44.4245     4.9876     6.1915     7.1165
  744.5000     6.8819    95.4158     0.0034     0.1116     2.4855   -44.4096     5.2026     6.3688     9.1392
  745.0000     6.8834    91.7072     0.0051     0.1178     2.4819   -44.3916     5.4269     6.5511     9.6665
  745.5000     6.8849    88.4414     0.0053     0.1229     2.4730   -44.2273     5.6608     6.7387     9.9449
  746.0000     6.8864    82.1804     0.0070     0.1252     2.4649   -44.2124     5.9871     6.8839    10.2313
  746.5000     6.8879    88.0383     0.0071     0.1236     2.4628   -44.1975     6.2452     6.9836    10.5260
  747.0000     6.9044    91.2000     0.0073     0.1200     2.4644   -44.1826     6.5175     7.0360    10.6046
  747.5000     6.9208    96.9028     0.0074     0.1174     2.4698   -44.0182     6.7019     7.0399    10.4678
  748.0000     6.9223    99.0125     0.0060     0.1176     2.4609   -44.0033     6.8000     6.9952    10.1888
  748.5000     6.9239    97.8924     0.0047     0.1200     2.4543   -44.0388     6.8520     6.9990    10.0456
  749.0000     6.9254    93.3006     0.0034     0.1253     2.4485   -44.0821     6.9052     6.9546     9.8883
  749.5000     6.9269    90.2485     0.0021     0.1283     2.4426   -44.1085     6.8150     6.7684     9.7310
  750.0000     6.9280    90.7324     0.0023     0.1341     2.4393   -44.2461     6.6795     6.6321     9.5736
  750.5000     6.9227    98.9763     0.0040     0.1428     2.4346   -44.2313     6.4568     6.4641     9.4070
  751.0000     6.9182   101.3639     0.0057     0.1434     2.4310   -44.3719     6.0711     6.2799     9.2821
  751.5000     6.8865   103.7779     0.0073     0.1398     2.4258   -44.3571     5.8282     6.1067     9.1588
  752.0000     6.8577    97.8705     0.0075     0.1439     2.4140   -44.6472     5.4422     5.9086     9.0371
  752.5000     6.8438    96.7017     0.0062     0.1526     2.3991   -44.9343     5.0468     5.6710     8.8556
  753.0000     6.8299    95.9814     0.0032     0.1639     2.3887   -45.5174     4.7126     5.2579     8.6776
  753.5000     6.8309    95.3762    -0.0042     0.1677     2.3858   -45.9539     4.3702     4.9087     8.4446
  754.0000     6.8320    93.3532    -0.0159     0.1456     2.4055   -46.0945     4.1953     4.7113     8.2178
  754.5000     6.8330    88.7443    -0.0097     0.1246     2.4355   -46.0797     4.0274     4.5219     7.9419
  755.0000     6.8042    89.1182    -0.0035     0.1234     2.4484   -45.7689     3.9474     4.6189     5.3543
  755.5000     6.8052    89.9821     0.0027     0.1207     2.4530   -45.4581     3.9501     4.8842     3.9499
  756.0000     6.8063    90.0089     0.0044     0.1186     2.4531   -45.1473     4.0919     5.2005     6.3285
  756.5000     6.8073    90.6667     0.0046     0.1185     2.4510   -44.6870     4.4493     5.5758     8.4736
  757.0000     6.8084    92.7933     0.0048     0.1185     2.4504   -44.3762     4.7069     5.8553     9.0907
  757.5000     6.8094   100.4186     0.0050     0.1185     2.4505   -44.2149     4.9143     6.1916     9.5450
  758.0000     6.8105   101.9207     0.0052     0.1184     2.4538   -43.9041     5.2013     6.4572     9.8898
  758.5000     6.8115   101.0508     0.0053     0.1178     2.4576   -43.7428     5.5050     6.6877    10.0901
  759.0000     6.8126   101.8253     0.0055     0.1169     2.4622   -43.5814     5.8486     6.8787    10.0253
  759.5000     6.8136    91.5474     0.0057     0.1159     2.4659   -43.2706     6.1007     7.0263     9.6219
  760.0000     6.8146    93.0692     0.0059     0.1153     2.4683   -43.1093     6.3198     7.1771     9.4929
  760.5000     6.8157    95.7869     0.0061     0.1153     2.4677   -43.2469     6.5016     7.3312     9.9704
  761.0000     6.8167    97.6076     0.0063     0.1156     2.4671   -43.2347     6.5512     7.4370    10.2553
  761.5000     6.8179    97.9269     0.0079     0.1170     2.4642   -43.2227     6.5557     7.4923    10.3316
