~VERSION INFORMATION
 VERS.                2.0:   CWLS LOG ASCII STANDARD - VERSION 2.0
 WRAP.                 NO:   ONE LINE PER DEPTH STEP
~WELL INFORMATION
#MNEM.UNIT      DATA TYPE    INFORMATION
#----------   ------------   ------------------------------
 STRT.F           10.5000:   START DEPTH
 STOP.F          604.0000:   STOP DEPTH
 STEP.F            0.5000:   STEP LENGTH
 NULL.          -999.2500:   NO VALUE
 COMP. FENIX & SCISSON INC:   COMPANY
 WELL.  NPR 3 #87 S 10-10:   WELL
 FLD .             TEAPOT:   FIELD
 LOC .      S10 T38N R78W:   LOCATION
 CNTY.            NATRONA:   COUNTY
 STAT.            WYOMING:   STATE
 CTRY. UNITED STATES OF AMERICA:   COUNTRY
 SRVC.           BIRDWELL:   SERVICE COMPANY
 DATE.        11-DEC-1978:   LOGDATE
 API .       490251075400:   API NUMBER
~CURVE INFORMATION
#MNEM.UNIT       API CODE    CURVE DESCRIPTION
#----------   ------------   ------------------------------
 DEPT.F                  :   
 SPR .MV     05 010 01 00:   SPONTANEOUS POTENTIAL FROM RES.
 SN  .OHMM   05 040 16 00:   SHORT NORMAL 16"
 IL  .OHMM   05 120 00 00:   INDUCTION LOG
 CALD.IN     45 280 60 00:   CALIPER
 GRD .GAPI   45 310 01 00:   GAMMA RAY FROM DENSITY LOG
 RHOB.G/C3   45 350 01 00:   BULK DENSITY
 DPHI.DEC    45 890 12 00:   DENSITY POROSITY SANDSTONE
 CORR.G/C3   45 356 01 00:   DENSITY CORRECTION
~PARAMETER INFORMATION
#MNEM.UNIT          VALUE    DESCRIPTION
#----------   ------------   ------------------------------
 PD  .                 GL:   PERMANENT DATUM
 LMF .                 KB:   LOG MEASURED FROM
 DAPD.F                 4:   FEET ABOVE PERMANENT DATUM
 DMF .                 KB:   DRILLING MEASURED FROM
 DATE.           12-11-78:   RUN DATE
 RUN .                  1:   RUN NUMBER
 DD  .F               600:   DEPTH DRILLER
 DL  .F               602:   DEPTH LOGGER
 BLI .F               596:   BOTTOM LOG INTERVAL
 TLI .F                60:   TOP LOG INTERVAL
 CBD .F                40:   CASING BOTTOM DRILLER
 CBL .F                35:   CASING BOTTOM LOGGER
 BS  .IN            7.875:   BIT SIZE
 BSD .F               600:   BIT SIZE AT DEPTH
 DFT .                KCC:   DRILLING FLUID TYPE
 DFD .                8.7:   DRILLING FLUID DENSITY
 DFV .                 39:   DRILLING FLUID VISCOSITY
 DFPH.               10.5:   DRILLING FLUID PH
 DFL .                 10:   DRILLING FLUID LOSS
 MSS .           FLOWLINE:   MUD SAMPLE SOURCE
 RMS .OHMM              1:   RESISTIVITY MUD SAMPLE
 MST .F                62:   MUD SAMPLE TEMPERATURE
 RMF .OHMM            .85:   RESISTIVITY MUD FILTRATE SAMPLE
 MFST.F                58:   MUD FILTRATE SAMPLE TEMPERATURE
 RMC .OHMM             .8:   RESISTIVITY MUD CAKE
 MCST.F                66:   MUD CAKE SAMPLE TEMPERATURE
 MFSS.           MEASURED:   MUD FILTRATE SAMPLE SOURCE
 MCSS.           MEASURED:   MUD CAKE SAMPLE SOURCE
 BHT .F                72:   BOTTOM HOLE TEMPERATURE
 TCS .HRS               3:   TIME CURCULATED STOPPED
 MRT .F                72:   MAXIMUM RECORDED TEMPERATURE
 LUN .               2958:   LOGGING UNIT NUMBER
 LUL .             CASPER:   LOGGING UNIT LOCATION
 ENGI.            ROLLINS:   RECORDING ENGINEER
 WITN.           DINSMORE:   WITNESSED BY
 CLNT.            A2DTECH:   CLIENT CODE
 ORIG.       2", 5" PRINT:   ORIGIN OF DATA
 UWI .       490251075400:   UNIQUE WELL ID
 DICO. A2D Technologies, Inc.:   DIGITIZING COMPANY
~OTHER INFORMATION
~A   DEPT      SPR         SN         IL       CALD        GRD       RHOB       DPHI       CORR   
# ...
  213.0000   -15.0560     9.8890     8.8370     8.5610   110.4090     2.4780     0.1280     0.0050
  213.5000   -15.0940     9.9690     8.8370     8.5610   111.0480     2.4770     0.1280     0.0020
  214.0000   -15.1050    10.0480     8.8370     8.5610   114.6610     2.4760     0.1280     0.0000
  214.5000   -15.1120    10.1490     8.8370     8.5610   116.4580     2.4710     0.1300     0.0010
  215.0000   -15.1180    10.1350     8.8370     8.5610   118.1680     2.4610     0.1360     0.0020
  215.5000   -15.1250    10.1140     8.8370     8.5610   121.7860     2.4550     0.1400     0.0040
  216.0000   -15.1310    10.0940     8.8370     8.5610   125.2620     2.4550     0.1430     0.0050
  216.5000   -15.1380    10.0730     8.8370     8.5610   125.4940     2.4570     0.1410     0.0070
  217.0000   -15.1440    10.0530     8.8370     8.5610   121.6870     2.4610     0.1380     0.0080
  217.5000   -15.1510    10.0320     8.8370     8.5610   119.5670     2.4650     0.1360     0.0090
  218.0000   -15.1570    10.0120     8.8370     8.5610   119.9390     2.4650     0.1350     0.0090
  218.5000   -15.1640     9.9910     8.8370     8.5610   118.4190     2.4650     0.1360     0.0090
  219.0000   -15.1700     9.9700     8.8370     8.5610   115.9820     2.4650     0.1360     0.0100
  219.5000   -15.1770     9.9640     8.9200     8.5610   116.1880     2.4650     0.1350     0.0070
  220.0000   -15.1830     9.9880     9.0150     8.5610   116.3700     2.4650     0.1350     0.0040
  220.5000   -15.1900    10.0160     9.1020     8.5610   115.7050     2.4640     0.1360     0.0000
  221.0000   -15.1960    10.0440     9.1670     8.5610   114.9540     2.4640     0.1390     0.0010
  221.5000   -15.2030    10.0720     9.2330     8.5610   114.4450     2.4530     0.1440     0.0040
  222.0000   -15.2090    10.1000     9.2980     8.5610   113.9140     2.4460     0.1480     0.0060
  222.5000   -15.2160    10.1280     9.3630     8.5600   112.4740     2.4560     0.1370     0.0080
  223.0000   -15.2220    10.1990     9.4270     8.5590   110.7800     2.4620     0.1370     0.0090
  223.5000   -15.2290    10.4190     9.6260     8.5580   110.1260     2.4630     0.1370     0.0110
  224.0000   -15.2350    10.6380     9.8200     8.5570   109.6740     2.4660     0.1380     0.0140
  224.5000   -15.2420    10.8580    10.0140     8.5550   106.9320     2.4700     0.1360     0.0170
  225.0000   -15.2480    11.0780    10.2080     8.5540   105.4520     2.4790     0.1320     0.0140
  225.5000   -15.2550    11.2970    10.4020     8.5530   112.4530     2.4850     0.1260     0.0110
  226.0000   -15.2610    11.5170    10.5960     8.5520   114.1340     2.4900     0.1210     0.0080
  226.5000   -15.2670    11.7370    10.7910     8.5510   109.3400     2.4870     0.1200     0.0050
  227.0000   -15.2740    11.9190    10.9850     8.5500   109.3730     2.4840     0.1220     0.0020
  227.5000   -15.2810    12.0400    11.2340     8.5490   111.3840     2.4820     0.1240     0.0000
  228.0000   -15.2890    12.1620    11.4990     8.5480   108.4340     2.4830     0.1250     0.0020
  228.5000   -15.2950    12.2830    11.7640     8.5470   106.5790     2.4830     0.1250     0.0040
  229.0000   -15.2570    12.4040    12.0950     8.5450   106.7720     2.4770     0.1280     0.0060
  229.5000   -15.2590    12.7450    12.0840     8.5440   107.7240     2.4750     0.1290     0.0070
  230.0000   -15.5000    13.1600    12.0700     8.5430   107.2950     2.4820     0.1270     0.0050
  230.5000   -15.7460    13.5750    12.0570     8.5420   104.5300     2.4840     0.1250     0.0040
  231.0000   -16.0350    14.0190    12.0430     8.5390   103.0200     2.4740     0.1280     0.0040
  231.5000   -16.3950    14.0190    12.0290     8.4530   103.7940     2.4590     0.1340     0.0040
  232.0000   -16.7090    14.0190    12.0150     8.3620   105.0080     2.4550     0.1400     0.0040
  232.5000   -16.7010    14.0190    12.0010     8.3850   107.1750     2.4540     0.1440     0.0040
  233.0000   -16.6990    14.0190    11.9880     8.5540   111.2720     2.4520     0.1440     0.0050
  233.5000   -16.6880    14.0190    11.9110     8.5620   109.9090     2.4480     0.1460     0.0050
  234.0000   -16.6170    13.7990    11.8080     8.5610   105.2200     2.4420     0.1490     0.0050
  234.5000   -16.5460    13.5110    11.7040     8.5610   101.2960     2.4410     0.1510     0.0050
  235.0000   -16.4740    13.4230    11.6010     8.5610   101.5180     2.4480     0.1480     0.0060
  235.5000   -16.4030    13.3420    11.4980     8.5610   103.5860     2.4470     0.1450     0.0060
  236.0000   -16.3320    13.2610    11.3970     8.5610   105.6040     2.4450     0.1480     0.0060
  236.5000   -16.2610    13.1800    11.2980     8.5610   107.5250     2.4450     0.1490     0.0060
  237.0000   -16.1890    13.0980    11.1990     8.5610   107.1640     2.4480     0.1440     0.0070
  237.5000   -16.1170    13.0210    11.1010     8.5610   106.0830     2.4500     0.1450     0.0070
  238.0000   -16.0860    12.7770    11.0020     8.5610   105.0650     2.4470     0.1470     0.0070
  238.5000   -16.0660    12.5450    10.9220     8.5610   107.2860     2.4430     0.1490     0.0070
  239.0000   -16.0470    12.3200    10.8980     8.5610   109.2120     2.4430     0.1480     0.0070
  239.5000   -16.0270    12.3050    10.8750     8.5610   106.8680     2.4480     0.1450     0.0070
  240.0000   -16.0080    12.2910    10.8520     8.5610   104.0490     2.4490     0.1450     0.0070
  240.5000   -15.9890    12.2760    10.8290     8.5610   103.1980     2.4480     0.1460     0.0070
  241.0000   -15.9690    12.2620    10.8060     8.5610   102.3820     2.4470     0.1460     0.0070
  241.5000   -15.9500    12.2470    10.7830     8.5610   102.4260     2.4440     0.1460     0.0070
  242.0000   -15.9300    12.2330    10.7600     8.5610   106.2770     2.4370     0.1520     0.0070
  242.5000   -15.9110    12.2190    10.7370     8.5610   110.5030     2.4310     0.1590     0.0070
  243.0000   -15.8920    12.1950    10.6600     8.5610   112.4670     2.4360     0.1590     0.0080
  243.5000   -15.8720    12.1330    10.5450     8.5610   113.8220     2.4400     0.1540     0.0120
  244.0000   -15.8530    11.9840    10.4300     8.5610   113.8990     2.4450     0.1510     0.0170
  244.5000   -15.8340    11.6900    10.3150     8.5610   112.0450     2.4490     0.1470     0.0210
  245.0000   -15.8140    11.4260    10.2000     8.5610   109.2810     2.4530     0.1440     0.0190
  245.5000   -15.7950    11.3230    10.1150     8.5610   104.0690     2.4580     0.1400     0.0160
  246.0000   -15.7750    11.2190    10.0540     8.5610   103.9420     2.4570     0.1380     0.0130
  246.5000   -15.7560    11.1310     9.9920     8.5610   108.5210     2.4540     0.1420     0.0100
  247.0000   -15.7370    11.1310     9.9640     8.5610   110.3650     2.4470     0.1480     0.0060
  247.5000   -15.7170    11.1310     9.9640     8.5610   108.2310     2.4380     0.1560     0.0060
  248.0000   -15.7030    11.1310     9.9640     8.5610   105.9740     2.4320     0.1570     0.0070
  248.5000   -15.8470    11.1090     9.9640     8.5610   106.5650     2.4310     0.1580     0.0070
  249.0000   -16.0070    10.9270     9.9640     8.5610   107.8310     2.4300     0.1580     0.0080
  249.5000   -16.1680    10.7270     9.9640     8.5610   109.3520     2.4290     0.1570     0.0080
  250.0000   -16.3290    10.5950     9.7820     8.5610   109.4680     2.4350     0.1550     0.0090
  250.5000   -16.4910    10.4340     9.5110     8.5610   107.4530     2.4410     0.1510     0.0090
  251.0000   -16.6570    10.3930     9.2110     8.5610   106.4120     2.4470     0.1470     0.0060
  251.5000   -16.6670    10.3470     9.0020     8.5610   106.1860     2.4470     0.1450     0.0030
  252.0000   -16.6250    10.3010     9.0110     8.5610   105.9460     2.4400     0.1480     0.0000
  252.5000   -16.5820    10.2550     9.0170     8.5610   103.5900     2.4350     0.1540     0.0060
  253.0000   -16.5390    10.2090     9.0240     8.5610   101.7920     2.4300     0.1570     0.0070
