~VERSION INFORMATION
 VERS.                2.0:   CWLS LOG ASCII STANDARD - VERSION 2.0
 WRAP.                 NO:   ONE LINE PER DEPTH STEP
~WELL INFORMATION
#MNEM.UNIT      DATA TYPE    INFORMATION
#----------   ------------   ------------------------------
 STRT.F           30.0000:   START DEPTH
 STOP.F          510.0000:   STOP DEPTH
 STEP.F            0.5000:   STEP LENGTH
 NULL.          -999.2500:   NO VALUE
 COMP. FENIX & SCISSON INC:   COMPANY
 WELL.    66-SX 3FP #54-3:   WELL
 FLD .             TEAPOT:   FIELD
 LOC .       S3 T38N R78W:   LOCATION
 CNTY.            NATRONA:   COUNTY
 STAT.            WYOMING:   STATE
 CTRY. UNITED STATES OF AMERICA:   COUNTRY
 SRVC.              Welex:   SERVICE COMPANY
 DATE.        25-JUN-1980:   LOGDATE
 API .       490251081400:   API NUMBER
~CURVE INFORMATION
#MNEM.UNIT       API CODE    CURVE DESCRIPTION
#----------   ------------   ------------------------------
 DEPT.F                  :   
 SGRD.OHMM   07 220 05 00:   SHALLOW GUARD RESISTIVITY
 ILD .OHMM   07 120 46 00:   INDUCTION LOG DEEP RESISTIVITY
 ILM .OHMM   07 120 44 00:   INDUCTION LOG MEDIUM
 CALD.IN     45 280 60 00:   CALIPER
 GRD .GAPI   45 310 01 00:   GAMMA RAY FROM DENSITY LOG
 CORR.G/C3   45 356 01 00:   DENSITY CORRECTION
 NPHI.DEC    42 890 03 00:   NEUTRON POROSITY SANDSTONE
 DPHI.DEC    45 890 12 00:   DENSITY POROSITY SANDSTONE
 SPR .MV     07 010 01 00:   SPONTANEOUS POTENTIAL
 RHOB.G/C3   45 350 01 00:   BULK DENSITY
~PARAMETER INFORMATION
#MNEM.UNIT          VALUE    DESCRIPTION
#----------   ------------   ------------------------------
 PD  .                 GL:   PERMANENT DATUM
 EPD .F              5158:   ELEVATION PERMANENT DATUM
 LMF .                 KB:   LOG MEASURED FROM
 DAPD.F                 5:   FEET ABOVE PERMANENT DATUM
 DMF .                 KB:   DRILLING MEASURED FROM
 EKB .F              5163:   KELLING BUSHING
 EGL .F              5158:   GROUND LEVEL
 DATE.            6-25-80:   RUN DATE
 RUN .                  1:   RUN NUMBER
 DD  .F               516:   DEPTH DRILLER
 DL  .F               512:   DEPTH LOGGER
 BLI .F               510:   BOTTOM LOG INTERVAL
 TLI .F                30:   TOP LOG INTERVAL
 BS  .IN            9.875:   BIT SIZE
 BSD .F               516:   BIT SIZE AT DEPTH
 DFT .            KCL MUD:   DRILLING FLUID TYPE
 DFD .                9.2:   DRILLING FLUID DENSITY
 DFV .                 52:   DRILLING FLUID VISCOSITY
 DFPH.                 12:   DRILLING FLUID PH
 DFL .                  6:   DRILLING FLUID LOSS
 MSS .           FLOWLINE:   MUD SAMPLE SOURCE
 RMB .OHMM            .35:   RESISTIVITY MUD AT BHT
 BHT .F                75:   BOTTOM HOLE TEMPERATURE
 TCS .HRS               1:   TIME CURCULATED STOPPED
 MRT .F                75:   MAXIMUM RECORDED TEMPERATURE
 LUN .               1892:   LOGGING UNIT NUMBER
 LUL .             CASPER:   LOGGING UNIT LOCATION
 ENGI.            TOTHILL:   RECORDING ENGINEER
 WITN.              AMEND:   WITNESSED BY
 CLNT.            A2DTECH:   CLIENT CODE
 ORIG.           5" PRINT:   ORIGIN OF DATA
 UWI .       490251081400:   UNIQUE WELL ID
 DICO. A2D Technologies, Inc.:   DIGITIZING COMPANY
~OTHER INFORMATION
~A   DEPT       SGRD        ILD        ILM     CALD        GRD       CORR       NPHI       DPHI        SPR       RHOB   
# ...
  197.5000     8.5019     5.3359     6.0403    10.1817   105.1890     0.0434     0.2812     0.1173   -57.4705     2.4791
  198.0000     8.7595     5.3740     6.0530    10.1609   102.6639     0.0561     0.2794     0.1121   -57.2182     2.4910
  198.5000     9.0212     5.4124     6.0657    10.1289   100.0472     0.0666     0.2735     0.1078   -56.8707     2.5026
  199.0000     9.2822     5.4511     6.0785    10.0992    98.2102     0.0645     0.2713     0.1084   -56.5182     2.5007
  199.5000     9.5491     5.4900     6.0912    10.0865    99.2525     0.0599     0.2729     0.1098   -56.1647     2.4966
  200.0000     9.6315     5.5292     6.1041    10.0875   100.9031     0.0554     0.2745     0.1114   -55.8125     2.4930
  200.5000     9.6308     5.5687     6.1169    10.1105   101.1387     0.0523     0.2748     0.1138   -55.4916     2.4929
  201.0000     9.6308     5.6084     6.1300    10.1329   101.1341     0.0498     0.2741     0.1108   -55.4997     2.4950
  201.5000     9.6308     5.6510     6.1384    10.1558   101.2831     0.0482     0.2735     0.1054   -55.4996     2.5011
  202.0000     9.6308     5.6093     6.1048    10.1841   102.1552     0.0589     0.2726     0.1010   -55.7069     2.5130
  202.5000     9.6308     5.5651     6.0795    10.1775   103.0140     0.0693     0.2765     0.0961   -56.0793     2.5255
  203.0000     9.6308     5.5212     6.0544    10.1691   103.8796     0.0796     0.2826     0.0912   -56.4517     2.5297
  203.5000     9.6310     5.4776     6.0294    10.1634   104.7485     0.0866     0.2887     0.0866   -56.7798     2.5375
  204.0000     9.6303     5.4344     6.0046    10.1634   104.7726     0.0942     0.2949     0.0821   -57.0353     2.5507
  204.5000     9.6503     5.3916     5.9798    10.1635   103.7809     0.0922     0.2971     0.0786   -56.8934     2.5308
  205.0000     9.6972     5.3491     5.9551    10.1642   101.1813     0.0873     0.2982     0.0851   -56.6746     2.5155
  205.5000     9.7448     5.3069     5.9314    10.1841    98.6195     0.0865     0.2990     0.0916   -56.3781     2.5195
  206.0000     9.8095     5.2650     5.8591    10.1829    97.8286     0.0981     0.2977     0.0981   -56.5198     2.5252
  206.5000     9.6551     5.2205     5.7316    10.1798    98.9043     0.0892     0.2948     0.1045   -56.8608     2.5168
  207.0000     9.4216     5.1547     5.6057    10.1707    99.5897     0.0767     0.2918     0.1083   -57.2086     2.5064
  207.5000     9.1938     5.0897     5.4829    10.1616    98.7781     0.0812     0.2910     0.1106   -57.5556     2.4988
  208.0000     8.9715     5.0255     5.3328    10.1526    96.6493     0.0859     0.2920     0.1130   -57.8635     2.4943
  208.5000     8.5150     4.9448     5.1154    10.1435    95.9586     0.0786     0.2964     0.1179   -57.8485     2.4810
  209.0000     7.9288     4.7208     4.9069    10.1345    95.9463     0.0704     0.2986     0.1241   -58.0551     2.4648
  209.5000     7.3831     4.5054     4.7069    10.1255    96.1825     0.0646     0.3007     0.1303   -58.2630     2.4581
  210.0000     6.5962     4.2891     4.4605    10.1164    97.1943     0.0752     0.3030     0.1366   -58.2565     2.4532
  210.5000     5.8042     4.0831     4.1823    10.1073    98.4006     0.0802     0.3075     0.1404   -58.2049     2.4484
  211.0000     4.9789     3.8186     3.9124    10.1057    99.6091     0.0801     0.3126     0.1442   -58.1468     2.4339
  211.5000     4.0816     3.4725     3.5829    10.1092   100.8273     0.0727     0.3178     0.1504   -58.0926     2.4163
  212.0000     3.3228     3.1471     3.2705    10.1143   100.1873     0.0678     0.3213     0.1629   -58.2929     2.3987
  212.5000     2.6239     2.8522     2.9853    10.1194    99.3169     0.0691     0.3233     0.1755   -58.8574     2.3810
  213.0000     2.0720     2.5850     2.7250    10.1246    98.4680     0.0805     0.3253     0.1882   -59.4155     2.3630
  213.5000     1.7014     2.3427     2.4874    10.1297    98.4572     0.0916     0.3270     0.1922   -59.8905     2.3534
  214.0000     1.4807     2.1529     2.4171    10.1349    99.0229     0.0998     0.3291     0.1970   -60.1417     2.3440
  214.5000     1.4365     2.0743     2.4036    10.1400    99.5998     0.1022     0.3291     0.2023   -60.3912     2.3345
  215.0000     1.5190     2.0053     2.4708    10.1452   100.1732     0.0942     0.3266     0.2098   -60.6161     2.3295
  215.5000     1.7573     1.9627     2.6604    10.1503   100.7475     0.0815     0.3242     0.2110   -60.5627     2.3274
  216.0000     2.0342     2.0398     2.8524    10.1555   101.2993     0.0687     0.3230     0.2123   -60.1861     2.3481
  216.5000     2.3178     2.1137     3.0574    10.1605   101.7098     0.0705     0.3209     0.1975   -60.0228     2.3845
  217.0000     2.5990     2.1902     3.2933    10.1591   102.0412     0.0809     0.3189     0.1790   -60.0203     2.4211
  217.5000     3.1883     2.3700     3.6619    10.1491   102.4200     0.0810     0.3174     0.1605   -60.0188     2.4485
  218.0000     3.9154     2.6100     3.9164    10.1392   102.9309     0.0758     0.3150     0.1443   -59.9618     2.4656
  218.5000     4.3242     2.8744     4.2083    10.1292   103.8094     0.0722     0.3095     0.1333   -59.6487     2.4825
  219.0000     4.6213     3.1655     4.4744    10.1251   105.1793     0.0742     0.3037     0.1231   -59.3943     2.4964
  219.5000     4.9387     3.4876     4.6657    10.1249   106.6899     0.0760     0.3002     0.1136   -59.1875     2.5079
  220.0000     5.1604     3.7667     4.8005    10.1245   108.2074     0.0711     0.2998     0.1042   -59.0308     2.4920
  220.5000     5.3078     3.9478     4.8303    10.1421   109.0965     0.0662     0.3000     0.1114   -58.8759     2.4739
  221.0000     5.4075     4.1343     4.8604    10.1621   109.4913     0.0613     0.3002     0.1221   -58.5281     2.4715
  221.5000     5.5091     4.3319     4.8781    10.1823   109.8617     0.0580     0.3004     0.1278   -58.1824     2.4722
  222.0000     5.5481     4.4497     4.9621    10.2005   110.9505     0.0704     0.3018     0.1232   -57.8336     2.4832
  222.5000     5.2697     4.3848     5.0146    10.1692   112.2366     0.0855     0.3050     0.1172   -57.4803     2.4930
  223.0000     5.0825     4.2817     4.8809    10.1357   113.5150     0.0836     0.3069     0.1154   -57.3689     2.4884
  223.5000     4.9019     4.0980     4.5946    10.1059   114.1930     0.0801     0.3086     0.1173   -57.2758     2.4802
  224.0000     4.4537     3.9223     4.3250    10.1053   112.0236     0.0907     0.3102     0.1191   -57.4011     2.4833
  224.5000     4.0092     3.7539     4.0709    10.1219   110.2084     0.1078     0.3136     0.1197   -57.8665     2.4908
  225.0000     3.6090     3.5928     3.9488    10.1436   112.3188     0.1204     0.3170     0.1166   -58.5555     2.4862
  225.5000     3.2488     3.4387     3.8412    10.1654   115.3753     0.1186     0.3203     0.1198   -59.2282     2.4761
  226.0000     3.0246     3.2899     3.7712    10.1871   117.2032     0.1138     0.3226     0.1234   -59.5821     2.4660
  226.5000     3.3575     3.1903     3.7712    10.2088   114.5562     0.1090     0.3234     0.1280   -59.4209     2.4572
  227.0000     3.6421     3.1698     3.8412    10.2307   111.4422     0.1042     0.3201     0.1303   -59.1723     2.4646
  227.5000     3.6909     3.1502     3.9850    10.2427   108.3113     0.0995     0.3166     0.1253   -58.9186     2.4798
  228.0000     3.9591     3.1379     4.1272    10.2473   106.9320     0.0961     0.3090     0.1197   -58.8681     2.4940
  228.5000     4.3287     3.2403     4.3130    10.2517   105.8979     0.1078     0.3047     0.1061   -58.9046     2.5135
  229.0000     4.5771     3.3377     4.5075    10.2561   105.9352     0.1200     0.3004     0.0927   -58.9434     2.5326
  229.5000     4.8440     3.4784     4.7105    10.2605   106.6733     0.1115     0.2966     0.0839   -58.9814     2.5472
  230.0000     5.1266     3.6535     4.9227    10.2649   109.0618     0.1029     0.2923     0.0802   -59.0213     2.5451
  230.5000     5.4255     3.8373     5.1445    10.2693   111.4234     0.0941     0.2873     0.0786   -58.8549     2.5376
