~VERSION INFORMATION
 VERS.                2.0:   CWLS LOG ASCII STANDARD - VERSION 2.0
 WRAP.                 NO:   ONE LINE PER DEPTH STEP
~WELL INFORMATION
#MNEM.UNIT      DATA TYPE    INFORMATION
#----------   ------------   ------------------------------
 STRT.F            0.0000:   START DEPTH
 STOP.F          523.0000:   STOP DEPTH
 STEP.F            0.1000:   STEP LENGTH
 NULL.          -999.2500:   NO VALUE
 COMP.       F D SERV INC:   COMPANY
 WELL. NAVAL PETROLEUM RESERVE 3 SX-3 #87-3:   WELL
 FLD .             TEAPOT:   FIELD
 LOC .       S3 T38N R78W:   LOCATION
 CNTY.            NATRONA:   COUNTY
 STAT.            WYOMING:   STATE
 CTRY. UNITED STATES OF AMERICA:   COUNTRY
 SRVC.      Western Atlas:   SERVICE COMPANY
 DATE.        22-NOV-1992:   LOGDATE
 API .       490252254300:   API NUMBER
~CURVE INFORMATION
#MNEM.UNIT       API CODE    CURVE DESCRIPTION
#----------   ------------   ------------------------------
 DEPT.F                  :   
 GRR .GAPI   07 310 01 00:   GAMMA RAY
 RILD.OHMM   07 120 46 00:   INDUCTION LOG DEEP RESISTIVITY
 RILM.OHMM   07 120 44 00:   INDUCTION LOG MEDIUM RESISTIVITY
~PARAMETER INFORMATION
#MNEM.UNIT          VALUE    DESCRIPTION
#----------   ------------   ------------------------------
 PD  .                 GL:   PERMANENT DATUM
 EPD .F              5129:   ELEVATION PERMANENT DATUM
 LMF .                 KB:   LOG MEASURED FROM
 DAPD.F                10:   FEET ABOVE PERMANENT DATUM
 DMF .                 KB:   DRILLING MEASURED FROM
 EKB .F              5139:   KELLING BUSHING
 EDF .F              5138:   DRILLING FLOOR
 EGL .F              5129:   GROUND LEVEL
 DATE.        22-NOV-1992:   RUN DATE
 RUN .                  1:   RUN NUMBER
 DD  .F               530:   DEPTH DRILLER
 DL  .F               531:   DEPTH LOGGER
 BLI .F               530:   BOTTOM LOG INTERVAL
 TLI .F                58:   TOP LOG INTERVAL
 CS  .IN            8.625:   CASING SIZE
 CBD .F                58:   CASING BOTTOM DRILLER
 CBL .F                58:   CASING BOTTOM LOGGER
 BS  .IN            7.875:   BIT SIZE
 BSD .F               530:   BIT SIZE AT DEPTH
 DFT .           AIR FOAM:   DRILLING FLUID TYPE
 MRT .F                73:   MAXIMUM RECORDED TEMPERATURE
 LUN .            HL-6274:   LOGGING UNIT NUMBER
 LUL .             CASPER:   LOGGING UNIT LOCATION
 ENGI.       P. RASMUSSEN:   RECORDING ENGINEER
 WITN.          G. STRONG:   WITNESSED BY
 CLNT.            A2DTECH:   CLIENT CODE
 ORIG.           5" PRINT:   ORIGIN OF DATA
 UWI .       490252254300:   UNIQUE WELL ID
 DICO. A2D Technologies, Inc.:   DIGITIZING COMPANY
~OTHER INFORMATION
~A    DEPT      GRR      RILD       RILM   
# ...
  509.6000  -999.2500     9.1907     9.2589
  509.7000  -999.2500     9.1898     9.2582
  509.8000  -999.2500     9.1888     9.2576
  509.9000  -999.2500     9.1877     9.2568
  510.0000  -999.2500     9.1867     9.2134
  510.1000  -999.2500     9.1855     9.1913
  510.2000  -999.2500     9.1373     9.1719
  510.3000  -999.2500     9.0846     9.1194
  510.4000  -999.2500     9.0322     9.0621
  510.5000  -999.2500     8.9800     8.9695
  510.6000  -999.2500     8.9280     8.8678
  510.7000  -999.2500     8.9269     8.8110
  510.8000  -999.2500     8.9259     8.7999
  510.9000  -999.2500     8.8975     8.7486
  511.0000  -999.2500     8.8461     8.6511
  511.1000  -999.2500     8.7908     8.5895
  511.2000  -999.2500     8.6764     8.5657
  511.3000  -999.2500     8.6756     8.5651
  511.4000  -999.2500     8.6745     8.5614
  511.5000  -999.2500     8.6537     8.5043
  511.6000  -999.2500     8.6123     8.5038
  511.7000  -999.2500     8.6113     8.4741
  511.8000  -999.2500     8.6103     8.4256
  511.9000  -999.2500     8.5743     8.3843
  512.0000  -999.2500     8.5485     8.3837
  512.1000  -999.2500     8.5348     8.3397
  512.2000  -999.2500     8.4873     8.3243
  512.3000  -999.2500     8.4861     8.3237
  512.4000  -999.2500     8.4465     8.3232
  512.5000  -999.2500     8.4253     8.3226
  512.6000  -999.2500     8.4244     8.3220
  512.7000  -999.2500     8.4234     8.3215
  512.8000  -999.2500     8.4223     8.3208
  512.9000  -999.2500     8.4214     8.3202
  513.0000  -999.2500     8.4204     8.3197
  513.1000  -999.2500     8.3985     8.3190
  513.2000  -999.2500     8.3601     8.2784
  513.3000  -999.2500     8.3591     8.2601
  513.4000  -999.2500     8.3116     8.2412
  513.5000  -999.2500     8.2992     8.2016
  513.6000  -999.2500     8.2734     8.2010
  513.7000  -999.2500     8.2256     8.1572
  513.8000  -999.2500     8.1814     8.1429
  513.9000  -999.2500     8.1804     8.1205
  514.0000  -999.2500     8.1796     8.0853
  514.1000  -999.2500     8.1786     8.0847
  514.2000  -999.2500     8.1777     8.0841
  514.3000  -999.2500     8.1693     8.0836
  514.4000  -999.2500     8.1189     8.0830
  514.5000  -999.2500     8.1181     8.0674
  514.6000  -999.2500     8.1171     8.0256
  514.7000  -999.2500     8.0942     8.0250
  514.8000  -999.2500     8.0589     7.9852
  514.9000  -999.2500     8.0569     7.9682
  515.0000  -999.2500     8.0104     7.9492
  515.1000  -999.2500     8.0001     7.9118
  515.2000  -999.2500     7.9992     7.9112
  515.3000  -999.2500     7.9983     7.8682
  515.4000  -999.2500     7.9974     7.8552
  515.5000  -999.2500     7.9963     7.8546
  515.6000  -999.2500     7.9555     7.8541
  515.7000  -999.2500     7.9391     7.8520
  515.8000  -999.2500     7.9381     7.7983
  515.9000  -999.2500     7.9282     7.7978
  516.0000  -999.2500     7.8812     7.7720
  516.1000  -999.2500     7.8803     7.7275
  516.2000  -999.2500     7.8132     7.6832
  516.3000  -999.2500     7.7467     7.6343
  516.4000  -999.2500     7.7146     7.6338
  516.5000  -999.2500     7.7110     7.6050
  516.6000  -999.2500     7.6591     7.5614
  516.7000  -999.2500     7.5864     7.5099
  516.8000  -999.2500     7.5257     7.4218
  516.9000  -999.2500     7.4663     7.4212
  517.0000  -999.2500     7.3811     7.3898
  517.1000  -999.2500     7.2904     7.3475
  517.2000  -999.2500     7.2896     7.3054
  517.3000  -999.2500     7.2888     7.2636
  517.4000  -999.2500     7.2496     7.2145
  517.5000  -999.2500     7.1765     7.2141
  517.6000  -999.2500     7.1350     7.1896
  517.7000  -999.2500     7.0939     7.1484
  517.8000  -999.2500     7.0844     7.1023
  517.9000  -999.2500     7.0613     7.0137
  518.0000  -999.2500     7.0335     7.0133
  518.1000  -999.2500     7.0288     6.9862
  518.2000  -999.2500     6.9830     6.9636
  518.3000  -999.2500     6.9823     6.9631
  518.4000  -999.2500     6.9560     6.9626
  518.5000  -999.2500     6.9322     7.0011
  518.6000  -999.2500     6.9313     7.0103
  518.7000  -999.2500     6.9305     7.0731
  518.8000  -999.2500     7.0058     7.1696
  518.9000  -999.2500     7.0555     7.2098
  519.0000  -999.2500     7.0739     7.2569
  519.1000  -999.2500  -999.2500     7.3258
  519.2000  -999.2500  -999.2500     7.3833
  519.3000  -999.2500  -999.2500     7.4247
  519.4000  -999.2500  -999.2500     7.4727
  519.5000  -999.2500  -999.2500     7.5644
  519.6000  -999.2500  -999.2500     7.6034
  519.7000  -999.2500  -999.2500     7.6761
  519.8000  -999.2500  -999.2500     7.7428
  519.9000  -999.2500  -999.2500     7.7863
  520.0000  -999.2500  -999.2500     7.8300
  520.1000  -999.2500  -999.2500     7.8294
  520.2000  -999.2500  -999.2500     7.8633
  520.3000  -999.2500  -999.2500     7.9074
  520.4000  -999.2500  -999.2500     7.9518
  520.5000  -999.2500  -999.2500     7.9928
  520.6000  -999.2500  -999.2500     7.9921
  520.7000  -999.2500  -999.2500     7.9916
  520.8000  -999.2500  -999.2500     8.0194
  520.9000  -999.2500  -999.2500     8.0464
  521.0000  -999.2500  -999.2500     8.0458
  521.1000  -999.2500  -999.2500     8.0453
  521.2000  -999.2500  -999.2500     8.0448
  521.3000  -999.2500  -999.2500     8.0442
  521.4000  -999.2500  -999.2500     8.0436
  521.5000  -999.2500  -999.2500     8.0431
  521.6000  -999.2500  -999.2500     8.0425
  521.7000  -999.2500  -999.2500     8.0419
  521.8000  -999.2500  -999.2500     8.0414
  521.9000  -999.2500  -999.2500     8.0408
  522.0000  -999.2500  -999.2500     8.0402
  522.1000  -999.2500  -999.2500     8.0396
  522.2000  -999.2500  -999.2500     8.0390
  522.3000  -999.2500  -999.2500     8.0386
  522.4000  -999.2500  -999.2500     8.0380
  522.5000  -999.2500  -999.2500     8.0375
  522.6000  -999.2500  -999.2500     8.0369
  522.7000  -999.2500  -999.2500     8.0363
  522.8000  -999.2500  -999.2500     8.0358
  522.9000  -999.2500  -999.2500     8.0352
  523.0000  -999.2500  -999.2500     8.0342
