~VERSION INFORMATION
 VERS.                2.0:   CWLS LOG ASCII STANDARD - VERSION 2.0
 WRAP.                 NO:   ONE LINE PER DEPTH STEP
~WELL INFORMATION
#MNEM.UNIT      DATA TYPE    INFORMATION
#----------   ------------   ------------------------------
 STRT.F            0.0000:   START DEPTH
 STOP.F          774.0000:   STOP DEPTH
 STEP.F            0.5000:   STEP LENGTH
 NULL.          -999.2500:   NO VALUE
 COMP. LAWRENCE/ALLISON INC:   COMPANY
 WELL. SX 11 WP #37-53-11:   WELL
 FLD .             TEAPOT:   FIELD
 LOC .      S11 T38N R78W:   LOCATION
 CNTY.            NATRONA:   COUNTY
 STAT.            WYOMING:   STATE
 CTRY. UNITED STATES OF AMERICA:   COUNTRY
 SRVC.            Unknown:   SERVICE COMPANY
 DATE.        19-SEP-1984:   LOGDATE
 API .       490251098900:   API NUMBER
~CURVE INFORMATION
#MNEM.UNIT       API CODE    CURVE DESCRIPTION
#----------   ------------   ------------------------------
 DEPT.F                  :   
 GRR .GAPI   07 310 01 00:   GAMMA RAY FROM RES. LOG.
 SPR .MV     07 010 01 00:   SPONTANEOUS POTENTIAL
 RFOC.OHMM   07 220 04 00:   RESISTIVITY FOCUSED LOG
 ILD .OHMM   07 120 46 00:   INDUCTION LOG DEEP RESISTIVITY
 RILM.OHMM   07 120 44 00:   INDUCTION LOG MEDIUM RESISTIVITY
 CALD.IN     45 280 60 00:   CALIPER
 DEN .G/C3   45 350 01 00:   COMPENSATED BULK DENSTIY
 CORR.G/C3   45 356 01 00:   DENSITY CORRECTION
 PORD.DEC    45 890 12 00:   POROSITY DENSITY SANDSTONE
 AC  .US/F   60 520 00 00:   ACOUSTIC SONIC
 CNC .DEC    42 890 03 00:   NEUTRON POROSITY SANDSTONE
~PARAMETER INFORMATION
#MNEM.UNIT          VALUE    DESCRIPTION
#----------   ------------   ------------------------------
 PD  .                 GL:   PERMANENT DATUM
 EPD .F              5153:   ELEVATION PERMANENT DATUM
 LMF .                 GL:   LOG MEASURED FROM
 DMF .                 GL:   DRILLING MEASURED FROM
 EGL .F              5153:   GROUND LEVEL
 DATE.       19-SEPT-1984:   RUN DATE
 RUN .                  1:   RUN NUMBER
 DD  .F               785:   DEPTH DRILLER
 DL  .F               774:   DEPTH LOGGER
 BLI .F               772:   BOTTOM LOG INTERVAL
 CS  .IN            8.625:   CASING SIZE
 CBD .F                42:   CASING BOTTOM DRILLER
 CBL .F                41:   CASING BOTTOM LOGGER
 BS  .IN            7.875:   BIT SIZE
 BSD .F               785:   BIT SIZE AT DEPTH
 DFT .          KCL WATER:   DRILLING FLUID TYPE
 MSS .           FLOWLINE:   MUD SAMPLE SOURCE
 RMS .OHMM            .27:   RESISTIVITY MUD SAMPLE
 MST .F                82:   MUD SAMPLE TEMPERATURE
 TCS .HRS               2:   TIME CURCULATED STOPPED
 MRT .F               100:   MAXIMUM RECORDED TEMPERATURE
 LUN .               6274:   LOGGING UNIT NUMBER
 LUL .               GLTE:   LOGGING UNIT LOCATION
 ENGI.         HINDS/MACK:   RECORDING ENGINEER
 WITN.             STRONG:   WITNESSED BY
 CLNT.            A2DTECH:   CLIENT CODE
 ORIG.   1", 2", 5" PRINT:   ORIGIN OF DATA
 UWI .       490251098900:   UNIQUE WELL ID
 DICO. A2D Technologies, Inc.:   DIGITIZING COMPANY
~OTHER INFORMATION
~A    DEPT      GRR       SPR       RFOC        ILD       RILM       CALD        DEN       CORR       PORD         AC        CNC   
# ...
  640.5000    79.1990   -28.2258    12.1845    11.3742    11.7254     7.9308     2.3978    -0.0013     0.1687    90.3992     0.2472
  641.0000    81.4082   -28.5064    12.1025    11.4350    11.8622     7.9303     2.4065     0.0014     0.1627    90.2032     0.2430
  641.5000    83.7264   -28.7167    12.0210    11.4052    11.7003     7.9298     2.4151     0.0040     0.1593    90.0418     0.2387
  642.0000    84.1450   -28.9275    11.9401    11.3716    11.5909     7.9293     2.4154     0.0055     0.1570    90.0078     0.2345
  642.5000    84.5042   -29.1383    11.8598    11.3329    11.4826     7.9288     2.4134     0.0034     0.1579    89.9738     0.2318
  643.0000    86.1205   -29.3493    11.7540    11.0391    11.3752     7.9282     2.4144     0.0020     0.1588    89.9398     0.2322
  643.5000    88.0754   -29.5606    11.7741    10.6086    11.2689     7.9277     2.4157     0.0020     0.1583    89.9057     0.2325
  644.0000    86.8932   -29.7712    11.8041    10.1509    11.1636     7.9272     2.4171     0.0005     0.1573    89.8717     0.2373
  644.5000    83.0027   -29.8469    11.8343    10.2869    11.0592     7.9267     2.4128    -0.0058     0.1586    89.8377     0.2456
  645.0000    79.8325   -29.8990    11.8646    10.4913    10.9558     7.9261     2.4079    -0.0120     0.1614    89.8037     0.2508
  645.5000    78.6591   -29.9500    11.8949    10.6998    10.9124     7.9256     2.4028    -0.0180     0.1639    89.7706     0.2517
  646.0000    80.0460   -30.0086    11.9253    10.9125    10.8967     7.9251     2.4003    -0.0166     0.1670    89.6926     0.2492
  646.5000    82.6434   -30.2109    11.9557    11.0236    10.8811     7.9246     2.3997     0.0066     0.1665    89.5689     0.2481
  647.0000    83.5605   -30.4110    11.9863    11.0239    10.8655     7.9240     2.4013     0.0173     0.1660    89.4438     0.2489
  647.5000    83.7623   -30.6099    12.0169    11.0234    10.8500     7.9235     2.4028     0.0047     0.1650    89.3191     0.2497
  648.0000    83.7591   -30.8087    12.0475    11.0230    10.8338     7.9230     2.4058    -0.0075     0.1637    89.1943     0.2477
  648.5000    83.7692   -31.0076    12.0816    11.0829    10.8234     7.9225     2.4094    -0.0198     0.1621    89.0700     0.2394
  649.0000    84.1748   -31.2068    12.0402    11.1374    10.7321     7.9219     2.4130    -0.0264     0.1601    88.9921     0.2338
  649.5000    85.7569   -31.4061    11.9808    11.1923    10.6309     7.9214     2.4166    -0.0088     0.1581    88.9215     0.2339
  650.0000    86.2625   -31.5810    11.9217    11.2474    10.5307     7.9209     2.4197     0.0111     0.1562    88.8506     0.2360
  650.5000    86.7315   -31.5401    11.8629    11.3028    10.4315     7.9204     2.4207     0.0129     0.1546    88.7796     0.2380
  651.0000    87.2060   -31.4977    11.8044    11.3309    10.3331     7.9199     2.4180     0.0108     0.1553    88.7085     0.2400
  651.5000    87.6862   -31.4557    11.7461    11.1931    10.2443     7.9193     2.4149     0.0087     0.1573    88.6375     0.2420
  652.0000    87.2194   -31.4161    11.6882    11.1018    10.2284     7.9178     2.4150     0.0065     0.1582    88.5664     0.2450
  652.5000    86.6472   -31.4467    11.6370    11.0112    10.2138     7.9161     2.4199     0.0052     0.1559    88.4939     0.2490
  653.0000    86.1683   -31.7047    11.6024    10.9213    10.1993     7.9144     2.4214     0.0040     0.1540    88.5360     0.2525
  653.5000    86.7060   -31.9520    11.5679    10.8322    10.1848     7.9128     2.4227     0.0053     0.1532    88.6894     0.2510
  654.0000    88.8587   -32.1990    11.5335    10.7439    10.1703     7.9111     2.4278     0.0151     0.1512    88.8454     0.2464
  654.5000    92.8136   -32.4460    11.4993    10.6562    10.1488     7.9094     2.4344     0.0163     0.1470    88.9763     0.2417
  655.0000    93.1469   -32.6931    11.4651    10.5886    10.2744     7.9078     2.4369     0.0139     0.1443    89.0471     0.2421
  655.5000    92.9755   -32.9401    11.4310    10.5312    10.4637     7.9061     2.4346     0.0031     0.1458    89.2193     0.2486
  656.0000    93.0884   -33.1871    11.3970    10.4742    10.6565     7.9044     2.4319    -0.0088     0.1473    89.4053     0.2576
  656.5000    95.4112   -33.4342    11.3631    10.4174    10.7738     7.9027     2.4302    -0.0212     0.1483    89.5913     0.2628
  657.0000    94.4127   -33.6813    11.3312    10.3610    10.8497     7.9011     2.4357    -0.0169     0.1462    89.5657     0.2592
  657.5000    92.6389   -33.9286    11.3611    10.3048    10.9261     7.8994     2.4422    -0.0074     0.1425    89.3829     0.2544
  658.0000    92.0874   -34.1748    11.3968    10.2490    11.0031     7.8977     2.4487     0.0022     0.1382    89.2000     0.2497
  658.5000    92.0709   -34.3672    11.4327    10.1935    11.0806     7.8960     2.4553     0.0118     0.1339    89.0158     0.2474
  659.0000    92.3218   -34.3947    11.4688    10.1509    11.1251     7.8944     2.4579     0.0217     0.1325    89.0373     0.2503
  659.5000    92.7071   -34.4244    11.5049    10.1510    11.0694     7.8927     2.4587     0.0238     0.1319    89.2106     0.2553
  660.0000    94.0935   -34.4543    11.5405    10.1509    11.0306     7.8910     2.4579     0.0256     0.1317    89.3842     0.2562
  660.5000    94.4663   -34.4840    11.4831    10.1509    10.9919     7.8894     2.4607     0.0198     0.1315    89.5578     0.2531
  661.0000    94.4670   -34.5147    11.4270    10.1509    10.9534     7.8877     2.4645     0.0118     0.1283    89.6388     0.2500
  661.5000    94.0013   -34.5402    11.3713    10.1509    10.9150     7.8860     2.4678     0.0036     0.1258    89.6096     0.2493
  662.0000    92.7623   -34.8163    11.3158    10.1512    10.8768     7.8843     2.4657     0.0005     0.1268    89.5804     0.2506
  662.5000    90.9122   -35.2075    11.2606    10.1503    10.8385     7.8827     2.4595     0.0032     0.1296    89.5527     0.2535
  663.0000    90.9364   -35.6029    11.2057    10.0971    10.7583     7.8810     2.4567     0.0060     0.1323    89.6623     0.2589
  663.5000    92.2592   -35.9984    11.1510    10.0437    10.6494     7.8799     2.4564     0.0088     0.1330    89.7668     0.2653
  664.0000    93.6023   -36.3937    11.0967     9.9905    10.5419     7.8799     2.4560     0.0116     0.1324    89.8713     0.2703
  664.5000    93.9781   -36.7889    11.0425     9.9376    10.4355     7.8799     2.4557     0.0144     0.1319    89.9270     0.2618
  665.0000    93.8740   -37.1842    10.9887     9.8850    10.3302     7.8799     2.4554     0.0174     0.1327    89.7814     0.2520
  665.5000    93.7516   -37.5795    10.9348     9.8327    10.2262     7.8799     2.4551     0.0153     0.1329    89.4811     0.2489
  666.0000    93.3258   -37.9766    10.9028     9.7807    10.1186     7.8799     2.4556     0.0121     0.1324    89.1837     0.2537
  666.5000    91.6648   -38.2392    10.8767     9.7289    10.0634     7.8799     2.4606     0.0135     0.1305    88.9520     0.2502
  667.0000    90.0873   -38.4298    10.8510     9.6783    10.1372     7.8799     2.4627     0.0153     0.1285    88.9583     0.2475
  667.5000    88.9656   -38.6194    10.8234     9.6293    10.0840     7.8799     2.4594     0.0098     0.1293    89.4966     0.2498
  668.0000    88.3134   -38.8094    10.6276     9.5194    10.0146     7.8799     2.4514    -0.0013     0.1324    90.0202     0.2520
  668.5000    91.8054   -39.0024    10.4274     9.2763     9.7321     7.8799     2.4533    -0.0030     0.1351    90.5438     0.2542
  669.0000    95.5559   -39.3323    10.2310     9.0396     9.4581     7.8799     2.4598     0.0057     0.1328    90.9599     0.2551
  669.5000    95.6826   -39.8650    10.0383     8.8087     9.1922     7.8799     2.4664     0.0156     0.1281    91.2304     0.2503
  670.0000    94.7640   -40.3944     9.8492     8.5840     8.9337     7.8799     2.4650     0.0149     0.1269    91.6163     0.2489
  670.5000    94.1235   -40.9248     9.6637     8.3647     8.6864     7.8799     2.4577     0.0037     0.1303    92.3116     0.2557
