~VERSION INFORMATION
 VERS.                2.0:   CWLS LOG ASCII STANDARD - VERSION 2.0
 WRAP.                 NO:   ONE LINE PER DEPTH STEP
~WELL INFORMATION
#MNEM.UNIT      DATA TYPE    INFORMATION
#----------   ------------   ------------------------------
 STRT.F           20.0000:   START DEPTH
 STOP.F          468.0000:   STOP DEPTH
 STEP.F            0.1000:   STEP LENGTH
 NULL.          -999.2500:   NO VALUE
 COMP. LAWRENCE/ALLISON INC:   COMPANY
 WELL.    63-51 SX #10-10:   WELL
 FLD .             TEAPOT:   FIELD
 LOC .      S10 T38N R78W:   LOCATION
 CNTY.            NATRONA:   COUNTY
 STAT.            WYOMING:   STATE
 CTRY. UNITED STATES OF AMERICA:   COUNTRY
 SRVC.           Gearhart:   SERVICE COMPANY
 DATE.        01-OCT-1988:   LOGDATE
 API .       490251125100:   API NUMBER
~CURVE INFORMATION
#MNEM.UNIT       API CODE    CURVE DESCRIPTION
#----------   ------------   ------------------------------
 DEPT.F                  :   
 GRR .GAPI   07 310 01 00:   GAMMA RAY
 RILD.OHMM   07 120 46 00:   INDUCTION LOG DEEP RESISTIVITY
 RILM.OHMM   07 120 44 00:   INDUCTION LOG MEDIUM RESISTIVITY
~PARAMETER INFORMATION
#MNEM.UNIT          VALUE    DESCRIPTION
#----------   ------------   ------------------------------
 PD  .                 GL:   PERMANENT DATUM
 EPD .F              5157:   ELEVATION PERMANENT DATUM
 LMF .                 KB:   LOG MEASURED FROM
 DAPD.F                 5:   FEET ABOVE PERMANENT DATUM
 DMF .                 KB:   DRILLING MEASURED FROM
 EKB .F              5162:   KELLING BUSHING
 EGL .F              5157:   GROUND LEVEL
 DATE.        01-OCT-1988:   RUN DATE
 RUN .                  1:   RUN NUMBER
 DD  .F               475:   DEPTH DRILLER
 DL  .F               476:   DEPTH LOGGER
 BLI .F               468:   BOTTOM LOG INTERVAL
 TLI .F                20:   TOP LOG INTERVAL
 CS  .IN            9.625:   CASING SIZE
 CBD .F                45:   CASING BOTTOM DRILLER
 CBL .F                46:   CASING BOTTOM LOGGER
 BS  .IN             7.87:   BIT SIZE
 BSD .F               475:   BIT SIZE AT DEPTH
 TLAB.HRS            1630:   TIME LOGGER AT BOTTOM
 MRT .F                75:   MAXIMUM RECORDED TEMPERATURE
 LUN .               7597:   LOGGING UNIT NUMBER
 LUL .           GILLETTE:   LOGGING UNIT LOCATION
 ENGI.              BENCK:   RECORDING ENGINEER
 WITN.             STRONG:   WITNESSED BY
 CLNT.            A2DTECH:   CLIENT CODE
 ORIG.           5" PRINT:   ORIGIN OF DATA
 UWI .       490251125100:   UNIQUE WELL ID
 DICO. A2D Technologies, Inc.:   DIGITIZING COMPANY
~OTHER INFORMATION
~A   DEPT       GRR      RILD       RILM   
# ...
  202.0000   137.0585     5.7499     5.2103
  202.1000   137.4710     5.7370     5.0482
  202.2000   137.7164     5.7091     4.9317
  202.3000   138.0011     5.7088     4.8624
  202.4000   138.2074     5.7086     4.7931
  202.5000   138.4530     5.6862     4.7237
  202.6000   138.6984     5.6679     4.6544
  202.7000   138.9149     5.6677     4.5851
  202.8000   138.9141     5.6675     4.5158
  202.9000   138.9136     5.6673     4.4465
  203.0000   138.7563     5.6670     4.3771
  203.1000   138.6070     5.6668     4.3078
  203.2000   138.6064     5.6665     4.2434
  203.3000   138.6058     5.6663     4.1951
  203.4000   138.3801     5.6661     4.1713
  203.5000   138.2993     5.6658     4.1475
  203.6000   138.2986     5.6656     4.1360
  203.7000   138.2980     5.6653     4.1292
  203.8000   138.2974     5.6651     4.1067
  203.9000   138.2968     5.6648     4.1356
  204.0000   138.4713     5.6646     4.1355
  204.1000   138.6009     5.6644     4.1625
  204.2000   138.6003     5.6760     4.2262
  204.3000   138.5997     5.7040     4.3233
  204.4000   138.8424     5.7037     4.4370
  204.5000   138.9038     5.7327     4.5248
  204.6000   139.1532     5.7436     4.6290
  204.7000   139.5791     5.7573     4.7354
  204.8000   139.8180     5.7962     4.8401
  204.9000   139.8174     5.8658     4.9310
  205.0000   140.2036     5.9295     4.9822
  205.1000   140.6950     5.9973     5.0585
  205.2000   141.1118     6.0659     5.1326
  205.3000   141.3732     6.1353     5.1971
  205.4000   141.9516     6.2053     5.2902
  205.5000   141.9511     6.2405     5.3775
  205.6000   141.6639     6.3035     5.4476
  205.7000   141.0868     6.3757     5.5098
  205.8000   140.3729     6.4486     5.5727
  205.9000   139.8112     6.5222     5.6362
  206.0000   139.1759     6.6104     5.7007
  206.1000   138.5892     6.6724     5.7406
  206.2000   138.0962     6.7487     5.8085
  206.3000   137.6374     6.8123     5.8884
  206.4000   137.3654     6.8510     5.9238
  206.5000   136.9230     6.8949     6.0038
  206.6000   136.5919     6.9638     6.0317
  206.7000   136.3453     7.0178     6.0862
  206.8000   136.0986     7.0739     6.1558
  206.9000   135.8357     7.1481     6.2222
  207.0000   135.6051     7.1917     6.2622
  207.1000   135.3584     7.2679     6.3244
  207.2000   135.1117     7.3511     6.3737
  207.3000   134.9173     7.3967     6.4099
  207.4000   134.9166     7.4055     6.4463
  207.5000   134.9160     7.4484     6.4859
  207.6000   134.9154     7.4066     6.5540
  207.7000   134.9148     7.3954     6.5776
  207.8000   134.8527     7.3527     6.5940
  207.9000   134.6016     7.2688     6.6315
  208.0000   133.8628     7.1873     6.6704
  208.1000   133.3128     7.1461     6.7070
  208.2000   132.8199     7.0730     6.7172
  208.3000   132.2566     7.0148     6.7170
  208.4000   131.5405     6.9618     6.7168
  208.5000   131.2457     6.8858     6.7160
  208.6000   131.2452     6.8403     6.6777
  208.7000   131.2446     6.8070     6.6396
  208.8000   131.3238     6.7445     6.6017
  208.9000   131.5488     6.6676     6.5640
  209.0000   131.5480     6.5968     6.5241
  209.1000   131.5475     6.5554     6.4374
  209.2000   131.6951     6.4880     6.4070
  209.3000   132.0298     6.4334     6.3705
  209.4000   132.4618     6.3888     6.3089
  209.5000   132.4610     6.3442     6.2098
  209.6000   132.4604     6.2996     6.1701
  209.7000   132.4598     6.2550     6.0784
  209.8000   132.1647     6.2104     5.9753
  209.9000   131.4648     6.1658     5.8872
  210.0000   130.9312     6.1212     5.8149
  210.1000   130.4790     6.0766     5.7091
  210.2000   130.1528     6.0320     5.6194
  210.3000   130.0135     5.9874     5.5241
  210.4000   130.0609     5.9428     5.4304
  210.5000   130.3175     5.8933     5.3410
  210.6000   130.5519     5.8931     5.2632
  210.7000   130.9731     5.8928     5.1854
  210.8000   131.5809     5.8787     5.1076
  210.9000   132.3186     5.8510     5.0299
  211.0000   133.0626     5.8507     4.9521
  211.1000   133.7943     5.8505     4.8743
  211.2000   134.7166     5.8502     4.7965
  211.3000   135.7006     5.8344     4.7187
  211.4000   136.6846     5.8085     4.6410
  211.5000   137.6682     5.8083     4.5632
  211.6000   138.6518     5.8081     4.4854
  211.7000   139.6360     5.8078     4.4591
  211.8000   140.4851     5.8076     4.4483
  211.9000   141.0716     5.8073     4.4276
  212.0000   141.3008     5.8071     4.4588
  212.1000   140.9947     5.8068     4.4586
  212.2000   140.1816     5.8066     4.4767
  212.3000   138.7647     5.8064     4.5144
  212.4000   137.2110     5.8061     4.5598
  212.5000   136.0054     5.8059     4.5856
  212.6000   134.8848     5.8056     4.6646
  212.7000   134.2472     5.8342     4.7449
  212.8000   133.3554     5.8462     4.8266
  212.9000   132.4642     5.8592     4.9096
  213.0000   131.7249     5.8872     4.9952
  213.1000   130.9123     5.8869     5.1320
  213.2000   130.2474     5.9489     5.2038
  213.3000   129.5082     5.9934     5.3109
  213.4000   128.8722     6.0275     5.4224
  213.5000   128.3358     6.0691     5.5155
  213.6000   127.5505     6.1402     5.6236
  213.7000   127.0888     6.2087     5.6790
  213.8000   126.7672     6.2533     5.7853
  213.9000   126.6326     6.3251     5.8920
  214.0000   126.7908     6.4242     5.9592
  214.1000   127.5475     6.4975     6.0333
  214.2000   128.5063     6.5719     6.1280
  214.3000   129.6707     6.6774     6.2095
  214.4000   130.7791     6.7924     6.2805
  214.5000   131.7628     6.8967     6.3521
  214.6000   132.7471     6.9788     6.4275
  214.7000   133.7307     7.1178     6.4981
  214.8000   134.9040     7.1866     6.5453
  214.9000   135.8728     7.2943     6.6008
  215.0000   136.5393     7.3882     6.6761
  215.1000   137.0191     7.4417     6.7520
  215.2000   137.3116     7.5830     6.7904
  215.3000   137.3111     7.6217     6.8289
  215.4000   137.3105     7.6942     6.8888
  215.5000   136.7467     7.7632     6.9438
  215.6000   134.9815     7.8072     6.9483
  215.7000   132.4231     7.8537     7.0419
  215.8000   130.9660     7.9393     7.0748
  215.9000   129.5402     7.9974     7.1151
  216.0000   128.4886     8.0428     7.1413
  216.1000   127.7498     8.0884     7.1455
  216.2000   126.9239     8.1341     7.1914
  216.3000   126.4889     8.1338     7.2270
  216.4000   125.6802     8.2053     7.2418
  216.5000   124.8927     8.2487     7.2580
  216.6000   124.3606     8.2484     7.2993
  216.7000   123.5621     8.2507     7.3440
  216.8000   122.8825     8.3060     7.3438
  216.9000   122.1437     8.3057     7.3436
  217.0000   121.6204     8.3332     7.3621
  217.1000   121.4223     8.3639     7.4039
  217.2000   121.4217     8.3688     7.4472
  217.3000   121.1857     8.4223     7.4470
  217.4000   120.9388     8.4220     7.4779
  217.5000   120.8091     8.4525     7.4992
  217.6000   120.8085     8.4810     7.5101
  217.7000   120.8079     8.4806     7.5518
  217.8000   120.8073     8.4802     7.5516
  217.9000   120.8067     8.5250     7.5514
  218.0000   120.8061     8.5396     7.5747
  218.1000   120.8055     8.5615     7.6044
  218.2000   120.8125     8.5993     7.6072
  218.3000   121.0581     8.5990     7.6577
  218.4000   121.3036     8.5986     7.6575
  218.5000   121.5491     8.6350     7.6833
  218.6000   121.7946     8.6588     7.7112
  218.7000   122.0571     8.6719     7.7162
  218.8000   122.6332     8.7194     7.7653
  218.9000   123.0401     8.7189     7.7651
  219.0000   123.5318     8.7186     7.7649
  219.1000   123.9381     8.7183     7.7647
  219.2000   124.2357     8.7179     7.7719
  219.3000   125.0729     8.7175     7.8191
  219.4000   125.7114     8.7171     7.8189
  219.5000   126.4491     8.7168     7.8187
  219.6000   127.1866     8.7164     7.8388
  219.7000   127.9242     8.7160     7.8735
  219.8000   128.7340     8.7157     7.8733
  219.9000   129.6218     8.7153     7.8731
  220.0000   130.6057     8.7149     7.8729
  220.1000   131.3821     8.7480     7.8954
