~VERSION INFORMATION
 VERS.                2.0:   CWLS LOG ASCII STANDARD - VERSION 2.0
 WRAP.                 NO:   ONE LINE PER DEPTH STEP
~WELL INFORMATION
#MNEM.UNIT      DATA TYPE    INFORMATION
#----------   ------------   ------------------------------
 STRT.F           27.0000:   START DEPTH
 STOP.F          538.0000:   STOP DEPTH
 STEP.F            0.5000:   STEP LENGTH
 NULL.          -999.2500:   NO VALUE
 COMP. FENIX & SCISSON INC:   COMPANY
 WELL.        NPR 3 #24-3:   WELL
 FLD .             TEAPOT:   FIELD
 LOC .       S3 T38N R78W:   LOCATION
 CNTY.            NATRONA:   COUNTY
 STAT.            WYOMING:   STATE
 CTRY. UNITED STATES OF AMERICA:   COUNTRY
 SRVC.            Unknown:   SERVICE COMPANY
 DATE.        26-SEP-1978:   LOGDATE
 API .       490251068800:   API NUMBER
~CURVE INFORMATION
#MNEM.UNIT       API CODE    CURVE DESCRIPTION
#----------   ------------   ------------------------------
 DEPT.F                  :   
 SPR .MV     05 010 01 00:   SPONTANEOUS POTENTIAL FROM RES.
 ILD .OHMM   05 120 46 00:   INDUCTION LOG DEEP
 SN  .OHMM   05 040 16 00:   SHORT NORMAL 16"
 CALD.IN     45 280 60 00:   CALIPER
 GRD .GAPI   45 310 01 00:   GAMMA RAY FROM DENSITY LOG
 DEN .G/C3   45 350 01 00:   COMPENSATED BULK DENSTIY
 DPHI.DEC    45 890 12 00:   DENSITY POROSITY SANDSTONE
 CORR.G/C3   45 356 01 00:   DENSITY CORRECTION
~PARAMETER INFORMATION
#MNEM.UNIT          VALUE    DESCRIPTION
#----------   ------------   ------------------------------
 PD  .                 GL:   PERMANENT DATUM
 EPD .F              5200:   ELEVATION PERMANENT DATUM
 LMF .                 KB:   LOG MEASURED FROM
 DAPD.F                 4:   FEET ABOVE PERMANENT DATUM
 DMF .                 KB:   DRILLING MEASURED FROM
 EKB .F              5204:   KELLING BUSHING
 EGL .F              5200:   GROUND LEVEL
 DATE.            9-26-78:   RUN DATE
 RUN .                  1:   RUN NUMBER
 DD  .F               537:   DEPTH DRILLER
 DL  .F               538:   DEPTH LOGGER
 BLI .F               532:   BOTTOM LOG INTERVAL
 TLI .F                40:   TOP LOG INTERVAL
 CS  .IN            8.625:   CASING SIZE
 CBD .F                40:   CASING BOTTOM DRILLER
 CBL .F                46:   CASING BOTTOM LOGGER
 BS  .IN            7.875:   BIT SIZE
 BSD .F               537:   BIT SIZE AT DEPTH
 DFT .                KCL:   DRILLING FLUID TYPE
 DFD .                8.7:   DRILLING FLUID DENSITY
 DFV .                 37:   DRILLING FLUID VISCOSITY
 DFPH.                  9:   DRILLING FLUID PH
 DFL .                 10:   DRILLING FLUID LOSS
 MSS .          FLOW LINE:   MUD SAMPLE SOURCE
 RMS .OHMM            .18:   RESISTIVITY MUD SAMPLE
 MST .F                72:   MUD SAMPLE TEMPERATURE
 RMF .OHMM            .16:   RESISTIVITY MUD FILTRATE SAMPLE
 MFST.F                76:   MUD FILTRATE SAMPLE TEMPERATURE
 RMC .OHMM            .26:   RESISTIVITY MUD CAKE
 MCST.F                76:   MUD CAKE SAMPLE TEMPERATURE
 MFSS.               MEAS:   MUD FILTRATE SAMPLE SOURCE
 RMB .OHMM            .18:   RESISTIVITY MUD AT BHT
 BHT .F                71:   BOTTOM HOLE TEMPERATURE
 TCS .HRS               3:   TIME CURCULATED STOPPED
 MRT .F                71:   MAXIMUM RECORDED TEMPERATURE
 LUN .               2958:   LOGGING UNIT NUMBER
 LUL .               CASP:   LOGGING UNIT LOCATION
 ENGI.           REYNOLDS:   RECORDING ENGINEER
 WITN.              AMEND:   WITNESSED BY
 CLNT.            A2DTECH:   CLIENT CODE
 ORIG.           5" PRINT:   ORIGIN OF DATA
 UWI .       490251068800:   UNIQUE WELL ID
 DICO. A2D Technologies, Inc.:   DIGITIZING COMPANY
~OTHER INFORMATION
~A   DEPT      SPR        ILD         SN       CALD         GRD       DEN       DPHI       CORR   
# ...
  432.0000   -46.9003    18.4091    10.0029     8.3598    87.7092     2.4135     0.1770     0.0908
  432.5000   -46.9189    17.9290    10.0029     8.3736    87.1041     2.3806     0.1699     0.0859
  433.0000   -46.9374    17.4428    10.0029     8.3813    85.9386     2.3900     0.1627     0.0792
  433.5000   -46.9560    16.9671    10.0029     8.3888    84.9058     2.3990     0.1610     0.0726
  434.0000   -46.9745    16.5036    10.0029     8.3962    84.9251     2.4064     0.1621     0.0659
  434.5000   -46.9931    15.8705    10.0029     8.4036    86.4838     2.4043     0.1638     0.0609
  435.0000   -47.0116    16.0847    10.0029     8.4111    89.7050     2.4023     0.1650     0.0571
  435.5000   -47.0316    16.4004    10.0029     8.4186    91.0198     2.4004     0.1650     0.0552
  436.0000   -47.0519    16.7223    10.0024     8.4259    91.1122     2.3985     0.1650     0.0550
  436.5000   -47.0723    16.8341    10.0243     8.4240    91.1029     2.3986     0.1654     0.0550
  437.0000   -47.0928    16.8996    10.0502     8.4110    91.1000     2.3982     0.1709     0.0550
  437.5000   -47.1132    16.9655    10.0764     8.3981    91.1000     2.3851     0.1768     0.0550
  438.0000   -47.1337    17.0315    10.1025     8.3851    91.1006     2.3770     0.1781     0.0621
  438.5000   -47.1541    17.0929    10.1287     8.3721    91.0985     2.3819     0.1743     0.0752
  439.0000   -47.1742    17.1284    10.1550     8.3591    91.1105     2.3866     0.1710     0.0684
  439.5000   -47.1930    17.1679    10.1814     8.3462    90.3215     2.3913     0.1470     0.0455
  440.0000   -47.2219    17.2082    10.2078     8.3332    89.1022     2.4299     0.1544     0.0343
  440.5000   -47.6136    17.2519    10.2343     8.3202    88.9147     2.4116     0.1739     0.0326
  441.0000   -48.0386    17.5104    10.2608     8.3097    88.9890     2.3788     0.1781     0.0313
  441.5000   -48.4633    17.7987    10.2831     8.3100    89.0715     2.3766     0.1769     0.0301
  442.0000   -48.8882    18.0917    10.2605     8.3100    88.7915     2.3790     0.1759     0.0290
  442.5000   -49.3229    18.4044    10.2396     8.3100    88.4104     2.3814     0.1766     0.0278
  443.0000   -49.3053    18.1100    10.2190     8.3102    91.9628     2.3815     0.1772     0.0271
  443.5000   -49.2621    17.8054    10.1983     8.2928    96.3381     2.3815     0.1765     0.0274
  444.0000   -49.6027    17.5059    10.1429     8.2636   100.6957     2.3827     0.1752     0.0277
  444.5000   -49.9383    17.2114    10.0202     8.2342   103.6713     2.3850     0.1738     0.0280
  445.0000   -50.2743    16.9530     9.8990     8.2048   103.9225     2.3875     0.1693     0.0282
  445.5000   -50.5845    16.7195     9.7793     8.1755   103.1540     2.3957     0.1636     0.0285
  446.0000   -50.4465    16.4892     9.6608     8.1461    99.3069     2.4047     0.1580     0.0288
  446.5000   -50.6961    16.2621     9.5838     8.1167    95.4497     2.4137     0.1518     0.0294
  447.0000   -51.1495    16.0381     9.5160     8.0873    94.1439     2.4224     0.1518     0.0306
  447.5000   -51.6093    15.8172     9.4486     8.0566    92.9556     2.4247     0.1518     0.0336
  448.0000   -52.0699    15.5993     9.3817     8.0637    91.7552     2.4245     0.1518     0.0381
  448.5000   -52.5241    15.3614     9.3153     8.0822    90.6816     2.4245     0.1510     0.0474
  449.0000   -52.7404    15.0650     9.2493     8.1010    90.4816     2.4257     0.1483     0.0569
  449.5000   -52.9167    14.7742     9.1838     8.1197    90.4919     2.4279     0.1454     0.0664
  450.0000   -53.0937    14.4891     9.1188     8.1384    90.9919     2.4304     0.1346     0.0747
  450.5000   -53.3161    14.2095     9.0542     8.1571    91.6859     2.4385     0.1298     0.0683
  451.0000   -53.5867    13.8755     9.0364     8.1758    92.3887     2.4474     0.1306     0.0586
  451.5000   -53.8560    13.4969     9.0364     8.1945    93.1255     2.4564     0.1279     0.0490
  452.0000   -54.1621    13.1287     9.0364     8.2133    90.9953     2.4641     0.1274     0.0394
  452.5000   -54.5001    12.8367     9.0364     8.2322    90.2412     2.4619     0.1288     0.0314
  453.0000   -54.8383    12.9518     9.0364     8.2487    92.6698     2.4589     0.1298     0.0310
  453.5000   -55.1602    13.0496     9.0365     8.2248    94.6386     2.4565     0.1296     0.0310
  454.0000   -55.1711    13.1482     9.0372     8.1998    95.7069     2.4610     0.1267     0.0310
  454.5000   -55.1694    13.2476     9.0040     8.1750    95.6962     2.4658     0.1234     0.0310
  455.0000   -55.1688    13.3201     8.9536     8.1503    95.4128     2.4706     0.1261     0.0320
  455.5000   -55.1690    13.3198     8.9606     8.1256    94.4352     2.4668     0.1334     0.0383
  456.0000   -55.1689    13.3192     8.9717     8.1009    93.4717     2.4573     0.1300     0.0446
  456.5000   -55.3381    13.4710     8.9827     8.0761    92.9052     2.4536     0.1254     0.0445
  457.0000   -55.6740    13.6841     8.9937     8.0514    95.7346     2.4655     0.1207     0.0404
  457.5000   -55.9687    13.9003     9.0047     8.0267    98.6563     2.4818     0.1160     0.0363
  458.0000   -55.9776    14.0790     9.0157     8.0020    99.0815     2.4947     0.1113     0.0321
  458.5000   -56.6552    13.8014     9.0267     7.9771    98.5718     2.4915     0.1099     0.0290
  459.0000   -56.9852    13.5261     9.0377     7.9526    98.1051     2.4884     0.1131     0.0320
  459.5000   -57.0802    13.3199     9.0488     7.9499    98.1011     2.4853     0.1150     0.0350
  460.0000   -57.1680    13.3684     9.0598     7.9500    98.0870     2.4827     0.1102     0.0380
  460.5000   -57.2556    13.4078     9.0709     7.9500    97.3842     2.4890     0.1056     0.0390
  461.0000   -57.3444    13.4435     9.0820     7.9500    96.8942     2.4971     0.1075     0.0387
  461.5000   -57.3612    13.2717     9.0931     7.9501    97.1648     2.5043     0.1104     0.0383
  462.0000   -57.1383    13.1166     9.1042     7.9507    98.6505     2.4976     0.1130     0.0379
  462.5000   -57.0212    12.9633     9.1152     7.9247   100.1165     2.4909     0.1096     0.0375
  463.0000   -57.2971    12.8367     9.1202     7.8959   101.5789     2.4903     0.1060     0.0372
  463.5000   -57.5592    12.8983     9.1203     7.8217   102.8943     2.4998     0.1037     0.0331
  464.0000   -57.8215    12.9623     9.1203     7.7438   102.9921     2.5091     0.1001     0.0276
  464.5000   -58.0854    13.0267     9.1202     7.6651   103.0629     2.5145     0.0984     0.0249
  465.0000   -58.3384    13.0760     9.1202     7.6306   103.5421     2.5059     0.1045     0.0246
  465.5000   -58.2480    12.8947     9.1202     7.6300   104.3472     2.4973     0.1074     0.0243
  466.0000   -58.1392    12.7226     9.1202     7.6299   105.1597     2.4926     0.1078     0.0241
  466.5000   -58.0323    12.6017     9.1202     7.6300   105.1273     2.4978     0.1063     0.0238
  467.0000   -57.9790    12.6468     9.1202     7.6300   104.2345     2.5027     0.1046     0.0236
  467.5000   -58.1937    12.6817     9.1202     7.6298   103.8372     2.4984     0.1083     0.0233
  468.0000   -58.8783    12.7186     9.1202     7.6289   103.5331     2.4931     0.1130     0.0230
  468.5000   -59.1428    12.5309     9.1202     7.6678   103.4951     2.4877     0.1121     0.0235
  469.0000   -59.1467    12.3360     9.1202     7.7109   103.3570     2.4832     0.1098     0.0242
  469.5000   -59.1436    12.1445     9.1202     7.6961   103.5415     2.4897     0.1074     0.0249
  470.0000   -59.1500    12.3037     9.1202     7.6347   105.2153     2.4975     0.1051     0.0256
  470.5000   -59.4603    12.5042     9.1202     7.6093   107.0144     2.5053     0.1040     0.0263
  471.0000   -59.7982    12.7079     9.1204     7.6580   107.6898     2.5042     0.1036     0.0272
  471.5000   -60.1359    12.9150     9.1194     7.7172   107.7002     2.5015     0.1031     0.0332
  472.0000   -60.4795    13.1254     9.1230     7.7427   107.7118     2.5023     0.1017     0.0393
