~VERSION INFORMATION
 VERS.                2.0:   CWLS LOG ASCII STANDARD - VERSION 2.0
 WRAP.                 NO:   ONE LINE PER DEPTH STEP
~WELL INFORMATION
#MNEM.UNIT      DATA TYPE    INFORMATION
#----------   ------------   ------------------------------
 STRT.F            0.0000:   START DEPTH
 STOP.F          600.0000:   STOP DEPTH
 STEP.F            0.5000:   STEP LENGTH
 NULL.          -999.2500:   NO VALUE
 COMP.   FLUOR DANIEL INC:   COMPANY
 WELL.   16-1 X 11 #16-11:   WELL
 FLD .             TEAPOT:   FIELD
 LOC .      S11 T38N R78W:   LOCATION
 CNTY.            NATRONA:   COUNTY
 STAT.            WYOMING:   STATE
 CTRY. UNITED STATES OF AMERICA:   COUNTRY
 SRVC.      Western Atlas:   SERVICE COMPANY
 DATE.        08-MAY-1995:   LOGDATE
 API .       490252271100:   API NUMBER
~CURVE INFORMATION
#MNEM.UNIT       API CODE    CURVE DESCRIPTION
#----------   ------------   ------------------------------
 DEPT.F                  :   
 GRR .GAPI   07 310 01 00:   GAMMA RAY
 RILD.OHMM   07 120 46 00:   INDUCTION LOG DEEP RESISTIVITY
 RILM.OHMM   07 120 44 00:   INDUCTION LOG MEDIUM RESISTIVITY
~PARAMETER INFORMATION
#MNEM.UNIT          VALUE    DESCRIPTION
#----------   ------------   ------------------------------
 PD  .                 GL:   PERMANENT DATUM
 EPD .F              5203:   ELEVATION PERMANENT DATUM
 LMF .                 KB:   LOG MEASURED FROM
 DAPD.F                10:   FEET ABOVE PERMANENT DATUM
 DMF .                 KB:   DRILLING MEASURED FROM
 EKB .F              5213:   KELLING BUSHING
 EDF .F              5212:   DRILLING FLOOR
 EGL .F              5203:   GROUND LEVEL
 DATE.        08-MAY-1995:   RUN DATE
 RUN .                  1:   RUN NUMBER
 DD  .F               605:   DEPTH DRILLER
 DL  .F               608:   DEPTH LOGGER
 BLI .F               600:   BOTTOM LOG INTERVAL
 TLI .F                46:   TOP LOG INTERVAL
 CS  .IN            9.625:   CASING SIZE
 CBD .F                46:   CASING BOTTOM DRILLER
 CBL .F                46:   CASING BOTTOM LOGGER
 BS  .IN             8.75:   BIT SIZE
 BSD .F               605:   BIT SIZE AT DEPTH
 DFT .                AIR:   DRILLING FLUID TYPE
 MRT .F                89:   MAXIMUM RECORDED TEMPERATURE
 LUN .            HL 6530:   LOGGING UNIT NUMBER
 LUL .             CASPER:   LOGGING UNIT LOCATION
 ENGI.      PAT RASMUSSEN:   RECORDING ENGINEER
 WITN.        GARY STRONG:   WITNESSED BY
 CLNT.            A2DTECH:   CLIENT CODE
 ORIG.           5" PRINT:   ORIGIN OF DATA
 UWI .       490252271100:   UNIQUE WELL ID
 DICO. A2D Technologies, Inc.:   DIGITIZING COMPANY
~OTHER INFORMATION
~A    DEPT      GRR      RILD       RILM   
# ...
  273.0000   128.9239     4.6625     4.7501
  273.5000   129.2344     4.8314     5.0927
  274.0000   128.6399     5.0741     5.3474
  274.5000   126.8388     5.3592     5.5759
  275.0000   125.3394     5.3975     5.8547
  275.5000   127.2708     5.5121     6.1474
  276.0000   134.4090     5.9088     6.4101
  276.5000   135.6223     6.2904     6.6378
  277.0000   128.3935     6.6503     6.8325
  277.5000   122.9725     6.8862     7.0279
  278.0000   126.6013     6.9837     7.2191
  278.5000   130.8333     7.1815     7.3725
  279.0000   131.7472     7.3339     7.5292
  279.5000   132.9626     7.4378     7.6360
  280.0000   132.9915     7.4914     7.7443
  280.5000   129.6460     7.5450     7.7998
  281.0000   124.4344     7.6518     7.8557
  281.5000   123.6466     7.7066     7.9120
  282.0000   124.2610     7.8158     7.9688
  282.5000   124.2698     7.8717     8.0259
  283.0000   124.2786     7.9281     8.0838
  283.5000   124.5891     7.9848     8.1418
  284.0000   126.1063     8.0420     8.2002
  284.5000   129.1317     8.0996     8.3165
  285.0000   132.7605     8.1016     8.4344
  285.5000   133.0829     8.1033     8.4362
  286.0000   129.9991     8.1049     8.4456
  286.5000   125.6722     8.1629     8.4396
  287.0000   121.9383     8.1646     8.5001
  287.5000   122.2488     8.1663     8.5019
  288.0000   127.9892     8.1679     8.5040
  288.5000   128.6014     8.1696     8.5057
  289.0000   125.8953     8.1712     8.3902
  289.5000   121.9826     8.1165     8.3334
  290.0000   117.7682     8.1182     8.2774
  290.5000   122.6036     8.0637     8.2218
  291.0000   127.4389     8.0657     8.2239
  291.5000   127.3997     8.0674     8.1687
  292.0000   125.9483     8.0133     8.1101
  292.5000   127.7693     8.0149     8.0036
  293.0000   129.5881     7.9062     7.8949
  293.5000   130.8036     7.8528     7.7338
  294.0000   132.6224     7.6931     7.5239
  294.5000   135.0445     7.3813     7.2185
  295.0000   137.1650     7.1248     6.9255
  295.5000   139.2854     6.7333     6.5527
  296.0000   140.5009     6.1683     6.0723
  296.5000   139.2752     5.7565     5.7058
  297.0000   133.4841     5.2253     5.2436
  297.5000   129.3683     4.6778     4.8157
  298.0000   129.0733     4.3054     4.1203
  298.5000   130.5926     3.8277     3.5870
  299.0000   129.0932     3.4266     3.1884
  299.5000   125.7838     3.0889     2.9752
  300.0000   125.4887     2.8628     2.7956
  300.5000   125.1959     2.7054     2.6636
  301.0000   121.2854     2.6354     2.7202
  301.5000   114.6577     2.7290     2.9163
  302.0000   111.9516     2.8852     3.2175
  302.5000   117.3300     3.1143     3.4584
  303.0000   124.0357     3.5045     4.0438
  303.5000   126.7185     4.2558     4.3894
  304.0000   128.5314     4.7230     4.8373
  304.5000   130.0426     4.9245     5.0781
  305.0000   130.0456     5.2112     5.4431
  305.5000   131.5568     5.5096     5.6745
  306.0000   133.6714     5.8195     5.8343
  306.5000   141.8192     6.0259     5.9985
  307.0000   148.7603     6.1538     6.2548
  307.5000   147.2549     6.2406     6.3410
  308.0000   142.3831     6.0715     6.2536
  308.5000   139.3334     5.8254     5.9159
  309.0000   137.0081     5.5893     5.6745
  309.5000   140.3293     5.4001     5.4054
  310.0000   149.9854     5.1812     5.2211
  310.5000   155.7198     5.0405     5.0430
  311.0000   158.1361     4.9378     4.9735
  311.5000   154.8208     4.8372     4.9735
  312.0000   147.5839     4.8719     5.0430
  312.5000   140.9503     4.9125     5.1135
  313.0000   135.2218     5.0810     5.2941
  313.5000   134.0181     5.2979     5.5192
  314.0000   141.0719     5.4858     5.7582
  314.5000   143.6772     5.7199     6.0457
  315.0000   143.6808     5.9639     6.3410
  315.5000   143.6837     6.2184     6.6107
  316.0000   138.5585     6.4838     6.7968
  316.5000   133.4332     6.7137     7.0368
  317.0000   132.8321     6.9039     7.1849
  317.5000   136.1541     7.0994     7.3871
  318.0000   137.6653     7.3004     7.5951
  318.5000   136.7633     7.5096     7.6480
  319.0000   137.3696     7.5673     7.6480
  319.5000   139.1966     7.5106     7.5951
  320.0000   140.3922     7.4087     7.5426
  320.5000   140.6974     7.3083     7.3868
  321.0000   141.0020     7.1593     7.2309
  321.5000   140.7026     7.0619     7.0293
  322.0000   139.8013     6.9183     6.7968
  322.5000   139.5018     6.7306     6.6567
  323.0000   142.5221     6.5027     6.4745
  323.5000   145.2400     6.1960     6.2972
  324.0000   147.9579     5.9038     5.9571
  324.5000   145.5476     5.5096     5.5576
  325.0000   143.4389     5.1418     5.1491
  325.5000   141.9075     4.8606     4.8038
  326.0000   143.9558     4.6635     4.5444
  326.5000   149.4817     4.6049     4.3894
  327.0000   152.1996     4.7029     4.5760
  327.5000   153.4092     4.8360     4.8732
  328.0000   150.6972     5.0775     5.1568
  328.5000   147.3819     5.4429     5.4499
  329.0000   144.3683     5.7147     5.7939
  329.5000   143.7671     6.0417     6.0824
  330.0000   145.2791     6.4318     6.3852
  330.5000   145.8854     6.7999     6.7031
  331.0000   148.3138     6.9924     6.9881
  331.5000   150.7562     7.1408     7.2349
  332.0000   148.6099     7.2420     7.2853
  332.5000   146.1996     7.3446     7.3871
  333.0000   143.1860     7.4576     7.4386
  333.5000   141.3782     7.5544     7.4904
  334.0000   142.8902     7.6085     7.4904
  334.5000   143.7981     7.6630     7.5704
  335.0000   144.4044     7.7179     7.5951
  335.5000   143.8040     7.7195     7.6480
  336.0000   141.6954     7.6673     7.6480
  336.5000   142.0000     7.6693     7.6480
  337.0000   144.4646     7.6707     7.5951
  337.5000   146.2293     7.6193     7.5951
  338.0000   143.2162     7.5683     7.5426
  338.5000   140.8059     7.5176     7.5426
  339.0000   140.5065     7.4672     7.4904
  339.5000   142.3201     7.4688     7.4904
  340.0000   142.6247     7.4706     7.4904
  340.5000   142.6277     7.4722     7.5426
  341.0000   143.8373     7.4737     7.5426
  341.5000   146.5551     7.4752     7.5426
  342.0000   148.3681     7.4247     7.4904
  342.5000   151.4077     7.4266     7.3360
  343.0000   152.9352     7.2250     7.1352
  343.5000   152.6009     6.9804     6.7498
  344.0000   150.4922     6.6975     6.4297
  344.5000   147.7802     6.2503     6.0403
  345.0000   146.2742     5.9555     5.7141
  345.5000   149.5961     5.7939     5.6353
  346.0000   154.1239     5.7951     5.7939
  346.5000   153.2219     5.8366     5.8343
  347.0000   150.5099     5.7577     5.8343
  347.5000   148.0996     5.6014     5.7939
  348.0000   148.7059     5.4118     5.7923
  348.5000   150.2172     5.1209     5.4304
  349.0000   149.3151     4.9134     4.8373
  349.5000   149.9221     4.7470     4.7376
  350.0000   153.5450     4.8477     4.8373
  350.5000   154.7546     4.9850     4.9391
  351.0000   150.2327     5.1618     5.0781
  351.5000   145.1074     5.3080     5.2574
  352.0000   140.9240     5.5345     5.5192
  352.5000   140.9358     5.8149     5.8343
  353.0000   142.4559     6.1953     6.2104
  353.5000   143.9760     6.5112     6.5196
  354.0000   142.1458     6.6791     6.7031
  354.5000   140.9402     6.8208     6.9398
  355.0000   140.3915     6.7751     6.8886
  355.5000   140.1016     6.5457     6.5979
  356.0000   140.1164     6.3240     6.2104
  356.5000   141.0331     6.0258     5.7939
  357.0000   142.8549     5.8218     5.5576
  357.5000   146.4866     5.5472     5.3681
  358.0000   150.7216     5.3594     5.1850
  358.5000   149.8285     5.1779     5.0781
  359.0000   145.3154     5.1077     5.0781
  359.5000   141.0779     5.1464     5.1850
  360.0000   140.8141     5.4437     5.4431
  360.5000   145.3537     5.7104     5.8343
  361.0000   148.6838     5.9955     6.2104
  361.5000   151.4105     6.3386     6.6739
  362.0000   149.3107     6.7013     6.9669
  362.5000   145.4009     7.0358     7.2980
  363.0000   141.4911     7.3361     7.5040
  363.5000   138.7880     7.5963     7.7158
