~VERSION INFORMATION
 VERS.                2.0:   CWLS LOG ASCII STANDARD - VERSION 2.0
 WRAP.                 NO:   ONE LINE PER DEPTH STEP
~WELL INFORMATION
#MNEM.UNIT      DATA TYPE    INFORMATION
#----------   ------------   ------------------------------
 STRT.F            3.0000:   START DEPTH
 STOP.F          523.0000:   STOP DEPTH
 STEP.F            0.1000:   STEP LENGTH
 NULL.          -999.2500:   NO VALUE
 COMP.     BROWN JOHN E&C:   COMPANY
 WELL.   NPR 3 #52-2-SX-3:   WELL
 FLD .             TEAPOT:   FIELD
 LOC .       S3 T38N R78W:   LOCATION
 CNTY.            NATRONA:   COUNTY
 STAT.            WYOMING:   STATE
 CTRY. UNITED STATES OF AMERICA:   COUNTRY
 SRVC.     Atlas Wireline:   SERVICE COMPANY
 DATE.        18-APR-1992:   LOGDATE
 API .       490252251500:   API NUMBER
~CURVE INFORMATION
#MNEM.UNIT       API CODE    CURVE DESCRIPTION
#----------   ------------   ------------------------------
 DEPT.F                  :   
 GRR .GAPI   07 310 01 00:   GAMMA RAY
 RILD.OHMM   07 120 46 00:   INDUCTION LOG DEEP RESISTIVITY
 RILM.OHMM   07 120 44 00:   INDUCTION LOG MEDIUM RESISTIVITY
~PARAMETER INFORMATION
#MNEM.UNIT          VALUE    DESCRIPTION
#----------   ------------   ------------------------------
 PD  .                 GL:   PERMANENT DATUM
 EPD .F              5128:   ELEVATION PERMANENT DATUM
 LMF .                 KB:   LOG MEASURED FROM
 DAPD.F                 5:   FEET ABOVE PERMANENT DATUM
 DMF .                 KB:   DRILLING MEASURED FROM
 EKB .F              5133:   KELLING BUSHING
 EDF .F              5132:   DRILLING FLOOR
 EGL .F              5128:   GROUND LEVEL
 DATE.        18-APR-1992:   RUN DATE
 RUN .                  1:   RUN NUMBER
 DD  .F               525:   DEPTH DRILLER
 DL  .F               526:   DEPTH LOGGER
 BLI .F               524:   BOTTOM LOG INTERVAL
 CS  .IN            8.625:   CASING SIZE
 CBD .F                48:   CASING BOTTOM DRILLER
 CBL .F                49:   CASING BOTTOM LOGGER
 BS  .IN            7.875:   BIT SIZE
 BSD .F               525:   BIT SIZE AT DEPTH
 DFT .                AIR:   DRILLING FLUID TYPE
 TCS .HRS               2:   TIME CURCULATED STOPPED
 MRT .F                87:   MAXIMUM RECORDED TEMPERATURE
 LUN .            HL 6274:   LOGGING UNIT NUMBER
 LUL .             CASPER:   LOGGING UNIT LOCATION
 ENGI.            LEBSOCK:   RECORDING ENGINEER
 WITN.             STRONG:   WITNESSED BY
 CLNT.            A2DTECH:   CLIENT CODE
 ORIG.       2", 5" PRINT:   ORIGIN OF DATA
 UWI .       490252251500:   UNIQUE WELL ID
 DICO. A2D Technologies, Inc.:   DIGITIZING COMPANY
~OTHER INFORMATION
~A    DEPT     GRR       RILD       RILM   
# ...
  458.0000   112.9818     8.8006     8.8544
  458.1000   112.7337     8.6418     8.6803
  458.2000   112.6776     8.4381     8.5185
  458.3000   112.6770     8.3006     8.3259
  458.4000   112.7572     8.1257     8.1099
  458.5000   113.0294     7.9193     7.8789
  458.6000   113.5842     7.7082     7.6407
  458.7000   114.2352     7.5309     7.4257
  458.8000   114.9771     7.2845     7.2095
  458.9000   115.7189     7.0799     6.9538
  459.0000   116.6628     6.8949     6.6969
  459.1000   118.4297     6.7447     6.4614
  459.2000   119.8834     6.4155     6.2613
  459.3000   121.7412     6.2254     6.0667
  459.4000   123.3267     6.1029     5.8268
  459.5000   124.6393     6.0093     5.5212
  459.6000   126.1838     5.9463     5.4192
  459.7000   128.7290     5.9460     5.2970
  459.8000   130.2133     5.9168     5.1989
  459.9000   131.7884     5.9041     5.1357
  460.0000   133.3736     5.9039     5.0414
  460.1000   135.0145     5.9036     4.9888
  460.2000   136.3018     5.9034     4.9517
  460.3000   137.9628     5.9031     4.9366
  460.4000   139.8764     5.9029     4.9365
  460.5000   141.4767     5.9026     4.9374
  460.6000   142.7841     5.9024     4.9940
  460.7000   144.2533     5.9021     5.0284
  460.8000   145.6920     5.9018     5.1067
  460.9000   146.5198     5.9299     5.1937
  461.0000   147.2061     5.9428     5.2267
  461.1000   147.6045     5.9557     5.2933
  461.2000   147.8110     5.9840     5.3201
  461.3000   147.8103     5.9837     5.3709
  461.4000   147.8097     6.0156     5.4324
  461.5000   147.8091     6.0498     5.4946
  461.6000   147.6872     6.0671     5.5583
  461.7000   147.3735     6.0854     5.6530
  461.8000   146.8880     6.1535     5.7506
  461.9000   146.5944     6.1949     5.8679
  462.0000   143.9683     6.2528     5.9815
  462.1000   141.9218     6.3243     6.0559
  462.2000   140.6838     6.3966     6.2153
  462.3000   139.4459     6.4697     6.3388
  462.4000   138.1066     6.5497     6.4613
  462.5000   136.9697     6.6186     6.5882
  462.6000   135.7318     6.6943     6.7471
  462.7000   134.3777     6.7526     6.9501
  462.8000   132.7103     6.7815     7.1431
  462.9000   130.5076     6.7828     7.3189
  463.0000   129.5172     6.8604     7.4876
  463.1000   128.1327     6.9074     7.6727
  463.2000   126.6473     7.0156     7.8964
  463.3000   125.1620     7.2064     8.2184
  463.4000   123.7370     7.4563     8.3761
  463.5000   122.6454     7.7421     8.5395
  463.6000   121.5338     7.9436     8.6867
  463.7000   120.4624     8.2055     8.8284
  463.8000   119.5830     8.4466     8.9367
  463.9000   118.7843     8.6409     9.0319
  464.0000   117.7939     8.8396     9.0987
  464.1000   117.0508     9.0438     9.1757
  464.2000   116.3077     9.1704     9.2807
  464.3000   115.5647     9.3345     9.3855
  464.4000   114.9026     9.5314     9.4497
  464.5000   114.4324     9.6953     9.4929
  464.6000   114.1539     9.8828     9.5471
  464.7000   113.9362     9.9821     9.6015
  464.8000   113.8497    10.0963     9.6563
  464.9000   113.9551    10.1866     9.7170
  465.0000   114.1515    10.2565     9.7668
  465.1000   114.1509    10.3761     9.8225
  465.2000   114.3927    10.4925     9.8786
  465.3000   114.6396    10.5213     9.9223
  465.4000   114.7552    10.5208     9.9221
  465.5000   114.9061    10.5388     9.9786
  465.6000   115.3802    10.5938    10.0355
  465.7000   115.6623    10.5932    10.0928
  465.8000   116.0861    10.6448    10.1318
  465.9000   116.5805    10.6667    10.1371
  466.0000   117.1758    10.6662    10.2025
  466.1000   117.9176    10.6770    10.2024
  466.2000   118.6897    10.7401    10.2398
  466.3000   119.1638    10.7397    10.2737
  466.4000   119.8400    10.7392    10.2849
  466.5000   120.4556    10.7701    10.3454
  466.6000   120.9500    10.8136    10.3453
  466.7000   121.4442    10.8132    10.3451
  466.8000   122.0193    10.8126    10.3450
  466.9000   122.4330    10.8641    10.3621
  467.0000   122.7758    10.8876    10.4172
  467.1000   123.0226    10.8872    10.4171
  467.2000   123.2292    10.8969    10.4169
  467.3000   122.9254    10.9626    10.4168
  467.4000   122.6926    10.9621    10.4166
  467.5000   122.6212    11.0065    10.4263
  467.6000   122.2571    11.0690    10.4894
  467.7000   121.5797    11.1150    10.4893
  467.8000   121.0740    11.1171    10.5319
  467.9000   120.1944    11.1919    10.5625
  468.0000   119.1840    11.1916    10.5782
  468.1000   117.5067    11.2290    10.6385
  468.2000   115.9806    11.2928    10.7107
  468.3000   115.2729    11.3569    10.7106
  468.4000   114.7369    11.4267    10.7463
  468.5000   114.5091    11.4864    10.7854
  468.6000   113.9175    11.5059    10.7935
  468.7000   113.2907    11.5364    10.8607
  468.8000   112.9164    11.6182    10.8606
  468.9000   112.9158    11.7482    10.9029
  469.0000   112.9152    11.7477    10.9651
  469.1000   113.1115    11.8008    11.0130
  469.2000   113.4998    11.8291    11.0132
  469.3000   113.9083    11.8521    11.0761
  469.4000   114.1552    11.9194    11.1393
  469.5000   114.4272    11.9940    11.1673
  469.6000   114.6489    12.0552    11.2095
  469.7000   115.0624    12.0772    11.3310
  469.8000   115.3345    12.1077    11.4034
  469.9000   115.4450    12.1765    11.4606
  470.0000   115.9394    12.2456    11.5260
  470.1000   115.6913    12.3152    11.5918
  470.2000   115.6352    12.3852    11.6579
  470.3000   115.6345    12.4556    11.7259
  470.4000   115.6339    12.5029    11.7913
  470.5000   115.6333    12.5097    11.9097
  470.6000   115.6327    12.5895    11.9738
  470.7000   115.6321    12.5890    11.9942
  470.8000   115.6315    12.5885    12.0626
  470.9000   115.7370    12.5880    12.1418
  471.0000   115.9333    12.5874    12.1416
  471.1000   115.9327    12.5869    12.1848
  471.2000   115.9321    12.5864    12.2543
  471.3000   116.1184    12.6403    12.3120
  471.4000   116.3653    12.7121    12.3118
  471.5000   116.6121    12.7843    12.3784
  471.6000   116.8590    12.8509    12.3978
  471.7000   117.1411    12.8503    12.4329
  471.8000   117.7770    12.9129    12.4844
  471.9000   118.2057    12.9862    12.4842
  472.0000   118.6546    13.0296    12.4840
  472.1000   119.3509    13.0427    12.5425
  472.2000   119.8654    13.1198    12.5713
  472.3000   119.6274    13.1193    12.5711
  472.4000   119.5612    13.1739    12.5813
  472.5000   119.4344    13.2102    12.6589
  472.6000   119.1156    13.2096    12.6587
  472.7000   118.6352    13.2091    12.6585
  472.8000   118.3466    13.2084    12.6584
  472.9000   118.1390    13.2713    12.6582
  473.0000   117.8909    13.3083    12.6580
  473.1000   117.6428    13.3212    12.6578
  473.2000   117.4352    13.3341    12.6577
  473.3000   117.4345    13.3470    12.6575
  473.4000   117.2017    13.3600    12.6573
  473.5000   116.9536    13.3729    12.6571
  473.6000   116.7055    13.3858    12.6569
  473.7000   116.5230    13.3987    12.6568
  473.8000   116.5123    13.4117    12.6566
  473.9000   116.2187    13.4246    12.6564
  474.0000   116.0161    13.4375    12.6562
  474.1000   115.9146    13.4504    12.6561
  474.2000   115.8230    13.4634    12.6559
  474.3000   115.6103    13.4763    12.6557
  474.4000   115.6096    13.4793    12.6944
  474.5000   115.6091    13.4787    12.7441
  474.6000   115.7802    13.4782    12.7501
  474.7000   115.9109    13.4823    12.8331
  474.8000   115.9709    13.5715    12.8329
  474.9000   116.2178    13.5710    12.8793
  475.0000   116.4646    13.5704    12.9528
  475.1000   116.5145    13.6000    13.0130
  475.2000   116.7967    13.6772    13.0128
  475.3000   117.2911    13.7596    13.0126
  475.4000   117.7854    13.7591    13.0670
  475.5000   118.3302    13.7585    13.1035
  475.6000   118.5519    13.7965    13.1033
  475.7000   118.9655    13.8538    13.1032
  475.8000   119.3487    13.8533    13.1029
  475.9000   119.5400    13.8526    13.1650
  476.0000   119.5394    13.8521    13.1945
  476.1000   119.7863    13.8985    13.1943
