~VERSION INFORMATION
 VERS.                2.0:   CWLS LOG ASCII STANDARD - VERSION 2.0
 WRAP.                 NO:   ONE LINE PER DEPTH STEP
~WELL INFORMATION
#MNEM.UNIT      DATA TYPE    INFORMATION
#----------   ------------   ------------------------------
 STRT.F            0.0000:   START DEPTH
 STOP.F          635.0000:   STOP DEPTH
 STEP.F            0.1000:   STEP LENGTH
 NULL.          -999.2500:   NO VALUE
 COMP.   FLUOR DANIEL INC:   COMPANY
 WELL. NAVAL PETROLEUM RESERVE 3 SX-3 #72-7-3:   WELL
 FLD .             TEAPOT:   FIELD
 LOC .       S3 T38N R78W:   LOCATION
 CNTY.            NATRONA:   COUNTY
 STAT.            WYOMING:   STATE
 CTRY. UNITED STATES OF AMERICA:   COUNTRY
 SRVC.      Western Atlas:   SERVICE COMPANY
 DATE.        11-JAN-1995:   LOGDATE
 API .       490252264900:   API NUMBER
~CURVE INFORMATION
#MNEM.UNIT       API CODE    CURVE DESCRIPTION
#----------   ------------   ------------------------------
 DEPT.F                  :   
 GRR .GAPI   07 310 01 00:   GAMMA RAY
 RILD.OHMM   07 120 46 00:   INDUCTION LOG DEEP RESISTIVITY
 RILM.OHMM   07 120 44 00:   RESITIVITY LONG MEDIUM
~PARAMETER INFORMATION
#MNEM.UNIT          VALUE    DESCRIPTION
#----------   ------------   ------------------------------
 PD  .                 GL:   PERMANENT DATUM
 EPD .F              5144:   ELEVATION PERMANENT DATUM
 LMF .                 KB:   LOG MEASURED FROM
 DAPD.F                10:   FEET ABOVE PERMANENT DATUM
 DMF .                 KB:   DRILLING MEASURED FROM
 EKB .F              5154:   KELLING BUSHING
 EDF .F              5153:   DRILLING FLOOR
 EGL .F              5144:   GROUND LEVEL
 DATE.        11-JAN-1995:   RUN DATE
 RUN .                  1:   RUN NUMBER
 DD  .F               641:   DEPTH DRILLER
 DL  .F               642:   DEPTH LOGGER
 BLI .F               635:   BOTTOM LOG INTERVAL
 CS  .IN            9.625:   CASING SIZE
 CBD .F                97:   CASING BOTTOM DRILLER
 CBL .F                97:   CASING BOTTOM LOGGER
 BS  .IN             8.75:   BIT SIZE
 BSD .F               641:   BIT SIZE AT DEPTH
 DFT .                AIR:   DRILLING FLUID TYPE
 MRT .F                89:   MAXIMUM RECORDED TEMPERATURE
 LUN .            HL 6530:   LOGGING UNIT NUMBER
 LUL .             CASPER:   LOGGING UNIT LOCATION
 ENGI.      PAT RASMUSSEN:   RECORDING ENGINEER
 WITN.        STEVE HARDY:   WITNESSED BY
 CLNT.            A2DTECH:   CLIENT CODE
 ORIG.           5" PRINT:   ORIGIN OF DATA
 UWI .       490252264900:   UNIQUE WELL ID
 DICO. A2D Technologies, Inc.:   DIGITIZING COMPANY
~OTHER INFORMATION
~A    DEPT      GRR      RILD       RILM   
# ...
   91.0000    80.8581  -999.2500  -999.2500
   91.1000    81.1031  -999.2500  -999.2500
   91.2000    81.1625  -999.2500  -999.2500
   91.3000    81.0000  -999.2500  -999.2500
   91.4000    80.3682  -999.2500  -999.2500
   91.5000    79.2377  -999.2500  -999.2500
   91.6000    78.0592  -999.2500  -999.2500
   91.7000    77.5364  -999.2500  -999.2500
   91.8000    76.9403  -999.2500  -999.2500
   91.9000    76.4906  -999.2500  -999.2500
   92.0000    75.7825  -999.2500  -999.2500
   92.1000    74.9976  -999.2500  -999.2500
   92.2000    74.4230  -999.2500  -999.2500
   92.3000    74.0971  -999.2500  -999.2500
   92.4000    73.5992  -999.2500  -999.2500
   92.5000    73.3233  -999.2500  -999.2500
   92.6000    72.8306  -999.2500  -999.2500
   92.7000    72.5146  -999.2500  -999.2500
   92.8000    72.4205  -999.2500  -999.2500
   92.9000    72.2951  -999.2500  -999.2500
   93.0000    72.1208  -999.2500  -999.2500
   93.1000    72.1221  -999.2500  -999.2500
   93.2000    72.1233  -999.2500  -999.2500
   93.3000    72.1246  -999.2500  -999.2500
   93.4000    72.5825  -999.2500  -999.2500
   93.5000    72.9194  -999.2500  -999.2500
   93.6000    73.3309  -999.2500  -999.2500
   93.7000    73.7480  -999.2500  -999.2500
   93.8000    74.0794  -999.2500  -999.2500
   93.9000    74.6047  -999.2500  -999.2500
   94.0000    75.1541  -999.2500  -999.2500
   94.1000    73.6450  -999.2500  -999.2500
   94.2000    73.4361  -999.2500  -999.2500
   94.3000    73.3450  -999.2500  -999.2500
   94.4000    73.2165  -999.2500  -999.2500
   94.5000    72.9557  -999.2500  -999.2500
   94.6000    72.6949  -999.2500  -999.2500
   94.7000    72.4435  -999.2500  -999.2500
   94.8000    72.4449  -999.2500  -999.2500
   94.9000    72.4459  -999.2500  -999.2500
   95.0000    72.4471  -999.2500  -999.2500
   95.1000    72.4483  -999.2500  -999.2500
   95.2000    72.4495  -999.2500  -999.2500
   95.3000    72.5219  -999.2500  -999.2500
   95.4000    72.7851  -999.2500  -999.2500
   95.5000    73.0574  -999.2500  -999.2500
   95.6000    73.3610  -999.2500  -999.2500
   95.7000    73.5748  -999.2500  -999.2500
   95.8000    74.1837  -999.2500  -999.2500
   95.9000    74.9710  -999.2500  -999.2500
   96.0000    75.9436  -999.2500  -999.2500
   96.1000    77.5178  -999.2500  -999.2500
   96.2000    80.1393  -999.2500  -999.2500
   96.3000    83.0370  -999.2500  -999.2500
   96.4000    85.8513  -999.2500  -999.2500
   96.5000    89.1913  -999.2500  -999.2500
   96.6000    91.3648  -999.2500  -999.2500
   96.7000    92.7903  -999.2500  -999.2500
   96.8000    94.2896  -999.2500  -999.2500
   96.9000    95.6010  -999.2500  -999.2500
   97.0000    96.9426  9926.4805 10057.1689
   97.1000    98.1525  1757.7863 10030.7529
   97.2000    99.4490   369.8663  9988.2139
   97.3000   101.5498   238.0143  9988.4912
   97.4000   103.6379   103.1412  9988.8027
   97.5000   105.1863    36.5428  9989.0459
   97.6000   106.2356    19.4805  9949.9219
   97.7000   107.2540     9.9083  3853.7488
   97.8000   107.8285     6.8771     6.0163
   97.9000   108.3045     5.6158     4.0992
   98.0000   108.6324     3.9796     3.6648
   98.1000   108.8957     3.2753     3.1275
   98.2000   109.0417     2.9714     2.8080
   98.3000   109.0429     2.8631     2.7639
   98.4000   109.0070     2.8391     2.7619
   98.5000   108.7432     2.8557     2.7952
   98.6000   108.4425     2.8726     2.8444
   98.7000   108.4435     2.9226     2.8967
   98.8000   108.0870     2.9877     2.9687
   98.9000   107.7029     3.1008     3.0684
   99.0000   107.5408     3.2478     3.1915
   99.1000   107.6006     3.4054     3.3241
   99.2000   107.8453     3.5879     3.4770
   99.3000   107.8466     3.7361     3.6781
   99.4000   108.0882     3.9649     3.9733
   99.5000   108.1511     4.2566     4.3029
   99.6000   108.1523     4.6809     4.6692
   99.7000   108.1535     5.2415     5.1200
   99.8000   108.1547     5.7136     5.6921
   99.9000   108.1158     6.1993     6.3330
  100.0000   107.8550     6.7256     6.8259
  100.1000   107.8557     7.1641     7.2156
  100.2000   107.8562     7.6025     7.3876
  100.3000   107.5486     8.1071     7.6609
  100.4000   107.1484     8.4899     8.0392
  100.5000   106.8963     8.9737     8.5070
  100.6000   106.6501     9.3176     8.9679
  100.7000   106.6509     9.6903     9.7921
  100.8000   106.6514    10.1065    10.2330
  100.9000   106.6520    10.5797    10.6205
  101.0000   106.6526    10.8254    10.9047
  101.1000   106.6532    10.5295    11.0791
  101.2000   106.6538    10.1461    11.0116
  101.3000   106.6545     9.7212    10.8675
  101.4000   106.6550     9.3353    10.4956
  101.5000   106.8218     8.9854    10.0022
  101.6000   107.0751     8.7300     9.5437
  101.7000   107.3285     8.5524     9.1920
  101.8000   107.5819     8.4727     8.9286
  101.9000   107.8665     8.4052     8.6457
  102.0000   108.0886     8.3570     8.5130
  102.1000   108.3420     8.3300     8.4340
  102.2000   108.8411     8.3787     8.3854
  102.3000   109.5265     8.4366     8.3520
  102.4000   110.0568     8.4770     8.3522
  102.5000   110.8913     8.5266     8.3525
  102.6000   111.5746     8.5975     8.3975
  102.7000   112.3335     8.6979     8.4825
  102.8000   113.0924     8.7994     8.6086
  102.9000   113.8514     8.9205     8.7775
  103.0000   114.7009     9.0064     8.9914
  103.1000   116.3330     9.1450     9.2697
  103.2000   117.0344     9.3288     9.4772
  103.3000   117.4248     9.5475     9.7436
  103.4000   117.8131     9.7648     9.9323
  103.5000   118.1480     9.7653    10.0270
  103.6000   118.1486     9.7190    10.0756
  103.7000   118.1493     9.5936    10.0062
  103.8000   118.1498     9.4057     9.8937
  103.9000   117.7698     9.2026     9.6918
  104.0000   117.2649     9.0460     9.5017
  104.1000   116.5767     8.9250     9.3378
  104.2000   115.5238     8.7555     9.1557
  104.3000   114.2254     8.5867     8.8936
  104.4000   113.2431     8.3975     8.6518
  104.5000   111.6435     8.1688     8.4122
  104.6000   110.1688     7.9835     8.1532
  104.7000   109.0032     7.8243     7.9583
  104.8000   108.0411     7.7119     7.8108
  104.9000   107.2804     7.6073     7.6328
  105.0000   106.9790     7.5012     7.4804
  105.1000   106.5746     7.3722     7.3721
  105.2000   106.2228     7.2471     7.2721
  105.3000   105.8669     7.1510     7.1883
  105.4000   105.4163     7.1165     7.1481
  105.5000   105.1692     7.1286     7.2372
  105.6000   105.1699     7.1889     7.4299
  105.7000   105.1704     7.2728     7.5056
  105.8000   105.3301     7.3538     7.6236
  105.9000   105.4737     7.3541     7.7142
  106.0000   105.5952     7.3544     7.7208
  106.1000   106.0902     7.2999     7.6278
  106.2000   106.3820     7.2161     7.4829
  106.3000   107.0260     7.1333     7.4055
  106.4000   107.6197     7.0556     7.3501
  106.5000   108.1259     7.0559     7.2863
  106.6000   108.6320     7.0215     7.2023
  106.7000   109.1553     7.0077     7.1292
  106.8000   110.0110     7.0264     7.1294
  106.9000   110.6731     7.0570     7.0914
  107.0000   111.2608     7.0573     7.0505
  107.1000   111.6451     7.0577     7.0318
  107.2000   111.8985     7.0931     7.0320
  107.3000   112.1519     7.1345     7.0322
  107.4000   112.4315     7.1763     7.0324
  107.5000   112.6586     7.2182     7.0326
  107.6000   112.9120     7.2604     7.0954
  107.7000   112.9096     7.3087     7.1548
  107.8000   112.6574     7.3456     7.2123
  107.9000   112.3468     7.3885     7.2891
  108.0000   111.5287     7.4317     7.3324
  108.1000   110.8314     7.4867     7.4170
  108.2000   109.8905     7.5712     7.5039
  108.3000   108.2103     7.6214     7.5655
  108.4000   106.5281     7.6217     7.6097
  108.5000   106.0584     7.6516     7.6543
  108.6000   105.7922     7.6754     7.6990
  108.7000   105.5541     7.6757     7.7523
  108.8000   105.4912     7.6792     7.7894
  108.9000   105.4918     7.7299     7.8350
  109.0000   105.4924     7.7693     7.8612
  109.1000   105.4930     7.7843     7.8722
