~VERSION INFORMATION
 VERS.                2.0:   CWLS LOG ASCII STANDARD - VERSION 2.0
 WRAP.                 NO:   ONE LINE PER DEPTH STEP
~WELL INFORMATION
#MNEM.UNIT      DATA TYPE    INFORMATION
#----------   ------------   ------------------------------
 STRT.F          974.5000:   START DEPTH
 STOP.F         2805.0000:   STOP DEPTH
 STEP.F            0.5000:   STEP LENGTH
 NULL.          -999.2500:   NO VALUE
 COMP.   FLUOR DANIEL INC:   COMPANY
 WELL. NAVAL PETROLEUM RESERVE 3 SHX- #38-14:   WELL
 FLD .             TEAPOT:   FIELD
 LOC .      S14 T38N R78W:   LOCATION
 CNTY.            NATRONA:   COUNTY
 STAT.            WYOMING:   STATE
 CTRY. UNITED STATES OF AMERICA:   COUNTRY
 SRVC.            Unknown:   SERVICE COMPANY
 DATE.        20-AUG-1995:   LOGDATE
 API .       490252273400:   API NUMBER
~CURVE INFORMATION
#MNEM.UNIT       API CODE    CURVE DESCRIPTION
#----------   ------------   ------------------------------
 DEPT.F                  :   
 ROP .MIN/FT 91 810 01 00:   RAT OF DRILLING PENETRATION
 TGAS.UNITS  91 830 01 00:   TOTAL GAS FROM HOTWIRE
~PARAMETER INFORMATION
#MNEM.UNIT          VALUE    DESCRIPTION
#----------   ------------   ------------------------------
 EKB .F              5264:   KELLING BUSHING
 EGL .F              5254:   GROUND LEVEL
 DATE.            8-20-95:   RUN DATE
 DD  .F              2805:   DEPTH DRILLER
 CBD .F               980:   CASING BOTTOM DRILLER
 ENGI.              TOWER:   RECORDING ENGINEER
 WITN.               HUSK:   WITNESSED BY
 CLNT.            A2DTECH:   CLIENT CODE
 ORIG.           5" PRINT:   ORIGIN OF DATA
 UWI .       490252273400:   UNIQUE WELL ID
 DICO. A2D Technologies, Inc.:   DIGITIZING COMPANY
~OTHER INFORMATION
~A   DEPT      ROP         TGAS 
# ...
 1946.5000     0.3549     9.8857
 1947.0000     0.3445     9.8742
 1947.5000     0.3451     9.8626
 1948.0000     0.3565     9.8511
 1948.5000     0.3571     9.8395
 1949.0000     0.3686     9.8279
 1949.5000     0.3691     9.8164
 1950.0000     0.3805     9.8058
 1950.5000     0.3919     9.8175
 1951.0000     0.3924     9.8284
 1951.5000     0.3930     9.8393
 1952.0000     0.3935     9.8502
 1952.5000     0.3940     9.8610
 1953.0000     0.4055     9.8719
 1953.5000     0.4169     9.8828
 1954.0000     0.4175     9.8937
 1954.5000     0.4180     9.9045
 1955.0000     0.4294     9.9154
 1955.5000     0.4299     9.9263
 1956.0000     0.4413     9.9372
 1956.5000     0.4418     9.9481
 1957.0000     0.4425     9.9589
 1957.5000     0.4430     9.9698
 1958.0000     0.4435     9.9807
 1958.5000     0.4441     9.9916
 1959.0000     0.4446    10.0024
 1959.5000     0.4342    10.0133
 1960.0000     0.4348    10.0333
 1960.5000     0.4353    10.0655
 1961.0000     0.4360    10.0978
 1961.5000     0.4365    10.1301
 1962.0000     0.4262    10.1624
 1962.5000     0.3939    10.1946
 1963.0000     0.3946    10.2269
 1963.5000     0.3951    10.2592
 1964.0000     0.4500    10.2914
 1964.5000     0.4699    10.3237
 1965.0000     0.4701    10.3560
 1965.5000     0.4704    10.3882
 1966.0000     0.4707    10.4205
 1966.5000     0.4709    10.4528
 1967.0000     0.4712    10.4850
 1967.5000     0.4715    10.5173
 1968.0000     0.4717    10.5496
 1968.5000     0.4721    10.5819
 1969.0000     0.4723    10.6141
 1969.5000     0.4835    10.6464
 1970.0000     0.4837    10.6776
 1970.5000     0.4840    10.6440
 1971.0000     0.4843    10.6115
 1971.5000     0.4845    10.5789
 1972.0000     0.4848    10.5464
 1972.5000     0.4199    10.5138
 1973.0000     0.4201    10.4813
 1973.5000     0.4204    10.4487
 1974.0000     0.4207    10.4162
 1974.5000     0.4101    10.3836
 1975.0000     0.4103    10.3511
 1975.5000     0.4107    10.3185
 1976.0000     0.4000    10.2860
 1976.5000     0.4003    10.2535
 1977.0000     0.4006    10.2209
 1977.5000     0.4008    10.1884
 1978.0000     0.4120    10.1558
 1978.5000     0.4231    10.1233
 1979.0000     0.4234    10.0907
 1979.5000     0.4237    10.0582
 1980.0000     0.4348    10.0246
 1980.5000     0.4351    10.0454
 1981.0000     0.4353    10.0669
 1981.5000     0.4356    10.0884
 1982.0000     0.4359    10.1099
 1982.5000     0.4362    10.1314
 1983.0000     0.4365    10.1529
 1983.5000     0.4367    10.1744
 1984.0000     0.4370    10.1958
 1984.5000     0.4481    10.2173
 1985.0000     0.4484    10.2388
 1985.5000     0.4487    10.2603
 1986.0000     0.4489    10.2818
 1986.5000     0.4492    10.3033
 1987.0000     0.4495    10.3248
 1987.5000     0.4389    10.3463
 1988.0000     0.4391    10.3678
 1988.5000     0.4285    10.3893
 1989.0000     0.4288    10.4108
 1989.5000     0.4291    10.4323
 1990.0000     0.4294    10.4538
 1990.5000     0.4297    10.4664
 1991.0000     0.4299    10.4662
 1991.5000     0.4302    10.4660
 1992.0000     0.4305    10.4658
 1992.5000     0.4307    10.4656
 1993.0000     0.4310    10.4654
 1993.5000     0.4421    10.4652
 1994.0000     0.4424    10.4650
 1994.5000     0.4427    10.4649
 1995.0000     0.4429    10.4647
 1995.5000     0.4323    10.4645
 1996.0000     0.4326    10.4643
 1996.5000     0.4273    10.4641
 1997.0000     0.3571    10.4639
 1997.5000     0.3574    10.4637
 1998.0000     0.3576    10.4635
 1998.5000     0.3579    10.4633
 1999.0000     0.3582    10.4631
 1999.5000     0.3585    10.4630
 2000.0000     0.3478    10.4628
 2000.5000     0.3481    10.4693
 2001.0000     0.3484    10.4780
 2001.5000     0.3378    10.4867
 2002.0000     0.3381    10.4954
 2002.5000     0.3384    10.5041
 2003.0000     0.3386    10.5128
 2003.5000     0.3389    10.5214
 2004.0000     0.3392    10.5301
 2004.5000     0.3394    10.5388
 2005.0000     0.3397    10.5475
 2005.5000     0.3291    10.5562
 2006.0000     0.3293    10.5649
 2006.5000     0.3405    10.5736
 2007.0000     0.3408    10.5823
 2007.5000     0.3411    10.5910
 2008.0000     0.3413    10.5997
 2008.5000     0.3416    10.6084
 2009.0000     0.3310    10.6171
 2009.5000     0.3313    10.6258
 2010.0000     0.3424    10.6345
 2010.5000     0.3317    10.6432
 2011.0000     0.3321    10.6519
 2011.5000     0.3323    10.6606
 2012.0000     0.3326    10.8886
 2012.5000     0.3329    10.6764
 2013.0000     0.3332    10.6877
 2013.5000     0.3335    10.6962
 2014.0000     0.3337    10.4854
 2014.5000     0.3340    10.4953
 2015.0000     0.3343    10.7232
 2015.5000     0.3345    10.7317
 2016.0000     0.3348    10.7402
 2016.5000     0.3241    10.7487
 2017.0000     0.3245    10.7572
 2017.5000     0.3247    10.5464
 2018.0000     0.3250    10.5563
 2018.5000     0.3144    10.5663
 2019.0000     0.3038    10.5748
 2019.5000     0.3041    10.8012
 2020.0000     0.3044    10.8097
 2020.5000     0.3047    11.0361
 2021.0000     0.3049    11.0446
 2021.5000     0.3052    11.0532
 2022.0000     0.3055    11.0631
 2022.5000     0.3166    11.0716
 2023.0000     0.3169    11.0801
 2023.5000     0.3171    11.0886
 2024.0000     0.3174    11.0971
 2024.5000     0.3177    11.1056
 2025.0000     0.3179    10.8962
 2025.5000     0.3183    10.9062
 2026.0000     0.5250    10.9147
 2026.5000     0.5253    10.9232
 2027.0000     0.5256    10.9317
 2027.5000     0.5258    10.9402
 2028.0000     0.5261    10.7294
 2028.5000     0.5264    10.5200
 2029.0000     0.5266    10.3106
 2029.5000     0.5269    10.1012
 2030.0000     0.5380    10.1125
 2030.5000     0.5274    10.3389
 2031.0000     0.5277    10.3475
 2031.5000     0.5280    10.3560
 2032.0000     0.5283    10.5838
 2032.5000     0.5286    10.5923
 2033.0000     0.5288    10.3829
 2033.5000     0.5291    10.3914
 2034.0000     0.5294    10.3999
 2034.5000     0.5296    10.4085
 2035.0000     0.5299    10.4170
 2035.5000     0.5302    11.5165
 2036.0000     0.5304    12.3967
 2036.5000     0.5416    13.0589
 2037.0000     0.5418    13.2854
 2037.5000     0.5312    13.7297
 2038.0000     0.5316    13.7382
 2038.5000     0.8144    13.9646
 2039.0000     0.8147    14.1925
 2039.5000     0.8258    14.2010
 2040.0000     0.8044    14.2095
 2040.5000     0.6959    14.2180
 2041.0000     0.6636    14.2265
 2041.5000     0.6530    14.2350
 2042.0000     0.6533    14.2436
 2042.5000     0.6535    14.2535
 2043.0000     0.6647    14.2620
 2043.5000     0.6650    14.2705
 2044.0000     0.6652    14.2790
 2044.5000     0.5990    14.2875
 2045.0000     0.5992    14.2960
 2045.5000     0.5993    14.3045
 2046.0000     0.6103    14.3145
 2046.5000     0.6105    14.3230
 2047.0000     0.6106    13.8928
 2047.5000     0.6107    13.9042
 2048.0000     0.6109    13.9127
 2048.5000     0.6110    13.9212
 2049.0000     0.6111    13.9297
 2049.5000     0.6113    13.9396
 2050.0000     0.6114    14.1661
 2050.5000     0.7529    14.1548
 2051.0000     0.7421    14.1414
 2051.5000     0.7423    14.1280
 2052.0000     0.7424    14.1146
 2052.5000     0.7425    14.1012
 2053.0000     0.9166    14.0877
 2053.5000     0.9167    14.0743
 2054.0000     0.9169    14.0609
 2054.5000     0.8083    14.0475
 2055.0000     0.7758    14.0341
 2055.5000     0.7760    14.0207
 2056.0000     0.7761    14.0072
 2056.5000     0.8741    13.9938
 2057.0000     0.8851    13.9804
 2057.5000     0.8961    13.9670
 2058.0000     0.9071    13.9536
 2058.5000     0.5703    13.9402
 2059.0000     0.5704    13.9267
 2059.5000     0.5705    13.9133
 2060.0000     0.5707    13.8984
 2060.5000     0.5708    13.8744
 2061.0000     0.5709    13.8505
 2061.5000     0.5711    13.8265
 2062.0000     0.5712    13.8026
 2062.5000     0.6801    13.7786
 2063.0000     0.6802    13.7547
 2063.5000     0.6803    13.7308
 2064.0000     0.6805    13.7068
 2064.5000     0.6806    13.6829
 2065.0000     0.6807    13.6589
 2065.5000     0.6808    13.6350
 2066.0000     0.6701    13.6110
 2066.5000     0.6702    13.5871
 2067.0000     0.6704    13.5631
 2067.5000     0.6705    13.5392
