~VERSION INFORMATION
 VERS.                2.0:   CWLS LOG ASCII STANDARD - VERSION 2.0
 WRAP.                 NO:   ONE LINE PER DEPTH STEP
~WELL INFORMATION
#MNEM.UNIT      DATA TYPE    INFORMATION
#----------   ------------   ------------------------------
 STRT.F           39.0000:   START DEPTH
 STOP.F          590.0000:   STOP DEPTH
 STEP.F            0.5000:   STEP LENGTH
 NULL.          -999.2500:   NO VALUE
 COMP. FENIX & SCISSON INC:   COMPANY
 WELL.    NPR-3 SX #41-34:   WELL
 FLD .             TEAPOT:   FIELD
 LOC .      S34 T39N R78W:   LOCATION
 CNTY.            NATRONA:   COUNTY
 STAT.            WYOMING:   STATE
 CTRY. UNITED STATES OF AMERICA:   COUNTRY
 SRVC.           BIRDWELL:   SERVICE COMPANY
 DATE.        28-AUG-1978:   LOGDATE
 API .       490251069800:   API NUMBER
~CURVE INFORMATION
#MNEM.UNIT       API CODE    CURVE DESCRIPTION
#----------   ------------   ------------------------------
 DEPT.F                  :   
 SPR .MV     05 010 01 00:   SPONTANEOUS POTENTIAL FROM RES.
 SN  .OHMM   05 040 16 00:   SHORT NORMAL 16"
 ILD .OHMM   05 120 46 00:   INDUCTION LOG DEEP
 CALD.IN     45 280 60 00:   CALIPER
 GRD .GAPI   45 310 01 00:   GAMMA RAY FROM DENSITY LOG
 RHOB.G/C3   45 350 01 00:   BULK DENSITY
 DPHI.DEC    45 890 12 00:   DENSITY POROSITY SANDSTONE
 CORR.G/C3   45 356 01 00:   DENSITY CORRECTION
~PARAMETER INFORMATION
#MNEM.UNIT          VALUE    DESCRIPTION
#----------   ------------   ------------------------------
 PD  .                 GL:   PERMANENT DATUM
 EPD .F              5064:   ELEVATION PERMANENT DATUM
 LMF .                 KB:   LOG MEASURED FROM
 DAPD.F                 4:   FEET ABOVE PERMANENT DATUM
 DMF .                 KB:   DRILLING MEASURED FROM
 EKB .F              5068:   KELLING BUSHING
 EGL .F              5064:   GROUND LEVEL
 DATE.          8-28-1978:   RUN DATE
 RUN .                  1:   RUN NUMBER
 DD  .F               600:   DEPTH DRILLER
 DL  .F               596:   DEPTH LOGGER
 BLI .F               590:   BOTTOM LOG INTERVAL
 TLI .F                50:   TOP LOG INTERVAL
 CS  .IN            8.625:   CASING SIZE
 CBD .F                40:   CASING BOTTOM DRILLER
 BS  .IN            7.875:   BIT SIZE
 BSD .F               600:   BIT SIZE AT DEPTH
 DFT .                KCL:   DRILLING FLUID TYPE
 DFD .                8.7:   DRILLING FLUID DENSITY
 DFV .                 35:   DRILLING FLUID VISCOSITY
 DFPH.                  9:   DRILLING FLUID PH
 DFL .                 10:   DRILLING FLUID LOSS
 MSS .          FLOW LINE:   MUD SAMPLE SOURCE
 RMS .OHMM             .4:   RESISTIVITY MUD SAMPLE
 MST .F                76:   MUD SAMPLE TEMPERATURE
 RMF .OHMM             .3:   RESISTIVITY MUD FILTRATE SAMPLE
 MFST.F                80:   MUD FILTRATE SAMPLE TEMPERATURE
 RMC .OHMM             .4:   RESISTIVITY MUD CAKE
 MCST.F                80:   MUD CAKE SAMPLE TEMPERATURE
 MFSS.               MEAS:   MUD FILTRATE SAMPLE SOURCE
 MCSS.               MEAS:   MUD CAKE SAMPLE SOURCE
 TCS .HRS               3:   TIME CURCULATED STOPPED
 LUN .               2958:   LOGGING UNIT NUMBER
 LUL .               CASP:   LOGGING UNIT LOCATION
 ENGI.             MILLER:   RECORDING ENGINEER
 WITN.              AMEND:   WITNESSED BY
 CLNT.            A2DTECH:   CLIENT CODE
 ORIG.           5" PRINT:   ORIGIN OF DATA
 UWI .       490251069800:   UNIQUE WELL ID
 DICO. A2D Technologies, Inc.:   DIGITIZING COMPANY
~OTHER INFORMATION
~A   DEPT      SPR         SN        ILD       CALD        GRD         RHOB       DPHI      CORR  
# ...
  160.5000   -31.7718     8.4027     9.0592     7.1769    98.5870     2.5025     0.1090     0.0195
  161.0000   -31.6583     8.3648     9.0518     7.1660    92.7321     2.5000     0.1090     0.0186
  161.5000   -31.5448     8.3271     9.0444     7.1551    91.2836     2.5006     0.1082     0.0177
  162.0000   -31.4313     8.2895     9.0370     7.1441    92.0414     2.5177     0.0884     0.0167
  162.5000   -31.3179     8.2521     9.0296     7.1332    92.5108     2.5531     0.0742     0.0158
  163.0000   -31.2044     8.2149     9.0222     7.1229    92.7699     2.5761     0.0759     0.0148
  163.5000   -31.0909     8.2071     9.0148     7.1190    94.7149     2.5544     0.0859     0.0142
  164.0000   -30.9774     8.2071     9.0075     7.1149    93.5663     2.5373     0.0959     0.0223
  164.5000   -30.8638     8.2071     9.0001     7.1107    92.1719     2.5201     0.1047     0.0310
  165.0000   -30.7498     8.2071     8.9966     7.1066    92.3246     2.5041     0.1103     0.0269
  165.5000   -30.6409     8.2071     8.9960     7.1024    89.5867     2.4957     0.1197     0.0208
  166.0000   -30.6239     8.2071     8.9718     7.0983    84.1525     2.4878     0.1210     0.0143
  166.5000   -30.6105     8.2070     8.9460     7.0941    82.4740     2.4842     0.1169     0.0195
  167.0000   -30.5966     8.2059     8.9203     7.0900    84.4566     2.4880     0.1126     0.0294
  167.5000   -30.5826     8.2295     8.8946     7.0858    86.9473     2.4927     0.0986     0.0414
  168.0000   -30.5686     8.2751     8.8691     7.0929    90.9624     2.5134     0.1035     0.0537
  168.5000   -30.5547     8.3213     8.8438     7.1101    93.7114     2.5077     0.1129     0.0420
  169.0000   -30.5407     8.3679     8.8326     7.1274    90.8693     2.4982     0.1182     0.0257
  169.5000   -30.5267     8.4148     8.8327     7.1447    87.1659     2.4898     0.1151     0.0200
  170.0000   -30.5128     8.4619     8.8328     7.1620    83.6178     2.4936     0.1118     0.0199
  170.5000   -30.4988     8.5093     8.8369     7.1793    83.4641     2.4949     0.1118     0.0189
  171.0000   -30.4848     8.5245     8.8409     7.1967    88.4154     2.4926     0.1138     0.0154
  171.5000   -30.4708     8.5359     8.8448     7.2035    94.7757     2.4891     0.1160     0.0119
  172.0000   -30.4569     8.5474     8.8488     7.2036    98.4333     2.4856     0.1182     0.0100
  172.5000   -30.4429     8.5589     8.8528     7.2036    98.5989     2.4846     0.1204     0.0108
  173.0000   -30.4289     8.5704     8.8567     7.2036   102.6095     2.4837     0.1226     0.0120
  173.5000   -30.4149     8.5819     8.8607     7.2036   104.5625     2.4769     0.1247     0.0132
  174.0000   -30.4010     8.5934     8.8647     7.2036   103.2445     2.4735     0.1269     0.0145
  174.5000   -30.3870     8.6050     8.8686     7.2036    98.3366     2.4716     0.1285     0.0157
  175.0000   -30.3730     8.6166     8.8726     7.2036    93.9127     2.4698     0.1288     0.0169
  175.5000   -30.3591     8.6282     8.8766     7.2032    93.7145     2.4679     0.1289     0.0178
  176.0000   -30.3451     8.6398     8.8806     7.2203    93.6646     2.4706     0.1267     0.0166
  176.5000   -30.3311     8.6514     8.8845     7.2425    93.6350     2.4746     0.1243     0.0154
  177.0000   -30.3172     8.6630     8.8885     7.2648    92.0218     2.4787     0.1219     0.0142
  177.5000   -30.3032     8.6747     8.8925     7.2871    89.8798     2.4824     0.1198     0.0130
  178.0000   -30.2892     8.6863     8.8965     7.3096    87.6703     2.4859     0.1166     0.0120
  178.5000   -30.2754     8.6980     8.9005     7.3188    87.3562     2.4898     0.1110     0.0182
  179.0000   -30.2615     8.7097     8.9044     7.3041    92.4547     2.5064     0.1041     0.0248
  179.5000   -30.2462     8.7214     8.9081     7.2918    91.6198     2.5206     0.0971     0.0314
  180.0000   -30.1726     8.7332     8.9117     7.2781    90.6562     2.5213     0.0959     0.0384
  180.5000   -30.0204     8.7484     8.9714     7.2643    89.2693     2.5208     0.0962     0.0370
  181.0000   -29.8690     8.7447     9.1309     7.2504    86.2783     2.5204     0.0964     0.0330
  181.5000   -29.7173     8.8327     9.2939     7.2366    82.0333     2.5199     0.0966     0.0289
  182.0000   -29.5656     8.9964     9.4596     7.2228    77.7600     2.5195     0.0975     0.0248
  182.5000   -29.4140     9.1333     9.6282     7.2089    75.8973     2.5190     0.0986     0.0214
  183.0000   -29.2623     9.2627     9.7998     7.1953    76.0352     2.5184     0.0976     0.0195
  183.5000   -29.1107     9.3939     9.9745     7.1822    80.7840     2.5266     0.0935     0.0176
  184.0000   -28.9590     9.5270    10.1522     7.2091    82.7034     2.5373     0.0893     0.0153
  184.5000   -28.8074     9.6620    10.3331     7.2187    79.8872     2.5454     0.0862     0.0130
  185.0000   -28.6558     9.7988    10.5173     7.2300    76.0480     2.5411     0.0854     0.0105
  185.5000   -28.5041     9.9376    10.7048     7.2426    72.8245     2.5357     0.0918     0.0102
  186.0000   -28.3523    10.0784    10.8955     7.1785    78.0258     2.5233     0.1027     0.0106
  186.5000   -28.1997    10.2212    11.0897     7.0927    82.6636     2.5107     0.1135     0.0110
  187.0000   -28.0490    10.3660    11.2873     7.0436    82.4759     2.4982     0.1188     0.0113
  187.5000   -28.0754    10.5827    11.4885     7.0475    82.3267     2.4851     0.1230     0.0117
  188.0000   -28.1319    10.8493    11.6933     7.0527    82.6251     2.4800     0.1266     0.0121
  188.5000   -28.1880    11.1217    11.9017     7.0581    83.8207     2.4751     0.1310     0.0130
  189.0000   -28.2439    11.3998    12.0695     7.0634    83.0447     2.4702     0.1322     0.0138
  189.5000   -28.3000    11.6369    12.0695     7.0687    82.8554     2.4672     0.1284     0.0158
  190.0000   -28.3560    11.6368    12.0480     7.0740    85.2493     2.4706     0.1258     0.0180
  190.5000   -28.4107    11.5431    11.9474     7.0793    85.7401     2.4739     0.1260     0.0202
  191.0000   -28.3970    11.3975    11.8478     7.0846    85.6557     2.4743     0.1260     0.0218
  191.5000   -28.2894    11.2548    11.7489     7.0899    85.5549     2.4741     0.1253     0.0206
  192.0000   -28.1827    11.1139    11.6509     7.0952    85.4484     2.4738     0.1265     0.0193
  192.5000   -28.0756    10.9748    11.5537     7.1005    84.8650     2.4724     0.1292     0.0181
  193.0000   -27.9685    10.8374    11.4573     7.1058    83.7385     2.4676     0.1319     0.0170
  193.5000   -27.8627    10.7018    11.3617     7.1111    82.8090     2.4669     0.1298     0.0162
  194.0000   -27.7618    10.5678    11.2669     7.1164    82.9557     2.4735     0.1248     0.0181
  194.5000   -27.6633    10.4355    11.1729     7.1217    83.0853     2.4795     0.1202     0.0199
  195.0000   -27.5646    10.3124    11.0797     7.1270    83.2011     2.4801     0.1204     0.0217
  195.5000   -27.4639    10.2311    10.9873     7.1323    82.2050     2.4806     0.1210     0.0236
  196.0000   -27.4537    10.1505    10.8956     7.1376    81.1008     2.4811     0.1230     0.0216
  196.5000   -27.5027    10.0705    10.8047     7.1429    80.9149     2.4816     0.1296     0.0175
  197.0000   -27.5512     9.9911    10.7146     7.1482    82.1897     2.4734     0.1369     0.0133
  197.5000   -27.5994     9.9124    10.6252     7.1535    83.5017     2.4612     0.1357     0.0127
  198.0000   -27.6475     9.7715    10.5365     7.1588    83.6787     2.4525     0.1339     0.0155
  198.5000   -27.6956     9.7293    10.4486     7.1641    83.4867     2.4575     0.1321     0.0183
  199.0000   -27.7438     9.6858    10.3615     7.1694    84.0762     2.4627     0.1308     0.0193
  199.5000   -27.7919     9.6424    10.2750     7.1747    85.1680     2.4676     0.1299     0.0177
  200.0000   -27.8400     9.5992    10.2306     7.1800    86.2452     2.4691     0.1287     0.0161
  200.5000   -27.8882     9.5562    10.1845     7.1837    86.6287     2.4706     0.1267     0.0146
