~VERSION INFORMATION
 VERS.                2.0:   CWLS LOG ASCII STANDARD - VERSION 2.0
 WRAP.                 NO:   ONE LINE PER DEPTH STEP
~WELL INFORMATION
#MNEM.UNIT      DATA TYPE    INFORMATION
#----------   ------------   ------------------------------
 STRT.F           33.0000:   START DEPTH
 STOP.F          694.0000:   STOP DEPTH
 STEP.F            0.5000:   STEP LENGTH
 NULL.          -999.2500:   NO VALUE
 COMP. FENIX & SCISSON INC:   COMPANY
 WELL.  NPR 3 #64 S 34-34:   WELL
 FLD .             TEAPOT:   FIELD
 LOC .      S34 T39N R78W:   LOCATION
 CNTY.            NATRONA:   COUNTY
 STAT.            WYOMING:   STATE
 CTRY. UNITED STATES OF AMERICA:   COUNTRY
 SRVC.              Welex:   SERVICE COMPANY
 DATE.        28-APR-1977:   LOGDATE
 API .       490251034600:   API NUMBER
~CURVE INFORMATION
#MNEM.UNIT       API CODE    CURVE DESCRIPTION
#----------   ------------   ------------------------------
 DEPT.F                  :   
 CALD.IN     45 280 60 00:   CALIPER FROM DENSITY LOG
 GRD .GAPI   45 310 01 00:   GAMMA RAY FROM DENSITY LOG
 CORR.G/C3   45 356 01 00:   DENSITY CORRECTION
 DPHI.DEC    45 890 12 00:   DENSITY POROSITY SANDSTONE
 RHOB.G/C3   45 350 01 00:   BULK DENSITY
 SPR .MV     07 010 01 00:   SPONTANEOUS POTENTIAL
 ILD .OHMM   07 120 46 00:   INDUCTION LOG DEEP
 ILM .OHMM   07 120 44 00:   INDUCTION LOG MEDIUM
 SGRD.OHMM   07 221 05 00:   SHALLOW SHORT GUARD RESISTIVITY
~PARAMETER INFORMATION
#MNEM.UNIT          VALUE    DESCRIPTION
#----------   ------------   ------------------------------
 PD  .                 GL:   PERMANENT DATUM
 EPD .F              5079:   ELEVATION PERMANENT DATUM
 LMF .                 GL:   LOG MEASURED FROM
 DMF .                 GL:   DRILLING MEASURED FROM
 EGL .F              5079:   GROUND LEVEL
 DATE.        28-APR-1977:   RUN DATE
 RUN .                  1:   RUN NUMBER
 DD  .F               735:   DEPTH DRILLER
 DL  .F               697:   DEPTH LOGGER
 BLI .F               695:   BOTTOM LOG INTERVAL
 TLI .F                32:   TOP LOG INTERVAL
 CS  .IN            8.625:   CASING SIZE
 BS  .IN               12:   BIT SIZE
 BSD .F               735:   BIT SIZE AT DEPTH
 DFT .            KCL MUD:   DRILLING FLUID TYPE
 DFD .                9.0:   DRILLING FLUID DENSITY
 BHT .F                74:   BOTTOM HOLE TEMPERATURE
 TCS .HRS            0100:   TIME CURCULATED STOPPED
 MRT .F                74:   MAXIMUM RECORDED TEMPERATURE
 ENGI.            C. DOAK:   RECORDING ENGINEER
 WITN.           ROB LYON:   WITNESSED BY
 CLNT.            A2DTECH:   CLIENT CODE
 ORIG.           5" PRINT:   ORIGIN OF DATA
 UWI .       490251034600:   UNIQUE WELL ID
 DICO. A2D Technologies, Inc.:   DIGITIZING COMPANY
~OTHER INFORMATION
~A   DEPT     CALD        GRD       CORR       DPHI       RHOB        SPR        ILD        ILM       SGRD   
# ...
  325.0000     7.9144   117.2107     0.0083     0.1342     2.4498   -40.3441     7.7716     8.9205     9.7954
  325.5000     7.9146   120.7537     0.0099     0.1348     2.4499   -40.3396     7.5108     8.8663     9.7338
  326.0000     7.9149   124.1701     0.0100     0.1360     2.4500   -40.3350     7.2086     8.7515     9.9445
  326.5000     7.9151   122.8185     0.0116     0.1332     2.4531   -40.3304     7.2120     8.4021     9.6118
  327.0000     7.9154   121.9664     0.0133     0.1314     2.4576   -40.3259     7.2657     8.4091     9.0991
  327.5000     7.9157   120.6529     0.0134     0.1317     2.4577   -40.3213     7.2692     8.3002     8.9794
  328.0000     7.9159   118.3087     0.0150     0.1292     2.4593   -40.3167     7.2727     8.0242     8.9230
  328.5000     7.9162   116.5507     0.0151     0.1223     2.4669   -40.3122     7.2762     7.7038     8.8669
  329.0000     7.9164   117.3150     0.0168     0.1163     2.4804   -40.3076     7.2294     7.6041     8.8724
  329.5000     7.9167   118.3760     0.0169     0.1120     2.4910   -40.3030     7.2330     7.8243     8.8780
  330.0000     7.9169   116.1729     0.0155     0.1115     2.4843   -40.2985     7.1865     7.9401     8.8835
  330.5000     7.9172   115.7250     0.0126     0.1123     2.4867   -40.2939     7.1908     7.8918     9.0131
  331.0000     7.9174   115.9210     0.0127     0.1093     2.4928   -40.2894     7.3445     7.8438     9.2722
  331.5000     7.9177   115.2015     0.0144     0.1075     2.4981   -40.2848     7.4017     7.8504     9.7392
  332.0000     7.9179   114.3338     0.0160     0.1069     2.5034   -40.2802     7.5060     7.9666    10.5173
  332.5000     7.9182   113.4660     0.0161     0.1089     2.4870   -40.2757     7.5662     8.1407    10.2361
  333.0000     7.9184   112.7466     0.0147     0.1173     2.4759   -40.2711     7.6233     8.4347     9.8253
  333.5000     7.9187   112.3239     0.0118     0.1197     2.4729   -40.2665     7.7280     8.8002     9.4310
  334.0000     7.9190   111.7528     0.0104     0.1185     2.4783   -40.2620     7.7855     9.1814     9.9060
  334.5000     7.9192   112.8138     0.0106     0.1222     2.4716   -40.2574     7.8434     9.1891     9.9122
  335.0000     7.9195   113.4297     0.0137     0.1198     2.4747   -40.2528     7.9568     9.1332    10.0568
  335.5000     7.9197   113.7489     0.0168     0.1180     2.4793   -40.2483     7.9706     9.0777    10.4179
  336.0000     7.9200   115.5517     0.0154     0.1233     2.4696   -40.2437     8.0205     8.9602    10.7174
  336.5000     7.9202   117.2062     0.0110     0.1278     2.4622   -40.2392     8.0243     8.9676    10.2873
  337.0000     7.9205   115.7449     0.0142     0.1284     2.4608   -40.2346     8.0282     8.9751    10.2937
  337.5000     7.9207   114.5804     0.0160     0.1265     2.4616   -40.2300     8.0879     9.0450    10.3001
  338.0000     7.9210   113.2675     0.0189     0.1247     2.4632   -40.2255     8.0918     8.9279    10.3782
  338.5000     7.9212   112.2514     0.0207     0.1229     2.4658   -40.2209     8.0957     8.7515    10.0310
  339.0000     7.9215   111.2352     0.0237     0.1207     2.4702   -40.2163     7.9873     8.6382     9.5620
  339.5000     7.9218   113.0381     0.0238     0.1237     2.4724   -40.2118     7.8822     8.7055     9.4363
  340.0000     7.9220   114.2474     0.0119     0.1228     2.4725   -40.2072     7.7775     8.7734     9.9115
  340.5000     7.9223   114.8577     0.0000     0.1230     2.4694   -40.2026     7.6213     8.7200     9.7812
  341.0000     7.9225   114.2923    -0.0014     0.1263     2.4658   -40.1981     7.5714     8.6072     9.7197
  341.5000     7.9228   113.8388    -0.0013     0.1293     2.4607   -40.1935     7.5228     8.9181     9.6586
  342.0000     7.9230   113.9564     0.0064     0.1298     2.4594   -40.1889     7.5796     9.1130     9.2710
  342.5000     7.9233   116.3354     0.0140     0.1262     2.4647   -40.1844     7.5833     9.1206     9.8056
  343.0000     7.9235   117.3571     0.0231     0.1194     2.4775   -40.1798     7.6397     8.8786    10.1577
  343.5000     7.9238   117.9683     0.0278     0.1110     2.4926   -40.1753     7.6965     9.0727     9.6827
  344.0000     7.9240   117.5134     0.0309     0.1081     2.4986   -40.1707     7.7537     9.2710     9.4238
  344.5000     7.9243   113.2567     0.0310     0.1091     2.4927   -40.1661     7.8114     9.4736     9.5613
  345.0000     7.9245   110.9052     0.0296     0.1132     2.4831   -40.1616     7.8151     9.4160     9.9735
  345.5000     7.9248   111.9662     0.0253     0.1203     2.4742   -40.1570     7.8732     9.2299    10.4035
  346.0000     7.9251   113.9174     0.0209     0.1263     2.4653   -40.1524     7.9318     9.4973    10.7770
  346.5000     7.9253   114.8301     0.0180     0.1277     2.4616   -40.1479     7.9907     9.7724    11.0868
  347.0000     7.9256   112.9237     0.0166     0.1283     2.4617   -40.1433     8.1624     9.9170    10.8655
  347.5000     7.9258   111.9076     0.0137     0.1298     2.4603   -40.1387     8.3957     9.8567    10.9479
  348.0000     7.9261   110.5947     0.0123     0.1342     2.4544   -40.1342     8.9400     9.7968    11.6597
  348.5000     7.9263   109.4301     0.0092     0.1387     2.4455   -40.1296     9.0690    10.5085    11.5864
  349.0000     7.9266   108.1173     0.0065     0.1413     2.4388   -40.1250     9.2607    10.6641    11.5136
  349.5000     7.9268   105.9142     0.0051     0.1395     2.4381   -40.1205     9.2671    10.8219    11.5208
  350.0000     7.9271   103.8538     0.0053     0.1355     2.4468   -40.1159     9.4029    11.2255    11.9897
  350.5000     7.9273   104.3236     0.0114     0.1308     2.4570   -40.1114     9.8751    11.5952    12.7487
  351.0000     7.9276   106.5685     0.0145     0.1298     2.4585   -40.1068    10.0911    12.1178    13.8827
  351.5000     7.9278   108.0715     0.0176     0.1301     2.4571   -40.1048    10.2390    12.6411    14.6824
  352.0000     7.9281   108.5360     0.0192     0.1292     2.4601   -40.1035    10.2461    11.3222    13.0632
  352.5000     7.9284   107.2200     0.0193     0.1265     2.4677   -40.1023    10.1807    10.8685    12.7155
  353.0000     7.9286   103.6786     0.0193     0.1256     2.4679   -40.1011    10.1895    11.4962    12.8127
  353.5000     7.9289   101.3240     0.0164     0.1288     2.4643   -40.0999    10.1966    12.5019    13.8349
  354.0000     7.9291   102.3820     0.0150     0.1303     2.4606   -40.0987    10.2036    12.6090    15.1466
  354.5000     7.9294   104.3301     0.0121     0.1314     2.4569   -40.0975    10.2107    11.8441    14.1445
  355.0000     7.9296   104.9429     0.0122     0.1281     2.4585   -40.0963    10.2178    11.4352    13.4852
  355.5000     7.9299   104.2204     0.0183     0.1242     2.4646   -40.0951    10.2249    11.8606    13.5885
  356.0000     7.9301   102.0143     0.0229     0.1215     2.4712   -40.0939    10.0199    12.0345    12.8661
  356.5000     7.9304   100.5499     0.0260     0.1257     2.4679   -40.0927    10.1685    11.9597    12.7746
  357.0000     7.9306   100.2725     0.0246     0.1265     2.4637   -40.0914    10.2448    11.5584    12.8840
  357.5000     7.9309    99.8468     0.0231     0.1274     2.4637   -40.0902    10.2519    11.7299    12.8041
  358.0000     7.9311    98.5308     0.0203     0.1286     2.4629   -40.0890    10.2590    11.1823    13.0815
  358.5000     7.9314    99.4404     0.0173     0.1303     2.4577   -40.0878    10.0437    10.3687    12.8218
  359.0000     7.9316   100.7951     0.0144     0.1348     2.4511   -40.0866     9.6688    10.5207    12.3093
  359.5000     7.9319   102.0014     0.0130     0.1398     2.4429   -40.0854     9.1384    10.6731    11.8992
  360.0000     7.9321   102.6093     0.0101     0.1431     2.4385   -40.0842     9.4759    10.3886    11.8250
  360.5000     7.9323    99.8145     0.0087     0.1431     2.4386   -40.0830     9.6808    10.9903    11.9157
  361.0000     7.9326    99.0920     0.0072     0.1410     2.4386   -40.0818     9.7463    10.5501    12.1739
