~VERSION INFORMATION
 VERS.                2.0:   CWLS LOG ASCII STANDARD - VERSION 2.0
 WRAP.                 NO:   ONE LINE PER DEPTH STEP
~WELL INFORMATION
#MNEM.UNIT      DATA TYPE    INFORMATION
#----------   ------------   ------------------------------
 STRT.F           31.0000:   START DEPTH
 STOP.F          600.0000:   STOP DEPTH
 STEP.F            0.5000:   STEP LENGTH
 NULL.          -999.2500:   NO VALUE
 COMP. FENIX & SCISSON INC:   COMPANY
 WELL.      NPR 3 #84 S-3:   WELL
 FLD .             TEAPOT:   FIELD
 LOC .       S3 T38N R78W:   LOCATION
 CNTY.            NATRONA:   COUNTY
 STAT.            WYOMING:   STATE
 CTRY. UNITED STATES OF AMERICA:   COUNTRY
 SRVC.              Welex:   SERVICE COMPANY
 DATE.        29-MAR-1977:   LOGDATE
 API .       490251032000:   API NUMBER
~CURVE INFORMATION
#MNEM.UNIT       API CODE    CURVE DESCRIPTION
#----------   ------------   ------------------------------
 DEPT.F                  :   
 CALD.IN     45 280 60 00:   CALIPER FROM DENSITY LOG
 GRD .GAPI   45 310 01 00:   GAMMA RAY FROM DENSITY LOG
 CORR.G/C3   45 356 01 00:   DENSITY CORRECTION
 DPHI.DEC    45 890 12 00:   DENSITY POROSITY SANDSTONE
 RHOB.G/C3   45 350 01 00:   BULK DENSITY
 SPR .MV     07 010 01 00:   SPONTANEOUS POTENTIAL
 ILD .OHMM   07 120 46 00:   INDUCTION LOG DEEP
 ILM .OHMM   07 120 44 00:   INDUCTION LOG MEDIUM
 SGRD.OHMM   07 221 05 00:   SHALLOW SHORT GUARD RESISTIVITY
~PARAMETER INFORMATION
#MNEM.UNIT          VALUE    DESCRIPTION
#----------   ------------   ------------------------------
 PD  .                 GL:   PERMANENT DATUM
 EPD .F              5146:   ELEVATION PERMANENT DATUM
 LMF .                 GL:   LOG MEASURED FROM
 DMF .                 GL:   DRILLING MEASURED FROM
 EGL .F              5146:   GROUND LEVEL
 DATE.        29-MAR-1977:   RUN DATE
 RUN .                  1:   RUN NUMBER
 DD  .F               610:   DEPTH DRILLER
 DL  .F               602:   DEPTH LOGGER
 BLI .F               600:   BOTTOM LOG INTERVAL
 TLI .F                30:   TOP LOG INTERVAL
 CS  .IN            8.625:   CASING SIZE
 BSD .F               610:   BIT SIZE AT DEPTH
 DFT .                KCL:   DRILLING FLUID TYPE
 DFD .                8.8:   DRILLING FLUID DENSITY
 BHT .F                63:   BOTTOM HOLE TEMPERATURE
 TCS .HRS            0500:   TIME CURCULATED STOPPED
 MRT .F                63:   MAXIMUM RECORDED TEMPERATURE
 ENGI.            C. DOAK:   RECORDING ENGINEER
 WITN.            R. LYON:   WITNESSED BY
 CLNT.            A2DTECH:   CLIENT CODE
 ORIG.           5" PRINT:   ORIGIN OF DATA
 UWI .       490251032000:   UNIQUE WELL ID
 DICO. A2D Technologies, Inc.:   DIGITIZING COMPANY
~OTHER INFORMATION
~A   DEPT     CALD        GRD       CORR       DPHI       RHOB        SPR        ILD        ILM       SGRD   
# ...
  396.0000     7.9542    75.8421     0.0164     0.1990     2.3109   -43.2174    29.4706    41.0594    52.8106
  396.5000     7.9707    77.4456     0.0195     0.1854     2.3207   -43.5127    29.6852    41.6518    64.1550
  397.0000     7.9723    75.9671     0.0272     0.1700     2.3477   -43.4799    30.5276    43.7402    67.3880
  397.5000     7.9740    71.3746     0.0364     0.1660     2.3620   -43.4696    30.9630    44.9897    63.3599
  398.0000     7.9607    70.3447     0.0410     0.1739     2.3598   -44.3448    31.4046    49.2484    48.3972
  398.5000     7.9176    72.0063     0.0411     0.1923     2.3389   -43.2853    31.8526    53.1692    55.2411
  399.0000     7.8596    73.5144     0.0337     0.2099     2.2978   -41.3364    32.0845    53.9298    60.0692
  399.5000     7.8314    74.5754     0.0187     0.2138     2.2844   -39.2422    31.8718    43.5440    45.5670
  400.0000     7.8182    75.0358     0.0008     0.2036     2.2938   -40.1189    30.8027    33.2626    39.9774
  400.5000     7.8318    74.7569    -0.0007     0.1982     2.3006   -37.8737    30.3537    31.9275    49.9398
  401.0000     7.8454    72.6867    -0.0066     0.2020     2.3063   -36.6686    30.4098    31.5018    53.9291
  401.5000     7.8590    69.5734    -0.0171     0.2059     2.3004   -36.3551    30.2114    31.7425    45.7227
  402.0000     7.8706    67.9503    -0.0243     0.1996     2.2974   -35.7444    29.8148    32.2027    43.2878
  402.5000     7.9009    68.5627    -0.0026     0.1924     2.3162   -37.5111    29.0161    31.1248    45.1752
  403.0000     7.9025    71.5597     0.0091     0.1978     2.3216   -38.8320    28.0444    30.7140    42.1907
  403.5000     7.9042    77.0901     0.0123     0.2019     2.3112   -39.5586    27.1052    30.7310    38.3269
  404.0000     7.9207    80.3851     0.0139     0.1681     2.3472   -40.8795    26.9284    31.8305    38.8965
  404.5000     7.9373    82.1898     0.0156     0.1665     2.3659   -40.8588    27.1315    34.1300    40.5832
  405.0000     7.9392    83.5474     0.0202     0.1617     2.3728   -41.3027    26.9545    38.1470    45.0662
  405.5000     7.9558    84.7559     0.0264     0.1503     2.3856   -40.8305    26.4143    42.0508    57.0819
  406.0000     7.9574    85.5174     0.0296     0.1383     2.4058   -41.5572    25.7098    48.9926    59.5439
  406.5000     7.9590    85.9807     0.0282     0.1419     2.4119   -40.6492    25.3693    40.6658    47.1054
  407.0000     7.9607    85.9980     0.0268     0.1482     2.3998   -38.7011    25.0302    32.3814    38.8376
  407.5000     7.9772    84.8112     0.0239     0.1532     2.3857   -34.9701    24.3626    28.2118    30.2952
  408.0000     7.9785    82.4411     0.0225     0.1568     2.3822   -32.1305    23.5467    27.4531    27.5145
  408.5000     7.9802    81.2678     0.0197     0.1544     2.3861   -34.7888    22.6015    29.4363    28.9137
  409.0000     7.9818    80.3865     0.0183     0.1493     2.3915   -35.9703    21.6942    27.1095    29.9594
  409.5000     7.9835    80.7467     0.0169     0.1460     2.3983   -35.6476    20.5375    25.8419    30.1948
  410.0000     7.9852    81.7933     0.0155     0.1498     2.3945   -36.2256    19.4425    23.6285    28.7920
  410.5000     7.9867    82.5584     0.0142     0.1564     2.3826   -36.3685    19.0528    24.1375    28.2190
  411.0000     7.9886    82.9985     0.0143     0.1617     2.3729   -34.2612    18.6687    23.4916    28.8439
  411.5000     7.9902    82.7160     0.0129     0.1698     2.3618   -31.2731    18.2968    24.1676    29.2726
  412.0000     7.9917    81.6932     0.0131     0.1722     2.3544   -30.0680    17.9302    25.0323    28.4985
  412.5000     7.9935    81.4073     0.0117     0.1641     2.3612   -28.2686    17.6927    23.2104    28.9221
  413.0000     7.9949    82.6159     0.0133     0.1548     2.3829   -27.3607    17.5772    23.0599    29.3519
  413.5000     7.9969    80.4008     0.0135     0.1464     2.4055   -26.6014    17.5879    24.0542    27.9882
  414.0000     7.9982    79.9659     0.0151     0.1421     2.3958   -25.5449    17.7184    25.0878    28.8003
  414.5000     7.9999    80.4334     0.0213     0.1382     2.4026   -24.0427    18.0983    26.3475    29.2283
  415.0000     7.9866    83.4303     0.0275     0.1325     2.4222   -22.3774    18.4863    27.6705    28.8523
  415.5000     7.9882    86.2782     0.0230     0.1298     2.4320   -22.0783    19.0135    27.4911    28.8783
  416.0000     7.9900    88.6790     0.0140     0.1367     2.4201   -19.5360    19.2874    26.7591    28.5068
  416.5000     7.9918    90.3346     0.0098     0.1476     2.3835   -21.5998    19.5653    26.2238    28.3292
  417.0000     7.9780    91.3941     0.0084     0.1576     2.3783   -21.5835    19.7105    26.7887    28.5582
  417.5000     7.9801    92.0066     0.0070     0.1611     2.3694   -20.3784    19.9945    27.3658    29.1841
  418.0000     7.9667    92.1719     0.0087     0.1700     2.3590   -18.7276    20.2825    26.4461    31.0889
  418.5000     7.9682    91.1450     0.0103     0.1653     2.3680   -16.1852    20.4330    27.2034    33.5723
  419.0000     7.9550    87.4355     0.0105     0.1602     2.3764   -11.8598    20.4429    25.5786    34.5542
  419.5000     7.9415    85.6634     0.0046     0.1646     2.3682    -7.6830    20.1721    24.8907    32.7214
  420.0000     7.9434    85.2286    -0.0028     0.1694     2.3615    -7.9644    20.0430    27.0645    29.9314
  420.5000     7.9299    86.2921    -0.0027     0.1733     2.3556   -10.2353    19.7751    28.2275    28.3374
  421.0000     7.9318    88.2458     0.0004     0.1759     2.3527   -12.1783    19.3811    27.2826    28.1736
  421.5000     7.9185    89.9015     0.0066     0.1750     2.3543   -13.9435    18.9927    23.9346    26.8646
  422.0000     7.9052    90.5098     0.0128     0.1642     2.3656   -16.2654    18.6121    23.6155    25.7945
  422.5000     7.9069    89.6360     0.0174     0.1579     2.3806   -19.4328    18.3656    24.1242    25.4569
  423.0000     7.9085    87.7149     0.0206     0.1552     2.3861   -21.8723    17.9975    22.8408    26.0207
  423.5000     7.8953    83.2603     0.0252     0.1635     2.3643   -24.2734    17.6347    22.3808    26.5909
  424.0000     7.8969    81.1901     0.0329     0.1698     2.3591   -25.2700    17.4011    23.5078    26.7938
  424.5000     7.8985    80.6103     0.0406     0.1602     2.3749   -26.1189    16.9370    22.7210    25.7323
  425.0000     7.8703    79.8815     0.0468     0.1542     2.3847   -27.0431    16.7106    22.1129    24.7073
  425.5000     7.8419    80.6429     0.0484     0.1536     2.3916   -28.2382    16.3757    21.0761    23.5594
  426.0000     7.7836    83.6398     0.0470     0.1592     2.3861   -29.7831    16.1588    20.8008    23.5806
  426.5000     7.7262    85.8916     0.0426     0.1664     2.3712   -30.3606    16.2807    19.8282    23.1166
  427.0000     7.7129    85.7589     0.0352     0.1727     2.3585   -30.7673    16.2886    19.9769    22.1958
  427.5000     7.6997    84.2849     0.0309     0.1774     2.3497   -31.3670    16.0729    20.2666    23.4813
  428.0000     7.6715    83.8541     0.0340     0.1792     2.3463   -31.4776    15.8580    20.9917    24.6643
  428.5000     7.6413    82.5291     0.0387     0.1771     2.3496   -31.3120    16.0884    21.4409    22.8810
  429.0000     7.6151    80.4589     0.0389     0.1753     2.3509   -31.1471    16.2059    20.0212    21.2219
  429.5000     7.5993    81.2270     0.0329     0.1785     2.3450   -31.1105    16.1021    18.1827    21.3887
  430.0000     7.5737    82.1511     0.0270     0.1803     2.3436   -30.9664    15.9990    17.5740    22.3162
  430.5000     7.5757    83.2042     0.0226     0.1770     2.3466   -32.0282    15.6802    18.0773    23.6087
  431.0000     7.5620    83.9861     0.0212     0.1662     2.3594   -32.7167    15.4725    19.3832    24.9761
  431.5000     7.5641    84.4158     0.0306     0.1440     2.4037   -33.3491    15.4800    19.9383    26.0592
  432.0000     7.5657    83.1684     0.0353     0.1326     2.4172   -35.3586    15.5949    19.4047    25.1950
