~VERSION INFORMATION
 VERS.                2.0:   CWLS LOG ASCII STANDARD - VERSION 2.0
 WRAP.                 NO:   ONE LINE PER DEPTH STEP
~WELL INFORMATION
#MNEM.UNIT      DATA TYPE    INFORMATION
#----------   ------------   ------------------------------
 STRT.F          276.0000:   START DEPTH
 STOP.F         2768.0000:   STOP DEPTH
 STEP.F            0.5000:   STEP LENGTH
 NULL.          -999.2500:   NO VALUE
 COMP.       TESORD PETRO:   COMPANY
 WELL. AX-20 NPR #3 #83-20:   WELL
 FLD .            WILDCAT:   FIELD
 LOC .      S20 T39N R78W:   LOCATION
 CNTY.            NATRONA:   COUNTY
 STAT.            WYOMING:   STATE
 CTRY. UNITED STATES OF AMERICA:   COUNTRY
 SRVC.       Schlumberger:   SERVICE COMPANY
 DATE.        20-JUL-1971:   LOGDATE
 API .       490251022000:   API NUMBER
~CURVE INFORMATION
#MNEM.UNIT       API CODE    CURVE DESCRIPTION
#----------   ------------   ------------------------------
 DEPT.F                  :   
 SPR .MV     05 010 01 00:   SPONTANEOUS POTENTIAL FROM RES.
 ASN .OHMM   05 041 16 00:   AMPLIFIED SHORT NORMAL 16"
 ILD .OHMM   05 120 46 00:   INDUCTION LOG DEEP
 CALD.IN     45 280 60 00:   CALIPER FROM DENSITY
 CORR.G/C3   45 356 01 00:   DENSITY CORRECTION
 DPHI.DEC    45 890 12 00:   DENSITY POROSITY SANDSTONE
 GRD .GAPI   45 310 01 00:   GAMMA RAY FROM DENSITY LOG
 RHOB.G/C3   45 350 01 00:   BULK DENSITY
 CILD.MMHO   05 110 46 00:   CONDUCTIVITY INDUCTION LOG DEEP
~PARAMETER INFORMATION
#MNEM.UNIT          VALUE    DESCRIPTION
#----------   ------------   ------------------------------
 PD  .                 GL:   PERMANENT DATUM
 EPD .F              4994:   ELEVATION PERMANENT DATUM
 LMF .                 KB:   LOG MEASURED FROM
 DAPD.F                11:   FEET ABOVE PERMANENT DATUM
 DMF .                 KB:   DRILLING MEASURED FROM
 EKB .F              5005:   KELLING BUSHING
 EGL .F              4994:   GROUND LEVEL
 DATE.        20-JUL-1971:   RUN DATE
 RUN .                  1:   RUN NUMBER
 DD  .F              2770:   DEPTH DRILLER
 DL  .F              2769:   DEPTH LOGGER
 BLI .F              2768:   BOTTOM LOG INTERVAL
 TLI .F               276:   TOP LOG INTERVAL
 CS  .IN            10.75:   CASING SIZE
 CBD .F               274:   CASING BOTTOM DRILLER
 CBL .F               276:   CASING BOTTOM LOGGER
 BS  .IN                9:   BIT SIZE
 BSD .F              2770:   BIT SIZE AT DEPTH
 DFT .      FRESH GEL MUD:   DRILLING FLUID TYPE
 DFD .                 10:   DRILLING FLUID DENSITY
 DFV .                 82:   DRILLING FLUID VISCOSITY
 DFPH.                  8:   DRILLING FLUID PH
 DFL .                4.8:   DRILLING FLUID LOSS
 MSS .           FLOWLINE:   MUD SAMPLE SOURCE
 RMS .OHMM            1.8:   RESISTIVITY MUD SAMPLE
 MST .F                73:   MUD SAMPLE TEMPERATURE
 RMF .OHMM            1.4:   RESISTIVITY MUD FILTRATE SAMPLE
 MFST.F                73:   MUD FILTRATE SAMPLE TEMPERATURE
 MFSS.               MEAS:   MUD FILTRATE SAMPLE SOURCE
 RMB .OHMM           1.15:   RESISTIVITY MUD AT BHT
 BHT .F               116:   BOTTOM HOLE TEMPERATURE
 TCS .HRS               2:   TIME CURCULATED STOPPED
 MRT .F               116:   MAXIMUM RECORDED TEMPERATURE
 LUN .               7037:   LOGGING UNIT NUMBER
 LUL .               CSPR:   LOGGING UNIT LOCATION
 ENGI.             JENSEN:   RECORDING ENGINEER
 WITN.                MAY:   WITNESSED BY
 CLNT.            A2DTECH:   CLIENT CODE
 ORIG.     1", 2.5" PRINT:   ORIGIN OF DATA
 UWI .       490251022000:   UNIQUE WELL ID
 DICO. A2D Technologies, Inc.:   DIGITIZING COMPANY
~OTHER INFORMATION
~A   DEPT      SPR          ASN        ILD     CALD       CORR       DPHI        GRD       RHOB       CILD   
# ...
 2137.5000   -25.5974     7.5948     6.0448     9.3731     0.0047     0.0908   117.6306     2.4919  -999.2500
 2138.0000   -25.6004     7.6675     6.0418     9.3720     0.0159     0.0758   121.0836     2.5191  -999.2500
 2138.5000   -25.6034     7.7576     6.0388     9.3708     0.0332     0.0687   123.7904     2.5475  -999.2500
 2139.0000   -25.6064     7.8777     6.0358     9.3696     0.0255     0.0699   125.4940     2.5116  -999.2500
 2139.5000   -25.6094     7.9840     6.1207     9.3683     0.0029     0.0795   123.5438     2.5235  -999.2500
 2140.0000   -25.9108     8.0878     6.3278     9.3671     0.0100     0.0759   120.3283     2.5339  -999.2500
 2140.5000   -26.2123     8.1780     6.6233     9.3660     0.0249     0.0622   120.7426     2.5473  -999.2500
 2141.0000   -26.5138     8.2980     7.0681     9.3648     0.0382     0.0520   124.1590     2.5652  -999.2500
 2141.5000   -26.8153     8.4180     7.2144     9.3636     0.0233     0.0556   128.1439     2.5487  -999.2500
 2142.0000   -26.8183     8.6436     7.5099     9.3624     0.0247     0.0670   131.2865     2.5367  -999.2500
 2142.5000   -26.8213     9.2357     7.6567     9.3313     0.0306     0.0712   129.8589     2.5307  -999.2500
 2143.0000   -26.8242    10.1460     7.6532     9.3126     0.0186     0.0725   124.4702     2.5276  -999.2500
 2143.5000   -26.5287    11.0518     7.6503     9.2299     0.0246     0.0616   118.1861     2.5515  -999.2500
 2144.0000   -26.5317    10.9018     7.4981     9.1383     0.0514     0.0599   116.3796     2.5589  -999.2500
 2144.5000   -26.2358    10.7518     7.3458     9.1586     0.0379     0.0669   117.2597     2.5469  -999.2500
 2145.0000   -25.9406    10.2211     7.1936     9.2179     0.0304     0.0724   119.0353     2.5349  -999.2500
 2145.5000   -25.9436     9.6457     6.8921     9.2772     0.0184     0.0811   122.1541     2.5244  -999.2500
 2146.0000   -25.9466     8.9463     6.7399     9.3365     0.0123     0.0822   125.7207     2.5198  -999.2500
 2146.5000   -25.9496     8.4221     6.4384     9.3660     0.0124     0.0769   125.7904     2.5168  -999.2500
 2147.0000   -25.9525     8.0856     6.2862     9.3954     0.0224     0.0587   123.8988     2.5213  -999.2500
 2147.5000   -25.9555     8.1152     6.2832     9.4249     0.0301     0.0565   120.3012     2.5438  -999.2500
 2148.0000   -25.9585     8.2646     6.2803     9.4078     0.0227     0.0781   123.8678     2.5293  -999.2500
 2148.5000   -25.9615     8.4140     6.2773     9.3891     0.0111     0.0843   119.8225     2.5102  -999.2500
 2149.0000   -25.9644     8.5035     6.2743     9.3454     0.0038     0.0823   114.8817     2.5046  -999.2500
 2149.5000   -25.9674     8.4434     6.1221     9.3443     0.0067     0.0729   117.5528     2.5265  -999.2500
 2150.0000   -25.9704     8.1736     5.9699     9.3431     0.0259     0.0608   124.2537     2.5526  -999.2500
 2150.5000   -26.2719     7.7541     5.9669     9.3419     0.0318     0.0654   129.6590     2.5512  -999.2500
 2151.0000   -26.2749     7.3347     5.8147     9.3407     0.0375     0.0668   133.3689     2.5390  -999.2500
 2151.5000   -26.2778     7.0350     5.9610     9.3396     0.0483     0.0746   141.9564     2.5246  -999.2500
 2152.0000   -26.2808     7.2143     6.1073     9.3384     0.0483     0.0824   145.6844     2.5099  -999.2500
 2152.5000   -26.2838     7.7530     6.2536     9.3372     0.0292     0.0794   136.7114     2.5038  -999.2500
 2153.0000   -26.2868     8.2018     6.5491     9.3360     0.0055     0.0711   121.2752     2.5268  -999.2500
 2153.5000   -26.5883     8.6506     6.6954     9.3348     0.0044     0.0699   112.4478     2.5535  -999.2500
 2154.0000   -26.5912     9.0095     6.9909     9.3337     0.0130     0.0765   109.8017     2.5444  -999.2500
 2154.5000   -26.5942     9.1290     7.2865     9.3325     0.0145     0.0879   111.2352     2.5125  -999.2500
 2155.0000   -26.2985     9.0988     7.5820     9.3313     0.0039     0.0891   114.3340     2.5034  -999.2500
 2155.5000   -26.3017     9.0685     7.5790     9.3600     0.0001     0.0796   120.5015     2.5046  -999.2500
 2156.0000   -26.3046     9.0383     7.2776     9.3588     0.0143     0.0688   118.5857     2.5270  -999.2500
 2156.5000   -26.3076     9.0380     7.1254     9.3576     0.0145     0.0622   113.4412     2.5509  -999.2500
 2157.0000   -26.3106     8.9778     6.8239     9.3564     0.0097     0.0713   112.3925     2.5492  -999.2500
 2157.5000   -26.3136     8.8278     6.6717     9.3553     0.0171     0.0676   113.5410     2.5261  -999.2500
 2158.0000   -26.3165     8.6479     6.5194     9.3540     0.0305     0.0610   118.8152     2.5341  -999.2500
 2158.5000   -26.3195     8.5278     6.5165     9.3528     0.0469     0.0587   119.3483     2.5490  -999.2500
 2159.0000   -26.3225     8.4078     6.5134     9.3516     0.0364     0.0840   116.6102     2.5050  -999.2500
 2159.5000   -26.3255     8.3775     6.5104     9.3504     0.0050     0.0777   114.5530     2.5169  -999.2500
 2160.0000   -26.3285     8.4072     6.6568     9.3493     0.0333     0.0582   117.0742     2.5557  -999.2500
 2160.5000   -26.3314     8.4069     6.8031     9.3481     0.0215     0.0661   122.4914     2.5467  -999.2500
 2161.0000   -26.6329     8.4066     6.9494     9.3468     0.0091     0.0761   126.7505     2.5243  -999.2500
 2161.5000   -26.6359     8.4662     6.9615     9.3456     0.0098     0.0814   121.6515     2.5048  -999.2500
 2162.0000   -26.6389     8.5856     7.1094     9.3445     0.0179     0.0790   118.0539     2.5212  -999.2500
 2162.5000   -26.6419     8.7949     7.2390     9.3134     0.0360     0.0662   116.2474     2.5600  -999.2500
 2163.0000   -26.6448     9.0341     7.3853     9.3123     0.0251     0.0572   114.8887     2.5524  -999.2500
 2163.5000   -26.6478     9.2434     7.3821     9.3111     0.0071     0.0673   112.6344     2.5330  -999.2500
 2164.0000   -26.6508     9.4227     7.3791     9.3099     0.0000     0.0739   110.8279     2.5180  -999.2500
 2164.5000   -26.3552     9.6320     7.3761     9.3086     0.0056     0.0755   112.6035     2.5194  -999.2500
 2165.0000   -26.3582     9.5419     7.3457     9.3074     0.0222     0.0707   115.7223     2.5388  -999.2500
 2165.5000   -26.0627     9.4817     7.2209     9.3361     0.0409     0.0513   117.0515     2.5597  -999.2500
 2166.0000   -25.7672     9.3916     7.1870     9.3349     0.0401     0.0531   110.7660     2.5656  -999.2500
 2166.5000   -25.7702     9.3015     7.0657     9.3338     0.0340     0.0549   110.6979     2.5640  -999.2500
 2167.0000   -25.4746     9.2409     7.0284     9.3624     0.0231     0.0567   113.4217     2.5594  -999.2500
 2167.5000   -25.4776     9.1512     6.9104     9.3610     0.0176     0.0591   116.5405     2.5533  -999.2500
 2168.0000   -25.4806     9.1210     6.9074     9.3598     0.0115     0.0627   115.1818     2.5440  -999.2500
 2168.5000   -25.4891     9.1218     6.8649     9.3887     0.0025     0.0759   115.1607     2.5235  -999.2500
 2169.0000   -25.7851     9.1816     6.7523     9.3873     0.0114     0.0819   117.8374     2.4980  -999.2500
 2169.5000   -26.0866     9.2415     6.8989     9.3861     0.0263     0.0748   112.8076     2.5289  -999.2500
 2170.0000   -26.3881     9.2695     6.8956     9.3849     0.0218     0.0658   110.1945     2.5502  -999.2500
 2170.5000   -26.6896     9.0526     6.8925     9.3837     0.0083     0.0639   114.2089     2.5436  -999.2500
 2171.0000   -26.7054     8.9044     6.8895     9.3826     0.0038     0.0700   112.1869     2.5382  -999.2500
 2171.5000   -26.9940     8.8166     6.8866     9.3814     0.0037     0.0611   107.7114     2.5448  -999.2500
 2172.0000   -26.9812     8.7892     6.8836     9.3802     0.0067     0.0619   105.6551     2.5500  -999.2500
 2172.5000   -26.7014     8.7889     6.7314     9.3790     0.0126     0.0707   106.6231     2.5275  -999.2500
 2173.0000   -26.4059     8.7549     6.6732     9.3778     0.0216     0.0689   108.5120     2.5437  -999.2500
 2173.5000   -26.3885     8.6604     6.5761     9.3767     0.0336     0.0483   111.4334     2.5654  -999.2500
