~VERSION INFORMATION
 VERS.                2.0:   CWLS LOG ASCII STANDARD - VERSION 2.0
 WRAP.                 NO:   ONE LINE PER DEPTH STEP
~WELL INFORMATION
#MNEM.UNIT      DATA TYPE    INFORMATION
#----------   ------------   ------------------------------
 STRT.F            0.0000:   START DEPTH
 STOP.F          890.0000:   STOP DEPTH
 STEP.F            0.1000:   STEP LENGTH
 NULL.          -999.2500:   NO VALUE
 COMP.   FLUOR DANIEL INC:   COMPANY
 WELL.   35-1 X 14 #35-14:   WELL
 FLD .             TEAPOT:   FIELD
 LOC .      S14 T38N R78W:   LOCATION
 CNTY.            NATRONA:   COUNTY
 STAT.            WYOMING:   STATE
 CTRY. UNITED STATES OF AMERICA:   COUNTRY
 SRVC.      Western Atlas:   SERVICE COMPANY
 DATE.        23-JUL-1995:   LOGDATE
 API .       490252273300:   API NUMBER
~CURVE INFORMATION
#MNEM.UNIT       API CODE    CURVE DESCRIPTION
#----------   ------------   ------------------------------
 DEPT.F                  :   
 RILM.OHMM   07 120 44 00:   RESITIVITY LONG MEDIUM
 RILD.OHMM   07 120 46 00:   INDUCTION LOG DEEP RESISTIVITY
 GRR .GAPI   07 310 01 00:   GAMMA RAY
~PARAMETER INFORMATION
#MNEM.UNIT          VALUE    DESCRIPTION
#----------   ------------   ------------------------------
 PD  .                 GL:   PERMANENT DATUM
 EPD .F              5238:   ELEVATION PERMANENT DATUM
 LMF .                 KB:   LOG MEASURED FROM
 DAPD.F                10:   FEET ABOVE PERMANENT DATUM
 DMF .                 KB:   DRILLING MEASURED FROM
 EKB .F              5248:   KELLING BUSHING
 EDF .F              5247:   DRILLING FLOOR
 EGL .F              5238:   GROUND LEVEL
 DATE.        23-JUL-1995:   RUN DATE
 RUN .                  1:   RUN NUMBER
 DD  .F               898:   DEPTH DRILLER
 DL  .F               898:   DEPTH LOGGER
 BLI .F               890:   BOTTOM LOG INTERVAL
 CS  .IN            9.625:   CASING SIZE
 CBD .F                78:   CASING BOTTOM DRILLER
 CBL .F                80:   CASING BOTTOM LOGGER
 BS  .IN             8.75:   BIT SIZE
 BSD .F               898:   BIT SIZE AT DEPTH
 DFT .                AIR:   DRILLING FLUID TYPE
 MRT .F                94:   MAXIMUM RECORDED TEMPERATURE
 LUN .            HL 6530:   LOGGING UNIT NUMBER
 LUL .             CASPER:   LOGGING UNIT LOCATION
 ENGI.       VERRN RAUTIO:   RECORDING ENGINEER
 WITN.        GARY STRONG:   WITNESSED BY
 CLNT.            A2DTECH:   CLIENT CODE
 ORIG.           5" PRINT:   ORIGIN OF DATA
 UWI .       490252273300:   UNIQUE WELL ID
 DICO. A2D Technologies, Inc.:   DIGITIZING COMPANY
~OTHER INFORMATION
~A    DEPT    RILM       RILD         GRR  
# ...
  127.4000     4.5290     4.8251   114.5567
  127.5000     4.5295     4.8009   114.1843
  127.6000     4.5299     4.7924   113.6782
  127.7000     4.5304     4.7928   113.1462
  127.8000     4.5144     4.7932   112.3205
  127.9000     4.4999     4.7902   111.3919
  128.0000     4.5003     4.7608   110.7472
  128.1000     4.5007     4.7352   110.3789
  128.2000     4.5012     4.7287   110.1273
  128.3000     4.5016     4.7135   109.9179
  128.4000     4.4834     4.6967   109.9215
  128.5000     4.4713     4.6919   109.6747
  128.6000     4.4717     4.6650   109.8276
  128.7000     4.4680     4.6654   109.9305
  128.8000     4.4416     4.6435   110.1479
  128.9000     4.4421     4.6338   110.6004
  129.0000     4.4218     4.6223   110.8822
  129.1000     4.4121     4.5957   111.7557
  129.2000     4.4014     4.5692   112.6348
  129.3000     4.3760     4.5398   113.3130
  129.4000     4.3525     4.5168   113.8252
  129.5000     4.3530     4.4908   114.3374
  129.6000     4.3533     4.4783   114.8205
  129.7000     4.3358     4.4702   115.0969
  129.8000     4.3108     4.4445   115.3358
  129.9000     4.2859     4.4176   115.4048
  130.0000     4.2651     4.3935   115.5488
  130.1000     4.2656     4.3682   115.7130
  130.2000     4.2416     4.3431   115.7160
  130.3000     4.2172     4.3181   115.7191
  130.4000     4.1928     4.2933   115.7226
  130.5000     4.1687     4.2686   115.7251
  130.6000     4.1446     4.2398   115.5702
  130.7000     4.1223     4.1992   115.4290
  130.8000     4.1227     4.1663   115.4320
  130.9000     4.1017     4.1423   115.4350
  131.0000     4.0781     4.1121   115.4384
  131.1000     4.0546     4.0645   115.4411
  131.2000     4.0312     4.0126   115.4441
  131.3000     4.0079     3.9711   115.4471
  131.4000     3.9842     3.9415   115.3704
  131.5000     3.9618     3.9070   115.0866
  131.6000     3.9208     3.8693   114.5500
  131.7000     3.8892     3.8438   114.0743
  131.8000     3.8571     3.7976   113.5682
  131.9000     3.8178     3.7554   112.9179
  132.0000     3.7930     3.7289   112.2538
  132.1000     3.7192     3.6948   111.6493
  132.2000     3.6813     3.6436   110.6372
  132.3000     3.6386     3.5848   110.0398
  132.4000     3.5964     3.5422   109.6250
  132.5000     3.5547     3.4478   109.2799
  132.6000     3.5103     3.3810   109.1420
  132.7000     3.4474     3.2906   109.2111
  132.8000     3.3701     3.1960   109.4501
  132.9000     3.2771     3.1089   109.4535
  133.0000     3.1825     3.0371   109.6818
  133.1000     3.0905     2.9606   109.7613
  133.2000     2.9970     2.8835   109.7644
  133.3000     2.8951     2.8242   109.6844
  133.4000     2.8200     2.7753   109.4679
  133.5000     2.7770     2.7254   109.4714
  133.6000     2.7135     2.6728   109.4743
  133.7000     2.6437     2.6202   109.4773
  133.8000     2.5740     2.5676   109.4804
  133.9000     2.5042     2.5150   109.5833
  134.0000     2.4345     2.4645   109.8932
  134.1000     2.3729     2.4214   110.4006
  134.2000     2.3179     2.3563   110.7014
  134.3000     2.2642     2.3337   110.7039
  134.4000     2.2123     2.2981   111.0356
  134.5000     2.1835     2.2643   111.3142
  134.6000     2.1547     2.2417   111.3865
  134.7000     2.1258     2.2288   111.6224
  134.8000     2.0970     2.2147   111.6257
  134.9000     2.0655     2.2032   111.6284
  135.0000     2.0657     2.1905   111.4501
  135.1000     2.0659     2.1846   111.3323
  135.2000     2.0661     2.1805   111.1629
  135.3000     2.0663     2.1698   110.6568
  135.4000     2.0687     2.1701   110.1330
  135.5000     2.0811     2.1825   110.1359
  135.6000     2.0959     2.1855   109.7426
  135.7000     2.1061     2.1857   109.0858
  135.8000     2.1187     2.1911   108.2219
  135.9000     2.1371     2.2041   107.2066
  136.0000     2.1626     2.2173   106.2074
  136.1000     2.1895     2.2325   105.6228
  136.2000     2.2325     2.2549   105.1952
  136.3000     2.2566     2.2728   104.8566
  136.4000     2.2933     2.2927   104.7251
  136.5000     2.3343     2.3160   104.7281
  136.6000     2.3812     2.3312   104.7311
  136.7000     2.4380     2.3612   104.7344
  136.8000     2.4965     2.3741   104.7372
  136.9000     2.5851     2.4087   104.9247
  137.0000     2.6609     2.4515   105.1823
  137.1000     2.7362     2.4952   105.5293
  137.2000     2.8243     2.5370   105.9996
  137.3000     2.9336     2.5678   106.2629
  137.4000     3.0212     2.6125   107.0126
  137.5000     3.1206     2.6715   107.7795
  137.6000     3.2396     2.7156   108.8541
  137.7000     3.3618     2.7614   109.9173
  137.8000     3.4942     2.8270   110.6840
  137.9000     3.6334     2.8941   111.4508
  138.0000     3.7561     2.9728   112.3267
  138.1000     3.8460     3.0335   112.9843
  138.2000     3.9359     3.1181   113.5802
  138.3000     4.0257     3.2109   114.0924
  138.4000     4.1156     3.3065   114.5289
  138.5000     4.2055     3.4047   114.7865
  138.6000     4.2954     3.5138   115.0637
  138.7000     4.3852     3.6107   115.0665
  138.8000     4.4751     3.7512   114.6941
  138.9000     4.5650     3.9085   113.9076
  139.0000     4.6549     4.0632   112.9849
  139.1000     4.7448     4.2175   112.1790
  139.2000     4.8346     4.4212   111.1541
  139.3000     4.9245     4.7068   110.2514
  139.4000     5.0144     4.8428   109.6399
  139.5000     5.0867     4.9981   109.0363
  139.6000     5.1474     5.1075   108.6397
  139.7000     5.2159     5.1681   108.3881
  139.8000     5.3060     5.2275   108.1509
  139.9000     5.3421     5.2627   108.1545
  140.0000     5.3699     5.2900   108.3786
  140.1000     5.4021     5.3215   108.4622
  140.2000     5.4345     5.3532   108.5917
  140.3000     5.4670     5.3851   108.8494
  140.4000     5.4953     5.4132   109.0755
  140.5000     5.4959     5.4137   109.0787
  140.6000     5.5274     5.4141   108.6046
  140.7000     5.5352     5.4145   107.7166
  140.8000     5.5166     5.4150   106.9881
  140.9000     5.4980     5.4035   106.4820
  141.0000     5.4911     5.3783   106.0242
  141.1000     5.4595     5.3788   105.7726
  141.2000     5.4237     5.3421   105.4749
  141.3000     5.3967     5.3425   105.4773
  141.4000     5.3656     5.3233   105.4804
  141.5000     5.3346     5.2927   105.4834
  141.6000     5.3039     5.2701   105.5517
  141.7000     5.2774     5.2684   105.8093
  141.8000     5.2780     5.2346   106.0970
  141.9000     5.2785     5.2080   106.5492
  142.0000     5.2551     5.1780   107.0614
  142.1000     5.2430     5.1482   107.8331
  142.2000     5.2185     5.1090   108.9367
  142.3000     5.1647     5.0499   110.3164
  142.4000     5.1336     4.9886   112.4594
  142.5000     5.0659     4.9339   114.3956
  142.6000     5.0153     4.8554   116.0470
  142.7000     4.9376     4.7713   117.5776
  142.8000     4.8517     4.6886   119.2071
  142.9000     4.7673     4.6127   120.8376
  143.0000     4.6842     4.5589   121.8550
  143.1000     4.5988     4.4665   122.7528
  143.2000     4.4977     4.4025   123.5996
  143.3000     4.3740     4.3263   124.2938
  143.4000     4.2768     4.2513   124.6900
  143.5000     4.1925     4.1776   124.9476
  143.6000     4.1006     4.1032   125.1840
  143.7000     4.0302     3.9987   124.8855
  143.8000     3.9769     3.9163   124.8882
  143.9000     3.8399     3.8261   124.5303
  144.0000     3.7000     3.7379   124.2900
  144.1000     3.5823     3.6446   124.2931
  144.2000     3.4787     3.5426   124.2961
  144.3000     3.3780     3.4577   124.2992
  144.4000     3.2754     3.3435   124.7919
  144.5000     3.1858     3.2431   125.1068
  144.6000     3.1078     3.1714   125.3643
  144.7000     3.0154     3.1164   125.8266
  144.8000     2.9246     3.0662   126.4838
  144.9000     2.8605     3.0307   126.7487
  145.0000     2.8113     2.9902   127.3419
  145.1000     2.7741     2.9855   127.7730
  145.2000     2.7743     2.9799   128.2852
  145.3000     2.7636     2.9744   128.7973
  145.4000     2.7556     2.9704   129.3095
  145.5000     2.7559     2.9707   129.7976
