~VERSION INFORMATION
 VERS.                2.0:   CWLS LOG ASCII STANDARD - VERSION 2.0
 WRAP.                 NO:   ONE LINE PER DEPTH STEP
~WELL INFORMATION
#MNEM.UNIT      DATA TYPE    INFORMATION
#----------   ------------   ------------------------------
 STRT.F           26.0000:   START DEPTH
 STOP.F         1071.0000:   STOP DEPTH
 STEP.F            0.5000:   STEP LENGTH
 NULL.          -999.2500:   NO VALUE
 COMP. FENIX & SCISSON INC:   COMPANY
 WELL.       NRP 3 #61-14:   WELL
 FLD .        TEAPOT DOME:   FIELD
 LOC .      S14 T38N R78W:   LOCATION
 CNTY.            NATRONA:   COUNTY
 STAT.            WYOMING:   STATE
 CTRY. UNITED STATES OF AMERICA:   COUNTRY
 SRVC.            Unknown:   SERVICE COMPANY
 DATE.        09-JAN-1979:   LOGDATE
 API .       490251076300:   API NUMBER
~CURVE INFORMATION
#MNEM.UNIT       API CODE    CURVE DESCRIPTION
#----------   ------------   ------------------------------
 DEPT.F                  :   
 SPR .MV     05 010 01 00:   SPONTANEOUS POTENTIAL FROM RES.
 SN  .OHMM   05 040 16 00:   SHORT NORMAL 16"
 IL  .OHMM   05 120 00 00:   INDUCTION LOG
 CALD.IN     45 280 60 00:   CALIPER
 GRD .GAPI   45 310 01 00:   GAMMA RAY FROM DENSITY LOG
 RHOB.G/C3   45 350 01 00:   BULK DENSITY
 DPHI.DEC    45 890 12 00:   DENSITY POROSITY SANDSTONE
 CORR.G/C3   45 356 01 00:   DENSITY CORRECTION
~PARAMETER INFORMATION
#MNEM.UNIT          VALUE    DESCRIPTION
#----------   ------------   ------------------------------
 PD  .                 GL:   PERMANENT DATUM
 EPD .F              5240:   ELEVATION PERMANENT DATUM
 LMF .                 KB:   LOG MEASURED FROM
 DAPD.F                 4:   FEET ABOVE PERMANENT DATUM
 DMF .                 KB:   DRILLING MEASURED FROM
 EKB .F              5244:   KELLING BUSHING
 EGL .F              5240:   GROUND LEVEL
 DATE.             1-9-79:   RUN DATE
 RUN .                  1:   RUN NUMBER
 DD  .F              1061:   DEPTH DRILLER
 DL  .F              1071:   DEPTH LOGGER
 BLI .F              1064:   BOTTOM LOG INTERVAL
 TLI .F                50:   TOP LOG INTERVAL
 CS  .IN            8.625:   CASING SIZE
 CBD .F                40:   CASING BOTTOM DRILLER
 CBL .F                38:   CASING BOTTOM LOGGER
 BS  .IN            7.875:   BIT SIZE
 BSD .F              1061:   BIT SIZE AT DEPTH
 DFT .                KCL:   DRILLING FLUID TYPE
 DFD .                8.8:   DRILLING FLUID DENSITY
 DFV .                 36:   DRILLING FLUID VISCOSITY
 DFPH.                9.2:   DRILLING FLUID PH
 MSS .           FLOWLINE:   MUD SAMPLE SOURCE
 RMS .OHMM             .3:   RESISTIVITY MUD SAMPLE
 MST .F                58:   MUD SAMPLE TEMPERATURE
 RMF .OHMM             .3:   RESISTIVITY MUD FILTRATE SAMPLE
 MFST.F                58:   MUD FILTRATE SAMPLE TEMPERATURE
 RMC .OHMM            .34:   RESISTIVITY MUD CAKE
 MCST.F                62:   MUD CAKE SAMPLE TEMPERATURE
 MFSS.           MEASURED:   MUD FILTRATE SAMPLE SOURCE
 MCSS.           MEASURED:   MUD CAKE SAMPLE SOURCE
 RMB .OHMM            .29:   RESISTIVITY MUD AT BHT
 BHT .F                61:   BOTTOM HOLE TEMPERATURE
 TCS .HRS               4:   TIME CURCULATED STOPPED
 MRT .F                61:   MAXIMUM RECORDED TEMPERATURE
 LUN .               3006:   LOGGING UNIT NUMBER
 LUL .             CASPER:   LOGGING UNIT LOCATION
 ENGI.            ROLLINS:   RECORDING ENGINEER
 WITN.           DINSMORE:   WITNESSED BY
 CLNT.            A2DTECH:   CLIENT CODE
 ORIG.           5" PRINT:   ORIGIN OF DATA
 UWI .       490251076300:   UNIQUE WELL ID
 DICO. A2D Technologies, Inc.:   DIGITIZING COMPANY
~OTHER INFORMATION
~A   DEPT      SPR         SN         IL       CALD         GRD      RHOB       DPHI       CORR   
# ...
  228.5000   -40.2580     7.4370     8.0560     7.5120   105.0670     2.4000     0.1720     0.1910
  229.0000   -40.2650     7.5310     8.1770     7.4980   105.1550     2.4000     0.1700     0.1680
  229.5000   -40.2730     7.6260     8.2860     7.4840   104.5780     2.4030     0.1590     0.1450
  230.0000   -40.2810     7.7200     8.3020     7.4710   103.6480     2.4160     0.1430     0.1250
  230.5000   -40.2880     7.8150     8.3180     7.4810   102.7140     2.4300     0.1460     0.1210
  231.0000   -40.2960     7.9090     8.3340     7.4920   101.7760     2.4380     0.1530     0.1210
  231.5000   -40.3040     8.0040     8.3500     7.5040   100.9440     2.4270     0.1600     0.1180
  232.0000   -40.3120     8.0980     8.4280     7.5290   100.1730     2.4120     0.1670     0.1140
  232.5000   -40.3200     8.1930     8.6830     7.5780    99.9650     2.4060     0.1740     0.1060
  233.0000   -40.3290     8.2870     8.9380     7.6090    99.8870     2.4010     0.1660     0.1030
  233.5000   -40.3370     8.3820     9.3400     7.6090    99.7860     2.4010     0.1550     0.1090
  234.0000   -40.4860     8.4760     9.3140     7.6090    97.3880     2.4150     0.1450     0.1160
  234.5000   -40.7850     8.5710     9.2520     7.6090    92.7280     2.4330     0.1360     0.1220
  235.0000   -41.0820     8.6650     9.1900     7.6090    88.0880     2.4500     0.1430     0.1230
  235.5000   -41.3790     8.7600     9.1280     7.6090    83.4000     2.4520     0.1540     0.1220
  236.0000   -41.6770     8.8370     9.0660     7.6090    82.8400     2.4390     0.1650     0.1200
  236.5000   -41.9760     8.7130     9.0020     7.6090    87.5480     2.4170     0.1660     0.1180
  237.0000   -42.2720     8.4970     8.8960     7.6100    93.8020     2.4070     0.1650     0.1170
  237.5000   -42.4390     8.2810     8.7590     7.6250   100.2240     2.4070     0.1640     0.1150
  238.0000   -42.5740     8.0650     8.6220     7.6860   102.7610     2.4060     0.1620     0.1130
  238.5000   -42.7090     7.8490     8.4840     7.7450   102.8520     2.4060     0.1620     0.1110
  239.0000   -42.8440     7.6330     8.3470     7.7920   102.9180     2.4060     0.1660     0.1110
  239.5000   -42.9790     7.4680     8.2100     7.8040   102.9730     2.4030     0.1690     0.1110
  240.0000   -43.1140     7.4130     8.0580     7.8160   103.2940     2.4000     0.1690     0.1190
  240.5000   -43.2490     7.3590     8.0380     7.8290   103.7390     2.3970     0.1690     0.1280
  241.0000   -43.3830     7.3050     8.0150     7.8410   103.9190     2.3960     0.1690     0.1300
  241.5000   -43.5180     7.2500     7.9920     7.8540   103.7690     2.3960     0.1710     0.1310
  242.0000   -43.6530     7.1960     7.9060     7.8670   104.0590     2.3930     0.1770     0.1290
  242.5000   -43.7880     7.1410     7.7900     7.8790   106.8990     2.3910     0.1790     0.1270
  243.0000   -43.9230     7.0870     7.6730     7.8920   110.1050     2.3890     0.1790     0.1250
  243.5000   -44.0570     7.0330     7.5560     7.9040   111.0390     2.3880     0.1800     0.1230
  244.0000   -44.1920     6.9780     7.4400     7.9090   108.9390     2.3880     0.1780     0.1210
  244.5000   -44.3190     6.9240     7.3450     7.9130   106.7820     2.3920     0.1720     0.1190
  245.0000   -44.3230     6.8690     7.3330     7.9160   104.8530     2.3960     0.1690     0.1170
  245.5000   -44.3230     6.8150     7.3210     7.9200   104.4940     2.3990     0.1700     0.1160
  246.0000   -44.3230     6.7610     7.3100     7.9230   104.0810     2.3990     0.1730     0.1140
  246.5000   -44.3230     6.7060     7.2980     7.9270   104.1270     2.4000     0.1740     0.1120
  247.0000   -44.3230     6.6520     7.2860     7.9300   104.2920     2.4010     0.1690     0.1110
  247.5000   -44.3230     6.5700     7.2270     7.9340   104.4480     2.4030     0.1620     0.1120
  248.0000   -44.3230     6.5200     7.1300     7.9370   104.1840     2.4060     0.1640     0.1220
  248.5000   -44.3230     6.4700     7.0330     7.9410   102.7930     2.4040     0.1680     0.1360
  249.0000   -44.3230     6.4210     6.9370     7.9440   101.6320     2.4020     0.1720     0.1440
  249.5000   -44.3230     6.3710     6.8400     7.9470   101.7760     2.3960     0.1760     0.1520
  250.0000   -44.3230     6.3210     6.7430     7.9460   101.2260     2.3910     0.1780     0.1610
  250.5000   -44.3230     6.2710     6.6470     7.8890   100.4220     2.3910     0.1770     0.1660
  251.0000   -44.3220     6.2210     6.5500     7.8260    99.6220     2.3910     0.1770     0.1650
  251.5000   -44.3270     6.1710     6.4530     7.7630    99.1440     2.3900     0.1780     0.1540
  252.0000   -44.4240     6.1220     6.3570     7.6990    99.6000     2.3900     0.1790     0.1420
  252.5000   -44.5190     6.0720     6.2600     7.6360    99.3000     2.3900     0.1760     0.1300
  253.0000   -44.6150     6.0220     6.1660     7.5830    98.9900     2.3900     0.1720     0.1250
  253.5000   -44.7100     5.9720     6.1660     7.5620    98.5530     2.3950     0.1670     0.1220
  254.0000   -44.8050     5.9430     6.1660     7.5520    97.5790     2.3990     0.1670     0.1210
  254.5000   -44.9010     5.8880     6.1720     7.5560    96.1410     2.3990     0.1700     0.1220
  255.0000   -44.9380     5.9360     6.2030     7.5610    94.7100     2.3980     0.1730     0.1230
  255.5000   -44.9610     5.9850     6.2340     7.5650    94.0600     2.3940     0.1760     0.1230
  256.0000   -44.9840     6.0340     6.2650     7.5700    95.2790     2.3890     0.1780     0.1240
  256.5000   -45.0070     6.0820     6.2960     7.5990    97.6170     2.3880     0.1800     0.1250
  257.0000   -45.0300     6.1310     6.3270     7.6280    99.9430     2.3870     0.1810     0.1260
  257.5000   -45.0530     6.1800     6.3580     7.6570   102.2780     2.3870     0.1800     0.1270
  258.0000   -45.0760     6.2230     6.3890     7.6850   104.2360     2.3880     0.1790     0.1280
  258.5000   -45.0980     6.2190     6.4010     7.7140   105.9460     2.3900     0.1780     0.1280
  259.0000   -45.1240     6.2160     6.4050     7.7430   105.7500     2.3920     0.1770     0.1270
  259.5000   -45.2130     6.2120     6.4090     7.7720   104.6720     2.3940     0.1760     0.1250
  260.0000   -45.3000     6.2090     6.4130     7.8000   103.9790     2.3950     0.1770     0.1190
  260.5000   -45.3870     6.2050     6.4180     7.8290   105.8160     2.3940     0.1770     0.1130
  261.0000   -45.4740     6.2010     6.4220     7.8480   109.6940     2.3940     0.1750     0.1090
  261.5000   -45.5610     6.1980     6.4260     7.8480   110.7470     2.3950     0.1720     0.1090
  262.0000   -45.6470     6.1940     6.4300     7.8490   109.1700     2.3970     0.1700     0.1100
  262.5000   -45.7220     6.1910     6.4340     7.8500   107.1750     2.3980     0.1690     0.1100
  263.0000   -45.7380     6.1870     6.4390     7.8510   105.1550     2.3970     0.1730     0.1100
  263.5000   -45.7560     6.1840     6.4430     7.8510   103.0890     2.3910     0.1770     0.1100
  264.0000   -45.7730     6.1800     6.4470     7.8520   102.6340     2.3840     0.1810     0.1090
  264.5000   -45.7910     6.1760     6.4510     7.8530   103.2890     2.3810     0.1850     0.1080
  265.0000   -45.8080     6.1730     6.4570     7.8540   104.0220     2.3790     0.1870     0.1060
  265.5000   -45.8260     6.1690     6.4370     7.8540   104.4410     2.3770     0.1860     0.1050
  266.0000   -45.8430     6.1610     6.3990     7.8550   104.0500     2.3770     0.1790     0.1050
  266.5000   -45.8610     6.1180     6.3620     7.8560   102.0860     2.3810     0.1720     0.1080
  267.0000   -45.8780     6.0740     6.3240     7.8570   100.1900     2.3920     0.1650     0.1110
  267.5000   -45.8960     6.0310     6.2870     7.8570    98.7720     2.4030     0.1620     0.1140
  268.0000   -45.9130     5.9880     6.2490     7.8580    98.6910     2.4060     0.1680     0.1150
  268.5000   -45.9310     5.9440     6.2110     7.8590    98.5830     2.4050     0.1740     0.1150
