~VERSION INFORMATION
 VERS.                2.0:   CWLS LOG ASCII STANDARD - VERSION 2.0
 WRAP.                 NO:   ONE LINE PER DEPTH STEP
~WELL INFORMATION
#MNEM.UNIT      DATA TYPE    INFORMATION
#----------   ------------   ------------------------------
 STRT.F            0.0000:   START DEPTH
 STOP.F         2758.0000:   STOP DEPTH
 STEP.F            0.5000:   STEP LENGTH
 NULL.          -999.2500:   NO VALUE
 COMP. FENIX & SCISSON INC:   COMPANY
 WELL.       402A #402-20:   WELL
 FLD .             TEAPOT:   FIELD
 LOC .      S20 T39N R78W:   LOCATION
 CNTY.            NATRONA:   COUNTY
 STAT.            WYOMING:   STATE
 CTRY. UNITED STATES OF AMERICA:   COUNTRY
 SRVC.      NL McCullough:   SERVICE COMPANY
 DATE.        15-JUL-1965:   LOGDATE
 API .       490251021100:   API NUMBER
~CURVE INFORMATION
#MNEM.UNIT       API CODE    CURVE DESCRIPTION
#----------   ------------   ------------------------------
 DEPT.F                  :   
 GR  .GAPI   30 310 01 00:   GAMMA RAY
 CALI.IN     70 280 01 00:   CALIPER
~PARAMETER INFORMATION
#MNEM.UNIT          VALUE    DESCRIPTION
#----------   ------------   ------------------------------
 PD  .                 GL:   PERMANENT DATUM
 LMF .                 GL:   LOG MEASURED FROM
 DMF .                 GL:   DRILLING MEASURED FROM
 DATE.            7-15-65:   RUN DATE
 RUN .                  1:   RUN NUMBER
 DL  .F              2759:   DEPTH LOGGER
 BLI .F              2758:   BOTTOM LOG INTERVAL
 TLI .F              2100:   TOP LOG INTERVAL
 CS  .IN                7:   CASING SIZE
 ENGI. FITZSIMMONS/COWLTHORPE:   RECORDING ENGINEER
 WITN.             HUDSON:   WITNESSED BY
 CLNT.            A2DTECH:   CLIENT CODE
 ORIG.           5" PRINT:   ORIGIN OF DATA
 UWI .       490251021100:   UNIQUE WELL ID
 DICO. A2D Technologies, Inc.:   DIGITIZING COMPANY
~OTHER INFORMATION
~A    DEPT      GR         CALI 
# ...
 2673.0000    94.8414     5.5719
 2673.5000    93.3240     5.5611
 2674.0000    92.1354     5.5506
 2674.5000    93.8213     5.5402
 2675.0000    93.1186     5.5317
 2675.5000    97.8432     5.5319
 2676.0000   103.8211     5.5319
 2676.5000   118.0431     5.5319
 2677.0000   118.8910     5.5319
 2677.5000   125.4215     5.5319
 2678.0000   135.3002     5.5318
 2678.5000   134.1677     5.5338
 2679.0000   134.0130     5.5361
 2679.5000   137.0136     5.5385
 2680.0000   140.0402     5.5409
 2680.5000   143.1926     5.5432
 2681.0000   143.9283     5.5456
 2681.5000   133.6874     5.5479
 2682.0000   110.0197     5.5503
 2682.5000    92.9923     5.5502
 2683.0000    92.6225     5.5440
 2683.5000    91.9934     5.5379
 2684.0000    90.3517     5.5318
 2684.5000    88.7192     5.5257
 2685.0000    87.6092     5.5196
 2685.5000    88.2709     5.5133
 2686.0000    89.1009     5.5118
 2686.5000    93.1279     5.5118
 2687.0000    93.6294     5.5121
 2687.5000    86.4679     5.5255
 2688.0000    85.1081     5.5566
 2688.5000    95.8617     5.5622
 2689.0000   107.7554     5.4901
 2689.5000   114.0620     5.4902
 2690.0000   124.8658     5.4887
 2690.5000   134.6242     5.4872
 2691.0000   135.6632     5.4856
 2691.5000   142.8866     5.4841
 2692.0000   151.8943     5.4825
 2692.5000   159.2624     5.4809
 2693.0000   159.3851     5.4794
 2693.5000   147.8466     5.4778
 2694.0000   134.0282     5.4762
 2694.5000   120.3506     5.4746
 2695.0000   106.5455     5.4730
 2695.5000    95.3559     5.4722
 2696.0000    94.6918     5.4876
 2696.5000    91.7384     5.5035
 2697.0000    99.8017     5.5093
 2697.5000   111.2538     5.5038
 2698.0000   121.1108     5.4984
 2698.5000   119.6011     5.4929
 2699.0000   114.2058     5.4874
 2699.5000   108.6303     5.4819
 2700.0000   105.5782     5.4765
 2700.5000   110.3117     5.4710
 2701.0000   113.7917     5.4656
 2701.5000   115.4975     5.4601
 2702.0000   118.0411     5.4547
 2702.5000   122.8243     5.4550
 2703.0000   122.9759     5.4620
 2703.5000   120.8906     5.4689
 2704.0000   116.5678     5.4758
 2704.5000   115.0200     5.4828
 2705.0000   113.9482     5.4898
 2705.5000   112.9571     5.4924
 2706.0000   116.0004     5.4937
 2706.5000   121.6044     5.4949
 2707.0000   117.5497     5.4962
 2707.5000   113.7864     5.4974
 2708.0000   111.1384     5.4986
 2708.5000   105.3236     5.4999
 2709.0000   104.7657     5.5011
 2709.5000    98.6935     5.5023
 2710.0000    96.3879     5.5036
 2710.5000   104.6428     5.5048
 2711.0000   111.9775     5.5061
 2711.5000   116.6486     5.5073
 2712.0000   114.3510     5.5086
 2712.5000   114.5040     5.5098
 2713.0000   116.9488     5.5110
 2713.5000   119.2236     5.5074
 2714.0000   119.1027     5.4924
 2714.5000   113.0969     5.4774
 2715.0000   108.5714     5.4719
 2715.5000   108.9032     5.4718
 2716.0000   110.1550     5.4718
 2716.5000   107.4769     5.4718
 2717.0000   106.8367     5.4718
 2717.5000   109.8020     5.4718
 2718.0000   111.6028     5.4718
 2718.5000   108.7640     5.4718
 2719.0000   111.4176     5.4718
 2719.5000   116.4254     5.4718
 2720.0000   114.9222     5.4718
 2720.5000   112.4091     5.4718
 2721.0000   106.9946     5.4720
 2721.5000   102.6659     5.4757
 2722.0000    98.0364     5.4793
 2722.5000    93.3390     5.4829
 2723.0000    90.6086     5.4865
 2723.5000    90.8642     5.4900
 2724.0000    94.9114     5.4918
 2724.5000   100.1289     5.4918
 2725.0000    91.2381     5.4918
 2725.5000    88.2014     5.4918
 2726.0000    81.5169     5.4918
 2726.5000    70.7367     5.4918
 2727.0000    59.9040     5.4918
 2727.5000    49.1975     5.4918
 2728.0000    42.0172     5.4948
 2728.5000    39.5502     5.4985
 2729.0000    41.5780     5.5022
 2729.5000    34.0727     5.5058
 2730.0000    28.4323     5.5092
 2730.5000    24.4981     5.5153
 2731.0000    27.4989     5.5651
 2731.5000    32.6344     5.6201
 2732.0000    43.7549     5.8743
 2732.5000    40.7965     6.3800
 2733.0000    37.9761     7.2069
 2733.5000    39.5394     7.8692
 2734.0000    37.3927     8.4394
 2734.5000    37.3789     9.1872
 2735.0000    39.1775     8.7103
 2735.5000    40.6733     7.8291
 2736.0000    40.6912     8.1480
 2736.5000    41.7889     7.4894
 2737.0000    39.1555     7.3576
 2737.5000    33.9257     8.1425
 2738.0000    29.8361     9.2815
 2738.5000    19.0434     9.8132
 2739.0000    19.4702     9.0847
 2739.5000    21.2702     9.2119
 2740.0000    24.9130     8.1920
 2740.5000    29.5007     7.3763
 2741.0000    37.4225     7.1689
 2741.5000    47.4715     6.7348
 2742.0000    57.5201     6.1933
 2742.5000    64.3064     6.1378
 2743.0000    60.2984     6.2445
 2743.5000    52.9286     6.3675
 2744.0000    45.9527     6.4884
 2744.5000    46.6204     6.5198
 2745.0000    48.1531     6.3660
 2745.5000    48.6092     6.2924
 2746.0000    43.3320     6.4258
 2746.5000    36.6418     6.7796
 2747.0000    35.2198     6.9794
 2747.5000    45.4226     6.5654
 2748.0000    49.1526     6.0610
 2748.5000    52.5569     6.1114
 2749.0000    54.7406     6.0678
 2749.5000    57.0038     6.0106
 2750.0000    59.8346     6.0072
 2750.5000    63.3668     6.0664
 2751.0000    66.8857     6.1196
 2751.5000    70.4683     5.9084
 2752.0000    71.4692     5.3794
 2752.5000    69.3009     4.8989
 2753.0000    67.1780     4.7709
 2753.5000    65.7049     4.6979
 2754.0000    66.2994     4.6569
 2754.5000    62.1796     4.5441
 2755.0000    60.7791     4.3780
 2755.5000    55.0376     4.2100
 2756.0000    54.1927     4.1247
 2756.5000    53.9043  -999.2500
 2757.0000    56.2061  -999.2500
 2757.5000    60.2315  -999.2500
 2758.0000    61.8844  -999.2500
