~VERSION INFORMATION
 VERS.                2.0:   CWLS LOG ASCII STANDARD - VERSION 2.0
 WRAP.                 NO:   ONE LINE PER DEPTH STEP
~WELL INFORMATION
#MNEM.UNIT      DATA TYPE    INFORMATION
#----------   ------------   ------------------------------
 STRT.F            1.0000:   START DEPTH
 STOP.F          508.0000:   STOP DEPTH
 STEP.F            0.1000:   STEP LENGTH
 NULL.          -999.2500:   NO VALUE
 COMP.       F D SERV INC:   COMPANY
 WELL. NAVAL PETROLEUM RESERVE 3 SX-1 #83-4-10:   WELL
 FLD .             TEAPOT:   FIELD
 LOC .      S10 T38N R78W:   LOCATION
 CNTY.            NATRONA:   COUNTY
 STAT.            WYOMING:   STATE
 CTRY. UNITED STATES OF AMERICA:   COUNTRY
 SRVC.     Atlas Wireline:   SERVICE COMPANY
 DATE.        26-JAN-1993:   LOGDATE
 API .       490252258300:   API NUMBER
~CURVE INFORMATION
#MNEM.UNIT       API CODE    CURVE DESCRIPTION
#----------   ------------   ------------------------------
 DEPT.F                  :   
 GRR .GAPI   07 310 01 00:   GAMMA RAY
 RILD.OHMM   07 120 46 00:   INDUCTION LOG DEEP RESISTIVITY
 RILM.OHMM   07 120 44 00:   INDUCTION LOG MEDIUM RESISTIVITY
~PARAMETER INFORMATION
#MNEM.UNIT          VALUE    DESCRIPTION
#----------   ------------   ------------------------------
 PD  .                 GL:   PERMANENT DATUM
 EPD .F              5152:   ELEVATION PERMANENT DATUM
 LMF .                 KB:   LOG MEASURED FROM
 DAPD.F                10:   FEET ABOVE PERMANENT DATUM
 DMF .                 KB:   DRILLING MEASURED FROM
 EKB .F              5162:   KELLING BUSHING
 EDF .F              5161:   DRILLING FLOOR
 EGL .F              5152:   GROUND LEVEL
 DATE.        26-JAN-1993:   RUN DATE
 RUN .                  1:   RUN NUMBER
 DD  .F               515:   DEPTH DRILLER
 DL  .F               516:   DEPTH LOGGER
 BLI .F               508:   BOTTOM LOG INTERVAL
 CS  .IN            8.625:   CASING SIZE
 CBD .F                55:   CASING BOTTOM DRILLER
 CBL .F                55:   CASING BOTTOM LOGGER
 BS  .IN            7.875:   BIT SIZE
 BSD .F               515:   BIT SIZE AT DEPTH
 DFT .                AIR:   DRILLING FLUID TYPE
 MRT .F                63:   MAXIMUM RECORDED TEMPERATURE
 LUN .           HL- 6274:   LOGGING UNIT NUMBER
 LUL .             CASPER:   LOGGING UNIT LOCATION
 ENGI.       P. RASMUSSEN:   RECORDING ENGINEER
 WITN.          G. STRONG:   WITNESSED BY
 CLNT.            A2DTECH:   CLIENT CODE
 ORIG.           5" PRINT:   ORIGIN OF DATA
 UWI .       490252258300:   UNIQUE WELL ID
 DICO. A2D Technologies, Inc.:   DIGITIZING COMPANY
~OTHER INFORMATION
~A    DEPT     GRR       RILD       RILM   
# ...
  383.2000    95.4417    24.6315    24.9923
  383.3000    95.7270    25.4269    25.8955
  383.4000    96.5854    25.9928    26.8212
  383.5000    97.0401    26.7383    27.3733
  383.6000    97.5534    27.4449    27.7918
  383.7000    98.0666    28.1030    28.4066
  383.8000    98.5799    28.7765    28.9970
  383.9000    98.9892    29.4655    29.5163
  384.0000    98.9880    30.2272    30.0445
  384.1000    98.9866    30.5594    30.5818
  384.2000    98.5429    30.9235    31.2106
  384.3000    98.0272    31.5130    31.8507
  384.4000    97.2448    32.1060    32.3476
  384.5000    96.3935    32.5376    32.8346
  384.6000    95.8778    33.1202    33.3514
  384.7000    95.3621    33.7624    33.7096
  384.8000    94.7612    33.9461    33.9128
  384.9000    94.3309    34.1472    34.3747
  385.0000    94.1566    34.4692    34.3730
  385.1000    94.0287    34.7070    34.5122
  385.2000    93.7703    34.7060    34.6081
  385.3000    93.5508    34.7219    34.6062
  385.4000    94.1951    34.9451    34.6042
  385.5000    94.7552    34.9443    34.6023
  385.6000    95.3152    35.1386    34.6001
  385.7000    95.9553    35.0048    34.5985
  385.8000    96.3951    34.8710    34.5966
  385.9000    97.9673    34.7373    34.5947
  386.0000    99.4939    34.6035    34.5927
  386.1000   100.4331    34.4698    34.5908
  386.2000   101.1144    34.3360    34.5889
  386.3000   101.3719    34.2023    34.5867
  386.4000   102.2721    34.0685    34.5851
  386.5000   102.4850    33.9347    34.4416
  386.6000   102.5711    33.8010    34.3426
  386.7000   102.6958    33.6672    34.1952
  386.8000   102.9518    33.5335    33.8278
  386.9000   103.1701    33.3997    33.6256
  387.0000   103.1686    33.2660    33.3967
  387.1000   103.1672    33.1322    33.2252
  387.2000   103.1663    32.9985    33.0267
  387.3000   103.1651    32.8647    32.8294
  387.4000   103.1639    32.7309    32.6332
  387.5000   103.1627    32.5972    32.4382
  387.6000   103.1614    32.4634    32.2443
  387.7000   103.1602    32.3297    32.0251
  387.8000   103.1590    32.1959    32.0235
  387.9000   103.1578    32.0622    31.8900
  388.0000   103.1566    31.9284    31.6995
  388.1000   103.0428    31.7947    31.5778
  388.2000   102.7844    31.6609    31.5395
  388.3000   102.4519    31.5271    31.3509
  388.4000   101.3445    31.3934    31.1380
  388.5000   100.8673    31.2596    31.1366
  388.6000    99.9636    31.1259    30.8790
  388.7000    98.7834    30.9921    30.6086
  388.8000    97.6023    30.8584    30.4256
  388.9000    96.6344    30.7246    30.2087
  389.0000    95.8796    30.6064    29.8556
  389.1000    95.3119    30.6055    29.6531
  389.2000    95.3108    30.2623    29.5000
  389.3000    95.3096    30.1829    29.2030
  389.4000    95.4518    30.0724    28.9474
  389.5000    95.7078    29.8937    28.7745
  389.6000    95.9084    29.7160    28.5690
  389.7000    95.9187    29.5393    28.2298
  389.8000    96.2071    29.3542    27.8506
  389.9000    96.4307    29.1893    27.5648
  390.0000    96.5060    28.8827    27.2380
  390.1000    96.7783    28.6445    27.0854
  390.2000    97.1060    28.4742    26.9667
  390.3000    97.2024    28.3050    26.6782
  390.4000    97.7108    28.1187    26.5187
  390.5000    98.0058    27.7668    26.3394
  390.6000    98.6592    27.6115    26.2029
  390.7000    99.6039    27.3221    26.0464
  390.8000   100.3711    27.0961    25.8908
  390.9000   100.8843    26.9351    25.7361
  391.0000   101.4397    26.7749    25.6129
  391.1000   102.2157    26.5994    25.6061
  391.2000   103.1179    26.2652    25.4331
  391.3000   103.5397    26.2645    25.3011
  391.4000   104.3879    26.1442    25.2550
  391.5000   105.4156    25.9888    25.2536
  391.6000   106.2843    25.8344    25.1969
  391.7000   106.7976    25.6809    25.0765
  391.8000   107.3277    25.5435    25.0696
  391.9000   107.3265    25.5427    24.9005
  392.0000   106.9157    25.5420    24.8993
  392.1000   106.4000    25.5413    24.8980
  392.2000   106.1181    25.4501    24.8966
  392.3000   106.0440    25.3637    24.8952
  392.4000   105.7856    25.3630    24.8938
  392.5000   105.5120    25.3477    24.8867
  392.6000   105.5108    25.1865    24.7191
  392.7000   105.5096    25.1858    24.7179
  392.8000   105.5084    25.1851    24.7166
  392.9000   105.5072    25.1844    24.6363
  393.0000   105.5060    25.1837    24.5433
  393.1000   105.5271    25.1830    24.5419
  393.2000   105.8047    25.1823    24.5405
  393.3000   105.8036    25.1816    24.5390
  393.4000   105.8024    25.1810    24.5378
  393.5000   105.8012    25.1803    24.5365
  393.6000   105.6964    25.0915    24.5351
  393.7000   105.3783    25.0051    24.5337
  393.8000   104.8783    25.0044    24.5324
  393.9000   104.5914    25.0037    24.5310
  394.0000   103.9036    25.0030    24.5295
  394.1000   103.3157    25.0023    24.5283
  394.2000   102.8000    25.0016    24.5269
  394.3000   102.0904    25.0009    24.4468
  394.4000   101.0603    25.0002    24.3550
  394.5000   100.0572    24.9996    24.3536
  394.6000    99.7637    24.9989    24.3523
  394.7000    99.5403    24.9981    24.3508
  394.8000    99.4602    24.9975    24.3496
  394.9000    99.4590    24.9968    24.3482
  395.0000    99.4578    24.9961    24.3469
  395.1000    99.4566    24.9954    24.2911
  395.2000    99.4602    24.9947    24.1762
  395.3000   100.0564    24.9940    24.1749
  395.4000   100.2711    24.9933    24.1734
  395.5000   100.6988    24.9926    24.1722
  395.6000   101.0843    24.9919    24.1708
  395.7000   101.4241    24.9912    24.1695
  395.8000   101.8976    24.9906    24.1682
  395.9000   102.1578    24.9899    24.1668
  396.0000   102.4576    24.9892    24.1655
  396.1000   102.6657    24.9884    24.1640
  396.2000   102.9217    24.9878    24.1628
  396.3000   103.0566    24.9871    24.1615
  396.4000   103.0554    24.9013    24.1601
  396.5000   103.0873    24.8133    24.1588
  396.6000   103.3542    24.8126    24.1574
  396.7000   103.3530    24.8119    24.1561
  396.8000   103.5542    24.8112    24.1546
  396.9000   103.4934    24.8105    24.1534
  397.0000   103.0060    24.8098    24.1521
  397.1000   102.3741    24.8092    24.1508
  397.2000   102.0892    24.8085    24.1494
  397.3000   101.5385    24.8078    24.1326
  397.4000   101.2976    24.8071    24.0599
  397.5000   100.8434    24.8064    23.9786
  397.6000   100.3277    24.8057    23.9774
  397.7000   100.0277    24.8050    23.9761
  397.8000   100.0504    24.8043    23.8967
  397.9000   100.1457    24.8037    23.8080
  398.0000   100.2410    24.7687    23.8067
  398.1000   100.4211    24.6215    23.8054
  398.2000   101.2264    24.4604    23.8041
  398.3000   101.9620    24.4598    23.8027
  398.4000   102.9341    24.4591    23.8014
  398.5000   103.8042    24.4584    23.7612
  398.6000   104.5747    24.4003    23.6895
  398.7000   105.4149    24.2553    23.6332
  398.8000   106.4169    24.1200    23.6319
  398.9000   107.2421    24.1193    23.6305
  399.0000   107.7189    24.1187    23.6293
  399.1000   108.2321    24.1180    23.6280
  399.2000   108.4434    24.1173    23.5493
  399.3000   108.4422    24.0606    23.4623
  399.4000   108.4410    23.9496    23.4610
  399.5000   108.4398    23.9407    23.4597
  399.6000   108.4384    23.7829    23.4583
  399.7000   107.9727    23.7823    23.4571
  399.8000   107.4570    23.7817    23.4558
  399.9000   107.2301    23.7028    23.4545
  400.0000   107.0281    23.6162    23.4532
  400.1000   106.6253    23.5846    23.4519
  400.2000   106.6241    23.4519    23.4429
  400.3000   106.6227    23.4512    23.2874
  400.4000   106.6217    23.4506    23.2862
  400.5000   106.8022    23.4500    23.1853
  400.6000   106.9205    23.3728    23.1230
  400.7000   106.9193    23.2869    23.1217
  400.8000   106.9678    23.2563    23.1204
  400.9000   107.2181    23.1249    23.1113
  401.0000   107.2167    23.1242    22.9582
  401.1000   107.2157    23.0029    22.9570
  401.2000   107.2145    22.9634    22.8573
  401.3000   107.2132    22.8883    22.7961
