~VERSION INFORMATION
 VERS.                2.0:   CWLS LOG ASCII STANDARD - VERSION 2.0
 WRAP.                 NO:   ONE LINE PER DEPTH STEP
~WELL INFORMATION
#MNEM.UNIT      DATA TYPE    INFORMATION
#----------   ------------   ------------------------------
 STRT.F            6.0000:   START DEPTH
 STOP.F          765.0000:   STOP DEPTH
 STEP.F            0.5000:   STEP LENGTH
 NULL.          -999.2500:   NO VALUE
 COMP. FENIX & SCISSON INC:   COMPANY
 WELL.      24 SX 2 #24-2:   WELL
 FLD .        TEAPOT DOME:   FIELD
 LOC .       S2 T38N R78W:   LOCATION
 CNTY.            NATRONA:   COUNTY
 STAT.            WYOMING:   STATE
 CTRY. UNITED STATES OF AMERICA:   COUNTRY
 SRVC.           BIRDWELL:   SERVICE COMPANY
 DATE.        20-JAN-1978:   LOGDATE
 API .       490251055700:   API NUMBER
~CURVE INFORMATION
#MNEM.UNIT       API CODE    CURVE DESCRIPTION
#----------   ------------   ------------------------------
 DEPT.F                  :   
 SPR .MV     05 010 01 00:   SPONTANEOUS POTENTIAL FROM RES.
 SN  .OHMM   05 040 16 00:   SHORT NORMAL 16"
 ILD .OHMM   05 120 46 00:   INDUCTION LOG DEEP
 CALD.IN     45 280 60 00:   CALIPER FROM DENSITY LOG
 CORR.G/C3   45 356 01 00:   DENSITY CORRECTION
 DEN .G/C3   45 350 01 00:   COMPENSATED BULK DENSTIY
 DPHI.DEC    45 890 12 00:   DENSITY POROSITY SANDSTONE
 GRD .GAPI   45 310 01 00:   GAMMA RAY FROM DENSITY LOG
~PARAMETER INFORMATION
#MNEM.UNIT          VALUE    DESCRIPTION
#----------   ------------   ------------------------------
 PD  .                 GL:   PERMANENT DATUM
 EPD .F              5131:   ELEVATION PERMANENT DATUM
 LMF .                 KB:   LOG MEASURED FROM
 DMF .                 KB:   DRILLING MEASURED FROM
 EKB .F              5134:   KELLING BUSHING
 EGL .F              5131:   GROUND LEVEL
 DATE.        20-JAN-1978:   RUN DATE
 RUN .                  1:   RUN NUMBER
 DD  .F               775:   DEPTH DRILLER
 DL  .F               770:   DEPTH LOGGER
 BLI .F               770:   BOTTOM LOG INTERVAL
 TLI .F                40:   TOP LOG INTERVAL
 CS  .IN            8.625:   CASING SIZE
 CBD .F                39:   CASING BOTTOM DRILLER
 CBL .F                39:   CASING BOTTOM LOGGER
 BS  .IN            7.875:   BIT SIZE
 BSD .F               775:   BIT SIZE AT DEPTH
 DFT .                KCL:   DRILLING FLUID TYPE
 DFD .                8.6:   DRILLING FLUID DENSITY
 DFV .                 33:   DRILLING FLUID VISCOSITY
 DFPH.                9.5:   DRILLING FLUID PH
 DFL .                  8:   DRILLING FLUID LOSS
 MSS .           FLOWLINE:   MUD SAMPLE SOURCE
 RMS .OHMM            .31:   RESISTIVITY MUD SAMPLE
 MST .F                54:   MUD SAMPLE TEMPERATURE
 RMF .OHMM            .28:   RESISTIVITY MUD FILTRATE SAMPLE
 MFST.F                64:   MUD FILTRATE SAMPLE TEMPERATURE
 RMC .OHMM             .8:   RESISTIVITY MUD CAKE
 MCST.F                64:   MUD CAKE SAMPLE TEMPERATURE
 MFSS.               MEAS:   MUD FILTRATE SAMPLE SOURCE
 MCSS.               MEAS:   MUD CAKE SAMPLE SOURCE
 RMB .OHMM            .22:   RESISTIVITY MUD AT BHT
 BHT .F                76:   BOTTOM HOLE TEMPERATURE
 TCS .HRS            0400:   TIME CURCULATED STOPPED
 MRT .F                76:   MAXIMUM RECORDED TEMPERATURE
 LUN .               2958:   LOGGING UNIT NUMBER
 LUL .             CASPER:   LOGGING UNIT LOCATION
 ENGI.            POINTER:   RECORDING ENGINEER
 WITN.           MCGINLEY:   WITNESSED BY
 CLNT.            A2DTECH:   CLIENT CODE
 ORIG.           5" PRINT:   ORIGIN OF DATA
 UWI .       490251055700:   UNIQUE WELL ID
 DICO. A2D Technologies, Inc.:   DIGITIZING COMPANY
~OTHER INFORMATION
~A    DEPT     SPR         SN        ILD       CALD       CORR        DEN       DPHI         GRD  
# ...
  249.0000   -43.2058     8.2638     7.1996     8.0385     0.0709     2.4448     0.1404    87.6678
  249.5000   -43.2147     8.2593     7.1479     8.0380     0.0739     2.4274     0.1441    87.0587
  250.0000   -43.2214     8.1977     7.0917     8.0376     0.0786     2.4210     0.1459    88.8545
  250.5000   -43.1699     8.1023     7.0268     8.0373     0.0820     2.4198     0.1393    90.6579
  251.0000   -43.1257     8.0218     6.9619     8.0370     0.0828     2.4244     0.1384    92.7461
  251.5000   -43.0986     7.9079     6.9436     8.0367     0.0827     2.4340     0.1411    93.0383
  252.0000   -43.1099     7.8499     6.8933     8.0364     0.0827     2.4309     0.1439    91.2161
  252.5000   -42.9661     7.7924     6.8909     8.0361     0.0850     2.4292     0.1463    88.1920
  253.0000   -42.8245     7.7353     6.9364     8.0207     0.0865     2.4220     0.1466    84.5656
  253.5000   -42.5346     7.7320     6.9822     8.0204     0.0887     2.4172     0.1457    81.2403
  254.0000   -42.5436     7.7834     7.0284     8.0201     0.0886     2.4205     0.1428    79.7223
  254.5000   -42.3998     7.8344     7.1240     8.0198     0.0886     2.4292     0.1440    79.7103
  255.0000   -42.4111     7.9406     7.2711     8.0195     0.0901     2.4246     0.1458    84.2164
  255.5000   -42.4201     8.0482     7.3701     8.0192     0.0938     2.4245     0.1428    93.5417
  256.0000   -42.4291     8.1565     7.5745     8.0189     0.0968     2.4267     0.1398   101.0598
  256.5000   -42.4382     8.2679     7.7848     8.0186     0.0974     2.4357     0.1380   103.7590
  257.0000   -42.4472     8.4962     8.0009     8.0183     0.0974     2.4342     0.1369    91.3973
  257.5000   -42.3034     8.7327     8.1097     8.0030     0.0959     2.4364     0.1381    85.0600
  258.0000   -42.3146     8.8511     7.9400     8.0027     0.0921     2.4423     0.1369    81.1323
  258.5000   -42.1731     8.8465     7.7740     8.0024     0.0913     2.4573     0.1336    78.4095
  259.0000   -42.1821     8.8428     7.5588     7.9871     0.0905     2.4392     0.1345    75.3854
  259.5000   -42.1911     8.7780     7.4007     7.9717     0.0905     2.4392     0.1385    78.0843
  260.0000   -42.2001     8.7743     7.2459     7.9564     0.0912     2.4361     0.1397    84.0964
  260.5000   -42.2092     8.6497     7.0943     7.9110     0.0919     2.4330     0.1394    86.4990
  261.0000   -42.2182     8.4094     6.9460     7.8505     0.0942     2.4330     0.1373    85.5281
  261.5000   -42.3778     8.2327     6.8007     7.7901     0.0964     2.4360     0.1334    76.7861
  262.0000   -42.2340     8.1158     6.7983     7.8499     0.0964     2.4419     0.1286    75.6147
  262.5000   -42.3959     8.0563     6.8908     8.0301     0.0941     2.4509     0.1230    88.2531
  263.0000   -42.5555     7.9972     7.0331     7.9696     0.0821     2.4599     0.1167   101.4036
  263.5000   -42.7152     8.0496     7.3802     7.7889     0.0700     2.4779     0.1101   106.3016
  264.0000   -42.7242     8.1031     7.6377     7.7886     0.0648     2.4748     0.1086    76.7709
  264.5000   -42.7332     8.2693     7.6883     7.8484     0.0610     2.4718     0.1113    62.0601
  265.0000   -42.5916     8.4407     7.6855     7.9083     0.0609     2.4777     0.1134    48.9356
  265.5000   -42.6007     9.0426     7.7369     7.9832     0.0617     2.4747     0.1131    44.5066
  266.0000   -42.6097     9.5549     7.8422     7.9979     0.0639     2.4505     0.1397    75.8169
  266.5000   -42.6187     9.8198     7.9489     7.9675     0.0669     2.4324     0.1493    95.0820
  267.0000   -42.4749     9.9540     8.1688     7.9672     0.0713     2.4181     0.1520    98.0820
  267.5000   -42.4862     9.6094     7.8334     7.9669     0.0758     2.4082     0.1530    97.4676
  268.0000   -42.3446     8.9614     7.5639     7.9666     0.0810     2.4165     0.1473    90.2267
  268.5000   -42.3536     8.7730     7.4572     7.9969     0.0825     2.4202     0.1464    88.7087
  269.0000   -42.5133     8.7694     7.4547     8.0111     0.0824     2.4194     0.1470    86.8895
  269.5000   -42.6729     8.7657     7.4521     8.0259     0.0817     2.4201     0.1482    85.3714
  270.0000   -42.9831     8.7621     7.5019     8.0256     0.0816     2.4260     0.1434    86.2631
  270.5000   -43.1428     8.7584     7.6040     8.0253     0.0816     2.4290     0.1404    94.9860
  271.0000   -43.3024     8.7548     7.6542     8.0250     0.0816     2.4282     0.1393   100.6999
  271.5000   -43.4620     8.7511     7.5981     8.0247     0.0815     2.4259     0.1408    92.8536
  272.0000   -43.4711     8.7475     7.3878     8.0244     0.0815     2.4228     0.1463    85.9139
  272.5000   -43.4801     8.7438     7.3342     8.0241     0.0822     2.4197     0.1502    85.3025
  273.0000   -43.3363     8.6797     7.2810     8.0087     0.0822     2.4151     0.1511    92.5164
  273.5000   -43.1947     8.6161     7.2785     8.0084     0.0822     2.4129     0.1523    96.7212
  274.0000   -43.2060     8.3767     7.3272     8.0081     0.0814     2.4169     0.1437    97.9171
  274.5000   -43.2150     8.2578     7.3240     8.0078     0.0806     2.4273     0.1406    92.1792
  275.0000   -43.2240     8.2543     7.3215     8.0075     0.0790     2.4293     0.1413    82.8298
  275.5000   -43.2330     8.2509     7.3189     8.0072     0.0782     2.4300     0.1399    80.4082
  276.0000   -43.2421     8.2475     7.2659     8.0069     0.0759     2.4314     0.1374    83.4082
  276.5000   -43.0982     8.2440     7.2634     8.0066     0.0752     2.4344     0.1368    90.0227
  277.0000   -43.1095     8.2406     7.2608     8.0063     0.0737     2.4388     0.1356    93.9294
  277.5000   -43.1186     8.2371     7.2583     8.0060     0.0722     2.4403     0.1344    90.6012
  278.0000   -43.1276     8.2337     7.2558     8.0057     0.0692     2.4417     0.1347    88.4807
  278.5000   -43.1366     8.1734     7.2533     8.0205     0.0684     2.4409     0.1336    90.5772
  279.0000   -42.9928     8.1700     7.2508     8.0201     0.0668     2.4409     0.1345    93.2760
  279.5000   -43.0041     8.1665     7.3500     8.0198     0.0661     2.4408     0.1354    90.8544
  280.0000   -43.0131     8.2200     7.3979     8.0195     0.0653     2.4400     0.1339    86.9267
  280.5000   -43.0221     8.2166     7.4475     8.0192     0.0653     2.4400     0.1330    83.9027
  281.0000   -43.0312     8.2704     7.4442     8.0189     0.0660     2.4399     0.1376    83.5895
  281.5000   -43.0402     8.2669     7.4940     8.0186     0.0659     2.4361     0.1391    82.9751
  282.0000   -43.0492     8.3219     7.5960     8.0183     0.0682     2.4323     0.1307    82.9631
  282.5000   -43.0582     8.3175     7.6462     8.0180     0.0689     2.4518     0.1220    83.2523
  283.0000   -43.0673     8.3729     7.6429     8.0177     0.0689     2.4608     0.1202    87.7583
  283.5000   -43.3775     8.4855     7.6402     8.0174     0.0688     2.4517     0.1290    88.9542
  284.0000   -43.3865     8.6005     7.6376     8.0171     0.0688     2.4464     0.1320    92.8548
  284.5000   -43.6968     8.7171     7.5298     8.0168     0.0688     2.4448     0.1275    97.9633
  285.0000   -43.8564     8.7751     7.5272     8.0316     0.0680     2.4478     0.1230    99.1561
  285.5000   -43.8654     8.7705     7.5246     8.0463     0.0657     2.4575     0.1191    98.2405
  286.0000   -43.7239     8.7062     7.5743     8.0460     0.0619     2.4680     0.1176    89.7948
  286.5000   -43.7329     8.7026     7.6250     8.0608     0.0574     2.4695     0.1176    85.2647
  287.0000   -43.4407     8.6989     7.7280     8.0604     0.0529     2.4686     0.1183    87.0599
  287.5000   -43.5996     8.6953     7.8877     8.0601     0.0468     2.4663     0.1237    89.7588
  288.0000   -43.3072     8.6917     8.1629     8.0598     0.0446     2.4595     0.1346    89.7872
  288.5000   -42.8645     8.7495     8.3895     8.0595     0.0580     2.4504     0.1361    85.5179
  289.0000   -42.5723     8.7449     8.5627     8.0592     0.0692     2.4421     0.1277    87.0119
