~VERSION INFORMATION
 VERS.                2.0:   CWLS LOG ASCII STANDARD - VERSION 2.0
 WRAP.                 NO:   ONE LINE PER DEPTH STEP
~WELL INFORMATION
#MNEM.UNIT      DATA TYPE    INFORMATION
#----------   ------------   ------------------------------
 STRT.F           16.0000:   START DEPTH
 STOP.F          484.5000:   STOP DEPTH
 STEP.F            0.5000:   STEP LENGTH
 NULL.          -999.2500:   NO VALUE
 COMP. FENIX & SCISSON INC:   COMPANY
 WELL. NPR 3 #83 SX 10-10:   WELL
 FLD .             TEAPOT:   FIELD
 LOC .      S10 T38N R78W:   LOCATION
 CNTY.            NATRONA:   COUNTY
 STAT.            WYOMING:   STATE
 CTRY. UNITED STATES OF AMERICA:   COUNTRY
 SRVC.           BIRDWELL:   SERVICE COMPANY
 DATE.        25-NOV-1978:   LOGDATE
 API .       490251075200:   API NUMBER
~CURVE INFORMATION
#MNEM.UNIT       API CODE    CURVE DESCRIPTION
#----------   ------------   ------------------------------
 DEPT.F                  :   
 SPR .MV     05 010 01 00:   SPONTANEOUS POTENTIAL FROM RES.
 SN  .OHMM   05 040 16 00:   SHORT NORMAL 16"
 IL  .OHMM   05 120 00 00:   INDUCTION LOG
 CALD.IN     45 280 60 00:   CALIPER
 GRD .GAPI   45 310 01 00:   GAMMA RAY FROM DENSITY LOG
 CORR.G/C3   45 356 01 00:   DENSITY CORRECTION
 DPHI.DEC    45 890 12 00:   DENSITY POROSITY SANDSTONE
 RHOB.G/C3   45 350 01 00:   BULK DENSITY
~PARAMETER INFORMATION
#MNEM.UNIT          VALUE    DESCRIPTION
#----------   ------------   ------------------------------
 PD  .                 GL:   PERMANENT DATUM
 EPD .F              5145:   ELEVATION PERMANENT DATUM
 LMF .                 KB:   LOG MEASURED FROM
 DAPD.F                 4:   FEET ABOVE PERMANENT DATUM
 DMF .                 KB:   DRILLING MEASURED FROM
 EKB .F              5149:   KELLING BUSHING
 EGL .F              5145:   GROUND LEVEL
 DATE.           11-25-78:   RUN DATE
 RUN .                  1:   RUN NUMBER
 DD  .F               490:   DEPTH DRILLER
 DL  .F               487:   DEPTH LOGGER
 BLI .F               481:   BOTTOM LOG INTERVAL
 TLI .F                30:   TOP LOG INTERVAL
 CS  .IN            8.625:   CASING SIZE
 CBD .F                40:   CASING BOTTOM DRILLER
 CBL .F                35:   CASING BOTTOM LOGGER
 BS  .IN            7.875:   BIT SIZE
 BSD .F               490:   BIT SIZE AT DEPTH
 DFT .             SEAMUD:   DRILLING FLUID TYPE
 DFD .                8.8:   DRILLING FLUID DENSITY
 DFV .                 38:   DRILLING FLUID VISCOSITY
 DFPH.               11.1:   DRILLING FLUID PH
 DFL .                9.6:   DRILLING FLUID LOSS
 MSS .           FLOWLINE:   MUD SAMPLE SOURCE
 RMS .OHMM            .28:   RESISTIVITY MUD SAMPLE
 MST .F                58:   MUD SAMPLE TEMPERATURE
 RMF .OHMM            .25:   RESISTIVITY MUD FILTRATE SAMPLE
 MFST.F                70:   MUD FILTRATE SAMPLE TEMPERATURE
 RMC .OHMM             .3:   RESISTIVITY MUD CAKE
 MCST.F                70:   MUD CAKE SAMPLE TEMPERATURE
 MFSS.           MEASURED:   MUD FILTRATE SAMPLE SOURCE
 MCSS.           MEASURED:   MUD CAKE SAMPLE SOURCE
 BHT .F                58:   BOTTOM HOLE TEMPERATURE
 TCS .HRS               3:   TIME CURCULATED STOPPED
 MRT .F                58:   MAXIMUM RECORDED TEMPERATURE
 LUN .               3029:   LOGGING UNIT NUMBER
 LUL .               CASP:   LOGGING UNIT LOCATION
 ENGI.           REYNOLDS:   RECORDING ENGINEER
 WITN.           DINSMORE:   WITNESSED BY
 CLNT.            A2DTECH:   CLIENT CODE
 ORIG.     1", 2.5" PRINT:   ORIGIN OF DATA
 UWI .       490251075200:   UNIQUE WELL ID
 DICO. A2D Technologies, Inc.:   DIGITIZING COMPANY
~OTHER INFORMATION
~A   DEPT      SPR         SN         IL       CALD         GRD      CORR       DPHI       RHOB   
# ...
   56.5000   -37.8370     8.6420     7.2700     7.7300   113.4260     0.0320     0.1740     2.4010
   57.0000   -38.0540     8.5950     7.2700     7.7300   114.7760     0.0460     0.1630     2.4200
   57.5000   -38.2710     8.5480     7.2700     7.7300   111.6750     0.0500     0.1530     2.4300
   58.0000   -38.4880     8.5010     7.2700     7.7300   109.6150     0.0240     0.1600     2.4210
   58.5000   -38.7050     8.4530     7.2700     7.7300   110.6600     0.0190     0.1650     2.4160
   59.0000   -38.9220     8.4060     7.2700     7.7300   112.1280     0.0270     0.1600     2.4210
   59.5000   -39.1380     8.3590     7.2700     7.7300   114.3680     0.0330     0.1550     2.4270
   60.0000   -39.3590     8.3120     7.2700     7.7300   113.5420     0.0390     0.1500     2.4350
   60.5000   -39.5430     8.2650     7.2700     7.7300   109.9710     0.0460     0.1450     2.4450
   61.0000   -39.5670     8.2180     7.2700     7.7300   107.3890     0.0460     0.1390     2.4540
   61.5000   -39.4730     8.1710     7.2700     7.7300   103.3260     0.0400     0.1380     2.4570
   62.0000   -39.2490     8.1230     7.2700     7.7300   106.8990     0.0350     0.1380     2.4520
   62.5000   -39.0460     8.0760     7.2700     7.7300   110.5420     0.0350     0.1530     2.4340
   63.0000   -38.8260     8.0310     7.2700     7.7300   108.2980     0.0430     0.1650     2.4200
   63.5000   -38.6250     7.9790     7.2700     7.7300   108.7840     0.0500     0.1710     2.4030
   64.0000   -38.3980     7.9920     7.2700     7.7300   112.1610     0.0570     0.1690     2.4070
   64.5000   -38.4680     8.0070     7.2700     7.7300   114.5350     0.0620     0.1600     2.4250
   65.0000   -38.8410     8.0220     7.2700     7.7300   115.8150     0.0660     0.1490     2.4430
   65.5000   -39.1910     8.0380     7.2700     7.7300   117.3550     0.0680     0.1370     2.4610
   66.0000   -39.5550     8.0530     7.2700     7.7290   118.0970     0.0660     0.1300     2.4700
   66.5000   -39.9130     8.0690     7.2700     7.7310   118.2830     0.0640     0.1340     2.4660
   67.0000   -40.2710     8.0840     7.2700     7.7210   118.5120     0.0630     0.1370     2.4630
   67.5000   -40.6350     8.1000     7.2700     7.7040   118.7550     0.0610     0.1400     2.4590
   68.0000   -40.9830     8.1160     7.2700     7.6880   118.3830     0.0600     0.1430     2.4530
   68.5000   -41.3750     8.1310     7.2700     7.6720   117.2580     0.0580     0.1450     2.4510
   69.0000   -41.5850     8.1470     7.2700     7.6560   115.8960     0.0570     0.1450     2.4470
   69.5000   -41.5590     8.1620     7.2700     7.6400   114.6090     0.0550     0.1470     2.4440
   70.0000   -41.5690     8.1780     7.2700     7.6230   113.2440     0.0530     0.1510     2.4410
   70.5000   -41.5630     8.1930     7.2700     7.6080   113.0790     0.0550     0.1470     2.4460
   71.0000   -41.4420     8.2090     7.2690     7.5940   113.4730     0.0650     0.1440     2.4560
   71.5000   -41.2620     8.2250     7.2680     7.5800   114.7250     0.0750     0.1330     2.4740
   72.0000   -41.0880     8.2400     7.3070     7.5660   115.9080     0.0810     0.1230     2.4810
   72.5000   -40.9160     8.2560     7.4020     7.5520   117.1640     0.0800     0.1180     2.4890
   73.0000   -40.7370     8.2710     7.4950     7.5380   118.3350     0.0800     0.1160     2.4940
   73.5000   -40.5680     8.2870     7.5870     7.5240   119.6860     0.0710     0.1200     2.4890
   74.0000   -40.3850     8.3030     7.6800     7.5110   120.3330     0.0620     0.1280     2.4780
   74.5000   -40.4830     8.3180     7.7730     7.4950   119.9730     0.0620     0.1350     2.4670
   75.0000   -40.6390     8.3340     7.8650     7.4890   119.7700     0.0640     0.1350     2.4630
   75.5000   -40.7920     8.3490     7.9770     7.4930   119.4850     0.0660     0.1350     2.4650
   76.0000   -40.9430     8.3650     7.9530     7.4970   119.2660     0.0700     0.1310     2.4720
   76.5000   -41.0960     8.3800     7.9220     7.5010   118.8920     0.0750     0.1270     2.4780
   77.0000   -41.2470     8.3950     7.8920     7.5040   118.4130     0.0770     0.1220     2.4820
   77.5000   -41.3990     8.4120     7.8610     7.5080   117.9750     0.0740     0.1250     2.4780
   78.0000   -41.5520     8.4310     7.8300     7.5110   117.5240     0.0670     0.1280     2.4750
   78.5000   -41.7010     8.3990     7.7820     7.5150   117.0760     0.0640     0.1310     2.4710
   79.0000   -41.8600     8.3350     7.7330     7.5190   116.6280     0.0640     0.1330     2.4670
   79.5000   -41.9640     8.2710     7.6850     7.5220   116.1800     0.0640     0.1330     2.4660
   80.0000   -41.9680     8.2080     7.6360     7.5260   115.7310     0.0710     0.1310     2.4650
   80.5000   -41.9780     8.1440     7.5870     7.5300   115.2850     0.0830     0.1270     2.4770
   81.0000   -42.2310     8.0800     7.5380     7.5330   114.8410     0.0880     0.1240     2.4840
   81.5000   -42.5710     8.0160     7.4890     7.5370   114.7340     0.0830     0.1210     2.4860
   82.0000   -42.8930     7.9640     7.4400     7.5410   115.0840     0.0720     0.1210     2.4880
   82.5000   -43.2340     7.9260     7.3910     7.5450   115.4580     0.0620     0.1260     2.4870
   83.0000   -43.5430     7.8880     7.3420     7.5480   115.8390     0.0510     0.1340     2.4710
   83.5000   -43.9040     7.8490     7.2930     7.5520   116.2130     0.0460     0.1470     2.4510
   84.0000   -43.7780     7.8110     7.2440     7.5560   116.5920     0.0530     0.1450     2.4420
   84.5000   -43.3960     7.7730     7.1950     7.5590   116.9660     0.0590     0.1420     2.4450
   85.0000   -43.0840     7.7350     7.1460     7.5630   117.3430     0.0580     0.1380     2.4550
   85.5000   -42.7480     7.6860     7.0970     7.5670   117.7240     0.0560     0.1370     2.4580
   86.0000   -42.4200     7.7140     7.0480     7.5700   118.0790     0.0540     0.1370     2.4600
   86.5000   -42.0920     7.7550     7.0050     7.5740   118.5250     0.0520     0.1370     2.4630
   87.0000   -41.7590     7.7970     7.0740     7.5780   118.7290     0.0490     0.1390     2.4590
   87.5000   -41.4360     7.8380     7.1360     7.5810   118.8270     0.0470     0.1430     2.4500
   88.0000   -41.0960     7.8790     7.1980     7.5850   117.8340     0.0450     0.1490     2.4420
   88.5000   -40.7820     7.9200     7.2610     7.5890   116.1860     0.0430     0.1470     2.4430
   89.0000   -40.4560     7.9610     7.3230     7.5920   114.7080     0.0410     0.1420     2.4490
   89.5000   -40.8650     8.0020     7.3850     7.5960   113.3000     0.0390     0.1360     2.4570
   90.0000   -41.6030     8.0430     7.4470     7.6000   111.5980     0.0360     0.1280     2.4640
   90.5000   -42.2960     8.0840     7.5100     7.6030   112.0460     0.0270     0.1330     2.4690
   91.0000   -43.0110     8.1250     7.5720     7.6070   114.1880     0.0170     0.1440     2.4520
   91.5000   -43.7010     8.1660     7.6340     7.6110   116.1150     0.0090     0.1530     2.4350
   92.0000   -44.4280     8.2070     7.6970     7.6140   118.0270     0.0180     0.1510     2.4410
   92.5000   -44.8070     8.2480     7.7590     7.6180   120.1550     0.0320     0.1420     2.4570
   93.0000   -44.6080     8.2790     7.8300     7.6220   120.3750     0.0480     0.1280     2.4710
   93.5000   -44.4380     8.2980     7.8150     7.6250   119.9940     0.0540     0.1250     2.4830
   94.0000   -44.2370     8.3200     7.7960     7.6290   117.8370     0.0610     0.1210     2.4840
   94.5000   -44.0520     8.3420     7.7790     7.6330   115.4230     0.0670     0.1210     2.4850
   95.0000   -43.8590     8.3650     7.7610     7.6360   113.1740     0.0740     0.1210     2.4870
   95.5000   -43.6700     8.3870     7.7430     7.6400   114.0500     0.0770     0.1210     2.4860
   96.0000   -43.4800     8.4090     7.7250     7.6440   115.6740     0.0760     0.1200     2.4830
   96.5000   -43.2900     8.4310     7.7080     7.6470   117.2370     0.0760     0.1250     2.4800
