~VERSION INFORMATION
 VERS.                2.0:   CWLS LOG ASCII STANDARD - VERSION 2.0
 WRAP.                 NO:   ONE LINE PER DEPTH STEP
~WELL INFORMATION
#MNEM.UNIT      DATA TYPE    INFORMATION
#----------   ------------   ------------------------------
 STRT.F           20.0000:   START DEPTH
 STOP.F          565.0000:   STOP DEPTH
 STEP.F            0.5000:   STEP LENGTH
 NULL.          -999.2500:   NO VALUE
 COMP. FENIX & SCISSON INC:   COMPANY
 WELL.     NPR-3 #12-SX-3:   WELL
 FLD .        TEAPOT DOME:   FIELD
 LOC .       S3 T38N R78W:   LOCATION
 CNTY.            NATRONA:   COUNTY
 STAT.            WYOMING:   STATE
 CTRY. UNITED STATES OF AMERICA:   COUNTRY
 SRVC.           BIRDWELL:   SERVICE COMPANY
 DATE.        29-JUL-1978:   LOGDATE
 API .       490251067000:   API NUMBER
~CURVE INFORMATION
#MNEM.UNIT       API CODE    CURVE DESCRIPTION
#----------   ------------   ------------------------------
 DEPT.F                  :   
 SPR .MV     05 010 01 00:   SPONTANEOUS POTENTIAL FROM RES.
 SN  .OHMM   05 040 16 00:   SHORT NORMAL 16"
 IL  .OHMM   05 120 00 00:   INDUCTION LOG
 GRD .GAPI   45 310 01 00:   GAMMA RAY FROM DENSITY LOG
 CALD.IN     45 280 60 00:   CALIPER
 CORR.G/C3   45 356 01 00:   DENSITY CORRECTION
 RHOB.G/C3   45 350 01 00:   BULK DENSITY
 DPHI.DEC    45 890 12 00:   DENSITY POROSITY SANDSTONE
~PARAMETER INFORMATION
#MNEM.UNIT          VALUE    DESCRIPTION
#----------   ------------   ------------------------------
 PD  .                 GL:   PERMANENT DATUM
 EPD .F              5191:   ELEVATION PERMANENT DATUM
 LMF .                 KB:   LOG MEASURED FROM
 DAPD.F                 4:   FEET ABOVE PERMANENT DATUM
 DMF .                 KB:   DRILLING MEASURED FROM
 EKB .F              5195:   KELLING BUSHING
 EGL .F              5191:   GROUND LEVEL
 DATE.            7-29-78:   RUN DATE
 RUN .                  1:   RUN NUMBER
 DD  .F               565:   DEPTH DRILLER
 DL  .F               571:   DEPTH LOGGER
 BLI .F               565:   BOTTOM LOG INTERVAL
 TLI .F                40:   TOP LOG INTERVAL
 CS  .IN            8.625:   CASING SIZE
 CBD .F                40:   CASING BOTTOM DRILLER
 CBL .F                40:   CASING BOTTOM LOGGER
 BS  .IN            7.875:   BIT SIZE
 BSD .F               565:   BIT SIZE AT DEPTH
 DFT .                KCL:   DRILLING FLUID TYPE
 DFD .                8.6:   DRILLING FLUID DENSITY
 DFV .                 31:   DRILLING FLUID VISCOSITY
 DFPH.                  9:   DRILLING FLUID PH
 RMS .OHMM            .32:   RESISTIVITY MUD SAMPLE
 MST .F                70:   MUD SAMPLE TEMPERATURE
 TCS .HRS               1:   TIME CURCULATED STOPPED
 LUN .               2958:   LOGGING UNIT NUMBER
 LUL .               CASP:   LOGGING UNIT LOCATION
 ENGI.              HONEA:   RECORDING ENGINEER
 WITN.              AMEND:   WITNESSED BY
 CLNT.            A2DTECH:   CLIENT CODE
 ORIG.           5" PRINT:   ORIGIN OF DATA
 UWI .       490251067000:   UNIQUE WELL ID
 DICO. A2D Technologies, Inc.:   DIGITIZING COMPANY
~OTHER INFORMATION
~A   DEPT      SPR         SN         IL         GRD      CALD       CORR       RHOB       DPHI   
# ...
  465.5000   -17.8778     8.7228     8.6159    62.6057     7.0296     0.0574     2.2778     0.2274
  466.0000   -18.2526     8.7322     8.5620    61.5082     7.0356     0.0547     2.2634     0.2270
  466.5000   -18.6315     8.7416     8.5084    60.4935     7.0377     0.0520     2.2898     0.2255
  467.0000   -19.0097     8.7509     8.4551    60.2351     7.0378     0.0475     2.2850     0.2214
  467.5000   -19.3878     8.7602     8.4022    60.2559     7.0377     0.0391     2.2876     0.2127
  468.0000   -19.7659     8.7701     8.3496    61.0324     7.0377     0.0306     2.3004     0.2052
  468.5000   -20.1441     8.7705     8.2973    62.3195     7.0368     0.0222     2.3211     0.2008
  469.0000   -20.5221     8.7692     8.2454    63.2272     7.0832     0.0226     2.3389     0.2016
  469.5000   -20.9011     8.7653     8.1938    62.6231     7.1760     0.0280     2.3365     0.2008
  470.0000   -21.2801     8.8543     8.1476    62.7981     7.1771     0.0334     2.3310     0.1977
  470.5000   -21.7279     8.8510     8.1476    64.3061     7.1765     0.0384     2.3293     0.1960
  471.0000   -21.8714     8.8517     8.1476    63.9590     7.1953     0.0402     2.3393     0.1948
  471.5000   -22.0419     8.8518     8.1472    63.0294     7.3488     0.0409     2.3378     0.1910
  472.0000   -22.2168     8.8518     8.1626    62.0381     7.5046     0.0416     2.3482     0.1871
  472.5000   -22.3923     8.8518     8.1793    63.2884     7.5745     0.0364     2.3581     0.1834
  473.0000   -22.5676     8.8518     8.1961    65.5661     7.5835     0.0310     2.3602     0.1787
  473.5000   -22.7429     8.8518     8.2129    66.6073     7.5913     0.0254     2.3642     0.1774
  474.0000   -22.9185     8.8518     8.2297    67.5829     7.5974     0.0241     2.3832     0.1802
  474.5000   -23.1016     8.8518     8.2466    67.5059     7.6163     0.0252     2.3778     0.1830
  475.0000   -23.1473     8.8518     8.2635    67.2908     7.6349     0.0262     2.3728     0.1861
  475.5000   -23.1427     8.8518     8.2802    68.3564     7.6535     0.0273     2.3679     0.1863
  476.0000   -23.3643     8.8518     8.2991    69.6140     7.6722     0.0283     2.3676     0.1855
  476.5000   -23.4336     8.8518     8.2991    68.4087     7.6910     0.0292     2.3507     0.1841
  477.0000   -23.5119     8.8518     8.2610    67.2548     7.6940     0.0319     2.3688     0.1843
  477.5000   -23.5910     8.8519     8.1912    66.1097     7.6932     0.0316     2.3680     0.1856
  478.0000   -23.6698     8.8512     8.1460    65.0169     7.6764     0.0410     2.3623     0.1873
  478.5000   -23.7486     8.8534     8.1011    65.8006     7.6596     0.0531     2.3550     0.1813
  479.0000   -23.8274     8.7859     8.0568    68.4091     7.6428     0.0652     2.3677     0.1761
  479.5000   -23.9062     8.7264     8.0122    69.1641     7.6261     0.0773     2.3749     0.1746
  480.0000   -23.9851     8.6673     7.9989    67.8363     7.6086     0.0894     2.3782     0.1701
  480.5000   -24.0639     8.6086     7.8583    66.4756     7.5865     0.0936     2.3821     0.1618
  481.0000   -24.1427     8.5503     7.7327    68.1016     7.5648     0.0929     2.3996     0.1611
  481.5000   -24.2215     8.4924     7.6090    67.9746     7.5549     0.0885     2.4017     0.1521
  482.0000   -24.3003     8.4349     7.4874    69.3237     7.5548     0.0680     2.4163     0.1525
  482.5000   -24.3791     8.3778     7.3677    72.0927     7.5559     0.0675     2.4326     0.1605
  483.0000   -24.4579     8.3210     7.2499    71.3297     7.5570     0.0672     2.4046     0.1543
  483.5000   -24.5368     8.2648     7.1340    70.1613     7.5581     0.0608     2.4254     0.1555
  484.0000   -24.6156     8.2090     7.0312    69.1827     7.5592     0.0593     2.4237     0.1636
  484.5000   -24.6933     8.1496     7.0312    69.3139     7.5603     0.0689     2.4149     0.1722
  485.0000   -24.7506     7.9256     7.0312    69.5824     7.5614     0.0791     2.3892     0.1734
  485.5000   -24.7493     7.6700     7.0333    68.8903     7.5626     0.0750     2.3893     0.1750
  486.0000   -24.7495     7.4448     6.8526    67.0635     7.5637     0.0799     2.3812     0.1766
  486.5000   -24.7495     7.2262     6.5043    66.4126     7.5648     0.0978     2.3851     0.1745
  487.0000   -24.7495     7.0141     6.0052    69.0677     7.5659     0.1074     2.3735     0.1700
  487.5000   -24.7495     6.8082     5.5403    72.0353     7.5670     0.0977     2.3847     0.1650
  488.0000   -24.7495     6.6062     5.1113    75.0046     7.5681     0.0817     2.4066     0.1735
  488.5000   -24.7495     6.4685     4.9094    77.8164     7.5692     0.0830     2.4021     0.1893
  489.0000   -24.7495     6.4737     4.9455    78.0936     7.5703     0.1011     2.3733     0.1932
  489.5000   -24.7495     6.6847     4.9976    77.9664     7.5714     0.1053     2.3463     0.1889
  490.0000   -24.7495     6.9276     5.0501    77.9924     7.5725     0.1015     2.3503     0.1825
  490.5000   -24.7495     7.1803     5.1033    78.9630     7.5736     0.1015     2.3595     0.1777
  491.0000   -24.7495     7.4968     5.1645    79.9375     7.5746     0.1038     2.3690     0.1627
  491.5000   -24.7495     7.9621     5.3789    76.7787     7.5803     0.1024     2.3887     0.1428
  492.0000   -24.7495     8.4564     5.8828    73.3241     7.5984     0.0966     2.4376     0.1430
  492.5000   -24.7496     8.6105     6.4339    70.3208     7.6196     0.0913     2.4477     0.1463
  493.0000   -24.7500     8.6105     7.0366    70.8127     7.6337     0.0921     2.4420     0.1467
  493.5000   -24.7490     8.7387     7.2951    72.0702     7.6368     0.0933     2.4418     0.1481
  494.0000   -24.7092     8.8569     7.2951    72.3951     7.6410     0.0944     2.4394     0.1497
  494.5000   -24.5439     8.9766     7.3423    71.1163     7.6454     0.0954     2.4290     0.1513
  495.0000   -24.3856     9.0980     7.4102    69.8140     7.6498     0.0955     2.4354     0.1527
  495.5000   -24.2274     9.1840     7.4788    68.4888     7.6541     0.0960     2.4258     0.1518
  496.0000   -24.0692     9.3039     7.5693    67.8993     7.6585     0.0965     2.4209     0.1508
  496.5000   -23.9113     9.4215     7.6401    72.8445     7.6628     0.0971     2.4295     0.1499
  497.0000   -23.7517     9.5406     7.6375    77.6261     7.6672     0.0970     2.4263     0.1440
  497.5000   -23.5742     9.6612     7.8329    78.1319     7.6716     0.0913     2.4316     0.1396
  498.0000   -23.7515     9.7833     7.9655    78.4265     7.6740     0.0861     2.4466     0.1396
  498.5000   -23.7453     9.9069     8.1000    79.9046     7.6740     0.0899     2.4569     0.1396
  499.0000   -23.7475    10.0321     8.2368    79.1772     7.6740     0.0919     2.4397     0.1342
  499.5000   -23.7475    10.1589     8.3759    76.7273     7.6740     0.0849     2.4372     0.1279
  500.0000   -23.7475    10.3521     8.5173    74.2869     7.6738     0.0778     2.4693     0.1272
  500.5000   -23.7475    10.2572     8.6611    71.8739     7.6733     0.0652     2.4687     0.1270
  501.0000   -23.7475    10.2518     8.8074    70.1589     7.6527     0.0514     2.4725     0.1268
  501.5000   -23.7475    10.2441     8.8518    69.4459     7.6537     0.0379     2.4773     0.1372
  502.0000   -23.7475    10.2363     8.9337    68.6373     7.6541     0.0377     2.4555     0.1443
  502.5000   -23.7475    10.2286     8.9337    69.4818     7.6541     0.0374     2.4429     0.1438
  503.0000   -23.7475    10.2209     8.9389    71.2836     7.6541     0.0371     2.4395     0.1435
  503.5000   -23.7475    10.2132     8.9570    71.7870     7.6541     0.0367     2.4376     0.1432
  504.0000   -23.7475    10.2055     8.9749    70.2324     7.6541     0.0363     2.4409     0.1429
  504.5000   -23.7475    10.1978     8.9930    68.9061     7.6541     0.0360     2.4437     0.1424
  505.0000   -23.7475    10.1901     9.0114    70.6309     7.6531     0.0358     2.4423     0.1421
  505.5000   -23.7475    10.1824     9.0168    72.4441     7.6519     0.0379     2.4409     0.1423
