~VERSION INFORMATION
 VERS.                2.0:   CWLS LOG ASCII STANDARD - VERSION 2.0
 WRAP.                 NO:   ONE LINE PER DEPTH STEP
~WELL INFORMATION
#MNEM.UNIT      DATA TYPE    INFORMATION
#----------   ------------   ------------------------------
 STRT.F           19.5000:   START DEPTH
 STOP.F          635.0000:   STOP DEPTH
 STEP.F            0.5000:   STEP LENGTH
 NULL.          -999.2500:   NO VALUE
 COMP. FENIX & SCISSON INC:   COMPANY
 WELL. NPR-3 68-S-34 #3-34:   WELL
 FLD .  TEAPOT DOME NPR-3:   FIELD
 LOC .      S34 T39N R78W:   LOCATION
 CNTY.            NATRONA:   COUNTY
 STAT.            WYOMING:   STATE
 CTRY. UNITED STATES OF AMERICA:   COUNTRY
 SRVC.           BIRDWELL:   SERVICE COMPANY
 DATE.        01-AUG-1978:   LOGDATE
 API .       490251070600:   API NUMBER
~CURVE INFORMATION
#MNEM.UNIT       API CODE    CURVE DESCRIPTION
#----------   ------------   ------------------------------
 DEPT.F                  :   
 SPR .MV     05 010 01 00:   SPONTANEOUS POTENTIAL
 SN  .OHMM   05 040 16 00:   SHORT NORMAL 16'
 ILD .OHMM   05 120 46 00:   INDUCTION LOG DEEP RESISTIVITY
 GRD .GAPI   45 310 01 00:   GAMMA RAY FROM DENSITY LOG
 CALD.IN     45 280 60 00:   CALIPER
 RHOB.G/C3   45 350 01 00:   BULK DENSITY
 DPHI.DEC    45 890 12 00:   DENSITY POROSITY SANDSTONE
 CORR.G/C3   45 356 01 00:   DENSITY CORRECTION
~PARAMETER INFORMATION
#MNEM.UNIT          VALUE    DESCRIPTION
#----------   ------------   ------------------------------
 PD  .                 GL:   PERMANENT DATUM
 EPD .F              5100:   ELEVATION PERMANENT DATUM
 LMF .                 KB:   LOG MEASURED FROM
 DAPD.F                 4:   FEET ABOVE PERMANENT DATUM
 DMF .                 KB:   DRILLING MEASURED FROM
 EKB .F              5104:   KELLING BUSHING
 EGL .F              5100:   GROUND LEVEL
 DATE.           9-1-1978:   RUN DATE
 RUN .                  1:   RUN NUMBER
 DD  .F               635:   DEPTH DRILLER
 DL  .F               635:   DEPTH LOGGER
 BLI .F               629:   BOTTOM LOG INTERVAL
 TLI .F                40:   TOP LOG INTERVAL
 CS  .IN            8.625:   CASING SIZE
 CBD .F                40:   CASING BOTTOM DRILLER
 CBL .F                40:   CASING BOTTOM LOGGER
 BS  .IN            7.875:   BIT SIZE
 BSD .F               635:   BIT SIZE AT DEPTH
 DFT .                KCL:   DRILLING FLUID TYPE
 DFD .                8.6:   DRILLING FLUID DENSITY
 DFV .                 32:   DRILLING FLUID VISCOSITY
 DFPH.                  9:   DRILLING FLUID PH
 DFL .                  7:   DRILLING FLUID LOSS
 MSS .          FLOW LINE:   MUD SAMPLE SOURCE
 RMS .OHMM             .4:   RESISTIVITY MUD SAMPLE
 MST .F                76:   MUD SAMPLE TEMPERATURE
 RMF .OHMM             .3:   RESISTIVITY MUD FILTRATE SAMPLE
 MFST.F                80:   MUD FILTRATE SAMPLE TEMPERATURE
 RMC .OHMM             .4:   RESISTIVITY MUD CAKE
 MCST.F                80:   MUD CAKE SAMPLE TEMPERATURE
 MFSS.               MEAS:   MUD FILTRATE SAMPLE SOURCE
 MCSS.               MEAS:   MUD CAKE SAMPLE SOURCE
 RMB .OHMM            .43:   RESISTIVITY MUD AT BHT
 BHT .F                70:   BOTTOM HOLE TEMPERATURE
 TCS .HRS               3:   TIME CURCULATED STOPPED
 MRT .F                70:   MAXIMUM RECORDED TEMPERATURE
 LUN .               2958:   LOGGING UNIT NUMBER
 LUL .               CASP:   LOGGING UNIT LOCATION
 ENGI.            POINTER:   RECORDING ENGINEER
 WITN.           MCGINLEY:   WITNESSED BY
 CLNT.            A2DTECH:   CLIENT CODE
 ORIG.           5" PRINT:   ORIGIN OF DATA
 UWI .       490251070600:   UNIQUE WELL ID
 DICO. A2D Technologies, Inc.:   DIGITIZING COMPANY
~OTHER INFORMATION
~A   DEPT      SPR         SN        ILD         GRD      CALD       RHOB       DPHI       CORR   
   19.5000  -999.2500  -999.2500  -999.2500    57.7000  -999.2500  -999.2500  -999.2500  -999.2500
   20.0000  -999.2500  -999.2500  -999.2500    59.1337  -999.2500  -999.2500  -999.2500  -999.2500
   20.5000  -999.2500  -999.2500  -999.2500    60.5402  -999.2500  -999.2500  -999.2500  -999.2500
   21.0000  -999.2500  -999.2500  -999.2500    61.6660  -999.2500  -999.2500  -999.2500  -999.2500
   21.5000  -999.2500  -999.2500  -999.2500    63.0806  -999.2500  -999.2500  -999.2500  -999.2500
   22.0000  -999.2500  -999.2500  -999.2500    64.4762  -999.2500  -999.2500  -999.2500  -999.2500
   22.5000  -999.2500  -999.2500  -999.2500    65.0065  -999.2500  -999.2500  -999.2500  -999.2500
   23.0000  -999.2500  -999.2500  -999.2500    64.4072  -999.2500  -999.2500  -999.2500  -999.2500
   23.5000  -999.2500  -999.2500  -999.2500    64.5165  -999.2500  -999.2500  -999.2500  -999.2500
   24.0000  -999.2500  -999.2500  -999.2500    66.3370  -999.2500  -999.2500  -999.2500  -999.2500
   24.5000  -999.2500  -999.2500  -999.2500    68.1401  -999.2500  -999.2500  -999.2500  -999.2500
   25.0000  -999.2500  -999.2500  -999.2500    68.1216  -999.2500  -999.2500  -999.2500  -999.2500
   25.5000  -999.2500  -999.2500  -999.2500    67.4773  -999.2500  -999.2500  -999.2500  -999.2500
   26.0000  -999.2500  -999.2500  -999.2500    66.9512  -999.2500  -999.2500  -999.2500  -999.2500
   26.5000  -999.2500  -999.2500  -999.2500    61.0526  -999.2500  -999.2500  -999.2500  -999.2500
   27.0000  -999.2500  -999.2500  -999.2500    53.8348  -999.2500  -999.2500  -999.2500  -999.2500
   27.5000  -999.2500  -999.2500  -999.2500    57.3651  -999.2500  -999.2500  -999.2500  -999.2500
   28.0000  -999.2500  -999.2500  -999.2500    62.1723  -999.2500  -999.2500  -999.2500  -999.2500
   28.5000  -999.2500  -999.2500  -999.2500    66.9699  -999.2500  -999.2500  -999.2500  -999.2500
   29.0000  -999.2500  -999.2500  -999.2500    71.8084  -999.2500  -999.2500  -999.2500  -999.2500
   29.5000  -999.2500  -999.2500  -999.2500    73.2586  -999.2500  -999.2500  -999.2500  -999.2500
   30.0000  -999.2500  -999.2500  -999.2500    70.5569  -999.2500  -999.2500  -999.2500  -999.2500
   30.5000  -999.2500  -999.2500  -999.2500    65.9407  -999.2500  -999.2500  -999.2500  -999.2500
   31.0000  -999.2500  -999.2500  -999.2500    61.3266  -999.2500  -999.2500  -999.2500  -999.2500
   31.5000  -999.2500  -999.2500  -999.2500    56.9437  -999.2500  -999.2500  -999.2500  -999.2500
   32.0000  -999.2500  -999.2500  -999.2500    56.3577  -999.2500  -999.2500  -999.2500  -999.2500
   32.5000  -999.2500  -999.2500  -999.2500    61.2830  -999.2500  -999.2500  -999.2500  -999.2500
   33.0000  -999.2500  -999.2500  -999.2500    65.0326  -999.2500  -999.2500  -999.2500  -999.2500
   33.5000  -999.2500  -999.2500  -999.2500    61.6440  -999.2500  -999.2500  -999.2500  -999.2500
   34.0000  -999.2500  -999.2500  -999.2500    57.3447  -999.2500  -999.2500  -999.2500  -999.2500
   34.5000  -999.2500  -999.2500  -999.2500    59.3030  -999.2500  -999.2500  -999.2500  -999.2500
   35.0000  -999.2500  -999.2500  -999.2500    61.0942  -999.2500  -999.2500  -999.2500  -999.2500
   35.5000  -999.2500  -999.2500  -999.2500    61.1007  -999.2500  -999.2500  -999.2500  -999.2500
   36.0000  -999.2500  -999.2500  -999.2500    61.2226  -999.2500  -999.2500  -999.2500  -999.2500
   36.5000  -999.2500  -999.2500  -999.2500    62.6939  -999.2500  -999.2500  -999.2500  -999.2500
   37.0000  -999.2500  -999.2500  -999.2500    64.5360  -999.2500  -999.2500  -999.2500  -999.2500
   37.5000  -999.2500  -999.2500  -999.2500    66.3756  -999.2500  -999.2500  -999.2500  -999.2500
   38.0000  -999.2500  -999.2500  -999.2500    68.1746  -999.2500  -999.2500  -999.2500  -999.2500
   38.5000  -999.2500  -999.2500  -999.2500    70.7425  -999.2500  -999.2500  -999.2500  -999.2500
   39.0000  -999.2500  -999.2500  -999.2500    75.2044  -999.2500  -999.2500  -999.2500  -999.2500
   39.5000  -999.2500  -999.2500  -999.2500    85.5430     7.8500  -999.2500  -999.2500     0.0155
   40.0000   -17.8643     8.7689  -999.2500    97.2477     7.9100  -999.2500  -999.2500     0.0944
   40.5000   -17.4651     3.8896  -999.2500   108.9545     8.9100  -999.2500     0.1739     0.0684
   41.0000   -17.7325     4.3545     2.0000   113.1165     8.1435     2.3754     0.1633     0.0377
   41.5000   -17.6333     4.7661     3.1793   107.3846     7.1681     2.4211     0.1526     0.0323
   42.0000   -17.5201     5.3359     7.7999   101.5269     7.1249     2.4280     0.1502     0.0316
   42.5000   -17.1594     5.9737    15.9916    97.5213     7.1117     2.4321     0.1482     0.0340
   43.0000   -16.5802     6.6881    28.4920   100.8764     7.0978     2.4360     0.1465     0.0364
   43.5000   -16.9972     7.4891     9.4554   100.4570     7.0824     2.4398     0.1400     0.0388
   44.0000   -17.9550     8.3802    10.0588    99.5087     7.0505     2.4505     0.1321     0.0372
   44.5000   -18.6953     8.9340    10.5570    94.2869     6.9669     2.4642     0.1320     0.0340
   45.0000   -14.8982     9.0515    10.1777    85.7867     6.9269     2.4659     0.1361     0.0308
   45.5000   -16.0952     9.0865     9.5496    83.8599     6.9193     2.4618     0.1403     0.0276
   46.0000   -23.3728     9.1141     8.8530    81.4189     6.9124     2.4465     0.1572     0.0244
   46.5000   -17.0536     8.6674     8.2097    80.8819     6.9056     2.4235     0.1797     0.0211
   47.0000   -18.2732     8.2565     7.6115    89.5429     6.8988     2.3908     0.2022     0.0174
   47.5000   -18.8830     7.7911     6.6220    92.9679     6.8928     2.3584     0.2246     0.0139
   48.0000   -19.9254     7.3519     5.8090    94.0095     6.8266     2.3098     0.2522     0.0214
   48.5000   -20.4340     6.9374     5.8090   101.1341     6.8101     2.2630     0.2421     0.0301
   49.0000   -19.5826     6.7294     5.8067   108.7755     6.8100     2.2793     0.2251     0.0385
   49.5000   -18.7883     6.8007     5.9705   109.9168     6.8094     2.3060     0.2082     0.0297
   50.0000   -18.0015     6.8542     6.1217   106.5058     6.7916     2.3326     0.1913     0.0182
   50.5000   -17.2127     7.3367     5.9714   102.9781     6.7398     2.3591     0.1774     0.0180
   51.0000   -16.7556     8.0727     6.1686    99.4179     6.6844     2.3857     0.1695     0.0213
   51.5000   -16.5413     8.8825     6.5745    97.3610     6.6496     2.3959     0.1713     0.0215
   52.0000   -16.3358     9.3820     8.0948    97.2512     6.6498     2.3966     0.1723     0.0215
   52.5000   -16.0413     9.6791    10.0032    97.6212     6.6482     2.3969     0.1723     0.0232
   53.0000   -15.7122     9.9856    10.4893    98.6001     6.7010     2.3965     0.1724     0.0248
   53.5000   -15.3796    10.3017    10.9657    99.6696     6.7925     2.3954     0.1731     0.0252
   54.0000   -15.0470    10.6097    11.2825    99.9660     6.9619     2.3944     0.1784     0.0245
   54.5000   -14.7196    10.8574    11.3909   100.0509     7.2103     2.3883     0.1837     0.0238
   55.0000   -14.4707    11.1109    11.4998    99.9389     7.4039     2.3704     0.1905     0.0238
   55.5000   -14.2399    11.3702    11.7556    99.5559     7.5199     2.3696     0.1988     0.0243
   56.0000   -14.0112    11.6356    12.3319    99.1755     7.5506     2.3583     0.2071     0.0249
   56.5000   -13.8906    11.9073    12.9362   100.1078     7.5387     2.3441     0.2036     0.0255
   57.0000   -13.9427    12.0081    13.5696    98.9201     7.5169     2.3429     0.1865     0.0326
   57.5000   -13.9935    12.0081    14.2339    95.9678     7.4952     2.3541     0.1727     0.0586
   58.0000   -14.0338    12.0081    14.9361    92.1559     7.4752     2.3839     0.1738     0.0845
   58.5000   -13.6198    12.0078    15.3971    91.2623     7.3992     2.3946     0.1792     0.0871
   59.0000   -12.3289    12.0083    15.3890    91.5673     7.3154     2.3875     0.1846     0.0818
   59.5000   -11.8590    12.0664    15.3907    90.4328     7.2314     2.3803     0.1858     0.0762
