~VERSION INFORMATION
 VERS.                2.0:   CWLS LOG ASCII STANDARD - VERSION 2.0
 WRAP.                 NO:   ONE LINE PER DEPTH STEP
~WELL INFORMATION
#MNEM.UNIT      DATA TYPE    INFORMATION
#----------   ------------   ------------------------------
 STRT.F           30.0000:   START DEPTH
 STOP.F         2441.0000:   STOP DEPTH
 STEP.F            0.5000:   STEP LENGTH
 NULL.          -999.2500:   NO VALUE
 COMP. FENIX & SCISSON INC:   COMPANY
 WELL.      NPR 3 #81 S-4:   WELL
 FLD .             TEAPOT:   FIELD
 LOC .       S4 T38N R78W:   LOCATION
 CNTY.            NATRONA:   COUNTY
 STAT.            WYOMING:   STATE
 CTRY. UNITED STATES OF AMERICA:   COUNTRY
 SRVC.            Unknown:   SERVICE COMPANY
 DATE.        28-MAR-1978:   LOGDATE
 API .       490251060700:   API NUMBER
~CURVE INFORMATION
#MNEM.UNIT       API CODE    CURVE DESCRIPTION
#----------   ------------   ------------------------------
 DEPT.F                  :   
 CALD.IN     45 280 60 00:   CALIPER
 RHOB.G/C3   45 350 01 00:   BULK DENSITY
 DPHI.DEC    45 890 12 00:   DENSITY POROSITY SANDSTONE
 CORR.G/C3   45 356 01 00:   DENSITY CORRECTION
 GRD .GAPI   45 310 01 00:   GAMMA RAY FROM DENSITY LOG
~PARAMETER INFORMATION
#MNEM.UNIT          VALUE    DESCRIPTION
#----------   ------------   ------------------------------
 PD  .                 GL:   PERMANENT DATUM
 EPD .F              5169:   ELEVATION PERMANENT DATUM
 LMF .                 KB:   LOG MEASURED FROM
 DAPD.F                10:   FEET ABOVE PERMANENT DATUM
 DMF .                 KB:   DRILLING MEASURED FROM
 EKB .F              5179:   KELLING BUSHING
 EGL .F              5169:   GROUND LEVEL
 DATE.          3-28-1978:   RUN DATE
 RUN .                  1:   RUN NUMBER
 DD  .F              2454:   DEPTH DRILLER
 DL  .F              2443:   DEPTH LOGGER
 BLI .F              2441:   BOTTOM LOG INTERVAL
 TLI .F                40:   TOP LOG INTERVAL
 CS  .IN            9.625:   CASING SIZE
 CBD .F               660:   CASING BOTTOM DRILLER
 CBL .F               660:   CASING BOTTOM LOGGER
 BS  .IN             8.75:   BIT SIZE
 BSD .F              2454:   BIT SIZE AT DEPTH
 DFT .           AIR MIST:   DRILLING FLUID TYPE
 TCS .HRS               2:   TIME CURCULATED STOPPED
 LUN .               2958:   LOGGING UNIT NUMBER
 LUL .               CASP:   LOGGING UNIT LOCATION
 ENGI.             MILLER:   RECORDING ENGINEER
 CLNT.            A2DTECH:   CLIENT CODE
 ORIG.       2"  5" PRINT:   ORIGIN OF DATA
 UWI .       490251060700:   UNIQUE WELL ID
 DICO. A2D Technologies, Inc.:   DIGITIZING COMPANY
~OTHER INFORMATION
~A   DEPT     CALD       RHOB       DPHI       CORR        GRD   
# ...
 2043.0000     9.4394     2.4612     0.1193     0.0029   183.4893
 2043.5000     9.4414     2.4555     0.1194     0.0003   184.2081
 2044.0000     9.4437     2.4634     0.1168     0.0023   187.4890
 2044.5000     9.4460     2.4771     0.1142     0.0043   184.9273
 2045.0000     9.4483     2.4794     0.1140     0.0057   183.7256
 2045.5000     9.4506     2.4670     0.1153     0.0012   190.3773
 2046.0000     9.4528     2.4638     0.1166    -0.0020   194.7803
 2046.5000     9.4551     2.4655     0.1161    -0.0010   194.6275
 2047.0000     9.4574     2.4673     0.1154     0.0000   194.4273
 2047.5000     9.4595     2.4632     0.1203     0.0010   196.5420
 2048.0000     9.4606     2.4576     0.1210     0.0019   202.0330
 2048.5000     9.4617     2.4566     0.1192     0.0000   208.4934
 2049.0000     9.4628     2.4636     0.1174    -0.0021   205.7027
 2049.5000     9.4639     2.4704     0.1158    -0.0041   200.0018
 2050.0000     9.4650     2.4684     0.1170    -0.0062   194.3927
 2050.5000     9.4661     2.4599     0.1190    -0.0080   189.2165
 2051.0000     9.4672     2.4634     0.1161    -0.0046   185.3701
 2051.5000     9.4683     2.4691     0.1120     0.0005   184.4104
 2052.0000     9.4694     2.4816     0.1017     0.0079   187.1179
 2052.5000     9.4705     2.4962     0.0922     0.0153   189.8694
 2053.0000     9.4716     2.4960     0.0993     0.0202   190.8553
 2053.5000     9.4727     2.4720     0.1054     0.0140   191.0032
 2054.0000     9.4739     2.4539     0.1137     0.0064   191.1643
 2054.5000     9.4750     2.4610     0.1088     0.0018   191.8207
 2055.0000     9.4761     2.4734     0.1042     0.0034   193.2903
 2055.5000     9.4772     2.4509     0.1100     0.0026   194.3929
 2056.0000     9.4783     2.4469     0.1140     0.0026   194.1049
 2056.5000     9.4791     2.4631     0.1129     0.0056   194.1202
 2057.0000     9.4791     2.4722     0.1111     0.0086   196.7718
 2057.5000     9.4791     2.4747     0.1116     0.0098   197.5619
 2058.0000     9.4791     2.4676     0.1164     0.0088   193.1042
 2058.5000     9.4791     2.4601     0.1190     0.0077   193.5442
 2059.0000     9.4791     2.4602     0.1180     0.0066   194.2686
 2059.5000     9.4791     2.4628     0.1161     0.0055   193.0237
 2060.0000     9.4791     2.4794     0.1145     0.0044   191.3040
 2060.5000     9.4791     2.4703     0.1166     0.0033   190.7600
 2061.0000     9.4791     2.4615     0.1221     0.0022   193.6671
 2061.5000     9.4791     2.4805     0.1172     0.0034   195.1816
 2062.0000     9.4791     2.4850     0.1126     0.0051   193.8519
 2062.5000     9.4791     2.4708     0.1128     0.0067   192.2349
 2063.0000     9.4791     2.4767     0.1144     0.0074   192.1732
 2063.5000     9.4791     2.4665     0.1174     0.0046   192.4229
 2064.0000     9.4791     2.4549     0.1227    -0.0062   191.3336
 2064.5000     9.4791     2.4454     0.1277    -0.0119   190.0814
 2065.0000     9.4791     2.4466     0.1238    -0.0111   191.8953
 2065.5000     9.4791     2.4543     0.1216    -0.0082   195.5846
 2066.0000     9.4791     2.4596     0.1190    -0.0053   199.9594
 2066.5000     9.4791     2.4546     0.1198    -0.0060   208.1823
 2067.0000     9.4791     2.4552     0.1198    -0.0047   209.8202
 2067.5000     9.4791     2.4581     0.1194    -0.0047   209.1151
 2068.0000     9.4791     2.4490     0.1286    -0.0068   208.7923
 2068.5000     9.4791     2.4399     0.1341    -0.0061   213.1476
 2069.0000     9.4791     2.4493     0.1242    -0.0015   215.8227
 2069.5000     9.4791     2.4543     0.1209     0.0030   215.4252
 2070.0000     9.4791     2.4577     0.1198     0.0075   217.5939
 2070.5000     9.4791     2.4588     0.1249     0.0086   220.8109
 2071.0000     9.4791     2.4409     0.1295     0.0024   222.6833
 2071.5000     9.4791     2.4336     0.1337    -0.0036   213.6543
 2072.0000     9.4791     2.4295     0.1362    -0.0097   206.6094
 2072.5000     9.4791     2.4302     0.1373    -0.0090   206.4064
 2073.0000     9.4823     2.4424     0.1296    -0.0055   207.9827
 2073.5000     9.4858     2.4551     0.1213    -0.0022   208.6956
 2074.0000     9.4892     2.4559     0.1198    -0.0030   208.1065
 2074.5000     9.4927     2.4522     0.1257    -0.0042   200.2784
 2075.0000     9.4962     2.4485     0.1249    -0.0053   196.4819
 2075.5000     9.4996     2.4386     0.1313    -0.0041   194.4716
 2076.0000     9.5031     2.4369     0.1313     0.0006   192.2440
 2076.5000     9.5066     2.4544     0.1232     0.0053   186.8417
 2077.0000     9.5100     2.4517     0.1195     0.0039   185.3891
 2077.5000     9.5135     2.4486     0.1213     0.0007   184.4106
 2078.0000     9.5171     2.4285     0.1426    -0.0025   184.2129
 2078.5000     9.5263     2.4159     0.1348    -0.0057   182.7334
 2079.0000     9.5418     2.4434     0.1270    -0.0043   175.4331
 2079.5000     9.5573     2.4402     0.1289    -0.0023   170.4796
 2080.0000     9.5727     2.4370     0.1289    -0.0003   165.3429
 2080.5000     9.5880     2.4487     0.1256     0.0016   164.5482
 2081.0000     9.5967     2.4553     0.1240     0.0037   165.0700
 2081.5000     9.5923     2.4499     0.1265     0.0019   165.6200
 2082.0000     9.5881     2.4408     0.1305    -0.0010   165.4245
 2082.5000     9.5839     2.4369     0.1289    -0.0018   163.0359
 2083.0000     9.5798     2.4538     0.1173     0.0078   160.6484
 2083.5000     9.5756     2.4673     0.1042     0.0269   160.3483
 2084.0000     9.5714     2.4777     0.1056     0.0457   161.9996
 2084.5000     9.5672     2.4781     0.1074     0.0560   164.0310
 2085.0000     9.5630     2.4816     0.0982     0.0572   161.3098
 2085.5000     9.5588     2.4975     0.0967     0.0585   156.9406
 2086.0000     9.5546     2.4750     0.1161     0.0601   150.6212
 2086.5000     9.5504     2.4398     0.1321     0.0426   146.7653
 2087.0000     9.5462     2.4202     0.1329     0.0217   143.3861
 2087.5000     9.5420     2.4515     0.1235     0.0204   140.2889
 2088.0000     9.5387     2.4746     0.1130     0.0726   140.5054
 2088.5000     9.5405     2.4979     0.0926     0.1118   141.8179
 2089.0000     9.5422     2.5160     0.0791     0.1588   140.3304
 2089.5000     9.5439     2.5302     0.0710     0.2193   137.3925
 2090.0000     9.5456     2.5396     0.0699     0.2792   136.8917
 2090.5000     9.5473     2.3986     0.1299     0.3124   137.5735
 2091.0000     9.5490     2.2821     0.1860     0.1746   141.0689
 2091.5000     9.5507     2.2655     0.1868    -0.0126   144.4607
 2092.0000     9.5525     2.3900     0.1496     0.0033   147.8508
 2092.5000     9.5541     2.4247     0.1397     0.0147   145.4156
 2093.0000     9.5559     2.4226     0.1411     0.0135   142.5012
 2093.5000     9.5576     2.4197     0.1421     0.0120   144.8570
 2094.0000     9.5584     2.4214     0.1404     0.0103   149.6055
 2094.5000     9.5548     2.4271     0.1371     0.0104   154.3473
 2095.0000     9.5501     2.4327     0.1343     0.0109   158.4138
 2095.5000     9.5453     2.4383     0.1324     0.0115   153.9858
 2096.0000     9.5403     2.4387     0.1309     0.0119   148.7966
 2096.5000     9.5508     2.4335     0.1357     0.0079   143.6468
 2097.0000     9.5563     2.4326     0.1363     0.0037   139.3756
 2097.5000     9.5533     2.4329     0.1353    -0.0004   136.0212
 2098.0000     9.5502     2.4226     0.1437    -0.0045   136.0896
 2098.5000     9.5470     2.4170     0.1469    -0.0040   136.1231
 2099.0000     9.5439     2.4445     0.1214     0.0004   134.5134
 2099.5000     9.5407     2.4569     0.1161     0.0049   132.2155
 2100.0000     9.5376     2.4696     0.1111     0.0083   131.0131
 2100.5000     9.5344     2.4720     0.1116     0.0094   136.3641
 2101.0000     9.5313     2.4686     0.1135     0.0106   144.0026
 2101.5000     9.5281     2.4688     0.1118     0.0118   151.8113
 2102.0000     9.5250     2.4582     0.1175     0.0090   157.2945
 2102.5000     9.5217     2.4449     0.1285     0.0051   159.7728
 2103.0000     9.5190     2.4415     0.1261     0.0021   155.9860
 2103.5000     9.5263     2.4397     0.1267     0.0029   152.0348
