~VERSION INFORMATION
 VERS.                2.0:   CWLS LOG ASCII STANDARD - VERSION 2.0
 WRAP.                 NO:   ONE LINE PER DEPTH STEP
~WELL INFORMATION
#MNEM.UNIT      DATA TYPE    INFORMATION
#----------   ------------   ------------------------------
 STRT.F         1160.0000:   START DEPTH
 STOP.F         2086.0000:   STOP DEPTH
 STEP.F            0.5000:   STEP LENGTH
 NULL.          -999.2500:   NO VALUE
 COMP. LAWRENCE/ALLISON INC:   COMPANY
 WELL.      17 STX #27-27:   WELL
 FLD .             TEAPOT:   FIELD
 LOC .      S27 T39N R78W:   LOCATION
 CNTY.            NATRONA:   COUNTY
 STAT.            WYOMING:   STATE
 CTRY. UNITED STATES OF AMERICA:   COUNTRY
 SRVC.            Unknown:   SERVICE COMPANY
 DATE.        09-JUN-1991:   LOGDATE
 API .       490251118200:   API NUMBER
~CURVE INFORMATION
#MNEM.UNIT       API CODE    CURVE DESCRIPTION
#----------   ------------   ------------------------------
 DEPT.F                  :   
 ROP .MIN/FT 91 810 01 00:   RAT OF DRILLING PENETRATION
 TGAS.UNITS  91 830 01 00:   TOTAL GAS UNIT
~PARAMETER INFORMATION
#MNEM.UNIT          VALUE    DESCRIPTION
#----------   ------------   ------------------------------
 EKB .F              5078:   KELLING BUSHING
 EGL .F              5068:   GROUND LEVEL
 DATE.         9-JUN-1991:   RUN DATE
 RUN .                  1:   RUN NUMBER
 BLI .F              2120:   BOTTOM LOG INTERVAL
 TLI .F              1160:   TOP LOG INTERVAL
 CLNT.            A2DTECH:   CLIENT CODE
 ORIG.           5" PRINT:   ORIGIN OF DATA
 UWI .       490251118200:   UNIQUE WELL ID
 DICO. A2D Technologies, Inc.:   DIGITIZING COMPANY
~OTHER INFORMATION
~A  DEPT         ROP      TGAS  
# ...
 1403.0000     0.8302     3.2614
 1403.5000     0.8585     3.2824
 1404.0000     0.8679     3.3034
 1404.5000     0.8679     3.3244
 1405.0000     0.8774     3.3453
 1405.5000     0.8774     3.3663
 1406.0000     0.8679     3.3873
 1406.5000     0.8679     3.4083
 1407.0000     0.8679     3.4293
 1407.5000     0.8679     3.4503
 1408.0000     0.8669     3.4713
 1408.5000     0.8382     3.4922
 1409.0000     0.7925     3.5132
 1409.5000     0.7547     3.5342
 1410.0000     0.7170     3.5552
 1410.5000     0.6792     3.5762
 1411.0000     0.6698     3.5972
 1411.5000     0.6509     3.6182
 1412.0000     0.6415     3.6391
 1412.5000     0.6132     3.6601
 1413.0000     0.6038     3.6811
 1413.5000     0.6038     3.7021
 1414.0000     0.6038     3.7231
 1414.5000     0.6038     3.7441
 1415.0000     0.6321     3.7651
 1415.5000     0.6509     3.7860
 1416.0000     0.6792     3.8070
 1416.5000     0.6981     3.8280
 1417.0000     0.7170     3.8490
 1417.5000     0.7265     3.8700
 1418.0000     0.7358     3.8910
 1418.5000     0.7464     3.9119
 1419.0000     0.7547     3.9329
 1419.5000     0.7547     3.9539
 1420.0000     0.7642     3.9715
 1420.5000     0.7642     3.9632
 1421.0000     0.7736     3.9562
 1421.5000     0.7830     3.9491
 1422.0000     0.7736     3.9420
 1422.5000     0.7264     3.9349
 1423.0000     0.6792     3.9279
 1423.5000     0.6415     3.9208
 1424.0000     0.6038     3.9137
 1424.5000     0.5755     3.9067
 1425.0000     0.5755     3.8996
 1425.5000     0.5943     3.8925
 1426.0000     0.6132     3.8855
 1426.5000     0.6321     3.8784
 1427.0000     0.6415     3.8713
 1427.5000     0.6509     3.8643
 1428.0000     0.6509     3.8572
 1428.5000     0.6698     3.8501
 1429.0000     0.6792     3.8431
 1429.5000     0.6887     3.8360
 1430.0000     0.6792     3.8289
 1430.5000     0.6509     3.8218
 1431.0000     0.6226     3.8148
 1431.5000     0.6038     3.8077
 1432.0000     0.5660     3.8006
 1432.5000     0.5377     3.7936
 1433.0000     0.5283     3.7865
 1433.5000     0.5000     3.7794
 1434.0000     0.4906     3.7724
 1434.5000     0.4811     3.7653
 1435.0000     0.4623     3.7582
 1435.5000     0.4528     3.7512
 1436.0000     0.4528     3.7441
 1436.5000     0.4340     3.7370
 1437.0000     0.4245     3.7299
 1437.5000     0.4245     3.7229
 1438.0000     0.4340     3.7158
 1438.5000     0.4439     3.7087
 1439.0000     0.4528     3.7238
 1439.5000     0.4623     3.7448
 1440.0000     0.4717     3.7657
 1440.5000     0.4811     3.7866
 1441.0000     0.4906     3.8075
 1441.5000     0.5000     3.8285
 1442.0000     0.5283     3.8494
 1442.5000     0.5660     3.8703
 1443.0000     0.6038     3.8912
 1443.5000     0.6415     3.9121
 1444.0000     0.6509     3.9331
 1444.5000     0.6604     3.9540
 1445.0000     0.6604     3.9749
 1445.5000     0.6509     3.9958
 1446.0000     0.6509     4.0167
 1446.5000     0.6415     4.0406
 1447.0000     0.6132     4.0612
 1447.5000     0.5943     1.9847
 1448.0000     0.5660     1.6423
 1448.5000     0.5470     0.9833
 1449.0000     0.5283     1.0042
 1449.5000     0.5083     1.0251
 1450.0000     0.4906     1.1607
 1450.5000     0.4906     1.3285
 1451.0000     0.4906     1.4964
 1451.5000     0.4906     1.6643
 1452.0000     0.4906     1.8322
 1452.5000     0.4906     2.0000
 1453.0000     0.4906     2.1679
 1453.5000     0.4906     2.3358
 1454.0000     0.5000     2.5036
 1454.5000     0.5000     2.6715
 1455.0000     0.4906     2.8394
 1455.5000     0.4906     3.0072
 1456.0000     0.5000     3.1751
 1456.5000     0.5000     3.3430
 1457.0000     0.5000     3.5108
 1457.5000     0.5000     3.6787
 1458.0000     0.5000     3.8466
 1458.5000     0.4906     4.0144
 1459.0000     0.4906     4.1823
 1459.5000     0.4906     4.3502
 1460.0000     0.4906     4.5180
 1460.5000     0.4889     4.6248
 1461.0000     0.4528     4.6444
 1461.5000     0.4057     4.6653
 1462.0000     0.4245     4.6862
 1462.5000     0.5283     4.7071
 1463.0000     0.6132     4.7280
 1463.5000     0.6887     4.7490
 1464.0000     0.7547     4.7699
 1464.5000     0.8302     4.7908
 1465.0000     0.8679     4.8117
 1465.5000     0.9057     4.8326
 1466.0000     0.9340     4.8536
 1466.5000     0.9528     4.8745
 1467.0000     0.9811     4.8954
 1467.5000     1.0377     9.1028
 1468.0000     1.0943     9.1234
 1468.5000     1.3679    11.2361
 1469.0000     1.5285    12.3027
 1469.5000     1.7587    13.3694
 1470.0000     1.9906    16.5281
 1470.5000     1.7558    19.6868
 1471.0000     1.3962    30.1676
 1471.5000     0.9811    48.0360
 1472.0000     0.7453    83.9732
 1472.5000     0.7075   103.9744
 1473.0000     0.7264   118.5007
 1473.5000     0.8019   129.6483
 1474.0000     0.8585   138.0371
 1474.5000     0.9057   143.2878
 1475.0000     0.9057   148.5386
 1475.5000     0.9057   152.7433
 1476.0000     0.9057   155.9020
 1476.5000     0.9057   159.0607
 1477.0000     0.9057   161.1734
 1477.5000     0.9057   164.3321
 1478.0000     0.8868   165.3987
 1478.5000     0.8302   166.4653
 1479.0000     0.7264   167.5320
 1479.5000     0.6317   168.5986
 1480.0000     0.5843   168.6192
 1480.5000     0.5755   168.6402
 1481.0000     0.5755   168.6611
 1481.5000     0.5755   168.6820
 1482.0000     0.5755   168.7029
 1482.5000     0.5755   168.7238
 1483.0000     0.5849   168.7448
 1483.5000     0.5755   168.7657
 1484.0000     0.5849   168.7866
 1484.5000     0.5755   168.8075
 1485.0000     0.5472   168.8285
 1485.5000     0.5000   168.8494
 1486.0000     0.4906   168.8703
 1486.5000     0.4906   168.8912
 1487.0000     0.4811   168.9121
 1487.5000     0.4811   168.9331
 1488.0000     0.4811   168.9540
 1488.5000     0.5189   169.0034
 1489.0000     0.5566   169.0678
 1489.5000     0.5849   169.1321
 1490.0000     0.6038   169.1965
 1490.5000     0.6132   169.2609
 1491.0000     0.6226   169.3253
 1491.5000     0.6132   169.3897
 1492.0000     0.6038   169.4541
 1492.5000     0.6038   169.5185
 1493.0000     0.5943   169.5829
 1493.5000     0.5755   169.6472
 1494.0000     0.6132   169.7116
 1494.5000     0.6792   169.7760
 1495.0000     0.7264   169.8404
 1495.5000     0.7925   169.9048
 1496.0000     0.8302   169.9692
 1496.5000     0.8679   170.0336
 1497.0000     0.8962   170.0979
 1497.5000     0.9057   170.1623
 1498.0000     0.9151   170.2267
 1498.5000     0.9151   170.2911
 1499.0000     0.9434   170.3555
 1499.5000     0.9434   170.4199
 1500.0000     0.9528   170.4843
 1500.5000     0.9661   170.4440
 1501.0000     0.9794   170.3309
 1501.5000     0.9912   170.2177
 1502.0000     0.9630   170.1046
 1502.5000     0.9066   169.9915
 1503.0000     0.8313   169.8783
 1503.5000     0.7844   169.7652
 1504.0000     0.7279   169.6521
 1504.5000     0.6998   169.5389
 1505.0000     0.6905   169.4258
 1505.5000     0.6908   169.3127
 1506.0000     0.7193   169.1995
 1506.5000     0.7477   169.0864
 1507.0000     0.7574   168.9733
 1507.5000     0.7673   168.8601
 1508.0000     0.7860   168.7470
 1508.5000     0.7957   168.6894
 1509.0000     0.7848   168.7429
 1509.5000     0.7772   168.7964
 1510.0000     0.7585   168.8499
 1510.5000     0.7210   168.9034
 1511.0000     0.6834   168.9568
 1511.5000     0.6459   169.0103
 1512.0000     0.6366   169.0638
 1512.5000     0.6462   169.1173
 1513.0000     0.6464   169.1708
 1513.5000     0.6466   169.2243
 1514.0000     0.6562   169.2778
 1514.5000     0.6942   169.3313
 1515.0000     0.7321   169.3848
 1515.5000     0.7417   169.4383
 1516.0000     0.7230   169.4918
 1516.5000     0.7043   169.5453
 1517.0000     0.6857   169.5988
 1517.5000     0.6481   169.6523
 1518.0000     0.6200   169.7058
 1518.5000     0.6202   169.7593
 1519.0000     0.6204   169.8128
 1519.5000     0.6111   169.8663
 1520.0000     0.6114   169.9198
 1520.5000     0.6115   169.9733
 1521.0000     0.6117   170.0268
 1521.5000     0.6119   170.0803
 1522.0000     0.6121   170.1338
 1522.5000     0.6123   170.1621
 1523.0000     0.6219   170.1778
 1523.5000     0.6221   170.1935
 1524.0000     0.6412   170.2092
