~VERSION INFORMATION
 VERS.                2.0:   CWLS LOG ASCII STANDARD - VERSION 2.0
 WRAP.                 NO:   ONE LINE PER DEPTH STEP
~WELL INFORMATION
#MNEM.UNIT      DATA TYPE    INFORMATION
#----------   ------------   ------------------------------
 STRT.F           46.0000:   START DEPTH
 STOP.F          522.0000:   STOP DEPTH
 STEP.F            0.5000:   STEP LENGTH
 NULL.          -999.2500:   NO VALUE
 COMP.       F D SERV INC:   COMPANY
 WELL.  82-4 SX 10 #82-10:   WELL
 FLD .             TEAPOT:   FIELD
 LOC .      S10 T38N R78W:   LOCATION
 CNTY.            NATRONA:   COUNTY
 STAT.            WYOMING:   STATE
 CTRY. UNITED STATES OF AMERICA:   COUNTRY
 SRVC.     Atlas Wireline:   SERVICE COMPANY
 DATE.        04-FEB-1993:   LOGDATE
 API .       490252257900:   API NUMBER
~CURVE INFORMATION
#MNEM.UNIT       API CODE    CURVE DESCRIPTION
#----------   ------------   ------------------------------
 DEPT.F                  :   
 C13 .IN     45 280 13 00:   CALIPER FROM DENSITY LOG
 GRD .GAPI   45 310 01 00:   GAMMA RAY FROM DENSITY LOG
 PORS.DEC    42 890 03 00:   NEUTRON POROSITY SANDSTONE
 PORZ.DEC    45 890 12 00:   DENSITY POROSITY SANDSTONE
 ZCOR.G/C3   45 356 01 00:   DENSITY CORRECTION
 ZDEN.G/C3   45 350 01 00:   BULK DENSITY
 RILD.OHMM   07 120 46 00:   INDUCTION LOG DEEP RESISTIVITY
 RILM.OHMM   07 120 44 00:   INDUCTION LOG MEDIUM RESISTIVITY
~PARAMETER INFORMATION
#MNEM.UNIT          VALUE    DESCRIPTION
#----------   ------------   ------------------------------
 PD  .                 GL:   PERMANENT DATUM
 EPD .F              5145:   ELEVATION PERMANENT DATUM
 LMF .                 KB:   LOG MEASURED FROM
 DAPD.F                10:   FEET ABOVE PERMANENT DATUM
 DMF .                 KB:   DRILLING MEASURED FROM
 EKB .F              5155:   KELLING BUSHING
 EDF .F              5154:   DRILLING FLOOR
 EGL .F              5145:   GROUND LEVEL
 DATE.        04-FEB-1993:   RUN DATE
 RUN .                  1:   RUN NUMBER
 DD  .F               525:   DEPTH DRILLER
 DL  .F               525:   DEPTH LOGGER
 BLI .F               517:   BOTTOM LOG INTERVAL
 TLI .F                81:   TOP LOG INTERVAL
 CS  .IN            8.625:   CASING SIZE
 CBD .F                45:   CASING BOTTOM DRILLER
 CBL .F                81:   CASING BOTTOM LOGGER
 BS  .IN            7.875:   BIT SIZE
 BSD .F               525:   BIT SIZE AT DEPTH
 DFT .                AIR:   DRILLING FLUID TYPE
 MRT .F                58:   MAXIMUM RECORDED TEMPERATURE
 LUN .            HL 6274:   LOGGING UNIT NUMBER
 LUL .             CASPER:   LOGGING UNIT LOCATION
 ENGI.          V. RAUTIO:   RECORDING ENGINEER
 WITN.          G. STRONG:   WITNESSED BY
 CLNT.            A2DTECH:   CLIENT CODE
 ORIG.           5" PRINT:   ORIGIN OF DATA
 UWI .       490252257900:   UNIQUE WELL ID
 DICO. A2D Technologies, Inc.:   DIGITIZING COMPANY
~OTHER INFORMATION
~A   DEPT      C13         GRD      PORS       PORZ       ZCOR       ZDEN       RILD       RILM   
# ...
  208.0000     8.4128   169.8434     0.3405     0.0988     0.0115     2.4844     6.6300     6.5843
  208.5000     8.4120   169.8378     0.3423     0.1000     0.0070     2.4860     6.7232     6.5774
  209.0000     8.4112   170.1321     0.3417     0.1006     0.0070     2.4905     6.5044     6.4876
  209.5000     8.4104   169.5254     0.3402     0.0954     0.0070     2.4980     6.3525     6.3549
  210.0000     8.4096   168.9201     0.3384     0.0901     0.0085     2.5003     6.0550     6.0133
  210.5000     8.4088   170.4137     0.3378     0.0889     0.0056     2.5011     5.7693     5.6508
  211.0000     8.4080   175.2043     0.3384     0.0910     0.0011     2.4936     5.1654     5.3029
  211.5000     8.4072   177.5975     0.3427     0.0976    -0.0019     2.4732     4.8877     4.9902
  212.0000     8.4064   179.3924     0.3549     0.1208     0.0071     2.4218     4.8504     4.8544
  212.5000     8.4066   178.1359     0.3654     0.1436     0.0296     2.3882     4.7881     4.8212
  213.0000     8.4087   171.5823     0.3634     0.1587     0.0461     2.3912     4.7553     4.7226
  213.5000     8.4108   167.6787     0.3597     0.1617     0.0431     2.4049     4.7887     4.7681
  214.0000     8.4130   166.4737     0.3591     0.1521     0.0102     2.4123     4.8223     4.8283
  214.5000     8.4151   165.5671     0.3588     0.1448     0.0087     2.4169     4.9579     4.9579
  215.0000     8.4172   165.8614     0.3546     0.1394     0.0057     2.4289     5.1683     5.1327
  215.5000     8.4193   167.9547     0.3473     0.1328    -0.0003     2.4461     5.5005     5.4249
  216.0000     8.4214   173.9860     0.3446     0.1207     0.0012     2.4726     5.8541     5.6551
  216.5000     8.4235   175.1399     0.3488     0.1066     0.0042     2.4809     6.1909     5.9896
  217.0000     8.4256   174.5332     0.3491     0.1014     0.0088     2.4832     6.6310     6.4948
  217.5000     8.4277   171.5291     0.3449     0.0996     0.0133     2.4892     7.0086     6.8647
  218.0000     8.4298   166.1248     0.3353     0.0990     0.0073     2.4983     7.2556     7.2056
  218.5000     8.4319   164.0203     0.3286     0.0921     0.0013     2.5051     7.5113     7.5122
  219.0000     8.4341   164.3159     0.3238     0.0878    -0.0002     2.5028     7.7225     7.6694
  219.5000     8.4362   167.3523     0.3223     0.0870    -0.0017     2.4998     7.8850     7.7767
  220.0000     8.4383   170.8986     0.3220     0.0903    -0.0001     2.4991     7.9402     7.7772
  220.5000     8.4404   172.3923     0.3226     0.0918     0.0014     2.4984     7.8860     7.8317
  221.0000     8.4425   172.0868     0.3238     0.0912     0.0029     2.4969     7.8322     7.7193
  221.5000     8.4446   170.2807     0.3247     0.0906     0.0074     2.4886     7.6720     7.5665
  222.0000     8.4467   167.5765     0.3265     0.0921     0.0074     2.4871     7.5150     7.5149
  222.5000     8.4488   167.2710     0.3280     0.0951     0.0089     2.4864     7.4636     7.4636
  223.0000     8.4509   167.8651     0.3298     0.0978     0.0059     2.4864     7.3617     7.3617
  223.5000     8.4530   168.7577     0.3310     0.0990     0.0015     2.4856     7.2110     7.1614
  224.0000     8.4551   170.8510     0.3331     0.0981     0.0060     2.4879     7.1125     6.9665
  224.5000     8.4573   173.8439     0.3358     0.0993     0.0106     2.4941     6.9190     6.6839
  225.0000     8.4585   178.6345     0.3358     0.1008     0.0195     2.5000     6.6382     6.4126
  225.5000     8.4588   181.0277     0.3358     0.0962     0.0015     2.4970     6.3689     6.1038
  226.0000     8.4591   178.0236     0.3358     0.0914     0.0045     2.4910     6.0567     5.4329
  226.5000     8.4594   174.7146     0.3382     0.0905     0.0060     2.4805     5.2486     4.9319
  227.0000     8.4597   174.1143     0.3412     0.0965    -0.0014     2.4662     4.8645     4.7318
  227.5000     8.4600   178.6051     0.3448     0.1058    -0.0044     2.4278     4.8986     4.7980
  228.0000     8.4603   180.0988     0.3498     0.1158    -0.0026     2.3849     5.0363     4.9375
  228.5000     8.4606   179.4921     0.3604     0.1311     0.0256     2.3518     5.1423     5.0716
  229.0000     8.4609   174.9887     0.3664     0.1471     0.0511     2.3586     5.2504     5.2142
  229.5000     8.4612   165.9876     0.3628     0.1753     0.0482     2.3849     5.3980     5.3980
  230.0000     8.4615   162.3838     0.3519     0.1808     0.0256     2.4342     5.6270     5.6270
  230.5000     8.4618   162.9779     0.3357     0.1558     0.0137     2.4836     5.9486     6.0722
  231.0000     8.4621   163.8705     0.3297     0.1214     0.0152     2.4881     6.4626     6.5980
  231.5000     8.4624   165.3641     0.3273     0.0989     0.0182     2.4934     7.1199     7.3196
  232.0000     8.4627   169.4963     0.3261     0.0955     0.0197     2.4972     7.4220     7.5253
  232.5000     8.4630   174.3470     0.3278     0.0934     0.0212     2.4980     7.6307     7.5781
  233.0000     8.4633   175.2424     0.3300     0.0925     0.0197     2.4980     7.6884     7.6313
  233.5000     8.4636   174.3358     0.3321     0.0916     0.0197     2.4972     7.7381     7.6847
  234.0000     8.4640   173.1294     0.3327     0.0913     0.0138     2.4958     7.7386     7.7385
  234.5000     8.4643   173.4236     0.3312     0.0940     0.0018     2.4913     7.7391     7.7928
  235.0000     8.4646   174.0177     0.3303     0.0958    -0.0057     2.4875     7.7933     7.7934
  235.5000     8.4649   174.9117     0.3302     0.0976    -0.0117     2.4860     7.8479     7.7939
  236.0000     8.4652   175.5058     0.3302     0.0988    -0.0115     2.4898     7.8485     7.8485
  236.5000     8.4655   175.8000     0.3302     0.0964    -0.0057     2.4943     7.8490     7.8490
  237.0000     8.4658   175.4932     0.3302     0.0928    -0.0011     2.4966     7.7953     7.8495
  237.5000     8.4661   175.4862     0.3314     0.0916     0.0004     2.4989     7.7960     7.7959
  238.0000     8.4663   175.4806     0.3326     0.0952    -0.0026     2.4914     7.7966     7.7965
  238.5000     8.4663   175.1752     0.3329     0.0973    -0.0041     2.4884     7.7971     7.7971
  239.0000     8.4664   175.4993     0.3338     0.0976    -0.0041     2.4884     7.7976     7.7976
  239.5000     8.4665   176.3620     0.3350     0.0972    -0.0011     2.4899     7.7982     7.7981
  240.0000     8.4665   177.8556     0.3359     0.0964    -0.0010     2.4914     7.7449     7.7988
  240.5000     8.4666   177.2503     0.3368     0.0951    -0.0025     2.4922     7.7456     7.7993
  241.0000     8.4666   175.7440     0.3383     0.0936    -0.0024     2.4945     7.7461     7.7459
  241.5000     8.4667   175.4386     0.3398     0.0927    -0.0010     2.4960     7.7466     7.7465
  242.0000     8.4667   176.9323     0.3422     0.0933     0.0020     2.4960     7.8008     7.7472
  242.5000     8.4668   178.4259     0.3446     0.0942    -0.0010     2.4945     7.8555     7.7477
  243.0000     8.4668   176.0201     0.3467     0.0954    -0.0040     2.4915     7.8561     7.6947
  243.5000     8.4669   174.8151     0.3458     0.0975    -0.0039     2.4885     7.8025     7.5896
  244.0000     8.4669   174.2098     0.3446     0.0993    -0.0009     2.4870     7.6428     7.3831
  244.5000     8.4670   173.3032     0.3424     0.0999     0.0006     2.4848     7.2320     6.9382
  245.0000     8.4670   173.5975     0.3413     0.1002    -0.0009     2.4840     6.2551     6.2550
  245.5000     8.4671   174.1916     0.3410     0.0999    -0.0054     2.4841     6.0428     5.9188
  246.0000     8.4671   176.3448     0.3434     0.1011    -0.0129     2.4811     5.9602     5.8784
  246.5000     8.4672   181.6753     0.3557     0.1167    -0.0098     2.4647     5.9607     5.8383
  247.0000     8.4672   185.5677     0.3644     0.1301     0.0082     2.4314     5.9178     5.9201
  247.5000     8.4673   186.7616     0.3608     0.1384     0.0337     2.4201     5.8796     5.9204
  248.0000     8.4673   184.9554     0.3515     0.1411     0.0247     2.4335     5.7993     5.9619
