~VERSION INFORMATION
 VERS.                2.0:   CWLS LOG ASCII STANDARD - VERSION 2.0
 WRAP.                 NO:   ONE LINE PER DEPTH STEP
~WELL INFORMATION
#MNEM.UNIT      DATA TYPE    INFORMATION
#----------   ------------   ------------------------------
 STRT.F           23.0000:   START DEPTH
 STOP.F         2536.0000:   STOP DEPTH
 STEP.F            0.5000:   STEP LENGTH
 NULL.          -999.2500:   NO VALUE
 COMP. FENIX & SCISSON INC:   COMPANY
 WELL.     14 SHX 3 #14-3:   WELL
 FLD .             TEAPOT:   FIELD
 LOC .       S3 T38N R78W:   LOCATION
 CNTY.            NATRONA:   COUNTY
 STAT.            WYOMING:   STATE
 CTRY. UNITED STATES OF AMERICA:   COUNTRY
 SRVC.           BIRDWELL:   SERVICE COMPANY
 DATE.        20-MAR-1979:   LOGDATE
 API .       490251073900:   API NUMBER
~CURVE INFORMATION
#MNEM.UNIT       API CODE    CURVE DESCRIPTION
#----------   ------------   ------------------------------
 DEPT.F                  :   
 SPR .MV     07 010 01 00:   SPONTANEOUS POTENTIAL
 SN  .OHMM   07 040 16 00:   SHORT NORMAL 16'
 IL  .OHMM   07 120 00 00:   INDUCTION LOG
 GRD .GAPI   45 310 01 00:   GAMMA RAY FROM DENSITY LOG
 CALD.IN     45 280 60 00:   CALIPER
 CORR.G/C3   45 356 01 00:   DENSITY CORRECTION
 DEN .G/C3   45 350 01 00:   
 DPHI.DEC    45 890 12 00:   DENSITY POROSITY SANDSTONE
~PARAMETER INFORMATION
#MNEM.UNIT          VALUE    DESCRIPTION
#----------   ------------   ------------------------------
 PD  .                 GL:   PERMANENT DATUM
 EPD .F              5208:   ELEVATION PERMANENT DATUM
 LMF .                 KB:   LOG MEASURED FROM
 DAPD.F                10:   FEET ABOVE PERMANENT DATUM
 DMF .                 KB:   DRILLING MEASURED FROM
 EKB .F              5218:   KELLING BUSHING
 EGL .F              5208:   GROUND LEVEL
 DATE.            3-20-79:   RUN DATE
 RUN .                  1:   RUN NUMBER
 DD  .F              2580:   DEPTH DRILLER
 DL  .F              2536:   DEPTH LOGGER
 BLI .F              2536:   BOTTOM LOG INTERVAL
 TLI .F               400:   TOP LOG INTERVAL
 CS  .IN            9.625:   CASING SIZE
 CBL .F               680:   CASING BOTTOM LOGGER
 BS  .IN             8.75:   BIT SIZE
 BSD .F              2580:   BIT SIZE AT DEPTH
 DFT .                AIR:   DRILLING FLUID TYPE
 TCS .HRS               6:   TIME CURCULATED STOPPED
 LUN .               2959:   LOGGING UNIT NUMBER
 LUL .             CASPER:   LOGGING UNIT LOCATION
 ENGI.            ROLLINS:   RECORDING ENGINEER
 WITN.           DINSMORE:   WITNESSED BY
 CLNT.            A2DTECH:   CLIENT CODE
 ORIG. 1", 2", 2.5", 5" PRINT:   ORIGIN OF DATA
 UWI .       490251073900:   UNIQUE WELL ID
 DICO. A2D Technologies, Inc.:   DIGITIZING COMPANY
~OTHER INFORMATION
~A   DEPT      SPR         SN         IL        GRD       CALD       CORR        DEN       DPHI   
# ...
 1683.5000  -999.2500  -999.2500  -999.2500   157.0359     9.5862     0.0874     2.5744    -0.0164
 1684.0000  -999.2500  -999.2500  -999.2500   156.0839     9.5884     0.0955     2.5927    -0.0172
 1684.5000  -999.2500  -999.2500  -999.2500   154.3800     9.5907     0.0975     2.5832    -0.0095
 1685.0000  -999.2500  -999.2500  -999.2500   154.1226     9.5929     0.0557     2.5563     0.0052
 1685.5000  -999.2500  -999.2500  -999.2500   152.1511     9.5952     0.0639     2.5421     0.0022
 1686.0000  -999.2500  -999.2500  -999.2500   150.2736     9.5974     0.0772     2.5622    -0.0066
 1686.5000  -999.2500  -999.2500  -999.2500   149.6570     9.5997     0.0927     2.5794    -0.0153
 1687.0000  -999.2500  -999.2500  -999.2500   151.7937     9.6019     0.0981     2.6084    -0.0259
 1687.5000  -999.2500  -999.2500  -999.2500   153.6945     9.6042     0.0869     2.6028    -0.0195
 1688.0000  -999.2500  -999.2500  -999.2500   152.6256     9.6064     0.0731     2.5838    -0.0115
 1688.5000  -999.2500  -999.2500  -999.2500   150.9540     9.6087     0.0589     2.5655    -0.0034
 1689.0000  -999.2500  -999.2500  -999.2500   149.1573     9.6109     0.0521     2.5567    -0.0026
 1689.5000  -999.2500  -999.2500  -999.2500   147.3664     9.6131     0.0503     2.5580    -0.0046
 1690.0000  -999.2500  -999.2500  -999.2500   146.4266     9.6157     0.0482     2.5589    -0.0059
 1690.5000  -999.2500  -999.2500  -999.2500   147.8157     9.6164     0.0465     2.5605    -0.0059
 1691.0000  -999.2500  -999.2500  -999.2500   151.9991     9.6138     0.0426     2.5570    -0.0024
 1691.5000  -999.2500  -999.2500  -999.2500   152.4240     9.6116     0.0373     2.5504     0.0011
 1692.0000  -999.2500  -999.2500  -999.2500   150.3086     9.6093     0.0336     2.5430     0.0038
 1692.5000  -999.2500  -999.2500  -999.2500   148.2433     9.6070     0.0371     2.5487     0.0009
 1693.0000  -999.2500  -999.2500  -999.2500   147.3910     9.6047     0.0396     2.5560    -0.0028
 1693.5000  -999.2500  -999.2500  -999.2500   149.0932     9.6024     0.0411     2.5623    -0.0050
 1694.0000  -999.2500  -999.2500  -999.2500   150.6676     9.6001     0.0311     2.5537     0.0002
 1694.5000  -999.2500  -999.2500  -999.2500   152.4800     9.5978     0.0212     2.5454     0.0055
 1695.0000  -999.2500  -999.2500  -999.2500   154.1280     9.5955     0.0175     2.5387     0.0048
 1695.5000  -999.2500  -999.2500  -999.2500   158.4180     9.5932     0.0260     2.5413     0.0022
 1696.0000  -999.2500  -999.2500  -999.2500   162.1214     9.5909     0.0333     2.5434     0.0021
 1696.5000  -999.2500  -999.2500  -999.2500   162.5056     9.5886     0.0380     2.5457     0.0019
 1697.0000  -999.2500  -999.2500  -999.2500   154.6789     9.5863     0.0352     2.5482     0.0016
 1697.5000  -999.2500  -999.2500  -999.2500   148.1985     9.5840     0.0340     2.5464     0.0014
 1698.0000  -999.2500  -999.2500  -999.2500   143.5342     9.5817     0.0374     2.5452    -0.0034
 1698.5000  -999.2500  -999.2500  -999.2500   140.6799     9.5794     0.0329     2.5578    -0.0016
 1699.0000  -999.2500  -999.2500  -999.2500   141.0189     9.5771     0.0183     2.5506     0.0038
 1699.5000  -999.2500  -999.2500  -999.2500   141.8209     9.5748     0.0177     2.5420     0.0030
 1700.0000  -999.2500  -999.2500  -999.2500   143.9996     9.5725     0.0237     2.5476     0.0010
 1700.5000  -999.2500  -999.2500  -999.2500   146.3150     9.5702     0.0309     2.5526    -0.0010
 1701.0000  -999.2500  -999.2500  -999.2500   148.6155     9.5679     0.0326     2.5550    -0.0018
 1701.5000  -999.2500  -999.2500  -999.2500   150.9720     9.5656     0.0304     2.5498     0.0038
 1702.0000  -999.2500  -999.2500  -999.2500   151.7021     9.5633     0.0303     2.5379     0.0119
 1702.5000  -999.2500  -999.2500  -999.2500   150.8147     9.5610     0.0347     2.5266     0.0115
 1703.0000  -999.2500  -999.2500  -999.2500   149.7709     9.5587     0.0383     2.5267     0.0105
 1703.5000  -999.2500  -999.2500  -999.2500   150.7789     9.5564     0.0509     2.5272     0.0095
 1704.0000  -999.2500  -999.2500  -999.2500   149.5002     9.5541     0.0745     2.5475    -0.0009
 1704.5000  -999.2500  -999.2500  -999.2500   146.5289     9.5518     0.0979     2.5674    -0.0107
 1705.0000  -999.2500  -999.2500  -999.2500   143.8325     9.5495     0.1079     2.5821    -0.0122
 1705.5000  -999.2500  -999.2500  -999.2500   141.0121     9.5472     0.1094     2.5784    -0.0137
 1706.0000  -999.2500  -999.2500  -999.2500   141.0047     9.5449     0.1113     2.5816    -0.0139
 1706.5000  -999.2500  -999.2500  -999.2500   145.1700     9.5426     0.1141     2.5881    -0.0107
 1707.0000  -999.2500  -999.2500  -999.2500   142.8182     9.5403     0.1069     2.5797    -0.0075
 1707.5000  -999.2500  -999.2500  -999.2500   140.5443     9.5379     0.0951     2.5620    -0.0042
 1708.0000  -999.2500  -999.2500  -999.2500   144.2521     9.5369     0.1037     2.5542    -0.0018
 1708.5000  -999.2500  -999.2500  -999.2500   147.3161     9.5394     0.1121     2.5591    -0.0026
 1709.0000  -999.2500  -999.2500  -999.2500   148.7541     9.5418     0.1228     2.5690    -0.0091
 1709.5000  -999.2500  -999.2500  -999.2500   150.4014     9.5442     0.1179     2.5810    -0.0148
 1710.0000  -999.2500  -999.2500  -999.2500   149.4365     9.5467     0.0958     2.5718    -0.0017
 1710.5000  -999.2500  -999.2500  -999.2500   147.1554     9.5491     0.0764     2.5512     0.0047
 1711.0000  -999.2500  -999.2500  -999.2500   145.1122     9.5516     0.0548     2.5366     0.0071
 1711.5000  -999.2500  -999.2500  -999.2500   144.4130     9.5540     0.0457     2.5343     0.0079
 1712.0000  -999.2500  -999.2500  -999.2500   148.6376     9.5564     0.0490     2.5341     0.0079
 1712.5000  -999.2500  -999.2500  -999.2500   151.4259     9.5589     0.0599     2.5371     0.0024
 1713.0000  -999.2500  -999.2500  -999.2500   149.6389     9.5613     0.0729     2.5596    -0.0069
 1713.5000  -999.2500  -999.2500  -999.2500   150.6456     9.5638     0.0724     2.5829    -0.0123
 1714.0000  -999.2500  -999.2500  -999.2500   153.8964     9.5662     0.0586     2.5688    -0.0069
 1714.5000  -999.2500  -999.2500  -999.2500   153.9482     9.5686     0.0450     2.5559     0.0009
 1715.0000  -999.2500  -999.2500  -999.2500   150.9129     9.5711     0.0361     2.5414     0.0047
 1715.5000  -999.2500  -999.2500  -999.2500   149.6924     9.5735     0.0351     2.5391     0.0025
 1716.0000  -999.2500  -999.2500  -999.2500   151.4624     9.5759     0.0330     2.5497    -0.0018
 1716.5000  -999.2500  -999.2500  -999.2500   155.2629     9.5784     0.0312     2.5468     0.0003
 1717.0000  -999.2500  -999.2500  -999.2500   155.6951     9.5808     0.0300     2.5422     0.0038
 1717.5000  -999.2500  -999.2500  -999.2500   153.7740     9.5833     0.0445     2.5495    -0.0022
 1718.0000  -999.2500  -999.2500  -999.2500   151.3166     9.5857     0.0540     2.5669    -0.0091
 1718.5000  -999.2500  -999.2500  -999.2500   153.0064     9.5882     0.0469     2.5678    -0.0056
 1719.0000  -999.2500  -999.2500  -999.2500   157.6852     9.5906     0.0400     2.5549    -0.0018
 1719.5000  -999.2500  -999.2500  -999.2500   157.4283     9.5930     0.0414     2.5502    -0.0010
 1720.0000  -999.2500  -999.2500  -999.2500   156.7606     9.5955     0.0632     2.5510    -0.0036
 1720.5000  -999.2500  -999.2500  -999.2500   156.7052     9.5979     0.0874     2.5652    -0.0109
 1721.0000  -999.2500  -999.2500  -999.2500   157.3126     9.6004     0.1104     2.5910    -0.0181
 1721.5000  -999.2500  -999.2500  -999.2500   159.8933     9.6028     0.1276     2.6070    -0.0212
 1722.0000  -999.2500  -999.2500  -999.2500   161.4599     9.6053     0.0773     2.5979    -0.0131
 1722.5000  -999.2500  -999.2500  -999.2500   159.5376     9.6077     0.0917     2.5793    -0.0164
 1723.0000  -999.2500  -999.2500  -999.2500   159.9284     9.6100     0.1308     2.5881    -0.0221
 1723.5000  -999.2500  -999.2500  -999.2500   160.7717     9.6128     0.1598     2.6154    -0.0278
