~VERSION INFORMATION
 VERS.                2.0:   CWLS LOG ASCII STANDARD - VERSION 2.0
 WRAP.                 NO:   ONE LINE PER DEPTH STEP
~WELL INFORMATION
#MNEM.UNIT      DATA TYPE    INFORMATION
#----------   ------------   ------------------------------
 STRT.F           40.0000:   START DEPTH
 STOP.F         3444.0000:   STOP DEPTH
 STEP.F            0.5000:   STEP LENGTH
 NULL.          -999.2500:   NO VALUE
 COMP.    FENIX & SCISSON:   COMPANY
 WELL.     13-A-10 #13-10:   WELL
 FLD .            WILDCAT:   FIELD
 LOC .      S10 T38N R78W:   LOCATION
 CNTY.            NATRONA:   COUNTY
 STAT.            WYOMING:   STATE
 CTRY. UNITED STATES OF AMERICA:   COUNTRY
 SRVC.       Schlumberger:   SERVICE COMPANY
 DATE.        08-JUL-1970:   LOGDATE
 API .       490251090300:   API NUMBER
~CURVE INFORMATION
#MNEM.UNIT       API CODE    CURVE DESCRIPTION
#----------   ------------   ------------------------------
 DEPT.F                  :   
 ASN .OHMM   05 041 16 00:   AMPLIFIED SHORT NORMAL 16"
 CILD.MMHO   05 110 46 00:   CONDUCTIVITY INDUCTION LOG DEEP
 ILD .OHMM   05 120 46 00:   INDUCTION LOG DEEP
 SPR .MV     05 010 01 00:   SPONTANEOUS POTENTIAL FROM RES.
 CALD.IN     45 280 60 00:   CALIPER FROM DENSITY
 CORR.G/C3   45 356 01 00:   DENSITY CORRECTION
 DPHI.DEC    45 890 12 00:   DENSITY POROSITY SANDSTONE
 RHOB.G/C3   45 350 01 00:   BULK DENSITY
~PARAMETER INFORMATION
#MNEM.UNIT          VALUE    DESCRIPTION
#----------   ------------   ------------------------------
 PD  .                 GL:   PERMANENT DATUM
 EPD .F              5295:   ELEVATION PERMANENT DATUM
 LMF .                 KB:   LOG MEASURED FROM
 DAPD.F                10:   FEET ABOVE PERMANENT DATUM
 DMF .                 KB:   DRILLING MEASURED FROM
 EKB .F              5305:   KELLING BUSHING
 EGL .F              5295:   GROUND LEVEL
 DATE.        08-JUL-1970:   RUN DATE
 RUN .                  3:   RUN NUMBER
 DD  .F              3450:   DEPTH DRILLER
 DL  .F              3444:   DEPTH LOGGER
 BLI .F              3443:   BOTTOM LOG INTERVAL
 TLI .F              2950:   TOP LOG INTERVAL
 CS  .IN            10.75:   CASING SIZE
 CBD .F               842:   CASING BOTTOM DRILLER
 BS  .IN                9:   BIT SIZE
 BSD .F              3450:   BIT SIZE AT DEPTH
 DFT .      FRESH GEL MUD:   DRILLING FLUID TYPE
 DFD .               10.4:   DRILLING FLUID DENSITY
 DFV .                 43:   DRILLING FLUID VISCOSITY
 DFPH.                7.6:   DRILLING FLUID PH
 DFL .                  8:   DRILLING FLUID LOSS
 MSS .           FLOWLINE:   MUD SAMPLE SOURCE
 RMS .OHMM              2:   RESISTIVITY MUD SAMPLE
 MST .F                85:   MUD SAMPLE TEMPERATURE
 RMF .OHMM            1.6:   RESISTIVITY MUD FILTRATE SAMPLE
 MFST.F                85:   MUD FILTRATE SAMPLE TEMPERATURE
 MFSS.               MEAS:   MUD FILTRATE SAMPLE SOURCE
 RMB .OHMM           1.49:   RESISTIVITY MUD AT BHT
 BHT .F               114:   BOTTOM HOLE TEMPERATURE
 TCS .HRS               3:   TIME CURCULATED STOPPED
 MRT .F               114:   MAXIMUM RECORDED TEMPERATURE
 LUN .               4507:   LOGGING UNIT NUMBER
 LUL .               CSPR:   LOGGING UNIT LOCATION
 ENGI.             TURNER:   RECORDING ENGINEER
 WITN.                MAY:   WITNESSED BY
 CLNT.            A2DTECH:   CLIENT CODE
 ORIG.     2.5", 5" PRINT:   ORIGIN OF DATA
 UWI .       490251090300:   UNIQUE WELL ID
 DICO. A2D Technologies, Inc.:   DIGITIZING COMPANY
~OTHER INFORMATION
~A   DEPT        ASN      CILD         ILD      SPR       CALD       CORR       DPHI       RHOB   
# ...
 2308.0000     9.0567   133.0357     6.8418   -38.7857     9.5886     0.0125     0.0802     2.5145
 2308.5000     9.0445   134.5610     6.8403   -38.7929     9.5869     0.0118     0.0786     2.5175
 2309.0000     9.0446   134.5982     6.9883   -38.7987     9.5852     0.0193     0.0853     2.5138
 2309.5000     9.0148   134.6427     7.0407   -38.8046     9.5835     0.0269     0.0865     2.5071
 2310.0000     9.0150   136.1674     7.1346   -38.8104     9.5818     0.0246     0.0886     2.5048
 2310.5000     8.9852   136.2041     7.2821   -38.8162     9.5801     0.0074     0.0871     2.5041
 2311.0000     8.9853   136.2407     7.4299   -38.5245     9.5784    -0.0016     0.0973     2.4906
 2311.5000     8.9855   136.2773     7.4283   -38.5303     9.5767     0.0135     0.0931     2.4981
 2312.0000     9.0156   136.3139     7.4269   -38.5362     9.5750     0.0187     0.0865     2.5131
 2312.5000     9.1055   134.8587     7.5124   -38.5420     9.5733     0.0075     0.0898     2.5117
 2313.0000     9.1656   134.8991     7.5732   -38.5479     9.5716     0.0023     0.0956     2.4944
 2313.5000     9.2555   133.4476     7.7206   -38.8513     9.5699     0.0016     0.0985     2.4876
 2314.0000     9.3164   133.4842     7.7192   -38.8572     9.5682     0.0196     0.0913     2.4989
 2314.5000     9.4093   132.0312     7.7177   -38.8630     9.5665     0.0196     0.0871     2.5042
 2315.0000     9.4985   130.5813     7.8655   -38.8690     9.5648     0.0114     0.0922     2.4937
 2315.5000     9.5596   129.1298     8.0133   -39.1726     9.5632     0.0092     0.0958     2.4907
 2316.0000     9.6156   129.1664     8.0118   -39.1785     9.5615     0.0227     0.0916     2.4990
 2316.5000     9.6582   126.2269     8.0104   -39.1846     9.5598     0.0250     0.0829     2.5133
 2317.0000     9.7430   126.1499     8.0089   -39.1904     9.5590     0.0235     0.0811     2.5148
 2317.5000     9.8426   124.6529     8.1567   -39.1965     9.5738     0.0181     0.0850     2.5126
 2318.0000     9.9251   123.3605     8.1552   -39.2024     9.6036     0.0063     0.0928     2.4945
 2318.5000     9.9863   123.1449     8.1537   -39.2084     9.6033     0.0109     0.1048     2.4795
 2319.0000    10.0175   121.9457     8.1523   -39.2143     9.5729     0.0079     0.1015     2.4803
 2319.5000    10.0486   121.9866     8.1363   -39.2202     9.5575     0.0064     0.1162     2.4615
 2320.0000    10.0658   122.0238     8.0000   -39.2262     9.5572     0.0027     0.1189     2.4555
 2320.5000    10.0661   122.5044     7.9731   -39.2322     9.5419    -0.0010     0.1192     2.4548
 2321.0000    10.0500   124.0775     7.8169   -39.2381     9.5415     0.0088     0.1189     2.4533
 2321.5000    10.0065   127.1376     7.6970   -38.9465     9.5412     0.0148     0.1129     2.4646
 2322.0000     9.9767   129.6131     7.5463   -38.9524     9.5409     0.0103     0.1117     2.4698
 2322.5000     9.8870   131.7709     7.5448   -38.9583     9.5407     0.0036     0.1135     2.4638
 2323.0000     9.6476   132.6637     7.6928   -38.9654     9.5393    -0.0001     0.1123     2.4699
 2323.5000     9.5280   132.7009     7.6910   -38.9713     9.5249     0.0127     0.1126     2.4654
 2324.0000     9.5581   131.9645     7.8388   -38.9771     9.5247     0.0075     0.1129     2.4676
 2324.5000     9.6481   129.7991     7.9866   -38.9830     9.5093    -0.0053     0.1066     2.4752
 2325.0000     9.7380   127.4802     8.1343   -38.9888     9.5090    -0.0068     0.1051     2.4774
 2325.5000     9.7981   125.4163     8.2129   -38.9947     9.5087     0.0023     0.1009     2.4790
 2326.0000     9.8581   123.9583     8.2806   -39.0005     9.5084     0.0098     0.0961     2.4865
 2326.5000     9.9181   122.5074     8.4284   -39.0064     9.5081     0.0114     0.0943     2.4933
 2327.0000    10.0081   122.5500     8.5761   -39.0122     9.5078     0.0114     0.0985     2.4865
 2327.5000     9.8885   121.0938     8.5744   -39.0181     9.5075     0.0129     0.1099     2.4670
 2328.0000    10.1960   121.1351     8.7224   -39.0239     9.5072     0.0152     0.1063     2.4721
 2328.5000    10.4876   121.1717     8.7207   -39.0298     9.5069     0.0044     0.1036     2.4858
 2329.0000    10.6374   119.7173     8.7193   -39.0357     9.5066     0.0010     0.1015     2.4851
 2329.5000    10.6376   118.2664     8.7178   -39.0417     9.5063     0.0085     0.0963     2.4919
 2330.0000    10.6377   116.8173     8.7163   -39.0476     9.5060     0.0243     0.0934     2.4956
 2330.5000    10.6379   115.3658     8.7149   -39.0536     9.5057     0.0191     0.0961     2.4987
 2331.0000    10.6380   115.4025     8.8626   -39.0595     9.5054     0.0236     0.0949     2.4919
 2331.5000    10.6382   113.9510     8.8612   -39.0655     9.5051     0.0087     0.0906     2.5002
 2332.0000    10.6383   112.4995     9.0090   -39.0714     9.5048     0.0124     0.0979     2.4912
 2332.5000    10.5810   114.0253     8.7090   -39.0774     9.5045     0.0140     0.0928     2.4935
 2333.0000    10.4889   115.5506     8.5582   -39.0833     9.5042     0.0117     0.1018     2.4995
 2333.5000    10.4890   115.7692     8.4075   -38.9866     9.5039     0.0058     0.1075     2.4957
 2334.0000    10.4892   117.1131     8.4060   -38.7965     9.5036     0.0107     0.0994     2.4988
 2334.5000    10.4894   117.1503     8.4045   -38.8036     9.5033     0.0163     0.0874     2.5033
 2335.0000    10.4896   117.1875     8.5524   -38.8095     9.5030     0.0134     0.0895     2.5048
 2335.5000    10.4897   117.2247     8.5507   -38.8155     9.5027     0.0059     0.1084     2.4958
 2336.0000    10.4898   117.2619     8.6987   -38.8214     9.5024    -0.0008     0.1150     2.4711
 2336.5000    10.4900   115.8053     8.6970   -38.8274     9.5172    -0.0001     0.1138     2.4688
 2337.0000    10.4901   115.8482     8.7522   -38.8333     9.5168     0.0052     0.1111     2.4756
 2337.5000    10.6400   114.3905     8.8433   -38.8404     9.5165     0.0180     0.1074     2.4884
 2338.0000    10.7898   113.8293     8.8418   -38.8462     9.5162     0.0023     0.0994     2.5019
 2338.5000    10.9397   112.9836     8.8403   -38.5545     9.5160    -0.0007     0.1141     2.4628
 2339.0000    11.0895   113.0208     8.6895   -38.5603     9.5157     0.0211     0.1063     2.4869
 2339.5000    11.0897   113.0581     8.6880   -38.5662     9.5153     0.0203     0.0943     2.4929
 2340.0000    11.0898   113.0953     8.5370   -38.5720     9.5150     0.0137     0.0943     2.4930
 2340.5000    11.0900   113.1324     8.5356   -38.5779     9.5147     0.0084     0.0997     2.4879
 2341.0000    10.9394   113.1770     8.3848   -38.5837     9.5145     0.0055     0.1075     2.4809
 2341.5000    10.7909   116.1898     8.3834   -38.5896     9.5142     0.0115     0.1027     2.4952
 2342.0000    10.6413   117.7146     8.3819   -38.5954     9.5138     0.0168     0.0931     2.5050
 2342.5000    10.6239   119.2393     8.2312   -38.6013     9.5135     0.0228     0.0874     2.5080
 2343.0000    10.4919   120.7640     8.3790   -38.6071     9.5132     0.0123     0.0896     2.5051
 2343.5000    10.3424   119.3125     8.3775   -38.5998     9.5129     0.0026     0.0937     2.4976
 2344.0000    10.3086   117.8611     8.5254   -38.3212     9.5127     0.0034     0.0979     2.4870
 2344.5000    10.1929   116.4096     8.5238   -38.3273     9.5123     0.0117     0.1070     2.4840
 2345.0000    10.1931   114.9581     8.6716   -38.3333     9.5120     0.0080     0.0995     2.4871
 2345.5000    10.2436   113.5066     8.6702   -38.0411     9.5117     0.0162     0.0961     2.4893
 2346.0000    10.3431   113.5433     8.8179   -38.0476     9.5114     0.0080     0.1091     2.4773
 2346.5000    10.3432   113.5799     8.8164   -38.0535     9.5111     0.0156     0.1085     2.4713
 2347.0000    10.3434   115.1046     8.8149   -38.0595     9.5108     0.0158     0.1008     2.4819
 2347.5000    10.3435   116.6427     8.8134   -38.0655     9.5105     0.0029     0.1012     2.4834
 2348.0000    10.3437   118.2138     8.7842   -38.0714     9.5102     0.0036     0.1006     2.4818
