~VERSION INFORMATION
 VERS.                2.0:   CWLS LOG ASCII STANDARD - VERSION 2.0
 WRAP.                 NO:   ONE LINE PER DEPTH STEP
~WELL INFORMATION
#MNEM.UNIT      DATA TYPE    INFORMATION
#----------   ------------   ------------------------------
 STRT.F            0.0000:   START DEPTH
 STOP.F          663.0000:   STOP DEPTH
 STEP.F            0.1000:   STEP LENGTH
 NULL.          -999.2500:   NO VALUE
 COMP.   FLUOR DANIEL INC:   COMPANY
 WELL.     62-6 X 3 #62-3:   WELL
 FLD .             TEAPOT:   FIELD
 LOC .       S3 T38N R78W:   LOCATION
 CNTY.            NATRONA:   COUNTY
 STAT.            WYOMING:   STATE
 CTRY. UNITED STATES OF AMERICA:   COUNTRY
 SRVC.      Western Atlas:   SERVICE COMPANY
 DATE.        11-APR-1995:   LOGDATE
 API .       490252270400:   API NUMBER
~CURVE INFORMATION
#MNEM.UNIT       API CODE    CURVE DESCRIPTION
#----------   ------------   ------------------------------
 DEPT.F                  :   
 GRR .GAPI   07 310 01 00:   GAMMA RAY
 RILD.OHMM   07 120 46 00:   INDUCTION LOG DEEP RESISTIVITY
 RILM.OHMM   07 120 44 00:   INDUCTION LOG MEDIUM RESISTIVITY
~PARAMETER INFORMATION
#MNEM.UNIT          VALUE    DESCRIPTION
#----------   ------------   ------------------------------
 PD  .                 GL:   PERMANENT DATUM
 EPD .F              5157:   ELEVATION PERMANENT DATUM
 LMF .                 KB:   LOG MEASURED FROM
 DAPD.F                10:   FEET ABOVE PERMANENT DATUM
 DMF .                 KB:   DRILLING MEASURED FROM
 EKB .F              5167:   KELLING BUSHING
 EDF .F              5166:   DRILLING FLOOR
 EGL .F              5157:   GROUND LEVEL
 DATE.        11-APR-1995:   RUN DATE
 RUN .                  1:   RUN NUMBER
 DD  .F               671:   DEPTH DRILLER
 DL  .F               671:   DEPTH LOGGER
 BLI .F               663:   BOTTOM LOG INTERVAL
 TLI .F                95:   TOP LOG INTERVAL
 CS  .IN            9.625:   CASING SIZE
 CBD .F                95:   CASING BOTTOM DRILLER
 CBL .F                95:   CASING BOTTOM LOGGER
 BS  .IN             8.75:   BIT SIZE
 BSD .F               671:   BIT SIZE AT DEPTH
 DFT .                AIR:   DRILLING FLUID TYPE
 MRT .F                90:   MAXIMUM RECORDED TEMPERATURE
 LUN .            HL 6530:   LOGGING UNIT NUMBER
 LUL .             CASPER:   LOGGING UNIT LOCATION
 ENGI.      PAT RASMUSSEN:   RECORDING ENGINEER
 WITN.        GARY STRONG:   WITNESSED BY
 CLNT.            A2DTECH:   CLIENT CODE
 ORIG.           5" PRINT:   ORIGIN OF DATA
 UWI .       490252270400:   UNIQUE WELL ID
 DICO. A2D Technologies, Inc.:   DIGITIZING COMPANY
~OTHER INFORMATION
~A    DEPT      GRR      RILD       RILM   
# ...
  382.2000   108.9955     5.9561     6.8329
  382.3000   108.9988     6.0558     6.9353
  382.4000   109.0024     6.1647     7.0343
  382.5000   109.0060     6.2756     7.0884
  382.6000   109.0096     6.3689     7.2210
  382.7000   109.0133     6.4161     7.2630
  382.8000   109.0225     6.5857     7.3414
  382.9000   109.3222     6.6214     7.4024
  383.0000   109.5421     6.7186     7.4470
  383.1000   109.6301     6.7952     7.4919
  383.2000   109.7607     6.8510     7.5415
  383.3000   109.9386     6.9252     7.6389
  383.4000   109.9791     6.9669     7.6816
  383.5000   110.2471     7.0157     7.6932
  383.6000   110.7471     7.0859     7.7204
  383.7000   110.8566     7.1429     7.7480
  383.8000   111.0185     7.1859     7.7594
  383.9000   111.1651     7.2291     7.8061
  384.0000   111.1687     7.2725     7.8583
  384.1000   111.1723     7.3185     7.8587
  384.2000   111.1762     7.3603     7.8592
  384.3000   111.1795     7.3709     7.8852
  384.4000   111.1831     7.3715     7.9151
  384.5000   111.1867     7.3903     7.9156
  384.6000   111.1904     7.4347     7.9160
  384.7000   111.1394     7.4767     7.9165
  384.8000   110.8963     7.4774     7.9169
  384.9000   110.9005     7.5172     7.9173
  385.0000   110.4619     7.5308     7.9178
  385.1000   110.1289     7.5315     7.9182
  385.2000   110.0072     7.5321     7.9187
  385.3000   109.9249     7.5337     7.9191
  385.4000   109.7127     7.5402     7.9196
  385.5000   109.7169     7.5467     7.9200
  385.6000   109.7212     7.5531     7.9204
  385.7000   109.9314     7.5596     7.9209
  385.8000   110.1912     7.5660     7.9213
  385.9000   110.5683     7.5725     7.9218
  386.0000   111.0121     7.5790     7.9222
  386.1000   111.2446     7.5854     7.9227
  386.2000   111.2484     7.5910     7.9231
  386.3000   111.4903     7.5917     7.9235
  386.4000   111.5566     7.5923     7.9240
  386.5000   111.7089     7.5929     7.9244
  386.6000   111.8651     7.5936     7.9249
  386.7000   111.9273     7.5942     7.9253
  386.8000   112.1735     7.5948     7.9258
  386.9000   112.1776     7.5955     7.9262
  387.0000   112.1807     7.5962     7.9266
  387.1000   112.3643     7.5562     7.9271
  387.2000   112.4892     7.5447     7.9275
  387.3000   112.4928     7.5453     7.9280
  387.4000   112.4964     7.5459     7.9285
  387.5000   112.5000     7.5466     7.9289
  387.6000   112.5042     7.5472     7.9293
  387.7000   112.0847     7.5479     7.9297
  387.8000   111.5760     7.5485     7.9302
  387.9000   110.9459     7.5491     7.9306
  388.0000   110.2570     7.5497     7.9311
  388.1000   109.7168     7.5504     7.9316
  388.2000   108.9110     7.5510     7.9320
  388.3000   108.6719     7.5516     7.9324
  388.4000   108.0241     7.5522     7.9328
  388.5000   107.5642     7.5529     7.9180
  388.6000   107.4193     7.5535     7.8785
  388.7000   107.5481     7.5541     7.8790
  388.8000   108.0818     7.5548     7.8795
  388.9000   108.9365     7.5554     7.8798
  389.0000   109.6266     7.5561     7.8803
  389.1000   110.2149     7.5567     7.8807
  389.2000   110.8698     7.5573     7.8677
  389.3000   111.6421     7.5579     7.8214
  389.4000   112.3165     7.5586     7.7728
  389.5000   112.5845     7.5592     7.7732
  389.6000   113.4801     7.5598     7.7381
  389.7000   113.9136     7.5081     7.7199
  389.8000   114.6001     7.4721     7.7204
  389.9000   114.8711     7.4572     7.7208
  390.0000   114.5382     7.4578     7.7212
  390.1000   114.0647     7.4455     7.7217
  390.2000   113.8025     7.4072     7.7221
  390.3000   113.5594     7.4079     7.7225
  390.4000   112.9036     7.4085     7.6973
  390.5000   112.4518     7.4091     7.6696
  390.6000   111.9759     7.4098     7.6701
  390.7000   111.2108     7.4104     7.6705
  390.8000   110.4675     7.4110     7.6710
  390.9000   109.9124     7.4116     7.6714
  391.0000   109.2168     7.4123     7.6718
  391.1000   109.0157     7.4129     7.6722
  391.2000   109.0193     7.4135     7.6726
  391.3000   109.0229     7.4141     7.6812
  391.4000   109.0795     7.4147     7.7273
  391.5000   109.3555     7.4153     7.7278
  391.6000   110.2391     7.4160     7.7281
  391.7000   110.8998     7.4167     7.7286
  391.8000   111.4980     7.4172     7.7290
  391.9000   112.1435     7.4457     7.7294
  392.0000   112.7470     7.4904     7.7299
  392.1000   113.0854     7.5355     7.7303
  392.2000   113.8748     7.5763     7.7307
  392.3000   114.1802     7.5769     7.7312
  392.4000   114.5944     7.6190     7.7603
  392.5000   114.9498     7.6311     7.7862
  392.6000   115.2096     7.6575     7.7995
  392.7000   115.4695     7.7035     7.8465
  392.8000   115.7294     7.7498     7.8971
  392.9000   116.0087     7.7964     7.8975
  393.0000   116.0120     7.8500     7.9337
  393.1000   116.2076     7.8505     7.9537
  393.2000   116.3205     7.8829     7.9541
  393.3000   116.2220     7.9541     7.9660
  393.4000   116.0265     8.0182     8.0140
  393.5000   115.9940     8.0189     8.0674
  393.6000   115.1306     8.0196     8.1109
  393.7000   114.4639     7.9743     8.1598
  393.8000   112.9346     7.8909     8.1822
  393.9000   111.0714     7.8272     8.1826
  394.0000   109.1207     7.7617     8.1831
  394.1000   107.4152     7.6828     8.1850
  394.2000   106.2225     7.6381     8.2414
  394.3000   105.3554     7.5896     8.2418
  394.4000   104.5903     7.4693     8.2423
  394.5000   103.7610     7.4020     8.2427
  394.6000   102.7400     7.3351     8.2266
  394.7000   101.6160     7.2654     8.1542
  394.8000   101.6193     7.2065     7.9613
  394.9000   101.8084     7.0810     7.7425
  395.0000   102.3493     6.9855     7.5935
  395.1000   103.0261     6.8826     7.4153
  395.2000   103.5929     6.7886     7.2412
  395.3000   104.3708     6.7094     7.0586
  395.4000   105.5572     6.6071     6.8465
  395.5000   106.2107     6.4580     6.5959
  395.6000   106.9832     6.3399     6.3037
  395.7000   108.1364     6.1990     6.0115
  395.8000   109.5134     6.0825     5.7941
  395.9000   110.5417     5.9343     5.6388
  396.0000   111.6025     5.7618     5.4978
  396.1000   112.3507     5.5863     5.3422
  396.2000   113.1229     5.3894     5.2404
  396.3000   113.7369     5.1479     5.1837
  396.4000   114.3662     4.9372     5.1226
  396.5000   115.0020     4.6521     5.0623
  396.6000   115.2619     4.4547     5.0026
  396.7000   115.5437     4.3877     4.9503
  396.8000   116.0161     4.3881     4.9196
  396.9000   116.3426     4.3886     4.8549
  397.0000   116.8915     4.4195     4.8297
  397.1000   117.5642     4.4634     4.8013
  397.2000   118.1350     4.4995     4.8037
  397.3000   118.9073     4.5265     4.8327
  397.4000   119.7860     4.5617     4.8674
  397.5000   120.0100     4.6131     4.9254
  397.6000   120.6216     4.6425     4.9596
  397.7000   121.2631     4.7211     5.0102
  397.8000   121.7791     4.7627     5.1198
  397.9000   122.2542     4.8081     5.2535
  398.0000   122.5181     4.8538     5.3873
  398.1000   122.2212     4.8830     5.5210
  398.2000   121.3950     4.9155     5.6547
  398.3000   120.3739     5.0149     5.7884
  398.4000   119.1183     5.0414     5.9221
  398.5000   117.6567     5.0717     6.0559
  398.6000   116.3242     5.1181     6.1896
  398.7000   114.4111     5.1688     6.3366
  398.8000   112.7448     5.2050     6.3710
  398.9000   111.1484     5.2680     6.4655
  399.0000   109.9116     5.3424     6.6045
  399.1000   108.8903     5.4205     6.7640
  399.2000   108.0450     5.5180     6.9272
  399.3000   107.7651     5.6019     7.0910
  399.4000   106.9065     5.6784     7.1881
  399.5000   106.6847     5.7769     7.3005
  399.6000   106.2522     5.8513     7.4326
  399.7000   105.8783     5.9487     7.5434
  399.8000   105.7157     6.0828     7.6501
  399.9000   105.6743     6.2719     7.7965
  400.0000   105.4217     6.4988     7.9844
  400.1000   105.4259     6.7425     8.1540
  400.2000   105.2177     7.0237     8.2761
  400.3000   104.9651     7.2650     8.3928
