~VERSION INFORMATION
 VERS.                2.0:   CWLS LOG ASCII STANDARD - VERSION 2.0
 WRAP.                 NO:   ONE LINE PER DEPTH STEP
~WELL INFORMATION
#MNEM.UNIT      DATA TYPE    INFORMATION
#----------   ------------   ------------------------------
 STRT.F           19.0000:   START DEPTH
 STOP.F          600.0000:   STOP DEPTH
 STEP.F            0.5000:   STEP LENGTH
 NULL.          -999.2500:   NO VALUE
 COMP. FENIX & SCISSON INC:   COMPANY
 WELL.       NPR-3 #18-34:   WELL
 FLD .             TEAPOT:   FIELD
 LOC .      S34 T39N R78W:   LOCATION
 CNTY.            NATRONA:   COUNTY
 STAT.            WYOMING:   STATE
 CTRY. UNITED STATES OF AMERICA:   COUNTRY
 SRVC.           BIRDWELL:   SERVICE COMPANY
 DATE.        10-AUG-1978:   LOGDATE
 API .       490251068100:   API NUMBER
~CURVE INFORMATION
#MNEM.UNIT       API CODE    CURVE DESCRIPTION
#----------   ------------   ------------------------------
 DEPT.F                  :   
 SPR .MV     05 010 01 00:   SPONTANEOUS POTENTIAL FROM RES.
 SN  .OHMM   05 040 16 00:   SHORT NORMAL 16"
 ILD .OHMM   05 120 46 00:   INDUCTION LOG DEEP
 GRD .GAPI   45 310 01 00:   GAMMA RAY FROM DENSITY LOG
 CALD.IN     45 280 60 00:   CALIPER
 CORR.G/C3   45 356 01 00:   DENSITY CORRECTION
 DPHI.DEC    45 890 12 00:   DENSITY POROSITY SANDSTONE
 DEN .G/C3   45 350 01 00:   COMPENSATED BULK DENSTIY
~PARAMETER INFORMATION
#MNEM.UNIT          VALUE    DESCRIPTION
#----------   ------------   ------------------------------
 PD  .                 GL:   PERMANENT DATUM
 EPD .F              5159:   ELEVATION PERMANENT DATUM
 LMF .                 KB:   LOG MEASURED FROM
 DAPD.F                 4:   FEET ABOVE PERMANENT DATUM
 DMF .                 KB:   DRILLING MEASURED FROM
 EKB .F              5163:   KELLING BUSHING
 EGL .F              5159:   GROUND LEVEL
 DATE.            8-10-78:   RUN DATE
 RUN .                  1:   RUN NUMBER
 DD  .F               605:   DEPTH DRILLER
 DL  .F               606:   DEPTH LOGGER
 BLI .F               600:   BOTTOM LOG INTERVAL
 TLI .F                35:   TOP LOG INTERVAL
 CS  .IN            8.625:   CASING SIZE
 CBD .F                40:   CASING BOTTOM DRILLER
 BS  .IN            7.875:   BIT SIZE
 BSD .F               605:   BIT SIZE AT DEPTH
 DFT .                KCL:   DRILLING FLUID TYPE
 DFD .                8.7:   DRILLING FLUID DENSITY
 DFV .                 33:   DRILLING FLUID VISCOSITY
 DFPH.                  9:   DRILLING FLUID PH
 MSS .          FLOW LINE:   MUD SAMPLE SOURCE
 RMS .OHMM            .14:   RESISTIVITY MUD SAMPLE
 MST .F                88:   MUD SAMPLE TEMPERATURE
 MFSS.               MEAS:   MUD FILTRATE SAMPLE SOURCE
 MCSS.               MEAS:   MUD CAKE SAMPLE SOURCE
 TCS .HRS               1:   TIME CURCULATED STOPPED
 LUN .               3006:   LOGGING UNIT NUMBER
 LUL .               CASP:   LOGGING UNIT LOCATION
 ENGI.             MILLER:   RECORDING ENGINEER
 WITN.           MCGINLEY:   WITNESSED BY
 CLNT.            A2DTECH:   CLIENT CODE
 ORIG.           5" PRINT:   ORIGIN OF DATA
 UWI .       490251068100:   UNIQUE WELL ID
 DICO. A2D Technologies, Inc.:   DIGITIZING COMPANY
~OTHER INFORMATION
~A   DEPT      SPR         SN        ILD         GRD      CALD       CORR       DPHI        DEN   
# ...
  181.0000   -37.4999     7.0634     6.8006    97.5567     8.0702     0.0200     0.1233     2.4719
  181.5000   -37.5005     7.0422     6.7794    96.4078     8.1357     0.0259     0.1238     2.4727
  182.0000   -37.5095     7.0211     6.7584    95.3074     8.1958     0.0275     0.1271     2.4701
  182.5000   -37.5182     7.0000     6.7373    95.2776     8.2526     0.0286     0.1297     2.4668
  183.0000   -37.5270     6.9790     6.7164    98.0734     8.3094     0.0305     0.1257     2.4655
  183.5000   -37.5356     6.9580     6.6955   101.8976     8.3663     0.0343     0.1295     2.4649
  184.0000   -37.5443     6.9419     6.6747   103.0362     8.4193     0.0356     0.1301     2.4642
  184.5000   -37.5530     6.9421     6.6539   100.7626     8.4206     0.0365     0.1300     2.4639
  185.0000   -37.5617     6.9421     6.6303    95.5500     8.4204     0.0409     0.1259     2.4697
  185.5000   -37.5704     6.9421     6.6448    93.6668     8.4204     0.0475     0.1213     2.4755
  186.0000   -37.5791     6.9421     6.6624    95.5839     8.4200     0.0642     0.1229     2.4785
  186.5000   -37.5878     6.9421     6.6802    97.9205     8.4364     0.0783     0.1241     2.4787
  187.0000   -37.5965     6.9420     6.6980    98.4099     8.4593     0.0960     0.1108     2.4884
  187.5000   -37.6052     6.9416     6.7158    98.8814     8.4799     0.1157     0.0906     2.5292
  188.0000   -37.6139     6.9607     6.7337    99.3950     8.4651     0.1201     0.0906     2.5293
  188.5000   -37.6226     6.9825     6.7516   100.5762     8.4483     0.1089     0.1034     2.5070
  189.0000   -37.6313     7.0045     6.7696   100.8770     8.4318     0.0951     0.1058     2.5015
  189.5000   -37.6400     7.0266     6.7877    99.3947     8.4232     0.0876     0.1093     2.4961
  190.0000   -37.6487     7.0487     6.8057    97.6166     8.4331     0.0856     0.1137     2.4879
  190.5000   -37.6574     7.0709     6.8158    99.2551     8.4385     0.0843     0.1160     2.4875
  191.0000   -37.6661     7.0932     6.8315   102.2205     8.3355     0.0829     0.1164     2.4875
  191.5000   -37.6748     7.1155     6.8464   102.8145     8.2247     0.0815     0.1159     2.4881
  192.0000   -37.6836     7.1364     6.8615    98.6830     8.1792     0.0775     0.1147     2.4892
  192.5000   -37.6926     7.1524     6.8765    97.5364     8.1365     0.0687     0.1147     2.4868
  193.0000   -37.6978     7.1673     6.8917    96.8252     8.0837     0.0555     0.1201     2.4821
  193.5000   -37.6505     7.1824     6.9068    95.7641     7.9826     0.0411     0.1283     2.4776
  194.0000   -37.6046     7.2018     6.9220    93.4574     7.8821     0.0273     0.1364     2.4585
  194.5000   -37.5591     7.1926     6.9372    94.7734     7.7816     0.0262     0.1427     2.4396
  195.0000   -37.5112     7.1781     6.9420    98.0008     7.6811     0.0256     0.1479     2.4343
  195.5000   -37.5224     7.1638     6.9421    99.8939     7.5810     0.0250     0.1511     2.4270
  196.0000   -37.5529     7.1495     6.9421    99.9649     7.5017     0.0249     0.1523     2.4226
  196.5000   -37.5843     7.1351     6.9421   100.0580     7.4923     0.0248     0.1532     2.4218
  197.0000   -37.6158     7.1209     6.9421   100.1426     7.4812     0.0300     0.1534     2.4209
  197.5000   -37.6478     7.1066     6.9421   100.2152     7.4679     0.0330     0.1536     2.4200
  198.0000   -37.6767     7.0923     6.9421    99.4111     7.4849     0.0366     0.1575     2.4193
  198.5000   -37.6269     7.0772     6.9421    97.5809     7.5150     0.0441     0.1636     2.4247
  199.0000   -37.3272     7.0717     6.9419    96.1352     7.5469     0.0508     0.1249     2.4391
  199.5000   -36.9126     7.2182     6.9408    97.7542     7.6159     0.0507     0.1452     2.4402
  200.0000   -36.4853     7.3192     6.9864   100.9014     7.6831     0.0486     0.1263     2.4586
  200.5000   -36.1051     7.4209     7.0360   101.1724     7.7457     0.0442     0.1189     2.4765
  201.0000   -36.1554     7.5806     7.0860    95.5646     7.8026     0.0399     0.1189     2.4804
  201.5000   -36.2103     7.8242     7.1364    95.1921     7.9619     0.0366     0.1227     2.4798
  202.0000   -36.2623     7.9939     7.1871    95.0875     8.1580     0.0357     0.1225     2.4793
  202.5000   -36.2711     8.2429     7.3193    92.5180     8.2748     0.0349     0.1173     2.4788
  203.0000   -36.1456     8.4997     7.4021    91.3741     8.3030     0.0348     0.1199     2.4787
  203.5000   -36.0256     8.7411     7.4008    93.1762     8.3315     0.0381     0.1233     2.4789
  204.0000   -35.9056     8.7775     7.5606    94.5601     8.3596     0.0417     0.1233     2.4791
  204.5000   -35.7865     8.8190     7.6815    92.5898     8.3809     0.0464     0.1226     2.4793
  205.0000   -35.7066     8.8181     7.6815    91.8304     8.3805     0.0548     0.1217     2.4797
  205.5000   -35.7447     8.8183     7.6815    95.1415     8.3805     0.0673     0.1141     2.4918
  206.0000   -35.7798     8.8183     7.7800    95.3486     8.3803     0.0786     0.1071     2.5141
  206.5000   -35.8149     8.8183     7.8909    94.6961     8.3936     0.0784     0.1001     2.5215
  207.0000   -35.8499     8.8183     7.9945    90.4986     8.4136     0.0766     0.0978     2.5219
  207.5000   -35.8849     8.8206     8.0791    86.8275     8.4311     0.0749     0.0965     2.5224
  208.0000   -35.9199     8.8298     8.1636    87.0984     8.4567     0.0737     0.1006     2.5213
  208.5000   -35.9549     8.8386     8.2498    87.1039     8.4758     0.0673     0.1125     2.5061
  209.0000   -35.9900     8.8475     8.3447    87.4471     8.5120     0.0569     0.1201     2.4799
  209.5000   -36.0250     8.8563     8.3147    87.9551     8.5403     0.0646     0.1213     2.4795
  210.0000   -36.0603     8.8652     8.2815    88.6552     8.5234     0.0760     0.1161     2.4795
  210.5000   -36.0963     8.8741     8.2484    93.4324     8.4828     0.0847     0.1213     2.4780
  211.0000   -36.0612     8.8828     8.2155    95.2722     8.4142     0.0839     0.1245     2.4725
  211.5000   -36.0159     8.8918     8.1925    94.3094     8.3006     0.0833     0.1217     2.4726
  212.0000   -35.9704     8.8998     8.1921    93.8983     8.2640     0.0829     0.1232     2.4726
  212.5000   -35.9251     8.7392     8.1931    93.8911     8.2430     0.0767     0.1254     2.4709
  213.0000   -35.8998     8.5956     8.1246    93.8251     8.2226     0.0677     0.1257     2.4686
  213.5000   -35.9000     8.4544     8.0730    92.2600     8.1997     0.0572     0.1320     2.4685
  214.0000   -35.9000     8.3155     8.0216    92.3019     8.1250     0.0447     0.1394     2.4587
  214.5000   -35.9000     8.1925     7.9705    93.0450     8.0476     0.0331     0.1469     2.4361
  215.0000   -35.9000     8.1682     7.9197    95.0501     7.9705     0.0334     0.1540     2.4298
  215.5000   -35.9000     8.1461     7.8693    95.6394     7.8915     0.0343     0.1540     2.4278
  216.0000   -35.9000     8.1241     7.8242    90.6216     7.8097     0.0359     0.1526     2.4280
  216.5000   -35.9001     8.1021     7.8242    86.2077     7.7275     0.0407     0.1468     2.4363
  217.0000   -35.8994     8.0802     7.8241    85.0443     7.6466     0.0416     0.1468     2.4376
  217.5000   -35.9399     8.0583     7.8242    84.6698     7.6428     0.0428     0.1464     2.4391
  218.0000   -36.0017     8.0423     7.8242    83.2515     7.6432     0.0439     0.1368     2.4489
  218.5000   -36.0641     8.0376     7.8242    82.9266     7.6477     0.0426     0.1333     2.4531
  219.0000   -36.1265     8.0334     7.8242    83.7281     7.6783     0.0310     0.1434     2.4445
  219.5000   -36.1890     8.0291     7.8242    85.1882     7.7188     0.0269     0.1460     2.4362
  220.0000   -36.2511     8.0249     7.8242    86.6796     7.7356     0.0268     0.1480     2.4344
  220.5000   -36.3003     8.0206     7.8247    85.3611     7.7572     0.0296     0.1436     2.4354
  221.0000   -36.3356     8.0164     7.8072    84.5930     7.7791     0.0308     0.1469     2.4321
