~VERSION INFORMATION
 VERS.                2.0:   CWLS LOG ASCII STANDARD - VERSION 2.0
 WRAP.                 NO:   ONE LINE PER DEPTH STEP
~WELL INFORMATION
#MNEM.UNIT      DATA TYPE    INFORMATION
#----------   ------------   ------------------------------
 STRT.F            0.1000:   START DEPTH
 STOP.F          550.8000:   STOP DEPTH
 STEP.F            0.1000:   STEP LENGTH
 NULL.          -999.2500:   NO VALUE
 COMP.       F D SERV INC:   COMPANY
 WELL.  82-1 SX 10 #82-10:   WELL
 FLD .             TEAPOT:   FIELD
 LOC .      S10 T38N R78W:   LOCATION
 CNTY.            NATRONA:   COUNTY
 STAT.            WYOMING:   STATE
 CTRY. UNITED STATES OF AMERICA:   COUNTRY
 SRVC.     Atlas Wireline:   SERVICE COMPANY
 DATE.        11-DEC-1992:   LOGDATE
 API .       490252257600:   API NUMBER
~CURVE INFORMATION
#MNEM.UNIT       API CODE    CURVE DESCRIPTION
#----------   ------------   ------------------------------
 DEPT.F                  :   
 GRR .GAPI   07 310 01 00:   GAMMA RAY
 RILD.OHMM   07 120 46 00:   INDUCTION LOG DEEP RESISTIVITY
 RILM.OHMM   07 120 44 00:   INDUCTION LOG MEDIUM RESISTIVITY
~PARAMETER INFORMATION
#MNEM.UNIT          VALUE    DESCRIPTION
#----------   ------------   ------------------------------
 PD  .                 GL:   PERMANENT DATUM
 EPD .F              5136:   ELEVATION PERMANENT DATUM
 LMF .                 KB:   LOG MEASURED FROM
 DAPD.F                10:   FEET ABOVE PERMANENT DATUM
 DMF .                 KB:   DRILLING MEASURED FROM
 EKB .F              5146:   KELLING BUSHING
 EDF .F              5145:   DRILLING FLOOR
 EGL .F              5136:   GROUND LEVEL
 DATE.        11-DEC-1992:   RUN DATE
 RUN .                  1:   RUN NUMBER
 DD  .F               560:   DEPTH DRILLER
 DL  .F               560:   DEPTH LOGGER
 BLI .F               551:   BOTTOM LOG INTERVAL
 CS  .IN            8.625:   CASING SIZE
 CBD .F                53:   CASING BOTTOM DRILLER
 CBL .F                54:   CASING BOTTOM LOGGER
 BS  .IN            7.875:   BIT SIZE
 BSD .F               560:   BIT SIZE AT DEPTH
 DFT .           AIR FOAM:   DRILLING FLUID TYPE
 BHT .F                60:   BOTTOM HOLE TEMPERATURE
 MRT .F                60:   MAXIMUM RECORDED TEMPERATURE
 LUN .           HL- 6274:   LOGGING UNIT NUMBER
 LUL .             CASPER:   LOGGING UNIT LOCATION
 ENGI.       P. RASMUSSEN:   RECORDING ENGINEER
 WITN.          G. STRONG:   WITNESSED BY
 CLNT.            A2DTECH:   CLIENT CODE
 ORIG.           5" PRINT:   ORIGIN OF DATA
 UWI .       490252257600:   UNIQUE WELL ID
 DICO. A2D Technologies, Inc.:   DIGITIZING COMPANY
~OTHER INFORMATION
~A    DEPT      GRR      RILD       RILM   
# ...
  218.5000   127.0707     8.1648     8.0697
  218.6000   127.6367     8.1647     8.0699
  218.7000   128.4102     8.1646     8.0701
  218.8000   129.2846     8.1645     8.0703
  218.9000   129.9573     8.1644     8.0730
  219.0000   130.5484     8.1643     8.1268
  219.1000   130.7832     8.1642     8.1270
  219.2000   130.6835     8.1640     8.1272
  219.3000   130.4233     8.1639     8.1554
  219.4000   130.1630     8.1638     8.1841
  219.5000   129.8735     8.1637     8.1968
  219.6000   129.8719     8.1636     8.2413
  219.7000   129.4960     8.1635     8.2416
  219.8000   129.2668     8.1634     8.2880
  219.9000   129.1625     8.1632     8.2992
  220.0000   128.9023     8.2085     8.3301
  220.1000   128.6241     8.2197     8.3572
  220.2000   128.0564     8.2345     8.3725
  220.3000   127.8207     8.2590     8.4157
  220.4000   127.5605     8.2765     8.4159
  220.5000   127.4496     8.2824     8.4162
  220.6000   127.4478     8.3338     8.4164
  220.7000   127.5108     8.3815     8.4166
  220.8000   127.7674     8.3915     8.4169
  220.9000   128.0438     8.3914     8.4171
  221.0000   128.7579     8.3913     8.4173
  221.1000   129.5315     8.3911     8.4176
  221.2000   130.1510     8.3985     8.4178
  221.3000   130.6661     8.4492     8.4180
  221.4000   131.1811     8.4491     8.4183
  221.5000   131.7503     8.4490     8.4185
  221.6000   132.8432     8.4489     8.4187
  221.7000   133.3279     8.4487     8.4190
  221.8000   133.6421     8.4486     8.4192
  221.9000   133.7402     8.4396     8.4194
  222.0000   133.7384     8.3901     8.4197
  222.1000   133.7365     8.3900     8.4199
  222.2000   133.7347     8.3899     8.4201
  222.3000   133.7329     8.3897     8.4204
  222.4000   133.7311     8.3896     8.4206
  222.5000   133.5238     8.3895     8.4208
  222.6000   133.2636     8.3894     8.4211
  222.7000   132.8824     8.3893     8.3734
  222.8000   132.4423     8.3892     8.3635
  222.9000   132.1639     8.3890     8.3637
  223.0000   131.7744     8.3889     8.3401
  223.1000   131.3850     8.3888     8.3065
  223.2000   130.9955     8.3887     8.3068
  223.3000   130.6060     8.3886     8.3070
  223.4000   130.2166     8.3885     8.3073
  223.5000   129.5519     8.3884     8.3075
  223.6000   128.6337     8.3882     8.3077
  223.7000   127.6969     8.3881     8.3079
  223.8000   126.9197     8.3880     8.2901
  223.9000   126.1425     8.3879     8.2511
  224.0000   125.2810     8.3878     8.2514
  224.1000   124.8186     8.3877     8.2516
  224.2000   124.2999     8.3875     8.2518
  224.3000   123.9270     8.3874     8.2520
  224.4000   123.6668     8.3873     8.2523
  224.5000   123.4677     8.3872     8.2525
  224.6000   123.5035     8.3871     8.2527
  224.7000   124.0654     8.3870     8.2530
  224.8000   124.2987     8.3868     8.2532
  224.9000   124.7480     8.3867     8.2077
  225.0000   125.1128     8.3866     8.1968
  225.1000   125.4775     8.3865     8.1970
  225.2000   125.9926     8.3864     8.1972
  225.3000   126.4842     8.3863     8.1974
  225.4000   126.7596     8.3861     8.1977
  225.5000   127.2371     8.3860     8.1979
  225.6000   127.7522     8.3859     8.1981
  225.7000   128.0348     8.3858     8.1984
  225.8000   128.1622     8.3857     8.1986
  225.9000   128.3248     8.3856     8.1988
  226.0000   128.5536     8.3854     8.1990
  226.1000   128.5515     8.3853     8.1993
  226.2000   128.5498     8.3852     8.1995
  226.3000   128.5480     8.3851     8.1997
  226.4000   128.5462     8.3850     8.1579
  226.5000   128.6617     8.3849     8.1437
  226.6000   128.8433     8.3848     8.1439
  226.7000   128.8415     8.3846     8.1441
  226.8000   128.8396     8.3845     8.1443
  226.9000   128.8379     8.3844     8.1446
  227.0000   129.0426     8.3843     8.1448
  227.1000   129.1350     8.3842     8.1011
  227.2000   129.1332     8.3841     8.0891
  227.3000   129.1314     8.3839     8.0893
  227.4000   129.1296     8.3838     8.0896
  227.5000   129.1278     8.3635     8.0898
  227.6000   129.1257     8.3257     8.0900
  227.7000   129.3353     8.3256     8.0902
  227.8000   129.5920     8.3255     8.0905
  227.9000   130.1017     8.3254     8.0525
  228.0000   130.8752     8.3253     8.0351
  228.1000   131.6068     8.3252     8.0354
  228.2000   132.1227     8.3035     8.0205
  228.3000   133.0229     8.2675     7.9730
  228.4000   133.4528     8.2674     7.9257
  228.5000   133.6211     8.2672     7.8713
  228.6000   133.7504     8.2205     7.8715
  228.7000   133.9182     8.1716     7.8400
  228.8000   133.8699     8.1229     7.8177
  228.9000   133.6138     8.0745     7.8179
  229.0000   133.6118     8.0264     7.8088
  229.1000   133.3899     7.9786     7.7644
  229.2000   132.9516     7.9300     7.7647
  229.3000   132.2971     7.8752     7.7242
  229.4000   131.5200     7.8369     7.6784
  229.5000   130.6917     7.7600     7.6330
  229.6000   129.6560     7.6904     7.5878
  229.7000   128.4864     7.6446     7.5429
  229.8000   127.5850     7.5914     7.4982
  229.9000   127.0974     7.5013     7.4506
  230.0000   126.9774     7.3986     7.3689
  230.1000   126.9756     7.2515     7.2818
  230.2000   127.0296     7.1381     7.2217
  230.3000   127.2729     7.0534     7.1598
  230.4000   127.2708     6.9550     7.0751
  230.5000   127.2692     6.8394     6.9913
  230.6000   127.4546     6.7582     6.9062
  230.7000   127.5852     6.6680     6.8116
  230.8000   127.6171     6.5989     6.7137
  230.9000   127.6490     6.5207     6.6204
  231.0000   127.6809     6.4644     6.5230
  231.1000   127.7129     6.4111     6.4074
  231.2000   127.7448     6.3435     6.2874
  231.3000   127.7767     6.3057     6.1384
  231.4000   127.8086     6.2645     5.9330
  231.5000   127.8405     6.1975     5.8133
  231.6000   127.8508     6.1240     5.7000
  231.7000   127.9719     6.0102     5.5991
  231.8000   128.2286     5.8828     5.5122
  231.9000   128.4852     5.7698     5.4399
  232.0000   128.7458     5.6367     5.3454
  232.1000   129.0445     5.5298     5.2760
  232.2000   129.6794     5.4087     5.2197
  232.3000   130.2831     5.2574     5.1580
  232.4000   130.9257     5.1212     5.0794
  232.5000   131.5714     5.0136     4.9770
  232.6000   131.9573     4.9165     4.8597
  232.7000   132.3428     4.8004     4.7450
  232.8000   132.6409     4.6826     4.6273
  232.9000   132.8561     4.6293     4.5243
  233.0000   132.9383     4.5314     4.4178
  233.1000   132.8044     4.4247     4.3138
  233.2000   132.5442     4.2730     4.2007
  233.3000   132.1889     4.0883     4.0772
  233.4000   131.4117     3.9478     3.9539
  233.5000   130.5231     3.8302     3.8136
  233.6000   129.8574     3.7255     3.6335
  233.7000   128.7222     3.6001     3.5448
  233.8000   127.8384     3.4937     3.4273
  233.9000   127.3197     3.4214     3.3069
  234.0000   126.9053     3.3407     3.1775
  234.1000   126.9035     3.2298     3.0395
  234.2000   126.9014     3.1542     2.9494
  234.3000   126.6739     3.1114     2.8333
  234.4000   126.5973     3.0642     2.7605
  234.5000   126.5955     2.9613     2.6682
  234.6000   126.4946     2.8403     2.6000
  234.7000   126.2344     2.7357     2.5661
  234.8000   125.9596     2.6617     2.5509
  234.9000   125.3851     2.6151     2.5370
  235.0000   124.9224     2.5805     2.5371
  235.1000   124.2154     2.5669     2.5232
  235.2000   123.4382     2.5626     2.5197
  235.3000   122.5574     2.5541     2.5198
  235.4000   121.6445     2.5449     2.5199
  235.5000   121.1068     2.5413     2.5243
  235.6000   120.2597     2.5272     2.5375
  235.7000   119.0820     2.5272     2.5376
  235.8000   118.1738     2.5272     2.5376
  235.9000   117.2461     2.5271     2.5377
  236.0000   116.2106     2.5271     2.5378
  236.1000   115.2409     2.5271     2.5378
  236.2000   114.4874     2.5270     2.5429
  236.3000   113.9313     2.5270     2.5582
  236.4000   112.9704     2.5270     2.5734
  236.5000   112.1323     2.5269     2.5735
  236.6000   111.5104     2.5269     2.5867
