~VERSION INFORMATION
 VERS.                2.0:   CWLS LOG ASCII STANDARD - VERSION 2.0
 WRAP.                 NO:   ONE LINE PER DEPTH STEP
~WELL INFORMATION
#MNEM.UNIT      DATA TYPE    INFORMATION
#----------   ------------   ------------------------------
 STRT.F           25.0000:   START DEPTH
 STOP.F          681.0000:   STOP DEPTH
 STEP.F            0.5000:   STEP LENGTH
 NULL.          -999.2500:   NO VALUE
 COMP. FENIX & SCISSON INC:   COMPANY
 WELL.    56-SX-34 #56-34:   WELL
 FLD .             TEAPOT:   FIELD
 LOC .      S34 T39N R78W:   LOCATION
 CNTY.            NATRONA:   COUNTY
 STAT.            WYOMING:   STATE
 CTRY. UNITED STATES OF AMERICA:   COUNTRY
 SRVC.            Unknown:   SERVICE COMPANY
 DATE.        28-JAN-1979:   LOGDATE
 API .       490251077200:   API NUMBER
~CURVE INFORMATION
#MNEM.UNIT       API CODE    CURVE DESCRIPTION
#----------   ------------   ------------------------------
 DEPT.F                  :   
 SPR .MV     05 010 01 00:   SPONTANEOUS POTENTIAL FROM RES.
 DRHO.G/C3   45 356 01 00:   DENSITY CORRECTION
 RHOB.G/C3   45 350 01 00:   BULK DENSITY
 DPHI.DEC    45 890 12 00:   DENSITY POROSITY SANDSTONE
 CALD.IN     45 280 60 00:   CALIPER
 GRD .GAPI   45 310 01 00:   GAMMA RAY FROM DENSITY LOG
 SN  .OHMM   05 040 16 00:   SHORT NORMAL 16'
 ILD .OHMM   05 120 46 00:   INDUCTION LOG DEEP RESISTIVITY
~PARAMETER INFORMATION
#MNEM.UNIT          VALUE    DESCRIPTION
#----------   ------------   ------------------------------
 PD  .                 GL:   PERMANENT DATUM
 EPD .F              5088:   ELEVATION PERMANENT DATUM
 LMF .                 KB:   LOG MEASURED FROM
 DAPD.F                 4:   FEET ABOVE PERMANENT DATUM
 DMF .                 KB:   DRILLING MEASURED FROM
 EKB .F              5092:   KELLING BUSHING
 EGL .F              5088:   GROUND LEVEL
 DATE.            1-28-79:   RUN DATE
 RUN .                  1:   RUN NUMBER
 DD  .F               680:   DEPTH DRILLER
 DL  .F               681:   DEPTH LOGGER
 BLI .F               679:   BOTTOM LOG INTERVAL
 TLI .F                40:   TOP LOG INTERVAL
 CS  .IN            8.625:   CASING SIZE
 CBD .F                40:   CASING BOTTOM DRILLER
 CBL .F                40:   CASING BOTTOM LOGGER
 BS  .IN            7.875:   BIT SIZE
 BSD .F               680:   BIT SIZE AT DEPTH
 DFT .                KCL:   DRILLING FLUID TYPE
 DFD .                8.9:   DRILLING FLUID DENSITY
 DFV .                 43:   DRILLING FLUID VISCOSITY
 DFPH.                8.5:   DRILLING FLUID PH
 DFL .                9.8:   DRILLING FLUID LOSS
 MSS .           FLOWLINE:   MUD SAMPLE SOURCE
 RMS .OHMM            1.5:   RESISTIVITY MUD SAMPLE
 MST .F                66:   MUD SAMPLE TEMPERATURE
 RMF .OHMM            1.3:   RESISTIVITY MUD FILTRATE SAMPLE
 MFST.F                76:   MUD FILTRATE SAMPLE TEMPERATURE
 RMC .OHMM            1.3:   RESISTIVITY MUD CAKE
 MCST.F                78:   MUD CAKE SAMPLE TEMPERATURE
 MFSS.           MEASURED:   MUD FILTRATE SAMPLE SOURCE
 MCSS.           MEASURED:   MUD CAKE SAMPLE SOURCE
 RMB .OHMM            1.3:   RESISTIVITY MUD AT BHT
 BHT .F                76:   BOTTOM HOLE TEMPERATURE
 TCS .HRS               3:   TIME CURCULATED STOPPED
 MRT .F                76:   MAXIMUM RECORDED TEMPERATURE
 LUN .               3006:   LOGGING UNIT NUMBER
 LUL .             CASPER:   LOGGING UNIT LOCATION
 ENGI.            ROLLINS:   RECORDING ENGINEER
 WITN.              AMEND:   WITNESSED BY
 CLNT.            A2DTECH:   CLIENT CODE
 ORIG.       2", 5" PRINT:   ORIGIN OF DATA
 UWI .       490251077200:   UNIQUE WELL ID
 DICO. A2D Technologies, Inc.:   DIGITIZING COMPANY
~OTHER INFORMATION
~A   DEPT      SPR       DRHO       RHOB       DPHI       CALD         GRD        SN        ILD   
# ...
  430.0000   -44.4551     0.0558     2.5010     0.1139     8.1146   107.3412     7.1992     7.8340
  430.5000   -44.4554     0.0511     2.4957     0.1181     8.1136   111.0765     7.3331     8.1183
  431.0000   -44.4555     0.0462     2.4848     0.1240     8.1137   109.5299     7.4050     8.1937
  431.5000   -44.4554     0.0439     2.4730     0.1275     8.1140   104.1861     7.3996     8.1622
  432.0000   -44.4554     0.0456     2.4662     0.1297     8.1213   102.5511     7.3020     8.0567
  432.5000   -44.4554     0.0462     2.4607     0.1298     8.1574   106.3875     7.1921     7.9527
  433.0000   -44.4554     0.0468     2.4609     0.1299     8.1920   107.3125     7.0838     7.8500
  433.5000   -44.4554     0.0472     2.4609     0.1300     8.1905   108.2464     6.9772     7.7485
  434.0000   -44.4554     0.0447     2.4609     0.1313     8.3297   106.7569     6.8734     7.6486
  434.5000   -44.4554     0.0377     2.4595     0.1336     8.2345   105.4109     6.6401     7.5673
  435.0000   -44.4554     0.0388     2.4511     0.1358     8.2121   105.3160     6.4173     7.4633
  435.5000   -44.4554     0.0396     2.4493     0.1415     8.2120   105.2268     6.2021     7.3605
  436.0000   -44.4554     0.0352     2.4388     0.1509     8.2166   106.6477     5.9940     6.9803
  436.5000   -44.4554     0.0386     2.4242     0.1565     8.3090   108.3492     5.7929     6.5379
  437.0000   -44.4554     0.0505     2.4093     0.1566     8.4008   108.3568     5.5304     6.1239
  437.5000   -44.4554     0.0623     2.4039     0.1562     8.4919   107.7540     5.1449     5.7370
  438.0000   -44.4554     0.0680     2.4107     0.1543     8.4543   107.1889     4.7863     5.4045
  438.5000   -44.4554     0.0617     2.4263     0.1465     8.3384   105.9502     4.4070     5.4274
  439.0000   -44.4554     0.0558     2.4421     0.1386     8.6632   104.7912     4.4066     5.4535
  439.5000   -44.4553     0.0517     2.4563     0.1301     8.2886   103.6130     4.5580     5.4796
  440.0000   -44.4560     0.0523     2.4601     0.1265     8.4688   102.4056     4.8225     5.5054
  440.5000   -44.4697     0.0527     2.4637     0.1226     8.3408   101.8529     5.2297     5.9075
  441.0000   -44.4833     0.0531     2.4715     0.1205     8.2773   102.8137     5.6690     6.3301
  441.5000   -44.4968     0.0536     2.4800     0.1205     8.2527   105.8314     6.1452     6.7828
  442.0000   -44.5103     0.0540     2.4791     0.1203     8.2540   109.8186     6.6854     7.2680
  442.5000   -44.5238     0.0545     2.4780     0.1193     8.2559   113.6737     7.0668     7.7879
  443.0000   -44.5373     0.0549     2.4788     0.1184     8.2576   114.7310     7.0668     8.1183
  443.5000   -44.5508     0.0554     2.4835     0.1177     8.2592   115.3365     7.0668     8.1411
  444.0000   -44.5643     0.0557     2.4895     0.1177     8.2609   113.1930     7.0668     8.1729
  444.5000   -44.5778     0.0556     2.4898     0.1178     8.2626   112.4348     7.1040     8.2048
  445.0000   -44.5913     0.0546     2.4859     0.1180     8.2642   109.0233     7.2384     8.2369
  445.5000   -44.6048     0.0505     2.4843     0.1184     8.2659   105.7660     7.3752     8.2691
  446.0000   -44.6183     0.0466     2.4848     0.1196     8.2676   108.2760     7.5147     8.3014
  446.5000   -44.6318     0.0437     2.4807     0.1201     8.2693   113.4831     7.5394     8.3446
  447.0000   -44.6451     0.0447     2.4780     0.1198     8.2709   113.3641     7.5322     8.3351
  447.5000   -44.6383     0.0456     2.4791     0.1195     8.2716   113.5349     7.5145     8.3162
  448.0000   -44.5990     0.0465     2.4821     0.1192     8.2675   114.2632     7.4969     8.2973
  448.5000   -44.5602     0.0474     2.4839     0.1189     8.2636   114.0917     7.4792     8.2785
  449.0000   -44.5213     0.0483     2.4833     0.1189     8.2597   112.2155     7.4617     8.2597
  449.5000   -44.4827     0.0492     2.4828     0.1189     8.2557   110.5980     7.4441     8.2409
  450.0000   -44.4549     0.0497     2.4822     0.1189     8.2518   110.5939     7.4266     8.2222
  450.5000   -44.4555     0.0500     2.4820     0.1189     8.2478   111.1976     7.4092     8.2037
  451.0000   -44.4555     0.0503     2.4829     0.1189     8.2439   111.8705     7.3918     8.1939
  451.5000   -44.4554     0.0506     2.4838     0.1189     8.2399   111.9440     7.3744     8.1935
  452.0000   -44.4554     0.0509     2.4848     0.1202     8.2361   111.8559     7.3570     8.1924
  452.5000   -44.4554     0.0512     2.4838     0.1234     8.2326   111.8664     7.3398     8.1964
  453.0000   -44.4554     0.0515     2.4765     0.1267     8.2425   115.8239     7.2785     8.1982
  453.5000   -44.4554     0.0519     2.4688     0.1300     8.2605   116.4095     7.1472     7.9272
  454.0000   -44.4554     0.0537     2.4611     0.1322     8.2782   116.9804     7.0184     7.5070
  454.5000   -44.4554     0.0556     2.4539     0.1340     8.2911   116.5852     6.8300     7.2129
  455.0000   -44.4554     0.0575     2.4515     0.1357     8.3236   114.5900     6.5418     7.0050
  455.5000   -44.4553     0.0594     2.4492     0.1342     8.3761   115.8411     6.2659     6.8031
  456.0000   -44.4559     0.0557     2.4543     0.1296     8.5492   117.7654     6.0015     6.7376
  456.5000   -44.4717     0.0516     2.4634     0.1248     9.2499   117.3713     5.8195     6.7185
  457.0000   -44.5345     0.0516     2.4725     0.1237     8.1477   116.9436     6.0388     6.6994
  457.5000   -44.5954     0.0517     2.4722     0.1244     8.2718   116.9328     5.4045     6.6804
  458.0000   -44.6537     0.0556     2.4712     0.1254     8.2837   118.6735     5.6947     6.6614
  458.5000   -44.6926     0.0600     2.4703     0.1294     8.2879   117.7541     5.9824     6.6425
  459.0000   -44.7301     0.0644     2.4619     0.1417     8.2656   116.7310     6.0949     6.6238
  459.5000   -44.7674     0.0688     2.4367     0.1547     8.2435   117.3145     5.9832     6.2613
  460.0000   -44.8051     0.0732     2.4077     0.1683     8.2356   120.0778     5.4885     5.9226
  460.5000   -44.8451     0.0776     2.3787     0.1731     8.2589   123.6264     5.0321     5.6023
  461.0000   -44.7855     0.0775     2.3768     0.1698     8.2793   124.9208     4.6181     5.4045
  461.5000   -44.7004     0.0627     2.4002     0.1551     8.3644   120.4076     4.2104     5.3939
  462.0000   -44.6143     0.0479     2.4258     0.1391     8.8610   116.2220     4.9729     5.3828
  462.5000   -44.5283     0.0489     2.4512     0.1255     8.4491   115.4841     4.7170     5.3717
  463.0000   -44.4423     0.0505     2.4723     0.1245     8.1362   115.5178     4.2890     5.3548
  463.5000   -44.3561     0.0521     2.4715     0.1255     8.0889   110.1880     4.9738     5.5677
  464.0000   -44.2702     0.0536     2.4693     0.1265     8.0815   105.7548     5.7013     6.2100
  464.5000   -44.2575     0.0529     2.4689     0.1249     8.0954   108.2784     6.4426     6.9295
  465.0000   -44.2585     0.0521     2.4716     0.1209     8.1098   114.0098     6.5963     7.6137
  465.5000   -44.2586     0.0514     2.4751     0.1213     8.1242   113.7381     6.6854     7.9279
  466.0000   -44.4144     0.0505     2.4769     0.1228     8.1339   112.9172     6.7475     8.1992
  466.5000   -44.6678     0.0496     2.4760     0.1243     8.1292   107.1944     6.7144     7.9556
  467.0000   -44.9232     0.0538     2.4736     0.1284     8.1234   104.0345     6.6277     7.3331
  467.5000   -45.1857     0.0587     2.4686     0.1341     8.1176   107.6477     6.5421     7.0073
  468.0000   -45.2459     0.0636     2.4511     0.1431     8.1321   110.9573     6.3298     6.6818
  468.5000   -45.2480     0.0772     2.4337     0.1494     8.1747   109.3286     6.0177     6.3715
  469.0000   -45.2477     0.0974     2.4202     0.1477     8.1729   109.2623     5.5252     6.0755
  469.5000   -45.2475     0.1120     2.4263     0.1431     8.1519   110.8523     4.8369     5.9281
  470.0000   -45.2475     0.0995     2.4393     0.1362     8.3777   111.6634     5.2566     5.9281
