~VERSION INFORMATION
 VERS.                2.0:   CWLS LOG ASCII STANDARD - VERSION 2.0
 WRAP.                 NO:   ONE LINE PER DEPTH STEP
~WELL INFORMATION
#MNEM.UNIT      DATA TYPE    INFORMATION
#----------   ------------   ------------------------------
 STRT.F           48.0000:   START DEPTH
 STOP.F          650.0000:   STOP DEPTH
 STEP.F            0.5000:   STEP LENGTH
 NULL.          -999.2500:   NO VALUE
 COMP. FENIX & SCISSON INC:   COMPANY
 WELL.    36 SX 34 #36-34:   WELL
 FLD .             TEAPOT:   FIELD
 LOC .      S34 T39N R78W:   LOCATION
 CNTY.            NATRONA:   COUNTY
 STAT.            WYOMING:   STATE
 CTRY. UNITED STATES OF AMERICA:   COUNTRY
 SRVC.            Unknown:   SERVICE COMPANY
 DATE.        19-JAN-1979:   LOGDATE
 API .       490251076800:   API NUMBER
~CURVE INFORMATION
#MNEM.UNIT       API CODE    CURVE DESCRIPTION
#----------   ------------   ------------------------------
 DEPT.F                  :   
 SPR .MV     05 010 01 00:   SPONTANEOUS POTENTIAL FROM RES.
 SN  .OHMM   05 040 16 00:   SHORT NORMAL 16"
 IL  .OHMM   05 120 00 00:   INDUCTION LOG
 CALD.IN     45 280 60 00:   CALIPER
 GRD .GAPI   45 310 01 00:   GAMMA RAY FROM DENSITY LOG
 RHOB.G/C3   45 350 01 00:   BULK DENSITY
 DPHI.DEC    45 890 12 00:   DENSITY POROSITY SANDSTONE
 CORR.G/C3   45 356 01 00:   DENSITY CORRECTION
~PARAMETER INFORMATION
#MNEM.UNIT          VALUE    DESCRIPTION
#----------   ------------   ------------------------------
 PD  .                 GL:   PERMANENT DATUM
 EPD .F              5125:   ELEVATION PERMANENT DATUM
 LMF .                 KB:   LOG MEASURED FROM
 DAPD.F                 4:   FEET ABOVE PERMANENT DATUM
 DMF .                 KB:   DRILLING MEASURED FROM
 EKB .F              5129:   KELLING BUSHING
 EGL .F              5125:   GROUND LEVEL
 DATE.            1-19-79:   RUN DATE
 RUN .                  1:   RUN NUMBER
 DD  .F               650:   DEPTH DRILLER
 DL  .F               650:   DEPTH LOGGER
 BLI .F               643:   BOTTOM LOG INTERVAL
 TLI .F                50:   TOP LOG INTERVAL
 CS  .IN            8.625:   CASING SIZE
 CBD .F                40:   CASING BOTTOM DRILLER
 CBL .F                36:   CASING BOTTOM LOGGER
 BS  .IN            7.875:   BIT SIZE
 BSD .F               650:   BIT SIZE AT DEPTH
 DFT .                KCL:   DRILLING FLUID TYPE
 DFD .                8.8:   DRILLING FLUID DENSITY
 DFV .                 34:   DRILLING FLUID VISCOSITY
 DFL .                8.8:   DRILLING FLUID LOSS
 MSS .           FLOWLINE:   MUD SAMPLE SOURCE
 RMS .OHMM            .17:   RESISTIVITY MUD SAMPLE
 MST .F                62:   MUD SAMPLE TEMPERATURE
 RMF .OHMM            .15:   RESISTIVITY MUD FILTRATE SAMPLE
 MFST.F                62:   MUD FILTRATE SAMPLE TEMPERATURE
 RMC .OHMM            .22:   RESISTIVITY MUD CAKE
 MCST.F                63:   MUD CAKE SAMPLE TEMPERATURE
 MFSS.           MEASURED:   MUD FILTRATE SAMPLE SOURCE
 MCSS.           MEASURED:   MUD CAKE SAMPLE SOURCE
 RMB .OHMM            .18:   RESISTIVITY MUD AT BHT
 BHT .F                60:   BOTTOM HOLE TEMPERATURE
 TCS .HRS               3:   TIME CURCULATED STOPPED
 MRT .F                60:   MAXIMUM RECORDED TEMPERATURE
 LUN .                 30:   LOGGING UNIT NUMBER
 LUL .             CASPER:   LOGGING UNIT LOCATION
 ENGI.         B. ROLLINS:   RECORDING ENGINEER
 WITN.           DINSMORE:   WITNESSED BY
 CLNT.            A2DTECH:   CLIENT CODE
 ORIG.           5" PRINT:   ORIGIN OF DATA
 UWI .       490251076800:   UNIQUE WELL ID
 DICO. A2D Technologies, Inc.:   DIGITIZING COMPANY
~OTHER INFORMATION
~A   DEPT      SPR           SN        IL      CALD        GRD       RHOB       DPHI       CORR   
# ...
   88.5000   -54.0610     5.6000     6.3910     8.2400   104.9760     2.4610     0.1200     0.0410
   89.0000   -53.6580     5.6340     6.4230     8.2420   106.0030     2.4600     0.1220     0.0360
   89.5000   -54.0150     5.6690     6.4560     8.2440   109.1820     2.4600     0.1230     0.0320
   90.0000   -54.7040     5.7030     6.4880     8.2450   112.1740     2.4600     0.1210     0.0280
   90.5000   -55.4080     5.7370     6.5200     8.2470   109.4900     2.4600     0.1170     0.0250
   91.0000   -55.4360     5.7710     6.5520     8.2480   110.5870     2.4610     0.1120     0.0260
   91.5000   -54.9550     5.8060     6.5840     8.2460   112.2960     2.4740     0.1050     0.0300
   92.0000   -54.1800     5.8400     6.6160     8.4220   113.4020     2.4900     0.0960     0.0330
   92.5000   -53.8770     5.8740     6.6480     8.4140   110.9500     2.5060     0.0870     0.0360
   93.0000   -55.2080     5.9080     6.6810     8.3460   106.1380     2.5230     0.0830     0.0340
   93.5000   -56.4890     5.9430     6.7130     8.2740   101.1800     2.5340     0.0900     0.0330
   94.0000   -57.5660     5.9770     6.7450     8.2680   100.2990     2.5130     0.1030     0.0310
   94.5000   -57.5720     6.0110     6.7770     8.2670    99.6340     2.4910     0.1170     0.0290
   95.0000   -57.0250     6.0450     6.8090     8.2650    99.0540     2.4700     0.1190     0.0290
   95.5000   -56.5120     6.0800     6.8410     8.2630   100.3740     2.4740     0.1140     0.0310
   96.0000   -56.1060     6.1140     6.8730     8.2610   103.0450     2.4820     0.1100     0.0330
   96.5000   -55.6790     6.1480     6.9060     8.2590   105.6930     2.4900     0.1070     0.0360
   97.0000   -55.9300     6.1820     6.9380     8.2580   108.3420     2.4940     0.1050     0.0340
   97.5000   -56.2190     6.2170     6.9700     8.2560   111.2970     2.4890     0.1070     0.0320
   98.0000   -55.4440     6.2510     7.0020     8.2540   109.7200     2.4870     0.1080     0.0300
   98.5000   -54.8490     6.2850     7.0340     8.2520   106.7020     2.4880     0.1080     0.0330
   99.0000   -54.5480     6.3200     7.0660     8.2310   108.6500     2.4900     0.1070     0.0350
   99.5000   -54.2430     6.3540     7.0980     8.1980   111.3020     2.4900     0.1080     0.0330
  100.0000   -53.9340     6.3880     7.1310     8.2160   112.1240     2.4820     0.1120     0.0280
  100.5000   -53.7830     6.4650     7.1630     8.3770   108.3170     2.4750     0.1150     0.0230
  101.0000   -54.3970     6.5250     7.1950     8.6020   105.2750     2.4720     0.1170     0.0220
  101.5000   -55.1050     6.5250     7.2270     8.2660   104.5800     2.4680     0.1190     0.0210
  102.0000   -55.4500     6.5230     7.2590     8.2490   103.0800     2.4640     0.1210     0.0200
  102.5000   -55.5900     6.5100     7.2920     8.2590   100.2400     2.4630     0.1210     0.0190
  103.0000   -55.7310     6.4970     7.3600     8.3100    99.7120     2.4640     0.1220     0.0200
  103.5000   -55.8750     6.4850     7.3670     8.4800   102.3770     2.4680     0.1220     0.0210
  104.0000   -56.1030     6.4720     7.3760     8.3920   104.5130     2.4650     0.1220     0.0220
  104.5000   -56.6030     6.4590     7.3850     8.3090   106.4630     2.4620     0.1210     0.0230
  105.0000   -57.0870     6.4460     7.3950     8.4280   105.3090     2.4620     0.1210     0.0240
  105.5000   -57.1270     6.4340     7.4040     8.5820   103.4790     2.4620     0.1210     0.0250
  106.0000   -56.4660     6.4210     7.4130     8.3410   100.5520     2.4630     0.1200     0.0260
  106.5000   -55.7970     6.4080     7.4230     8.2470    97.4980     2.4640     0.1190     0.0270
  107.0000   -55.5190     6.4050     7.4320     8.2320   100.7570     2.4690     0.1180     0.0280
  107.5000   -55.9610     6.4070     7.4410     8.2310   106.8640     2.4740     0.1170     0.0290
  108.0000   -56.2730     6.4200     7.4510     8.2310   112.4160     2.4720     0.1160     0.0300
  108.5000   -56.4810     6.4330     7.4600     8.2310   109.7010     2.4700     0.1150     0.0300
  109.0000   -56.7050     6.4460     7.4690     8.2310   106.4150     2.4700     0.1150     0.0300
  109.5000   -56.1860     6.4590     7.4790     8.2310   103.2180     2.4700     0.1160     0.0260
  110.0000   -55.4150     6.4710     7.4880     8.2310   102.8430     2.4670     0.1200     0.0220
  110.5000   -56.0980     6.4840     7.4970     8.2310   104.6350     2.4610     0.1240     0.0180
  111.0000   -56.3660     6.4970     7.5070     8.2310   101.1940     2.4550     0.1280     0.0140
  111.5000   -55.8230     6.5100     7.5160     8.2310    97.0680     2.4520     0.1300     0.0100
  112.0000   -55.2900     6.5230     7.5260     8.2310   100.3270     2.4570     0.1250     0.0100
  112.5000   -54.7630     6.5360     7.5350     8.2310   104.8400     2.4710     0.1160     0.0190
  113.0000   -54.3940     6.5480     7.5440     8.2310   108.6490     2.4860     0.1080     0.0280
  113.5000   -54.5120     6.5610     7.5540     8.2310   110.4320     2.5000     0.1040     0.0380
  114.0000   -54.8470     6.5740     7.5630     8.2310   111.6810     2.4960     0.1050     0.0390
  114.5000   -55.4160     6.5870     7.5720     8.2310   107.1880     2.4910     0.1060     0.0380
  115.0000   -55.4530     6.6000     7.5820     8.2310   104.3310     2.4940     0.1040     0.0370
  115.5000   -54.7660     6.6120     7.5910     8.2310   101.7160     2.4960     0.1030     0.0350
  116.0000   -54.1940     6.6250     7.6000     8.2310    97.9970     2.4990     0.1020     0.0340
  116.5000   -54.9260     6.6380     7.6100     8.2310    94.7940     2.5010     0.1020     0.0330
  117.0000   -55.7330     6.6470     7.6190     8.2310    98.2640     2.4980     0.1030     0.0320
  117.5000   -56.5390     6.6010     7.6280     8.2310   101.8070     2.4940     0.1040     0.0320
  118.0000   -57.1950     6.5650     7.6370     8.2310   104.7140     2.4910     0.1050     0.0320
  118.5000   -56.4680     6.5300     7.5760     8.2310   109.3280     2.4850     0.1100     0.0290
  119.0000   -55.6570     6.4940     7.5030     8.2280   111.7000     2.4720     0.1170     0.0220
  119.5000   -54.8380     6.4580     7.4300     8.2180   108.6850     2.4600     0.1230     0.0160
  120.0000   -54.0350     6.4230     7.3570     8.2070   106.4460     2.4590     0.1250     0.0160
  120.5000   -54.7090     6.3870     7.2830     8.1960   106.4550     2.4620     0.1200     0.0190
  121.0000   -55.5190     6.3510     7.2100     8.1860   107.8040     2.4640     0.1160     0.0220
  121.5000   -55.5730     6.3150     7.1370     8.1750   109.3240     2.4670     0.1160     0.0240
  122.0000   -55.2450     6.2800     7.0640     8.1650   110.8700     2.4680     0.1180     0.0220
  122.5000   -54.7640     6.2300     6.9910     8.1540   112.3990     2.4650     0.1200     0.0200
  123.0000   -54.2830     6.2580     6.9620     8.1430   113.0920     2.4620     0.1190     0.0220
  123.5000   -53.9730     6.3280     6.9840     8.1330   113.7560     2.4670     0.1180     0.0290
  124.0000   -54.4830     6.3980     7.0410     8.1360   114.4350     2.4750     0.1160     0.0350
  124.5000   -55.3670     6.4670     7.0990     8.1400   114.4280     2.4790     0.1160     0.0360
  125.0000   -56.1540     6.5370     7.1560     8.1440   113.2280     2.4730     0.1170     0.0310
  125.5000   -56.1740     6.6060     7.2130     8.1480   112.0170     2.4670     0.1180     0.0250
  126.0000   -55.7500     6.6760     7.2710     8.1520   114.0700     2.4710     0.1190     0.0200
  126.5000   -55.1400     6.7460     7.3280     8.1560   115.8240     2.4730     0.1170     0.0140
  127.0000   -54.7740     6.8150     7.3850     8.1590   106.7510     2.4830     0.1120     0.0150
  127.5000   -55.0090     6.8850     7.4430     8.1640    99.6030     2.4980     0.1060     0.0190
  128.0000   -55.6260     6.9540     7.5000     8.1750    94.6200     2.5130     0.1000     0.0220
  128.5000   -56.1090     7.0240     7.5570     8.1300    90.9430     2.5230     0.0970     0.0250
