~VERSION INFORMATION
 VERS.                2.0:   CWLS LOG ASCII STANDARD - VERSION 2.0
 WRAP.                 NO:   ONE LINE PER DEPTH STEP
~WELL INFORMATION
#MNEM.UNIT      DATA TYPE    INFORMATION
#----------   ------------   ------------------------------
 STRT.F           40.0000:   START DEPTH
 STOP.F         3444.0000:   STOP DEPTH
 STEP.F            0.5000:   STEP LENGTH
 NULL.          -999.2500:   NO VALUE
 COMP.    FENIX & SCISSON:   COMPANY
 WELL.     13-A-10 #13-10:   WELL
 FLD .            WILDCAT:   FIELD
 LOC .      S10 T38N R78W:   LOCATION
 CNTY.            NATRONA:   COUNTY
 STAT.            WYOMING:   STATE
 CTRY. UNITED STATES OF AMERICA:   COUNTRY
 SRVC.       Schlumberger:   SERVICE COMPANY
 DATE.        08-JUL-1970:   LOGDATE
 API .       490251090300:   API NUMBER
~CURVE INFORMATION
#MNEM.UNIT       API CODE    CURVE DESCRIPTION
#----------   ------------   ------------------------------
 DEPT.F                  :   
 ASN .OHMM   05 041 16 00:   AMPLIFIED SHORT NORMAL 16"
 CILD.MMHO   05 110 46 00:   CONDUCTIVITY INDUCTION LOG DEEP
 ILD .OHMM   05 120 46 00:   INDUCTION LOG DEEP
 SPR .MV     05 010 01 00:   SPONTANEOUS POTENTIAL FROM RES.
 CALD.IN     45 280 60 00:   CALIPER FROM DENSITY
 CORR.G/C3   45 356 01 00:   DENSITY CORRECTION
 DPHI.DEC    45 890 12 00:   DENSITY POROSITY SANDSTONE
 RHOB.G/C3   45 350 01 00:   BULK DENSITY
~PARAMETER INFORMATION
#MNEM.UNIT          VALUE    DESCRIPTION
#----------   ------------   ------------------------------
 PD  .                 GL:   PERMANENT DATUM
 EPD .F              5295:   ELEVATION PERMANENT DATUM
 LMF .                 KB:   LOG MEASURED FROM
 DAPD.F                10:   FEET ABOVE PERMANENT DATUM
 DMF .                 KB:   DRILLING MEASURED FROM
 EKB .F              5305:   KELLING BUSHING
 EGL .F              5295:   GROUND LEVEL
 DATE.        08-JUL-1970:   RUN DATE
 RUN .                  3:   RUN NUMBER
 DD  .F              3450:   DEPTH DRILLER
 DL  .F              3444:   DEPTH LOGGER
 BLI .F              3443:   BOTTOM LOG INTERVAL
 TLI .F              2950:   TOP LOG INTERVAL
 CS  .IN            10.75:   CASING SIZE
 CBD .F               842:   CASING BOTTOM DRILLER
 BS  .IN                9:   BIT SIZE
 BSD .F              3450:   BIT SIZE AT DEPTH
 DFT .      FRESH GEL MUD:   DRILLING FLUID TYPE
 DFD .               10.4:   DRILLING FLUID DENSITY
 DFV .                 43:   DRILLING FLUID VISCOSITY
 DFPH.                7.6:   DRILLING FLUID PH
 DFL .                  8:   DRILLING FLUID LOSS
 MSS .           FLOWLINE:   MUD SAMPLE SOURCE
 RMS .OHMM              2:   RESISTIVITY MUD SAMPLE
 MST .F                85:   MUD SAMPLE TEMPERATURE
 RMF .OHMM            1.6:   RESISTIVITY MUD FILTRATE SAMPLE
 MFST.F                85:   MUD FILTRATE SAMPLE TEMPERATURE
 MFSS.               MEAS:   MUD FILTRATE SAMPLE SOURCE
 RMB .OHMM           1.49:   RESISTIVITY MUD AT BHT
 BHT .F               114:   BOTTOM HOLE TEMPERATURE
 TCS .HRS               3:   TIME CURCULATED STOPPED
 MRT .F               114:   MAXIMUM RECORDED TEMPERATURE
 LUN .               4507:   LOGGING UNIT NUMBER
 LUL .               CSPR:   LOGGING UNIT LOCATION
 ENGI.             TURNER:   RECORDING ENGINEER
 WITN.                MAY:   WITNESSED BY
 CLNT.            A2DTECH:   CLIENT CODE
 ORIG.     2.5", 5" PRINT:   ORIGIN OF DATA
 UWI .       490251090300:   UNIQUE WELL ID
 DICO. A2D Technologies, Inc.:   DIGITIZING COMPANY
~OTHER INFORMATION
~A   DEPT        ASN      CILD         ILD      SPR       CALD       CORR       DPHI       RHOB   
# ...
 1417.0000     8.9203   115.8499     8.6057   -53.4771  -999.2500  -999.2500  -999.2500  -999.2500
 1417.5000     8.8604   117.3747     8.6043   -53.4830  -999.2500  -999.2500  -999.2500  -999.2500
 1418.0000     8.8304   117.4114     8.6028   -53.4888  -999.2500  -999.2500  -999.2500  -999.2500
 1418.5000     8.8004   118.9363     8.6013   -53.4947  -999.2500  -999.2500  -999.2500  -999.2500
 1419.0000     8.7406   118.9732     8.5998   -53.5006  -999.2500  -999.2500  -999.2500  -999.2500
 1419.5000     8.6807   119.0104     8.5983   -53.5064  -999.2500  -999.2500  -999.2500  -999.2500
 1420.0000     8.6209   119.0476     8.5969   -53.5123  -999.2500  -999.2500  -999.2500  -999.2500
 1420.5000     8.5610   119.0848     8.5954   -53.5182  -999.2500  -999.2500  -999.2500  -999.2500
 1421.0000     8.5953   119.1220     8.5939   -53.5240  -999.2500  -999.2500  -999.2500  -999.2500
 1421.5000     8.7444   117.6684     8.7418   -53.5299  -999.2500  -999.2500  -999.2500  -999.2500
 1422.0000     8.8621   116.2171     8.7402   -53.5358  -999.2500  -999.2500  -999.2500  -999.2500
 1422.5000     8.9224   114.7657     8.8881   -53.5416  -999.2500  -999.2500  -999.2500  -999.2500
 1423.0000     8.9782   113.3143     8.8865   -53.5476  -999.2500  -999.2500  -999.2500  -999.2500
 1423.5000     9.0131   113.3557     9.0343   -53.5535  -999.2500  -999.2500  -999.2500  -999.2500
 1424.0000     9.0436   111.8996     9.1821   -53.5278  -999.2500  -999.2500  -999.2500  -999.2500
 1424.5000     9.0673   111.9419     9.1806   -53.2675  -999.2500  -999.2500  -999.2500  -999.2500
 1425.0000     9.0672   113.4672     9.3284   -53.2738  -999.2500  -999.2500  -999.2500  -999.2500
 1425.5000     9.0372   113.5045     9.4791   -53.2798  -999.2500  -999.2500  -999.2500  -999.2500
 1426.0000     9.0280   113.5417     9.6298   -53.5834  -999.2500  -999.2500  -999.2500  -999.2500
 1426.5000     9.0070   113.5789     9.7717   -53.2909  -999.2500  -999.2500  -999.2500  -999.2500
 1427.0000     9.0173   113.6161     9.7701   -53.2976  -999.2500  -999.2500  -999.2500  -999.2500
 1427.5000     9.0478   113.6533     9.7537   -53.3036  -999.2500  -999.2500  -999.2500  -999.2500
 1428.0000     9.1080   113.6905     9.6179   -53.3095  -999.2500  -999.2500  -999.2500  -999.2500
 1428.5000     9.1684   113.7277     9.5955   -53.3155  -999.2500  -999.2500  -999.2500  -999.2500
 1429.0000     9.2153   112.2768     9.4657   -53.3214  -999.2500  -999.2500  -999.2500  -999.2500
 1429.5000     9.2292   112.3140     9.3150   -53.3274  -999.2500  -999.2500  -999.2500  -999.2500
 1430.0000     9.2448   112.3585     9.2836   -53.3334  -999.2500  -999.2500  -999.2500  -999.2500
 1430.5000     9.2603   112.3952     9.1626   -53.3393  -999.2500  -999.2500  -999.2500  -999.2500
 1431.0000     9.2743   113.9201     9.1254   -53.3452  -999.2500  -999.2500  -999.2500  -999.2500
 1431.5000     9.2741   113.9568     9.0104   -53.0536  -999.2500  -999.2500  -999.2500  -999.2500
 1432.0000     9.2740   113.9935     9.0090   -52.8849  -999.2500  -999.2500  -999.2500  -999.2500
 1432.5000     9.2142   114.0302     9.0075   -52.4714  -999.2500  -999.2500  -999.2500  -999.2500
 1433.0000     9.1842   114.0669     9.0060   -52.4772  -999.2500  -999.2500  -999.2500  -999.2500
 1433.5000     9.1840   114.1036     9.0045   -52.4831  -999.2500  -999.2500  -999.2500  -999.2500
 1434.0000     9.2137   114.1403     9.0030   -52.4890  -999.2500  -999.2500  -999.2500  -999.2500
 1434.5000     9.2434   114.1770     9.0015   -52.7924  -999.2500  -999.2500  -999.2500  -999.2500
 1435.0000     9.2433   114.2138     9.0000   -53.0959  -999.2500  -999.2500  -999.2500  -999.2500
 1435.5000     9.2730   112.7624     8.9985   -53.3994  -999.2500  -999.2500  -999.2500  -999.2500
 1436.0000     9.2728   112.7991     8.9970   -53.7029  -999.2500  -999.2500  -999.2500  -999.2500
 1436.5000     9.2727   112.8358     8.9269   -53.7088  -999.2500  -999.2500  -999.2500  -999.2500
 1437.0000     9.2725   111.3844     8.8448   -53.7146  -999.2500  -999.2500  -999.2500  -999.2500
 1437.5000     9.2425   109.9330     8.8433   -54.0181  -999.2500  -999.2500  -999.2500  -999.2500
 1438.0000     9.2424   108.4817     8.8418   -54.0240  -999.2500  -999.2500  -999.2500  -999.2500
 1438.5000     9.2124   108.5194     8.8403   -54.0298  -999.2500  -999.2500  -999.2500  -999.2500
 1439.0000     9.1824   108.5566     8.8388   -54.0357  -999.2500  -999.2500  -999.2500  -999.2500
 1439.5000     9.1822   108.5937     8.7507   -54.0417  -999.2500  -999.2500  -999.2500  -999.2500
 1440.0000     9.1522   108.8290     8.6863   -53.7498  -999.2500  -999.2500  -999.2500  -999.2500
 1440.5000     9.1214   110.3941     8.5355   -53.7560  -999.2500  -999.2500  -999.2500  -999.2500
 1441.0000     9.0892   111.9597     8.5341   -53.7619  -999.2500  -999.2500  -999.2500  -999.2500
 1441.5000     9.0279   113.5248     8.5326   -53.7679  -999.2500  -999.2500  -999.2500  -999.2500
 1442.0000     8.9665   115.0892     8.3819   -53.7738  -999.2500  -999.2500  -999.2500  -999.2500
 1442.5000     8.8716   117.7455     8.3804   -53.7153  -999.2500  -999.2500  -999.2500  -999.2500
 1443.0000     8.7245   119.2708     8.2296   -53.4874  -999.2500  -999.2500  -999.2500  -999.2500
 1443.5000     8.5736   120.7962     8.2282   -53.1956  -999.2500  -999.2500  -999.2500  -999.2500
 1444.0000     8.4167   122.8373     8.0774   -53.2024  -999.2500  -999.2500  -999.2500  -999.2500
 1444.5000     8.2718   124.4024     8.0760   -52.9097  -999.2500  -999.2500  -999.2500  -999.2500
 1445.0000     8.1880   126.8601     7.9252   -52.8075  -999.2500  -999.2500  -999.2500  -999.2500
 1445.5000     8.1357   128.3855     7.9237   -52.6238  -999.2500  -999.2500  -999.2500  -999.2500
 1446.0000     8.0758   129.9108     7.7730   -52.6309  -999.2500  -999.2500  -999.2500  -999.2500
 1446.5000     8.0361   129.9479     7.7715   -52.5010  -999.2500  -999.2500  -999.2500  -999.2500
 1447.0000     8.0158   130.7391     7.6208   -52.3452  -999.2500  -999.2500  -999.2500  -999.2500
 1447.5000     8.0045   131.5104     7.6193   -52.3512  -999.2500  -999.2500  -999.2500  -999.2500
 1448.0000     7.9737   133.0357     7.4686   -52.3571  -999.2500  -999.2500  -999.2500  -999.2500
 1448.5000     7.9557   133.0729     7.4671   -52.3631  -999.2500  -999.2500  -999.2500  -999.2500
 1449.0000     7.9123   133.1172     7.3164   -52.0714  -999.2500  -999.2500  -999.2500  -999.2500
 1449.5000     7.8815   133.1539     7.3149   -52.0784  -999.2500  -999.2500  -999.2500  -999.2500
 1450.0000     7.8955   133.1906     7.1642   -52.0843  -999.2500  -999.2500  -999.2500  -999.2500
 1450.5000     7.8953   133.2273     7.1627   -52.0902  -999.2500  -999.2500  -999.2500  -999.2500
 1451.0000     7.8788   133.2641     7.1612   -51.7984  -999.2500  -999.2500  -999.2500  -999.2500
 1451.5000     7.8652   133.3008     7.1597   -51.8043  -999.2500  -999.2500  -999.2500  -999.2500
 1452.0000     7.8650   134.8256     7.1582   -51.5125  -999.2500  -999.2500  -999.2500  -999.2500
 1452.5000     7.8649   133.3742     7.1716   -51.5184  -999.2500  -999.2500  -999.2500  -999.2500
 1453.0000     7.8946   133.4109     7.3046   -51.5243  -999.2500  -999.2500  -999.2500  -999.2500
 1453.5000     7.8945   133.4476     7.3030   -51.5301  -999.2500  -999.2500  -999.2500  -999.2500
 1454.0000     7.8943   133.4843     7.3015   -51.5360  -999.2500  -999.2500  -999.2500  -999.2500
 1454.5000     7.8942   133.5211     7.4494   -51.5419  -999.2500  -999.2500  -999.2500  -999.2500
 1455.0000     7.8642   135.0459     7.4776   -51.5477  -999.2500  -999.2500  -999.2500  -999.2500
 1455.5000     7.8939   133.5938     7.5957   -51.5536  -999.2500  -999.2500  -999.2500  -999.2500
 1456.0000     7.8937   133.6312     7.5940   -51.5595  -999.2500  -999.2500  -999.2500  -999.2500
 1456.5000     8.0130   132.1798     7.5925   -51.5655  -999.2500  -999.2500  -999.2500  -999.2500
 1457.0000     8.0725   130.6695     7.7405   -51.5715  -999.2500  -999.2500  -999.2500  -999.2500
