~VERSION INFORMATION
 VERS.                2.0:   CWLS LOG ASCII STANDARD - VERSION 2.0
 WRAP.                 NO:   ONE LINE PER DEPTH STEP
~WELL INFORMATION
#MNEM.UNIT      DATA TYPE    INFORMATION
#----------   ------------   ------------------------------
 STRT.F            0.0000:   START DEPTH
 STOP.F          664.0000:   STOP DEPTH
 STEP.F            0.5000:   STEP LENGTH
 NULL.          -999.2500:   NO VALUE
 COMP. Fluor Daniel (NPOSR) Inc:   COMPANY
 WELL.      71-3-X-3 #3-3:   WELL
 FLD .             N.P.R.:   FIELD
 LOC .       S3 T38N R78W:   LOCATION
 CNTY.            NATRONA:   COUNTY
 STAT.            WYOMING:   STATE
 CTRY. UNITED STATES OF AMERICA:   COUNTRY
 SRVC.      Western Atlas:   SERVICE COMPANY
 DATE.        12-APR-1996:   LOGDATE
 API .       490252277200:   API NUMBER
~CURVE INFORMATION
#MNEM.UNIT       API CODE    CURVE DESCRIPTION
#----------   ------------   ------------------------------
 DEPT.F                  :   
 GRR .GAPI   07 310 01 00:   GAMMA RAY FROM RES. LOG.
 RILD.OHMM   07 120 46 00:   INDUCTION LOG DEEP RESISTIVITY
 RILM.OHMM   07 120 44 00:   INDUCTION LOG MEDIUM RESISTIVITY
~PARAMETER INFORMATION
#MNEM.UNIT          VALUE    DESCRIPTION
#----------   ------------   ------------------------------
 PD  .                 GL:   PERMANENT DATUM
 EPD .F              5118:   ELEVATION PERMANENT DATUM
 LMF .                 KB:   LOG MEASURED FROM
 DAPD.F                10:   FEET ABOVE PERMANENT DATUM
 DMF .                 KB:   DRILLING MEASURED FROM
 EKB .F              5128:   KELLING BUSHING
 EDF .F              5127:   DRILLING FLOOR
 EGL .F              5118:   GROUND LEVEL
 DATE.        12-APR-1996:   RUN DATE
 RUN .                  1:   RUN NUMBER
 DD  .F               670:   DEPTH DRILLER
 DL  .F               672:   DEPTH LOGGER
 BLI .F               664:   BOTTOM LOG INTERVAL
 CS  .IN            9.625:   CASING SIZE
 CBD .F                56:   CASING BOTTOM DRILLER
 CBL .F                57:   CASING BOTTOM LOGGER
 BS  .IN             8.75:   BIT SIZE
 BSD .F               670:   BIT SIZE AT DEPTH
 DFT .                AIR:   DRILLING FLUID TYPE
 MRT .F                84:   MAXIMUM RECORDED TEMPERATURE
 LUN .             HL6530:   LOGGING UNIT NUMBER
 LUL .             CASPER:   LOGGING UNIT LOCATION
 ENGI.             RAUTIO:   RECORDING ENGINEER
 WITN.              HARDY:   WITNESSED BY
 CLNT.            A2DTECH:   CLIENT CODE
 ORIG.       2", 5" PRINT:   ORIGIN OF DATA
 UWI .       490252277200:   UNIQUE WELL ID
 DICO. A2D Technologies, Inc.:   DIGITIZING COMPANY
~OTHER INFORMATION
~A    DEPT      GRR      RILD       RILM   
# ...
  273.0000   118.6636     7.5821     7.7177
  273.5000   121.4246     7.4995     7.6391
  274.0000   124.6958     7.5689     7.5954
  274.5000   126.5622     7.5229     7.5690
  275.0000   125.9231     7.4841     7.5792
  275.5000   124.3150     7.4307     7.5868
  276.0000   121.5318     7.4428     7.5943
  276.5000   118.7203     7.4626     7.6018
  277.0000   115.9177     7.4825     7.6093
  277.5000   114.4445     7.5024     7.6168
  278.0000   116.4412     7.5224     7.6244
  278.5000   118.4927     7.5424     7.6320
  279.0000   118.6668     7.5689     7.6386
  279.5000   121.3565     7.5252     7.6087
  280.0000   125.0359     7.4619     7.5808
  280.5000   125.9777     7.4224     7.5530
  281.0000   125.9594     7.4060     7.5253
  281.5000   125.9528     7.3896     7.4977
  282.0000   125.6753     7.3732     7.4703
  282.5000   123.6583     7.3330     7.4429
  283.0000   121.8114     7.2482     7.3949
  283.5000   121.1617     7.1681     7.3306
  284.0000   120.0110     7.0901     7.2670
  284.5000   118.3077     7.0129     7.1586
  285.0000   119.3962     6.8971     6.9816
  285.5000   121.2871     6.7243     6.8089
  286.0000   122.4925     6.5257     6.5645
  286.5000   119.5878     6.2292     6.3125
  287.0000   117.2579     5.9461     6.0702
  287.5000   118.0648     5.7416     5.8483
  288.0000   119.1959     5.7947     5.9024
  288.5000   122.0742     5.8207     5.9430
  289.0000   124.8365     5.8964     6.0048
  289.5000   125.1069     5.9731     6.1502
  290.0000   123.9036     6.0740     6.3579
  290.5000   122.0296     6.2009     6.5727
  291.0000   119.0986     6.5017     6.7947
  291.5000   115.0294     6.8504     6.9772
  292.0000   113.2826     6.9347     7.0588
  292.5000   117.9304     7.0201     7.1413
  293.0000   123.7543     7.1066     7.2249
  293.5000   126.2038     7.1619     7.2951
  294.0000   127.2700     7.1316     7.2624
  294.5000   127.5353     7.1096     7.2203
  295.0000   126.6924     7.0876     7.1785
  295.5000   124.0727     7.0656     7.1368
  296.0000   121.9941     7.0437     7.0955
  296.5000   122.4900     6.9757     7.0543
  297.0000   122.7682     6.8471     6.9645
  297.5000   121.6302     6.7209     6.8137
  298.0000   120.3929     6.5641     6.6662
  298.5000   120.6703     6.3736     6.5346
  299.0000   122.1557     6.1816     6.2953
  299.5000   122.6711     5.7912     6.0447
  300.0000   121.1681     5.3834     5.6059
  300.5000   119.6341     4.9694     5.1827
  301.0000   118.8227     4.7708     4.9094
  301.5000   118.0209     4.9175     5.0343
  302.0000   117.1983     5.0501     5.1922
  302.5000   117.1539     5.1965     5.4184
  303.0000   117.5175     5.5851     5.6748
  303.5000   120.1713     5.4848     5.9409
  304.0000   122.3176     5.7737     6.2233
  304.5000   122.5784     6.1918     6.5167
  305.0000   122.6605     6.4818     6.7471
  305.5000   125.3195     6.7006     6.9144
  306.0000   128.1413     6.8326     7.0870
  306.5000   129.7991     6.9672     7.2011
  307.0000   128.5316     7.1044     7.2699
  307.5000   126.2233     7.1619     7.3393
  308.0000   125.9310     7.2222     7.4094
  308.5000   125.6232     7.2991     7.4801
  309.0000   124.4306     7.3768     7.5516
  309.5000   122.6782     7.4553     7.6237
  310.0000   122.0777     7.5347     7.6965
  310.5000   124.9544     7.6149     7.7603
  311.0000   127.4838     7.6960     7.8424
  311.5000   128.6759     7.7215     7.9254
  312.0000   127.5233     7.7491     8.0093
  312.5000   126.2054     7.7768     8.0729
  313.0000   124.5894     7.8103     8.0888
  313.5000   123.8471     7.8557     8.1076
  314.0000   123.0458     7.9014     8.1264
  314.5000   120.5305     7.9255     8.1473
  315.0000   118.0618     7.8832     8.1063
  315.5000   117.2257     7.8501     8.0597
  316.0000   119.5652     7.8171     8.0131
  316.5000   120.5024     7.7842     7.9668
  317.0000   120.7335     7.7494     7.9208
  317.5000   120.9538     7.7046     7.8751
  318.0000   121.6125     7.6605     7.8499
  318.5000   123.4749     7.6246     7.8242
  319.0000   125.1016     7.5977     7.7984
  319.5000   125.9770     7.5689     7.7813
  320.0000   125.0998     7.3384     7.6007
  320.5000   122.4730     7.0995     7.4080
  321.0000   122.4036     6.8519     7.1583
  321.5000   124.9047     6.5239     6.7952
  322.0000   127.4931     6.2116     6.4523
  322.5000   129.4715     5.9143     6.1239
  323.0000   129.5835     5.3799     5.5708
  323.5000   128.1705     4.7254     5.0545
  324.0000   124.8479     4.1505     4.4027
  324.5000   121.5246     3.6257     3.7024
  325.0000   123.1077     3.1552     3.3345
  325.5000   126.8023     2.7458     2.9059
  326.0000   126.4711     2.4806     2.5710
  326.5000   123.0473     2.2954     2.3751
  327.0000   118.6365     2.2440     2.3498
  327.5000   112.3170     2.2345     2.3747
  328.0000   107.2893     2.2235     2.4196
  328.5000   107.0701     2.3440     2.5344
  329.0000   115.1405     2.4605     2.7474
  329.5000   123.2518     2.7719     3.1087
  330.0000   127.8140     3.1057     3.5616
  330.5000   128.5376     3.6522     4.1073
  331.0000   127.6533     4.0089     4.6885
  331.5000   127.8278     4.6029     5.0994
  332.0000   129.0235     5.1144     5.5153
  332.5000   132.3527     5.6066     5.8636
  333.0000   136.2949     6.0566     6.1065
  333.5000   136.7782     6.3206     6.1813
  334.0000   134.6022     6.4139     6.1806
  334.5000   131.6335     6.3887     6.1806
  335.0000   129.4034     6.3535     6.1806
  335.5000   129.1048     6.3193     6.1822
  336.0000   128.7597     6.1914     6.1825
  336.5000   128.3870     5.8862     5.7163
  337.0000   129.1516     5.5851     5.3337
  337.5000   132.1966     5.0565     4.9080
  338.0000   135.4180     4.5511     4.4997
  338.5000   137.7367     4.3411     4.1253
  339.0000   137.5690     4.2183     3.9722
  339.5000   136.9741     4.0991     4.0323
  340.0000   136.2474     3.9832     4.0840
  340.5000   132.7141     3.9358     4.1377
  341.0000   130.7986     4.0369     4.3012
  341.5000   130.9263     4.1707     4.5560
  342.0000   131.1167     4.4312     4.8251
  342.5000   132.3786     4.7079     5.1103
  343.0000   134.2912     5.0020     5.3913
  343.5000   134.7415     5.3144     5.6679
  344.0000   135.1752     5.6368     5.9587
  344.5000   136.4944     5.8973     6.2645
  345.0000   136.2525     6.2277     6.5863
  345.5000   135.5441     6.5782     6.8728
  346.0000   135.6658     6.8173     7.0080
  346.5000   138.6964     6.9895     7.1457
  347.0000   139.0713     7.1644     7.2865
  347.5000   137.9103     7.2951     7.4307
  348.0000   136.9475     7.2011     7.3455
  348.5000   136.0425     7.0946     7.2489
  349.0000   135.5347     6.9897     7.1536
  349.5000   135.8970     6.8864     7.0595
  350.0000   136.4757     6.7839     6.9666
  350.5000   135.9706     6.6900     6.8772
  351.0000   135.4772     6.4495     6.6419
  351.5000   135.2729     6.2180     6.4146
  352.0000   136.3216     5.9231     6.1806
  352.5000   139.5341     5.5044     5.7112
  353.0000   143.3910     5.1154     5.2469
  353.5000   143.7322     4.7539     4.8240
  354.0000   143.9907     4.4849     4.6067
  354.5000   145.3503     4.2759     4.5189
  355.0000   145.7511     4.4096     4.5491
  355.5000   143.8901     4.5367     4.6695
  356.0000   140.7708     4.6343     4.9646
  356.5000   138.9895     4.7291     5.2783
  357.0000   136.3617     5.0142     5.6120
  357.5000   135.7923     5.3862     5.9664
  358.0000   136.8846     5.7848     6.3043
  358.5000   139.4914     6.2116     6.6031
  359.0000   140.3040     6.6701     6.9169
  359.5000   140.3652     6.8824     7.0100
  360.0000   139.5510     6.9454     7.0616
  360.5000   138.7495     7.0097     7.1136
  361.0000   138.3215     7.0751     7.1659
  361.5000   138.3243     7.1411     7.2186
  362.0000   138.6017     7.2077     7.2717
  362.5000   140.5258     7.2476     7.3252
  363.0000   142.3532     7.2757     7.3626
  363.5000   141.6155     7.2951     7.3533
