~VERSION INFORMATION
 VERS.                2.0:   CWLS LOG ASCII STANDARD - VERSION 2.0
 WRAP.                 NO:   ONE LINE PER DEPTH STEP
~WELL INFORMATION
#MNEM.UNIT      DATA TYPE    INFORMATION
#----------   ------------   ------------------------------
 STRT.F           30.0000:   START DEPTH
 STOP.F          597.0000:   STOP DEPTH
 STEP.F            0.5000:   STEP LENGTH
 NULL.          -999.2500:   NO VALUE
 COMP. FENIX & SCISSON-U.S. NAVY:   COMPANY
 WELL.    NPR #3 #15-S-11:   WELL
 FLD .             TEAPOT:   FIELD
 LOC .      S11 T38N R78W:   LOCATION
 CNTY.            NATRONA:   COUNTY
 STAT.            WYOMING:   STATE
 CTRY. UNITED STATES OF AMERICA:   COUNTRY
 SRVC.       Schlumberger:   SERVICE COMPANY
 DATE.        22-FEB-1977:   LOGDATE
 API .       490251028000:   API NUMBER
~CURVE INFORMATION
#MNEM.UNIT       API CODE    CURVE DESCRIPTION
#----------   ------------   ------------------------------
 DEPT.F                  :   
 SPR .MV     07 010 01 00:   SPONTANEOUS POTENTIAL
 ILD .OHMM   07 120 46 00:   INDUCTION LOG DEEP RES
 ILM .OHMM   07 120 44 00:   INDUCTION LOG MEDIUM RES
 LL8 .OHMM   07 220 08 00:   LATEROLOG-8 RES
 CALD.IN     45 280 60 00:   CALIPER FROM DENSITY LOG
 GRD .GAPI   45 310 01 00:   GAMMA RAY FROM DENSITY LOG
 CORR.G/C3   45 356 01 00:   DENSITY CORRECTION
 RHOB.G/C3   45 350 01 00:   BULK DENSITY
 DPHI.DEC    45 890 12 00:   DENSITY POROSITY SANDSTONE
~PARAMETER INFORMATION
#MNEM.UNIT          VALUE    DESCRIPTION
#----------   ------------   ------------------------------
 PD  .                 GL:   PERMANENT DATUM
 EPD .F              5188:   ELEVATION PERMANENT DATUM
 LMF .                 KB:   LOG MEASURED FROM
 DAPD.F                 5:   FEET ABOVE PERMANENT DATUM
 DMF .                 KB:   DRILLING MEASURED FROM
 EKB .F              5193:   KELLING BUSHING
 EGL .F              5188:   GROUND LEVEL
 DATE.         22FEB-1977:   RUN DATE
 RUN .                  1:   RUN NUMBER
 DD  .F               598:   DEPTH DRILLER
 DL  .F               598:   DEPTH LOGGER
 BLI .F               597:   BOTTOM LOG INTERVAL
 TLI .F                35:   TOP LOG INTERVAL
 CS  .IN            8.625:   CASING SIZE
 CBD .F                42:   CASING BOTTOM DRILLER
 CBL .F                45:   CASING BOTTOM LOGGER
 BS  .IN            7.875:   BIT SIZE
 BSD .F               598:   BIT SIZE AT DEPTH
 DFT .                KCL:   DRILLING FLUID TYPE
 DFD .                8.7:   DRILLING FLUID DENSITY
 DFV .                 31:   DRILLING FLUID VISCOSITY
 DFPH.                  8:   DRILLING FLUID PH
 DFL .                7.2:   DRILLING FLUID LOSS
 MSS .           MUD TANK:   MUD SAMPLE SOURCE
 RMS .OHMM           .526:   RESISTIVITY MUD SAMPLE
 MST .F                70:   MUD SAMPLE TEMPERATURE
 RMF .OHMM           .515:   RESISTIVITY MUD FILTRATE SAMPLE
 MFST.F                71:   MUD FILTRATE SAMPLE TEMPERATURE
 RMC .OHMM            .77:   RESISTIVITY MUD CAKE
 MCST.F                70:   MUD CAKE SAMPLE TEMPERATURE
 MFSS.               MEAS:   MUD FILTRATE SAMPLE SOURCE
 MCSS.               CALC:   MUD CAKE SAMPLE SOURCE
 RMB .OHMM            .67:   RESISTIVITY MUD AT BHT
 BHT .F                55:   BOTTOM HOLE TEMPERATURE
 TCS .HRS            0600:   TIME CURCULATED STOPPED
 MRT .F                55:   MAXIMUM RECORDED TEMPERATURE
 LUN .               5642:   LOGGING UNIT NUMBER
 LUL .               CSPR:   LOGGING UNIT LOCATION
 ENGI.                FIX:   RECORDING ENGINEER
 WITN.         STUEBINGER:   WITNESSED BY
 CLNT.            A2DTECH:   CLIENT CODE
 ORIG.           5" PRINT:   ORIGIN OF DATA
 UWI .       490251028000:   UNIQUE WELL ID
 DICO. A2D Technologies, Inc.:   DIGITIZING COMPANY
~OTHER INFORMATION
~A   DEPT      SPR        ILD        ILM        LL8       CALD         GRD      CORR       RHOB       DPHI   
   30.0000  -999.2500  -999.2500  -999.2500  -999.2500  -999.2500    99.0274  -999.2500  -999.2500  -999.2500
   30.5000  -999.2500  -999.2500  -999.2500  -999.2500  -999.2500    99.1886  -999.2500  -999.2500  -999.2500
   31.0000  -999.2500  -999.2500  -999.2500  -999.2500  -999.2500    98.0005  -999.2500  -999.2500  -999.2500
   31.5000  -999.2500  -999.2500  -999.2500  -999.2500  -999.2500    96.0627  -999.2500  -999.2500  -999.2500
   32.0000  -999.2500  -999.2500  -999.2500  -999.2500  -999.2500    97.7232  -999.2500  -999.2500  -999.2500
   32.5000  -999.2500  -999.2500  -999.2500  -999.2500  -999.2500   100.2832  -999.2500  -999.2500  -999.2500
   33.0000  -999.2500  -999.2500  -999.2500  -999.2500  -999.2500   101.0441  -999.2500  -999.2500  -999.2500
   33.5000  -999.2500  -999.2500  -999.2500  -999.2500  -999.2500   100.0060  -999.2500  -999.2500  -999.2500
   34.0000  -999.2500  -999.2500  -999.2500  -999.2500  -999.2500    99.8645  -999.2500  -999.2500  -999.2500
   34.5000  -999.2500  -999.2500  -999.2500  -999.2500  -999.2500   100.8857  -999.2500  -999.2500  -999.2500
   35.0000  -999.2500  -999.2500  -999.2500  -999.2500  -999.2500   103.4357  -999.2500  -999.2500  -999.2500
   35.5000  -999.2500  -999.2500  -999.2500  -999.2500  -999.2500   104.7189  -999.2500  -999.2500  -999.2500
   36.0000  -999.2500  -999.2500  -999.2500  -999.2500  -999.2500   104.3479  -999.2500  -999.2500  -999.2500
   36.5000  -999.2500  -999.2500  -999.2500  -999.2500  -999.2500   103.3521  -999.2500  -999.2500  -999.2500
   37.0000  -999.2500  -999.2500  -999.2500  -999.2500  -999.2500   103.2306  -999.2500  -999.2500  -999.2500
   37.5000  -999.2500  -999.2500  -999.2500  -999.2500  -999.2500   103.5670  -999.2500  -999.2500  -999.2500
   38.0000  -999.2500  -999.2500  -999.2500  -999.2500  -999.2500   101.9738  -999.2500  -999.2500  -999.2500
   38.5000  -999.2500  -999.2500  -999.2500  -999.2500  -999.2500   100.1161  -999.2500  -999.2500  -999.2500
   39.0000  -999.2500  -999.2500  -999.2500  -999.2500  -999.2500   101.9415  -999.2500  -999.2500  -999.2500
   39.5000  -999.2500  -999.2500  -999.2500  -999.2500  -999.2500   104.0418  -999.2500  -999.2500  -999.2500
   40.0000  -999.2500  -999.2500  -999.2500  -999.2500  -999.2500   104.4977  -999.2500  -999.2500  -999.2500
   40.5000  -999.2500  -999.2500  -999.2500  -999.2500  -999.2500    99.5615  -999.2500  -999.2500  -999.2500
   41.0000  -999.2500  -999.2500  -999.2500  -999.2500  -999.2500    97.7737  -999.2500  -999.2500  -999.2500
   41.5000  -999.2500  -999.2500  -999.2500  -999.2500  -999.2500   101.0833  -999.2500  -999.2500  -999.2500
   42.0000  -999.2500  -999.2500  -999.2500  -999.2500  -999.2500   105.5924  -999.2500  -999.2500  -999.2500
   42.5000  -999.2500  -999.2500  -999.2500  -999.2500  -999.2500   106.3533  -999.2500  -999.2500  -999.2500
   43.0000  -999.2500  -999.2500  -999.2500  -999.2500  -999.2500   108.9133  -999.2500  -999.2500  -999.2500
   43.5000  -999.2500  -999.2500  -999.2500  -999.2500  -999.2500   115.0715  -999.2500  -999.2500  -999.2500
   44.0000  -999.2500  -999.2500  -999.2500  -999.2500  -999.2500   123.8748  -999.2500  -999.2500  -999.2500
   44.5000  -999.2500  -999.2500  -999.2500  -999.2500  -999.2500   132.2368  -999.2500  -999.2500  -999.2500
   45.0000  -999.2500  -999.2500    11.2692  1491.6130     8.2332   139.1892  -999.2500     2.1007     0.2603
   45.5000  -999.2500  -999.2500    10.8338  1494.1899     8.4284   144.2943     0.0008     2.1255     0.2437
   46.0000  -999.2500  -999.2500     8.0085  1507.1411     8.3097   148.7988     0.0181     2.3095     0.2142
   46.5000  -999.2500  -999.2500     7.3342  1509.7448     8.1910   150.6006    -0.0364     2.3110     0.2048
   47.0000  -999.2500  -999.2500     5.5383  1512.3530     8.2368   149.5495    -0.0281     2.3058     0.2088
   47.5000  -999.2500  -999.2500     3.7424   791.3276     8.2676   148.9489    -0.0251     2.3231     0.2012
   48.0000  -999.2500     1.0514     3.4967  1581.0879     8.2685   149.9200    -0.0325     2.3373     0.1961
   48.5000  -999.2500     2.4441     3.7034  1540.6772     8.2694   153.5323    -0.0164     2.3449     0.1889
   49.0000  -999.2500     3.5504     3.7111  1522.8308     8.2703   154.6546    -0.0136     2.3366     0.1892
   49.5000  -999.2500     4.7468     5.1227  1463.5592     8.2712   153.1532    -0.0241     2.3321     0.1973
   50.0000  -999.2500     5.9635     6.2593   932.8467     8.2720   155.1051    -0.0060     2.3501     0.1864
   50.5000  -999.2500     5.1029     5.5091   499.4579     8.2729   151.2012    -0.0202     2.3411     0.1855
   51.0000  -999.2500     4.3848     5.0716  1497.8689     8.2589   145.3811    -0.0060     2.3351     0.1937
   51.5000  -999.2500     4.1780     4.7667  1498.4995     8.2448   144.0463    -0.0022     2.3516     0.1806
   52.0000  -999.2500     4.0374     4.5422  1488.6589     8.2457   142.8616    -0.0007     2.3711     0.1650
   52.5000  -999.2500     3.9565     5.6551  1489.4424     8.2765   142.7238     0.0158     2.3869     0.1623
   53.0000  -999.2500     4.0823     6.8227  1343.7998     8.2774   146.4982    -0.0014     2.3651     0.1748
   53.5000  -999.2500     4.9532     7.7413   823.2244     8.2783   148.4667    -0.0126     2.3539     0.1853
   54.0000  -999.2500     5.5975     5.7915  1470.8727     8.2792   147.8826    -0.0306     2.3403     0.1915
   54.5000  -999.2500     5.3923     5.1503  1471.4918     8.2801   147.7449    -0.0216     2.3358     0.1943
   55.0000  -999.2500     4.8273     5.0457  1472.0735     8.2661   151.8168    -0.0081     2.3539     0.1854
   55.5000  -999.2500     4.4527     4.9432  1472.6991     8.2670   152.7342     0.0032     2.3689     0.1744
   56.0000  -999.2500     4.3355     4.8428  1473.3247     8.2679   150.9489    -0.0021     2.3494     0.1849
   56.5000  -999.2500     4.3968     4.7771  1473.9503     8.2688   148.5631     0.0039     2.3554     0.1761
   57.0000  -999.2500     4.3978     4.7453  1474.5759     8.2697   149.6306     0.0294     2.3787     0.1673
   57.5000  -999.2500     4.4601     4.7795  1475.2014     8.2556   154.9038     0.0474     2.3870     0.1601
   58.0000  -999.2500     4.4970     4.8138  1475.8270     8.2266   156.7221     0.0324     2.3989     0.1548
   58.5000  -999.2500     4.5556     4.9158  1476.4526     8.1976   154.1861     0.0070     2.3862     0.1630
   59.0000  -999.2500     4.5997     5.0200  1477.0782     8.1836   149.9998    -0.0012     2.3779     0.1662
   59.5000  -999.2500     4.7243     5.0910  1477.7039     8.1695   147.9114     0.0212     2.3877     0.1646
   60.0000  -999.2500     4.8516     5.2350  1478.3295     8.1405   149.8799     0.0242     2.3953     0.1568
   60.5000  -999.2500     4.9888     5.3459  1478.9550     8.1414   147.3438    -0.0049     2.3696     0.1678
   61.0000  -999.2500     5.1299     5.4970  1479.5806     8.1423   142.2552    -0.0378     2.3516     0.1830
   61.5000  -999.2500     5.2386     5.6135  1480.2062     8.1432   142.5721    -0.0326     2.3426     0.1864
   62.0000  -999.2500     5.4241     5.7325  1480.8318     8.1441   146.1922    -0.0101     2.3817     0.1713
   62.5000  -999.2500     5.6162     5.8540  1481.4574     8.1450   149.0616     0.0011     2.3929     0.1576
   63.0000  -999.2500     5.8554     6.0195  1482.0830     8.1758   148.3273     0.0064     2.4020     0.1517
   63.5000  -999.2500     5.9795     6.1897  1482.7085     8.2066   145.6411    -0.0026     2.3862     0.1574
   64.0000  -999.2500     6.1485     6.3647  1483.3341     8.2374   145.6577    -0.0228     2.3757     0.1646
   64.5000  -999.2500     6.3224     6.5447  1483.9597     8.2532   146.1246    -0.0400     2.3696     0.1708
   65.0000  -999.2500     6.4564     6.7297  1484.5853     8.2541   147.4925    -0.0235     2.3696     0.1690
   65.5000  -999.2500     6.6850     6.9200  1485.2109     8.2550   148.8604    -0.0310     2.3779     0.1704
   66.0000  -196.7093     6.8266     7.0666  1485.8365     8.2559   145.1231     0.0005     2.3974     0.1512
