~VERSION INFORMATION
 VERS.                2.0:   CWLS LOG ASCII STANDARD - VERSION 2.0
 WRAP.                 NO:   ONE LINE PER DEPTH STEP
~WELL INFORMATION
#MNEM.UNIT      DATA TYPE    INFORMATION
#----------   ------------   ------------------------------
 STRT.F           17.0000:   START DEPTH
 STOP.F          634.0000:   STOP DEPTH
 STEP.F            0.5000:   STEP LENGTH
 NULL.          -999.2500:   NO VALUE
 COMP. FENIX & SCISSON INC:   COMPANY
 WELL.        NPR 3 #72-3:   WELL
 FLD .             TEAPOT:   FIELD
 LOC .       S3 T38N R78W:   LOCATION
 CNTY.            NATRONA:   COUNTY
 STAT.            WYOMING:   STATE
 CTRY. UNITED STATES OF AMERICA:   COUNTRY
 SRVC.           BIRDWELL:   SERVICE COMPANY
 DATE.        24-SEP-1978:   LOGDATE
 API .       490251069100:   API NUMBER
~CURVE INFORMATION
#MNEM.UNIT       API CODE    CURVE DESCRIPTION
#----------   ------------   ------------------------------
 DEPT.F                  :   
 SPR .MV     05 010 01 00:   SPONTANEOUS POTENTIAL FROM RES.
 SN  .OHMM   05 040 16 00:   SHORT NORMAL 16"
 ILD .OHMM   05 120 46 00:   INDUCTION LOG DEEP
 GRD .GAPI   45 310 01 00:   GAMMA RAY FROM DENSITY LOG
 CALD.IN     45 280 60 00:   CALIPER
 DEN .G/C3   45 350 01 00:   COMPENSATED BULK DENSTIY
 DPHI.DEC    45 890 12 00:   DENSITY POROSITY SANDSTONE
 CORR.G/C3   45 356 01 00:   DENSITY CORRECTION
~PARAMETER INFORMATION
#MNEM.UNIT          VALUE    DESCRIPTION
#----------   ------------   ------------------------------
 PD  .                 GL:   PERMANENT DATUM
 EPD .F              5155:   ELEVATION PERMANENT DATUM
 LMF .                 KB:   LOG MEASURED FROM
 DAPD.F                 4:   FEET ABOVE PERMANENT DATUM
 DMF .                 KB:   DRILLING MEASURED FROM
 EKB .F              5159:   KELLING BUSHING
 EGL .F              5155:   GROUND LEVEL
 DATE.            9-24-78:   RUN DATE
 RUN .                  1:   RUN NUMBER
 DD  .F               635:   DEPTH DRILLER
 DL  .F               634:   DEPTH LOGGER
 BLI .F               627:   BOTTOM LOG INTERVAL
 TLI .F                30:   TOP LOG INTERVAL
 CS  .IN            8.625:   CASING SIZE
 CBD .F                34:   CASING BOTTOM DRILLER
 CBL .F                34:   CASING BOTTOM LOGGER
 BS  .IN            7.875:   BIT SIZE
 BSD .F               635:   BIT SIZE AT DEPTH
 DFT .                KCL:   DRILLING FLUID TYPE
 DFD .                8.7:   DRILLING FLUID DENSITY
 DFV .                 36:   DRILLING FLUID VISCOSITY
 DFPH.                9.5:   DRILLING FLUID PH
 DFL .                8.2:   DRILLING FLUID LOSS
 MSS .          FLOW LINE:   MUD SAMPLE SOURCE
 RMS .OHMM             .2:   RESISTIVITY MUD SAMPLE
 MST .F                68:   MUD SAMPLE TEMPERATURE
 RMF .OHMM            .18:   RESISTIVITY MUD FILTRATE SAMPLE
 MFST.F                76:   MUD FILTRATE SAMPLE TEMPERATURE
 RMC .OHMM            .32:   RESISTIVITY MUD CAKE
 MCST.F                76:   MUD CAKE SAMPLE TEMPERATURE
 MFSS.               MEAS:   MUD FILTRATE SAMPLE SOURCE
 RMB .OHMM             .2:   RESISTIVITY MUD AT BHT
 BHT .F                70:   BOTTOM HOLE TEMPERATURE
 TCS .HRS               3:   TIME CURCULATED STOPPED
 MRT .F                70:   MAXIMUM RECORDED TEMPERATURE
 LUN .               2958:   LOGGING UNIT NUMBER
 LUL .               CASP:   LOGGING UNIT LOCATION
 ENGI.           REYNOLDS:   RECORDING ENGINEER
 WITN.              AMEND:   WITNESSED BY
 CLNT.            A2DTECH:   CLIENT CODE
 ORIG.           5" PRINT:   ORIGIN OF DATA
 UWI .       490251069100:   UNIQUE WELL ID
 DICO. A2D Technologies, Inc.:   DIGITIZING COMPANY
~OTHER INFORMATION
~A   DEPT      SPR         SN        ILD         GRD      CALD        DEN       DPHI       CORR   
# ...
  179.0000   -59.2388     8.1476     7.7501   120.2892     7.8739     2.4929     0.1108     0.0213
  179.5000   -59.1812     8.1476     7.7620   119.0666     7.8716     2.5043     0.1033     0.0215
  180.0000   -59.1336     8.1476     7.7739   119.0416     7.8693     2.5108     0.1019     0.0218
  180.5000   -59.2051     8.1476     7.7800   120.7038     7.8670     2.5064     0.1037     0.0221
  181.0000   -59.2889     8.1460     7.7725   122.3129     7.8647     2.5051     0.1056     0.0223
  181.5000   -59.3730     8.1374     7.7667   123.9235     7.8624     2.5088     0.1043     0.0225
  182.0000   -59.4568     8.1291     7.7608   123.2091     7.8603     2.5177     0.0989     0.0219
  182.5000   -59.5407     8.1207     7.7549   121.9252     7.8667     2.5266     0.0935     0.0214
  183.0000   -59.6243     8.1124     7.7491   120.6456     7.9016     2.5340     0.0911     0.0209
  183.5000   -59.7102     8.1041     7.7432   120.5446     7.9352     2.5251     0.0936     0.0204
  184.0000   -59.6667     8.0958     7.7373   123.3080     7.9696     2.5032     0.1008     0.0199
  184.5000   -59.5561     8.0875     7.7315   127.2880     7.9553     2.5030     0.1040     0.0194
  185.0000   -59.4432     8.0792     7.7256   127.9258     7.8760     2.5030     0.1042     0.0189
  185.5000   -59.3439     8.0728     7.7198   127.7022     7.8375     2.5030     0.1043     0.0191
  186.0000   -59.4523     8.0729     7.7140   127.5024     7.8381     2.5022     0.1051     0.0209
  186.5000   -59.5654     8.0729     7.7081   127.7452     7.8385     2.5013     0.1071     0.0227
  187.0000   -59.6775     8.0729     7.7023   128.1458     7.8379     2.5007     0.1088     0.0245
  187.5000   -59.7889     8.0729     7.6965   128.6006     7.8176     2.5000     0.1088     0.0245
  188.0000   -59.9040     8.0729     7.6907   128.8705     7.8302     2.4993     0.1088     0.0245
  188.5000   -59.8203     8.0729     7.6849   128.6296     7.8432     2.4991     0.1087     0.0245
  189.0000   -59.6432     8.0729     7.6790   128.3952     7.8564     2.4994     0.1085     0.0245
  189.5000   -59.4634     8.0729     7.6732   128.3591     7.8392     2.4996     0.1085     0.0245
  190.0000   -59.2825     8.0737     7.6674   129.8125     7.8182     2.4999     0.1093     0.0245
  190.5000   -59.0999     8.0502     7.6616   133.4316     7.8190     2.5000     0.1095     0.0245
  191.0000   -58.9633     8.0169     7.6558   134.0641     7.8199     2.4999     0.1088     0.0245
  191.5000   -59.3332     7.9833     7.6501   130.9348     7.8001     2.5032     0.1060     0.0239
  192.0000   -59.6421     7.9499     7.6442   126.2373     7.8224     2.5076     0.1032     0.0229
  192.5000   -59.7375     7.9166     7.6393   126.2765     7.8458     2.5120     0.1005     0.0220
  193.0000   -59.7378     7.8835     7.6269   128.0827     7.8698     2.5144     0.0983     0.0212
  193.5000   -59.7502     7.8529     7.6131   132.2295     7.8731     2.5122     0.1011     0.0226
  194.0000   -59.9766     7.8906     7.5993   134.7940     7.8650     2.5101     0.1044     0.0294
  194.5000   -60.1438     7.9260     7.5856   133.0970     7.8584     2.5116     0.1025     0.0362
  195.0000   -60.1409     7.9614     7.5719   131.7286     7.8586     2.5253     0.0899     0.0324
  195.5000   -60.1406     7.9971     7.5582   129.5372     7.8586     2.5508     0.0765     0.0244
  196.0000   -60.1406     8.0329     7.5445   121.8464     7.8586     2.5906     0.0578     0.0164
  196.5000   -60.1406     8.0688     7.5309   121.6353     7.8586     2.6109     0.0375     0.0126
  197.0000   -60.1407     8.0843     7.5173   121.2164     7.8586     2.6323     0.0243     0.0105
  197.5000   -60.1406     8.0972     7.4998   121.3080     7.8586     2.6073     0.0458     0.0191
  198.0000   -60.1389     8.1101     7.5133   123.0092     7.8586     2.5761     0.0693     0.0286
  198.5000   -60.0504     8.1230     7.5339   124.7364     7.8585     2.5442     0.0912     0.0382
  199.0000   -59.8665     8.1359     7.5545   124.5483     7.8562     2.5214     0.0992     0.0483
  199.5000   -59.6838     8.1470     7.5750   124.2615     7.8541     2.5069     0.1080     0.0432
  200.0000   -59.5005     8.1112     7.5956   127.2235     7.8519     2.5061     0.1085     0.0323
  200.5000   -59.3170     8.0777     7.6163   130.0748     7.8497     2.5105     0.1027     0.0211
  201.0000   -59.1320     8.0445     7.6389   126.4745     7.8475     2.5156     0.0963     0.0186
  201.5000   -58.9408     8.0116     7.6005   125.4036     7.8454     2.5201     0.0928     0.0166
  202.0000   -59.1261     7.9787     7.5584   125.0194     7.8432     2.5197     0.0952     0.0147
  202.5000   -59.3923     7.9460     7.5166   124.6832     7.8410     2.5192     0.0978     0.0191
  203.0000   -59.6605     7.9134     7.4750   126.1190     7.8390     2.5174     0.1004     0.0242
  203.5000   -59.9286     7.8810     7.4307   134.0052     7.8295     2.5123     0.1032     0.0266
  204.0000   -59.9667     7.8529     7.4535   136.5017     7.8166     2.5147     0.0998     0.0226
  204.5000   -59.9918     7.8927     7.4782   134.9013     7.8035     2.5233     0.0934     0.0173
  205.0000   -60.0180     7.9281     7.5029   133.0882     7.7905     2.5292     0.0904     0.0121
  205.5000   -60.0446     7.9637     7.5277   134.3471     7.7789     2.5211     0.1007     0.0086
  206.0000   -60.0709     7.9995     7.5526   137.1934     7.7788     2.5062     0.1054     0.0090
  206.5000   -60.0974     8.0355     7.5776   138.2006     7.7788     2.5011     0.1067     0.0093
  207.0000   -60.1263     8.0727     7.6027   136.9548     7.7788     2.4990     0.1087     0.0096
  207.5000   -60.2812     8.0731     7.6278   135.4767     7.7821     2.4995     0.1094     0.0100
  208.0000   -60.6508     8.0729     7.6531   133.3102     7.8118     2.5000     0.1098     0.0103
  208.5000   -60.9524     8.0731     7.6784   132.4449     7.8371     2.5004     0.1085     0.0104
  209.0000   -60.8942     8.0535     7.7094   132.2974     7.8242     2.5009     0.1071     0.0131
  209.5000   -60.8298     8.0282     7.6930   133.6228     7.8107     2.4997     0.1096     0.0164
  210.0000   -60.7691     8.0031     7.6717   136.2237     7.7989     2.4980     0.1124     0.0199
  210.5000   -60.5301     7.9781     7.6505   136.1720     7.8115     2.5024     0.1104     0.0193
  211.0000   -60.1937     7.9531     7.6293   135.9021     7.8258     2.5099     0.1051     0.0178
  211.5000   -60.0863     7.9282     7.6082   135.9009     7.8401     2.5174     0.0998     0.0162
  212.0000   -60.0024     7.9034     7.5871   135.9134     7.8546     2.5221     0.0945     0.0147
  212.5000   -59.9226     7.8787     7.5661   134.1411     7.8536     2.5221     0.0924     0.0131
  213.0000   -59.8496     7.8540     7.5451   131.0056     7.8468     2.5113     0.1039     0.0127
  213.5000   -59.7778     7.8295     7.5242   129.8573     7.8398     2.4966     0.1095     0.0129
  214.0000   -59.7463     7.8049     7.5035   129.7465     7.8328     2.4969     0.1091     0.0131
  214.5000   -59.7629     7.7809     7.4722   129.5315     7.8259     2.4970     0.1088     0.0133
  215.0000   -59.7791     7.7367     7.4389   129.1930     7.8190     2.4970     0.1084     0.0136
  215.5000   -59.7954     7.6935     7.4057   129.0968     7.8120     2.4970     0.1098     0.0138
  216.0000   -59.8117     7.6505     7.3726   129.0553     7.8050     2.4970     0.1111     0.0141
  216.5000   -59.8280     7.6077     7.3397   133.6804     7.7992     2.4970     0.1116     0.0143
  217.0000   -59.8443     7.5651     7.3069   135.9583     7.8023     2.4972     0.1097     0.0144
  217.5000   -59.8606     7.5222     7.2950   140.3071     7.8055     2.4982     0.1068     0.0130
  218.0000   -59.8769     7.4998     7.2956   142.1490     7.8088     2.4992     0.1076     0.0116
  218.5000   -59.8932     7.6002     7.2943   140.0308     7.8120     2.5003     0.1087     0.0101
  219.0000   -59.9096     7.6708     7.3627   136.9236     7.8152     2.5037     0.1085     0.0087
