~VERSION INFORMATION
 VERS.                2.0:   CWLS LOG ASCII STANDARD - VERSION 2.0
 WRAP.                 NO:   ONE LINE PER DEPTH STEP
~WELL INFORMATION
#MNEM.UNIT      DATA TYPE    INFORMATION
#----------   ------------   ------------------------------
 STRT.F            0.0000:   START DEPTH
 STOP.F         2258.0000:   STOP DEPTH
 STEP.F            0.5000:   STEP LENGTH
 NULL.          -999.2500:   NO VALUE
 COMP. BROWN JOHN E&C INC:   COMPANY
 WELL. NPR-3-STX-6-SX-10 #73-10:   WELL
 FLD .             TEAPOT:   FIELD
 LOC .      S10 T38N R78W:   LOCATION
 CNTY.            NATRONA:   COUNTY
 STAT.            WYOMING:   STATE
 CTRY. UNITED STATES OF AMERICA:   COUNTRY
 SRVC.            Unknown:   SERVICE COMPANY
 DATE.        09-APR-1993:   LOGDATE
 API .       490251091200:   API NUMBER
~CURVE INFORMATION
#MNEM.UNIT       API CODE    CURVE DESCRIPTION
#----------   ------------   ------------------------------
 DEPT.F                  :   
 GR  .GAPI   81 310 01 00:   GAMMA RAY
 DT  .US/F   81 520 00 00:   DELTA SONIC
 ROP .MIN/FT 91 810 01 00:   RATE OF DRILLING PENETRATION
 TGAS.UNITS  91 830 01 00:   TOTAL GAS FROM HOTWIRE
~PARAMETER INFORMATION
#MNEM.UNIT          VALUE    DESCRIPTION
#----------   ------------   ------------------------------
 PD  .                 GL:   PERMANENT DATUM
 LMF .                 GL:   LOG MEASURED FROM
 DMF .                 GL:   DRILLING MEASURED FROM
 DATE.             4-9-93:   RUN DATE
 RUN .                  1:   RUN NUMBER
 DD  .F               442:   DEPTH DRILLER
 TCS .HRS            1000:   TIME CURCULATED STOPPED
 TLAB.HRS            1100:   TIME LOGGER AT BOTTOM
 LUN .                509:   LOGGING UNIT NUMBER
 LUL .           GILLETTE:   LOGGING UNIT LOCATION
 ENGI.            METCALF:   RECORDING ENGINEER
 WITN.              SYLAR:   WITNESSED BY
 CLNT.            A2DTECH:   CLIENT CODE
 ORIG.           5" PRINT:   ORIGIN OF DATA
 UWI .       490251091200:   UNIQUE WELL ID
 DICO. A2D Technologies, Inc.:   DIGITIZING COMPANY
~OTHER INFORMATION
~A    DEPT       GR        DT        ROP       TGAS   
# ...
 1898.0000  -999.2500  -999.2500     0.4378   625.3492
 1898.5000  -999.2500  -999.2500     0.4204   625.3411
 1899.0000  -999.2500  -999.2500     0.4027   625.3074
 1899.5000  -999.2500  -999.2500     0.3848   625.4008
 1900.0000  -999.2500  -999.2500     0.4012   628.4872
 1900.5000  -999.2500  -999.2500     0.4270   631.7676
 1901.0000  -999.2500  -999.2500     0.4531   632.1232
 1901.5000  -999.2500  -999.2500     0.4791   632.3532
 1902.0000  -999.2500  -999.2500     0.5050   632.6091
 1902.5000  -999.2500  -999.2500     0.5310   632.8728
 1903.0000  -999.2500  -999.2500     0.5570   633.1364
 1903.5000  -999.2500  -999.2500     0.5829   633.4001
 1904.0000  -999.2500  -999.2500     0.6088   633.6637
 1904.5000  -999.2500  -999.2500     0.6226   633.9274
 1905.0000  -999.2500  -999.2500     0.5842   634.1910
 1905.5000  -999.2500  -999.2500     0.5313   634.4546
 1906.0000  -999.2500  -999.2500     0.4778   634.7183
 1906.5000  -999.2500  -999.2500     0.4226   634.9819
 1907.0000  -999.2500  -999.2500     0.4100   635.2455
 1907.5000  -999.2500  -999.2500     0.4115   635.5092
 1908.0000  -999.2500  -999.2500     0.4135   635.7728
 1908.5000  -999.2500  -999.2500     0.4156   636.0364
 1909.0000  -999.2500  -999.2500     0.4175   636.3001
 1909.5000  -999.2500  -999.2500     0.4194   636.5637
 1910.0000  -999.2500  -999.2500     0.4182   636.8273
 1910.5000  -999.2500  -999.2500     0.4077   637.0910
 1911.0000  -999.2500  -999.2500     0.3975   637.3546
 1911.5000  -999.2500  -999.2500     0.3874   637.6183
 1912.0000  -999.2500  -999.2500     0.3772   637.8819
 1912.5000  -999.2500  -999.2500     0.3667   638.1456
 1913.0000  -999.2500  -999.2500     0.3600   638.4092
 1913.5000  -999.2500  -999.2500     0.4036   638.6729
 1914.0000  -999.2500  -999.2500     0.4459   638.9365
 1914.5000  -999.2500  -999.2500     0.4879   639.2001
 1915.0000  -999.2500  -999.2500     0.5298   639.4637
 1915.5000  -999.2500  -999.2500     0.5719   639.7274
 1916.0000  -999.2500  -999.2500     0.6088   639.9910
 1916.5000  -999.2500  -999.2500     0.5772   640.2546
 1917.0000  -999.2500  -999.2500     0.5411   640.5183
 1917.5000  -999.2500  -999.2500     0.5093   640.7819
 1918.0000  -999.2500  -999.2500     0.5143   641.0456
 1918.5000  -999.2500  -999.2500     0.5198   641.3092
 1919.0000  -999.2500  -999.2500     0.5252   641.5729
 1919.5000  -999.2500  -999.2500     0.5309   641.8365
 1920.0000  -999.2500  -999.2500     0.5308   642.1002
 1920.5000  -999.2500  -999.2500     0.4570   642.3638
 1921.0000  -999.2500  -999.2500     0.3857   642.6274
 1921.5000  -999.2500  -999.2500     0.3208   642.8911
 1922.0000  -999.2500  -999.2500     0.3399   643.1547
 1922.5000  -999.2500  -999.2500     0.3697   643.4184
 1923.0000  -999.2500  -999.2500     0.3992   643.6832
 1923.5000  -999.2500  -999.2500     0.4286   643.9513
 1924.0000  -999.2500  -999.2500     0.4432   644.1822
 1924.5000  -999.2500  -999.2500     0.4368   643.6481
 1925.0000  -999.2500  -999.2500     0.4306   643.0925
 1925.5000  -999.2500  -999.2500     0.4242   642.5410
 1926.0000  -999.2500  -999.2500     0.4178   641.9903
 1926.5000  -999.2500  -999.2500     0.4114   641.4396
 1927.0000  -999.2500  -999.2500     0.4049   640.8890
 1927.5000  -999.2500  -999.2500     0.3988   640.3384
 1928.0000  -999.2500  -999.2500     0.4031   639.7878
 1928.5000  -999.2500  -999.2500     0.4285   639.2372
 1929.0000  -999.2500  -999.2500     0.4527   638.6865
 1929.5000  -999.2500  -999.2500     0.4771   638.1359
 1930.0000  -999.2500  -999.2500     0.5028   637.5853
 1930.5000  -999.2500  -999.2500     0.4830   637.0347
 1931.0000  -999.2500  -999.2500     0.4468   636.4840
 1931.5000  -999.2500  -999.2500     0.4103   635.9334
 1932.0000  -999.2500  -999.2500     0.3824   635.3828
 1932.5000  -999.2500  -999.2500     0.3831   634.8322
 1933.0000  -999.2500  -999.2500     0.3832   634.2816
 1933.5000  -999.2500  -999.2500     0.3832   633.7310
 1934.0000  -999.2500  -999.2500     0.3854   633.1793
 1934.5000  -999.2500  -999.2500     0.3963   632.6260
 1935.0000  -999.2500  -999.2500     0.4070   632.0815
 1935.5000  -999.2500  -999.2500     0.4177   631.7263
 1936.0000  -999.2500  -999.2500     0.4285   632.3399
 1936.5000  -999.2500  -999.2500     0.4391   632.9359
 1937.0000  -999.2500  -999.2500     0.4441   633.5288
 1937.5000  -999.2500  -999.2500     0.4316   634.1228
 1938.0000  -999.2500  -999.2500     0.4191   634.7165
 1938.5000  -999.2500  -999.2500     0.4066   635.3102
 1939.0000  -999.2500  -999.2500     0.3941   635.9039
 1939.5000  -999.2500  -999.2500     0.3817   636.4976
 1940.0000  -999.2500  -999.2500     0.3747   637.0913
 1940.5000  -999.2500  -999.2500     0.4119   637.6850
 1941.0000  -999.2500  -999.2500     0.4499   638.2787
 1941.5000  -999.2500  -999.2500     0.4878   638.8724
 1942.0000  -999.2500  -999.2500     0.5197   639.4661
 1942.5000  -999.2500  -999.2500     0.4873   640.0598
 1943.0000  -999.2500  -999.2500     0.4555   640.6535
 1943.5000  -999.2500  -999.2500     0.4241   641.2472
 1944.0000  -999.2500  -999.2500     0.4090   641.8409
 1944.5000  -999.2500  -999.2500     0.4111   642.4347
 1945.0000  -999.2500  -999.2500     0.4131   643.0292
 1945.5000  -999.2500  -999.2500     0.4152   643.6369
 1946.0000  -999.2500  -999.2500     0.4172   644.2255
 1946.5000  -999.2500  -999.2500     0.4191   644.1702
 1947.0000  -999.2500  -999.2500     0.4222   641.4956
 1947.5000  -999.2500  -999.2500     0.4539   628.8395
 1948.0000  -999.2500  -999.2500     0.4847   616.4210
 1948.5000  -999.2500  -999.2500     0.5151   604.0121
 1949.0000  -999.2500  -999.2500     0.5454   591.1505
 1949.5000  -999.2500  -999.2500     0.5759   587.7290
 1950.0000  -999.2500  -999.2500     0.6112   587.5797
 1950.5000  -999.2500  -999.2500     0.5823   586.6980
 1951.0000  -999.2500  -999.2500     0.5271   583.2629
 1951.5000  -999.2500  -999.2500     0.4710   580.0382
 1952.0000  -999.2500  -999.2500     0.4213   576.6248
 1952.5000  -999.2500  -999.2500     0.4222   582.8331
 1953.0000  -999.2500  -999.2500     0.4240   585.0049
 1953.5000  -999.2500  -999.2500     0.4255   587.5234
 1954.0000  -999.2500  -999.2500     0.4270   588.1514
 1954.5000  -999.2500  -999.2500     0.4285   588.9741
 1955.0000  -999.2500  -999.2500     0.4300   589.8106
 1955.5000  -999.2500  -999.2500     0.4315   590.6552
 1956.0000  -999.2500  -999.2500     0.4335   591.4992
 1956.5000  -999.2500  -999.2500     0.4126   592.3430
 1957.0000  -999.2500  -999.2500     0.3831   593.1867
 1957.5000  -999.2500  -999.2500     0.3539   594.0305
 1958.0000  -999.2500  -999.2500     0.3372   594.8743
 1958.5000  -999.2500  -999.2500     0.3562   595.7180
 1959.0000  -999.2500  -999.2500     0.3742   596.5618
 1959.5000  -999.2500  -999.2500     0.3921   597.4056
 1960.0000  -999.2500  -999.2500     0.4101   598.2479
 1960.5000  -999.2500  -999.2500     0.4286   599.0925
 1961.0000  -999.2500  -999.2500     0.4322   599.9688
 1961.5000  -999.2500  -999.2500     0.4309   600.4318
 1962.0000  -999.2500  -999.2500     0.4293   600.9188
 1962.5000  -999.2500  -999.2500     0.4277   601.3946
 1963.0000  -999.2500  -999.2500     0.4262   601.8724
 1963.5000  -999.2500  -999.2500     0.4247   602.3512
 1964.0000  -999.2500  -999.2500     0.4232   602.8298
 1964.5000  -999.2500  -999.2500     0.4216   603.3084
 1965.0000  -999.2500  -999.2500     0.4225   603.7870
 1965.5000  -999.2500  -999.2500     0.4258   604.2657
 1966.0000  -999.2500  -999.2500     0.4291   604.7443
 1966.5000  -999.2500  -999.2500     0.4332   605.2229
 1967.0000  -999.2500  -999.2500     0.4027   605.7015
 1967.5000  -999.2500  -999.2500     0.3593   606.1802
 1968.0000  -999.2500  -999.2500     0.3209   606.6588
 1968.5000  -999.2500  -999.2500     0.3496   607.1374
 1969.0000  -999.2500  -999.2500     0.3826   607.6160
 1969.5000  -999.2500  -999.2500     0.4155   608.0947
 1970.0000  -999.2500  -999.2500     0.4478   608.5732
 1970.5000  -999.2500  -999.2500     0.4624   609.0519
