~VERSION INFORMATION
 VERS.                2.0:   CWLS LOG ASCII STANDARD - VERSION 2.0
 WRAP.                 NO:   ONE LINE PER DEPTH STEP
~WELL INFORMATION
#MNEM.UNIT      DATA TYPE    INFORMATION
#----------   ------------   ------------------------------
 STRT.F           19.0000:   START DEPTH
 STOP.F          600.0000:   STOP DEPTH
 STEP.F            0.5000:   STEP LENGTH
 NULL.          -999.2500:   NO VALUE
 COMP. FENIX & SCISSON INC:   COMPANY
 WELL.       NPR-3 #18-34:   WELL
 FLD .             TEAPOT:   FIELD
 LOC .      S34 T39N R78W:   LOCATION
 CNTY.            NATRONA:   COUNTY
 STAT.            WYOMING:   STATE
 CTRY. UNITED STATES OF AMERICA:   COUNTRY
 SRVC.           BIRDWELL:   SERVICE COMPANY
 DATE.        10-AUG-1978:   LOGDATE
 API .       490251068100:   API NUMBER
~CURVE INFORMATION
#MNEM.UNIT       API CODE    CURVE DESCRIPTION
#----------   ------------   ------------------------------
 DEPT.F                  :   
 SPR .MV     05 010 01 00:   SPONTANEOUS POTENTIAL FROM RES.
 SN  .OHMM   05 040 16 00:   SHORT NORMAL 16"
 ILD .OHMM   05 120 46 00:   INDUCTION LOG DEEP
 GRD .GAPI   45 310 01 00:   GAMMA RAY FROM DENSITY LOG
 CALD.IN     45 280 60 00:   CALIPER
 CORR.G/C3   45 356 01 00:   DENSITY CORRECTION
 DPHI.DEC    45 890 12 00:   DENSITY POROSITY SANDSTONE
 DEN .G/C3   45 350 01 00:   COMPENSATED BULK DENSTIY
~PARAMETER INFORMATION
#MNEM.UNIT          VALUE    DESCRIPTION
#----------   ------------   ------------------------------
 PD  .                 GL:   PERMANENT DATUM
 EPD .F              5159:   ELEVATION PERMANENT DATUM
 LMF .                 KB:   LOG MEASURED FROM
 DAPD.F                 4:   FEET ABOVE PERMANENT DATUM
 DMF .                 KB:   DRILLING MEASURED FROM
 EKB .F              5163:   KELLING BUSHING
 EGL .F              5159:   GROUND LEVEL
 DATE.            8-10-78:   RUN DATE
 RUN .                  1:   RUN NUMBER
 DD  .F               605:   DEPTH DRILLER
 DL  .F               606:   DEPTH LOGGER
 BLI .F               600:   BOTTOM LOG INTERVAL
 TLI .F                35:   TOP LOG INTERVAL
 CS  .IN            8.625:   CASING SIZE
 CBD .F                40:   CASING BOTTOM DRILLER
 BS  .IN            7.875:   BIT SIZE
 BSD .F               605:   BIT SIZE AT DEPTH
 DFT .                KCL:   DRILLING FLUID TYPE
 DFD .                8.7:   DRILLING FLUID DENSITY
 DFV .                 33:   DRILLING FLUID VISCOSITY
 DFPH.                  9:   DRILLING FLUID PH
 MSS .          FLOW LINE:   MUD SAMPLE SOURCE
 RMS .OHMM            .14:   RESISTIVITY MUD SAMPLE
 MST .F                88:   MUD SAMPLE TEMPERATURE
 MFSS.               MEAS:   MUD FILTRATE SAMPLE SOURCE
 MCSS.               MEAS:   MUD CAKE SAMPLE SOURCE
 TCS .HRS               1:   TIME CURCULATED STOPPED
 LUN .               3006:   LOGGING UNIT NUMBER
 LUL .               CASP:   LOGGING UNIT LOCATION
 ENGI.             MILLER:   RECORDING ENGINEER
 WITN.           MCGINLEY:   WITNESSED BY
 CLNT.            A2DTECH:   CLIENT CODE
 ORIG.           5" PRINT:   ORIGIN OF DATA
 UWI .       490251068100:   UNIQUE WELL ID
 DICO. A2D Technologies, Inc.:   DIGITIZING COMPANY
~OTHER INFORMATION
~A   DEPT      SPR         SN        ILD         GRD      CALD       CORR       DPHI        DEN   
# ...
  100.0000   -39.4556     5.9369     6.3209   107.8166     8.2612     0.1146     0.1315     2.4628
  100.5000   -39.4262     6.0498     6.3088   112.3638     8.0967     0.0994     0.1393     2.4476
  101.0000   -39.3966     6.1030     6.2966   114.8644     7.8768     0.0842     0.1434     2.4357
  101.5000   -39.3672     6.1030     6.2846   114.9066     7.7859     0.0685     0.1476     2.4314
  102.0000   -39.3377     6.1030     6.2739   108.6415     7.7252     0.0527     0.1534     2.4234
  102.5000   -39.3070     6.1269     6.3095   106.6706     7.6188     0.0440     0.1592     2.4176
  103.0000   -39.3001     6.1742     6.3419   107.0623     7.5656     0.0430     0.1632     2.4168
  103.5000   -39.2999     6.2291     6.3742   107.6205     7.6493     0.0438     0.1513     2.4160
  104.0000   -39.3000     6.3425     6.4242   109.2474     7.7435     0.0446     0.1488     2.4254
  104.5000   -39.3000     6.4579     6.5090   112.0479     7.8382     0.0448     0.1425     2.4360
  105.0000   -39.3000     6.5757     6.4494   111.8758     7.9840     0.0448     0.1392     2.4465
  105.5000   -39.3000     6.6937     6.4843   105.2882     8.2492     0.0448     0.1373     2.4488
  106.0000   -39.3000     6.8290     6.5073   107.2456     8.3587     0.0448     0.1421     2.4483
  106.5000   -39.3000     7.0692     6.5304   110.6355     8.4619     0.0493     0.1440     2.4456
  107.0000   -39.3000     7.3361     6.5536   111.2199     8.5658     0.0582     0.1418     2.4458
  107.5000   -39.3000     7.2023     6.5769   109.7356     8.6702     0.0810     0.1326     2.4630
  108.0000   -39.3000     7.2184     6.6002   109.0511     8.7024     0.1418     0.1064     2.4824
  108.5000   -39.3000     7.2487     6.6238   110.3702     8.6270     0.1782     0.0988     2.5020
  109.0000   -39.3000     7.2689     6.6653   113.5094     8.5374     0.1798     0.1151     2.5079
  109.5000   -39.3000     7.2147     6.7142   112.8195     8.3827     0.1568     0.1298     2.4812
  110.0000   -39.3000     7.1674     6.7632   108.9884     8.2262     0.1261     0.1328     2.4602
  110.5000   -39.3002     7.1272     6.8155   106.5673     8.0705     0.0964     0.1350     2.4543
  111.0000   -39.3000     7.0994     6.8329   107.0525     7.9134     0.0692     0.1394     2.4463
  111.5000   -39.2855     7.0711     6.8515   110.8934     7.8282     0.0441     0.1444     2.4406
  112.0000   -39.2006     7.0819     6.8701   110.2552     7.7169     0.0368     0.1443     2.4407
  112.5000   -39.1166     7.0929     6.8887   110.2807     7.6261     0.0355     0.1425     2.4423
  113.0000   -39.0330     7.1043     6.9075   109.3472     7.6659     0.0341     0.1384     2.4466
  113.5000   -38.9498     7.1155     6.9262   108.8934     7.7034     0.0327     0.1338     2.4566
  114.0000   -38.9034     7.1268     6.9620   112.2055     7.7443     0.0313     0.1340     2.4584
  114.5000   -38.9138     7.1710     7.0916   115.4624     7.8882     0.0323     0.1329     2.4602
  115.0000   -38.9235     7.3951     7.2023   117.2160     8.0410     0.0344     0.1317     2.4645
  115.5000   -38.9332     7.6439     7.2191   115.7053     8.1934     0.0365     0.1252     2.4691
  116.0000   -38.9430     7.9388     7.2367   113.2473     8.3419     0.0387     0.1224     2.4741
  116.5000   -38.9527     8.2439     7.2542   110.7578     8.4564     0.0497     0.1196     2.4802
  117.0000   -38.9625     8.5607     7.2816   108.3195     8.5724     0.0608     0.1197     2.4843
  117.5000   -38.9722     8.8998     7.3598   108.2112     8.6897     0.0819     0.1178     2.4834
  118.0000   -38.9820     8.8337     7.4385   108.2331     8.7439     0.1053     0.1096     2.4826
  118.5000   -38.9917     8.7661     7.4882   108.3104     8.7555     0.1406     0.0996     2.4945
  119.0000   -39.0015     8.7375     7.5158   104.8046     8.6950     0.1762     0.0968     2.5118
  119.5000   -39.0112     8.7366     7.5436   100.0357     8.5860     0.1732     0.1100     2.5094
  120.0000   -39.0210     8.7400     7.5715    94.6806     8.3719     0.1339     0.1247     2.4811
  120.5000   -39.0307     8.1437     7.5993    90.1744     8.1324     0.1028     0.1364     2.4608
  121.0000   -39.0405     7.9317     7.6113    91.2654     7.9552     0.0845     0.1339     2.4494
  121.5000   -39.0502     7.8731     7.6112    92.9301     7.8902     0.0664     0.1388     2.4465
  122.0000   -39.0600     7.8241     7.6112    94.3201     7.8283     0.0481     0.1426     2.4438
  122.5000   -39.0697     7.8323     7.6111    93.9588     7.7702     0.0391     0.1401     2.4449
  123.0000   -39.0795     7.8390     7.6120    93.3924     7.7216     0.0338     0.1405     2.4445
  123.5000   -39.0892     7.8459     7.5474    93.0956     7.7136     0.0284     0.1459     2.4407
  124.0000   -39.0989     7.8527     7.4676    93.8978     7.7042     0.0277     0.1451     2.4408
  124.5000   -39.1087     7.8595     7.4042    98.6199     7.6948     0.0288     0.1386     2.4470
  125.0000   -39.1185     7.8664     7.4176   100.0812     7.6860     0.0271     0.1353     2.4539
  125.5000   -39.1282     7.8732     7.4289    99.2123     7.6342     0.0247     0.1361     2.4547
  126.0000   -39.1379     7.8801     7.4404    98.8801     7.6341     0.0230     0.1360     2.4546
  126.5000   -39.1477     7.8871     7.4520    99.2888     7.6671     0.0246     0.1322     2.4574
  127.0000   -39.1574     7.8939     7.4633   100.3617     7.8131     0.0261     0.1293     2.4612
  127.5000   -39.1672     7.9707     7.4724   101.4188     7.9638     0.0269     0.1314     2.4614
  128.0000   -39.1769     8.0718     7.3596   102.0588     8.0895     0.0269     0.1332     2.4608
  128.5000   -39.1867     8.1418     7.2692   102.0547     8.2007     0.0301     0.1335     2.4607
  129.0000   -39.1964     8.2125     7.2847   102.0813     8.3119     0.0412     0.1227     2.4665
  129.5000   -39.2062     8.2683     7.3011   100.9453     8.4185     0.0688     0.1132     2.4875
  130.0000   -39.2159     8.2683     7.3173    99.5879     8.4485     0.0959     0.1049     2.5220
  130.5000   -39.2257     8.2098     7.3356    98.2964     8.4748     0.1077     0.0996     2.5170
  131.0000   -39.2354     8.1392     7.3096    98.1030     8.5180     0.1393     0.0943     2.5234
  131.5000   -39.2452     8.0691     7.2776    98.7954     8.5639     0.1664     0.0890     2.5336
  132.0000   -39.2549     7.9822     7.2458    99.9374     8.6007     0.1842     0.0870     2.5330
  132.5000   -39.2647     7.8860     7.2140   101.0901     8.6017     0.1818     0.0881     2.5325
  133.0000   -39.2744     7.7909     7.1783   102.2448     8.5244     0.1678     0.0947     2.5295
  133.5000   -39.2842     7.6969     7.1401   103.3904     8.4338     0.1307     0.1119     2.5024
  134.0000   -39.2938     7.5833     7.1023   104.0247     8.3428     0.0944     0.1247     2.4746
  134.5000   -39.3001     7.4679     7.0646   102.6532     8.2520     0.0769     0.1334     2.4594
  135.0000   -39.3000     7.3538     7.0272    99.3892     8.1741     0.0617     0.1394     2.4487
  135.5000   -39.3000     7.3077     6.9887    98.3274     8.1127     0.0465     0.1502     2.4327
  136.0000   -39.3000     7.2741     6.9498    96.5734     8.0521     0.0329     0.1592     2.4169
  136.5000   -39.3000     7.2689     6.9108    95.5292     7.9950     0.0328     0.1616     2.4168
  137.0000   -39.3000     7.2690     6.8720    96.8823     7.9397     0.0329     0.1522     2.4267
  137.5000   -39.3000     7.2689     6.8335    98.1670     7.8841     0.0328     0.1444     2.4353
  138.0000   -39.3000     7.2689     6.7952   102.2411     7.8241     0.0296     0.1441     2.4336
  138.5000   -39.3000     7.2689     6.7571   106.7398     7.7429     0.0181     0.1509     2.4298
  139.0000   -39.3000     7.2689     6.7191   108.1128     7.6819     0.0162     0.1524     2.4293
  139.5000   -39.3000     7.2167     6.6842   105.8214     7.6831     0.0153     0.1524     2.4289
  140.0000   -39.3000     7.1379     6.6571   102.9930     7.6832     0.0155     0.1535     2.4288
