~VERSION INFORMATION
 VERS.                2.0:   CWLS LOG ASCII STANDARD - VERSION 2.0
 WRAP.                 NO:   ONE LINE PER DEPTH STEP
~WELL INFORMATION
#MNEM.UNIT      DATA TYPE    INFORMATION
#----------   ------------   ------------------------------
 STRT.F            0.0000:   START DEPTH
 STOP.F          562.0000:   STOP DEPTH
 STEP.F            0.1000:   STEP LENGTH
 NULL.          -999.2500:   NO VALUE
 COMP. BROWN JOHN E&C INC:   COMPANY
 WELL.    73-1 SX-3 #73-3:   WELL
 FLD .             TEAPOT:   FIELD
 LOC .       S3 T38N R78W:   LOCATION
 CNTY.            NATRONA:   COUNTY
 STAT.            WYOMING:   STATE
 CTRY. UNITED STATES OF AMERICA:   COUNTRY
 SRVC.      Western Atlas:   SERVICE COMPANY
 DATE.        23-APR-1992:   LOGDATE
 API .       490252251200:   API NUMBER
~CURVE INFORMATION
#MNEM.UNIT       API CODE    CURVE DESCRIPTION
#----------   ------------   ------------------------------
 DEPT.F                  :   
 GRR .GAPI   07 310 01 00:   GAMMA RAY
 RILD.OHMM   07 120 46 00:   INDUCTION LOG DEEP RESISTIVITY
 RILM.OHMM   07 120 44 00:   INDUCTION LOG MEDIUM RESISTIVITY
 CILD.MMHO   07 110 46 00:   CONDUCTIVITY INDUCTION LOG DEEP
~PARAMETER INFORMATION
#MNEM.UNIT          VALUE    DESCRIPTION
#----------   ------------   ------------------------------
 PD  .                 GL:   PERMANENT DATUM
 EPD .F              5164:   ELEVATION PERMANENT DATUM
 LMF .                 KB:   LOG MEASURED FROM
 DAPD.F                 5:   FEET ABOVE PERMANENT DATUM
 DMF .                 KB:   DRILLING MEASURED FROM
 EKB .F              5169:   KELLING BUSHING
 EDF .F              5168:   DRILLING FLOOR
 EGL .F              5164:   GROUND LEVEL
 DATE.        23-APR-1992:   RUN DATE
 RUN .                  1:   RUN NUMBER
 DD  .F               561:   DEPTH DRILLER
 DL  .F               564:   DEPTH LOGGER
 BLI .F               562:   BOTTOM LOG INTERVAL
 CS  .IN            8.625:   CASING SIZE
 CBD .F                48:   CASING BOTTOM DRILLER
 CBL .F                49:   CASING BOTTOM LOGGER
 BS  .IN            7.875:   BIT SIZE
 BSD .F               561:   BIT SIZE AT DEPTH
 DFT .                AIR:   DRILLING FLUID TYPE
 TCS .HRS               2:   TIME CURCULATED STOPPED
 LUN .           HL- 6272:   LOGGING UNIT NUMBER
 LUL .             CASPER:   LOGGING UNIT LOCATION
 ENGI.            LEBSOCK:   RECORDING ENGINEER
 WITN.        GARY STRONG:   WITNESSED BY
 CLNT.            A2DTECH:   CLIENT CODE
 ORIG.       2", 5" PRINT:   ORIGIN OF DATA
 UWI .       490252251200:   UNIQUE WELL ID
 DICO. A2D Technologies, Inc.:   DIGITIZING COMPANY
~OTHER INFORMATION
~A    DEPT      GRR      RILD       RILM       CILD   
# ...
  525.6000   108.7194    10.9737    11.2458    89.3329
  525.7000   108.2367    10.9821    11.2457    89.5775
  525.8000   107.8163    11.0498    11.2456    89.8220
  525.9000   107.5758    11.0496    11.2455    90.0666
  526.0000   107.5758    11.0493    11.2453    90.3111
  526.1000   107.5758    11.0739    11.2451    90.5556
  526.2000   107.5758    11.1260    11.2910    90.7716
  526.3000   107.5758    11.0483    11.3235    90.7716
  526.4000   107.5758    11.0480    11.3234    90.7716
  526.5000   107.5758    11.0070    11.3232    90.7775
  526.6000   107.5758    10.9201    11.3230    91.0221
  526.7000   107.5758    10.8182    11.3687    91.2666
  526.8000   107.6281    10.8179    11.4320    91.5280
  526.9000   107.8788    10.7621    11.4817    91.5280
  527.0000   107.8788    10.7421    11.4815    91.5280
  527.1000   107.8788    10.7163    11.4197    91.5280
  527.2000   107.9880    10.6457    11.2665    91.5280
  527.3000   108.3722    10.5187    11.0796    91.5280
  527.4000   109.3939    10.5184    10.9082    91.5280
  527.5000   110.0757    10.4779    10.7819    91.7101
  527.6000   110.6343    10.4191    10.6673    91.9547
  527.7000   111.1171    10.3607    10.5905    92.1993
  527.8000   111.6421    10.2994    10.5315    92.6033
  527.9000   112.4242    10.2448    10.4611    93.0924
  528.0000   112.4242    10.1874    10.3391    93.5815
  528.1000   112.4242    10.1558    10.3390    93.7973
  528.2000   112.4242    10.1440    10.2988    93.7973
  528.3000   112.4242    10.0846    10.2668    93.7973
  528.4000   112.4242    10.0844    10.2556    93.9111
  528.5000   112.6414    10.0045    10.1951    94.1557
  528.6000   112.8828     9.9441    10.1950    94.4003
  528.7000   113.2182     9.9317    10.1949    94.8272
  528.8000   113.7010     9.8743    10.0534    95.5608
  528.9000   114.2424     9.8741    10.0533    96.2944
  529.0000   114.8784     9.8340    10.0532    96.8914
  529.1000   116.0539     9.8049    10.0530    97.1359
  529.2000   117.5028     9.7921    10.0529    97.3804
  529.3000   118.8698     9.7362    10.0520    97.6705
  529.4000   119.6970     9.7359     9.9961    98.1596
  529.5000   119.9040     9.6957     9.9826    98.6487
  529.6000   120.0000     9.6676     9.9824    99.1378
  529.7000   119.6647     9.6673     9.9823    99.6270
  529.8000   118.6988     9.6671     9.9821   100.1161
  529.9000   117.5758     9.6669     9.9820   100.6051
  530.0000   117.1718     9.6666     9.9403   100.6051
  530.1000   116.6891     9.6393     9.8849   100.6051
  530.2000   116.2849     9.5988     9.8298   100.6051
  530.3000   116.0606     9.5986     9.7747   101.0488
  530.4000   116.0606     9.5983     9.7745   101.5379
  530.5000   116.4545     9.5573     9.7744   102.1180
  530.6000   116.9374     9.5036     9.7476   102.3170
  530.7000   117.5674     9.4503     9.7062   102.5616
  530.8000   118.5211     9.3984     9.7060   102.8061
  530.9000   119.2456     9.3982     9.7059   103.0507
  531.0000   120.1618     9.3574     9.6662   103.2953
  531.1000   120.9970     9.3323     9.6123   103.5399
  531.2000   121.9269     9.3175     9.5587   103.7844
  531.3000   123.3750     9.2669     9.5043   104.0290
  531.4000   124.8239     9.2667     9.5041   104.2735
  531.5000   126.2718     9.2257     9.4657   104.6488
  531.6000   127.4704     9.1740     9.4378   105.1379
  531.7000   128.2455     9.1374     9.4377   105.6270
  531.8000   128.4848     9.1349     9.4376   106.0081
  531.9000   128.4848     9.0837     9.3866   106.2526
  532.0000   128.4848     9.0731     9.2972   106.4972
  532.1000   128.4848     9.0450     9.2417   106.6566
  532.2000   128.4848     8.9943     9.2416   106.6566
  532.3000   128.4848     8.9438     9.2414   106.6566
  532.4000   128.4848     8.8841     9.1919   106.8440
  532.5000   128.4848     8.8839     9.1769   107.5776
  532.6000   128.7149     8.8557     9.1535   108.3113
  532.7000   129.1443     8.8217     9.1129   108.9259
  532.8000   129.3939     8.8180     9.1127   108.9259
  532.9000   129.3939     8.7598     8.9121   108.9259
  533.0000   129.5657     8.7596     8.8000   108.9427
  533.1000   129.6970     8.7312     8.7575   109.1873
  533.2000   129.6970     8.6982     8.7088   109.4318
  533.3000   129.6970     8.6939     8.6777   109.6823
  533.4000   129.9251     8.6372     8.6723   109.9209
  533.5000   130.0000     8.6370     8.6171   110.1655
  533.6000   129.8950     8.6368     8.6170   110.4387
  533.7000   129.6536     8.6365     8.6169   110.8706
  533.8000   129.3939     8.6363     8.5998   111.3597
  533.9000   129.3939     8.6360     8.5519   111.8488
  534.0000   128.9089     8.6358     8.4971   111.9516
  534.1000   128.3848     8.6356     8.4970   111.9516
  534.2000   128.1049     8.6183     8.4969   111.9516
  534.3000   127.5758     8.5751     8.4968   112.1219
  534.4000   126.9213     8.5748     8.4967   112.3665
  534.5000   126.1973     8.5746     8.4965   112.6110
  534.6000   125.4731     8.5744     8.4964   112.7080
  534.7000   124.8152     8.5741     8.4963   112.7080
  534.8000   124.5455     8.5739     8.4962   112.7080
  534.9000   124.1195     8.5736     8.4961   112.8329
  535.0000   123.7880     8.5734     8.4959   113.0774
  535.1000   123.6364     8.5731     8.4958   113.3220
  535.2000   123.6647     8.5729     8.4957   113.6686
  535.3000   123.9394     8.5727     8.5112   114.1577
  535.4000   124.3558     8.5724     8.5587   114.6467
  535.5000   124.9850     8.5722     8.6147   114.9773
  535.6000   125.6240     8.5719     8.6544   114.9773
  535.7000   126.1299     8.5717     8.6748   114.9773
  535.8000   126.9697     8.5645     8.6902   114.9773
  535.9000   127.7811     8.5116     8.7353   114.9773
  536.0000   128.6054     8.5114     8.7352   114.9773
  536.1000   129.2502     8.5111     8.8151   115.0111
  536.2000   129.7513     8.5109     8.8577   115.2556
  536.3000   130.6061     8.5107     8.8731   115.5002
  536.4000   130.8041     8.5104     8.9195   115.7337
  536.5000   131.1821     8.5102     8.9193   115.7337
  536.6000   131.5901     8.5099     8.9192   115.7337
  536.7000   131.8182     8.5097     8.9469   115.7337
  536.8000   131.8182     8.5014     8.9815   115.7337
  536.9000   131.8182     8.4501     8.9813   115.7337
  537.0000   131.8182     8.4499     8.9811   115.7337
  537.1000   131.8182     8.4496     8.9810   115.9438
  537.2000   131.8182     8.4494     8.9536   116.1883
  537.3000   131.8182     8.4492     8.9184   116.4329
  537.4000   131.8182     8.4489     8.9182   116.4902
  537.5000   131.8182     8.4487     8.9181   116.4902
  537.6000   131.8182     8.4484     8.9180   116.4902
  537.7000   131.8182     8.4482     8.9179   116.6546
  537.8000   131.8182     8.4388     8.9178   116.8992
  537.9000   131.8182     8.3890     8.9176   117.1437
  538.0000   131.8182     8.3888     8.9175   117.2466
  538.1000   131.7587     8.3885     8.9174   117.2466
  538.2000   131.5152     8.3671     8.8909   117.2466
  538.3000   131.5152     8.3298     8.8551   117.3656
  538.4000   131.3375     8.3295     8.8550   117.6101
  538.5000   131.0961     8.2847     8.8548   117.8547
  538.6000   130.8548     8.2382     8.8166   118.0030
  538.7000   130.6061     8.1920     8.7675   118.0030
  538.8000   130.6061     8.1560     8.7318   118.0030
  538.9000   130.2607     8.1558     8.7308   118.0764
  539.0000   129.7778     8.1113     8.6822   118.3209
  539.1000   129.3445     8.0986     8.6707   118.5655
  539.2000   129.0909     8.0984     8.6458   118.7595
  539.3000   128.4035     8.0982     8.6102   118.7595
  539.4000   127.6792     8.0980     8.6096   118.7595
  539.5000   126.8488     8.0978     8.5616   118.7874
  539.6000   125.7943     8.0975     8.5139   119.0319
  539.7000   124.2424     8.0751     8.4904   119.2764
  539.8000   123.5696     8.0407     8.4783   119.5261
  539.9000   123.0080     8.0405     8.4309   120.0152
  540.0000   122.6263     8.0403     8.3375   120.5043
  540.1000   122.4242     8.0401     8.2794   121.0287
