~VERSION INFORMATION
 VERS.                2.0:   CWLS LOG ASCII STANDARD - VERSION 2.0
 WRAP.                 NO:   ONE LINE PER DEPTH STEP
~WELL INFORMATION
#MNEM.UNIT      DATA TYPE    INFORMATION
#----------   ------------   ------------------------------
 STRT.F            0.0000:   START DEPTH
 STOP.F          635.0000:   STOP DEPTH
 STEP.F            0.1000:   STEP LENGTH
 NULL.          -999.2500:   NO VALUE
 COMP.   FLUOR DANIEL INC:   COMPANY
 WELL. NAVAL PETROLEUM RESERVE 3 SX-3 #72-7-3:   WELL
 FLD .             TEAPOT:   FIELD
 LOC .       S3 T38N R78W:   LOCATION
 CNTY.            NATRONA:   COUNTY
 STAT.            WYOMING:   STATE
 CTRY. UNITED STATES OF AMERICA:   COUNTRY
 SRVC.      Western Atlas:   SERVICE COMPANY
 DATE.        11-JAN-1995:   LOGDATE
 API .       490252264900:   API NUMBER
~CURVE INFORMATION
#MNEM.UNIT       API CODE    CURVE DESCRIPTION
#----------   ------------   ------------------------------
 DEPT.F                  :   
 GRR .GAPI   07 310 01 00:   GAMMA RAY
 RILD.OHMM   07 120 46 00:   INDUCTION LOG DEEP RESISTIVITY
 RILM.OHMM   07 120 44 00:   RESITIVITY LONG MEDIUM
~PARAMETER INFORMATION
#MNEM.UNIT          VALUE    DESCRIPTION
#----------   ------------   ------------------------------
 PD  .                 GL:   PERMANENT DATUM
 EPD .F              5144:   ELEVATION PERMANENT DATUM
 LMF .                 KB:   LOG MEASURED FROM
 DAPD.F                10:   FEET ABOVE PERMANENT DATUM
 DMF .                 KB:   DRILLING MEASURED FROM
 EKB .F              5154:   KELLING BUSHING
 EDF .F              5153:   DRILLING FLOOR
 EGL .F              5144:   GROUND LEVEL
 DATE.        11-JAN-1995:   RUN DATE
 RUN .                  1:   RUN NUMBER
 DD  .F               641:   DEPTH DRILLER
 DL  .F               642:   DEPTH LOGGER
 BLI .F               635:   BOTTOM LOG INTERVAL
 CS  .IN            9.625:   CASING SIZE
 CBD .F                97:   CASING BOTTOM DRILLER
 CBL .F                97:   CASING BOTTOM LOGGER
 BS  .IN             8.75:   BIT SIZE
 BSD .F               641:   BIT SIZE AT DEPTH
 DFT .                AIR:   DRILLING FLUID TYPE
 MRT .F                89:   MAXIMUM RECORDED TEMPERATURE
 LUN .            HL 6530:   LOGGING UNIT NUMBER
 LUL .             CASPER:   LOGGING UNIT LOCATION
 ENGI.      PAT RASMUSSEN:   RECORDING ENGINEER
 WITN.        STEVE HARDY:   WITNESSED BY
 CLNT.            A2DTECH:   CLIENT CODE
 ORIG.           5" PRINT:   ORIGIN OF DATA
 UWI .       490252264900:   UNIQUE WELL ID
 DICO. A2D Technologies, Inc.:   DIGITIZING COMPANY
~OTHER INFORMATION
~A    DEPT      GRR      RILD       RILM   
# ...
  546.0000    74.1632    12.2427    12.3799
  546.1000    73.9710    12.2279    12.3097
  546.2000    73.9722    12.1567    12.2377
  546.3000    73.9735    12.0763    12.2104
  546.4000    74.2034    12.0769    12.1790
  546.5000    74.2779    12.0775    12.1458
  546.6000    74.5546    12.0782    12.2114
  546.7000    74.8846    12.0789    12.2118
  546.8000    74.9325    12.0795    12.2121
  546.9000    75.1903    12.0802    12.2124
  547.0000    75.4927    12.0810    12.2127
  547.1000    75.4937    12.0815    12.2131
  547.2000    75.8284    12.0822    12.2134
  547.3000    76.2216    12.0829    12.2138
  547.4000    76.4794    12.0836    12.2141
  547.5000    76.7674    12.0912    12.2144
  547.6000    77.3125    12.1690    12.2148
  547.7000    78.0374    12.1038    12.1784
  547.8000    78.6125    12.0862    12.1071
  547.9000    78.9768    12.0869    12.0475
  548.0000    79.3395    12.0876    12.0479
  548.1000    79.7946    12.0729    11.9650
  548.2000    80.0387    12.0054    11.9652
  548.3000    80.0400    12.0062    11.9656
  548.4000    80.0411    12.0068    11.9337
  548.5000    80.0423    12.0074    11.8835
  548.6000    80.0435    11.9722    11.8839
  548.7000    80.0447    11.9258    11.8842
  548.8000    80.0459    11.9265    11.8845
  548.9000    80.0471    11.9272    11.8849
  549.0000    80.0486    11.9279    11.8852
  549.1000    80.0495    11.9285    11.8855
  549.2000    80.0508    11.9291    11.8858
  549.3000    80.0520    11.9298    11.8862
  549.4000    80.0532    11.9304    11.8865
  549.5000    80.0544    11.9311    11.8868
  549.6000    80.0557    11.9318    11.8872
  549.7000    80.0568    11.9324    11.8875
  549.8000    80.0580    11.9331    11.8878
  549.9000    80.0592    11.9338    11.8882
  550.0000    80.0604    11.9344    11.8885
  550.1000    80.0630    11.8883    11.8892
  550.2000    80.1894    11.7718    11.8898
  550.3000    80.5351    11.7726    11.8905
  550.4000    81.0232    11.7734    11.8911
  550.5000    81.2900    11.7742    11.8918
  550.6000    81.5970    11.7752    11.8924
  550.7000    82.0409    11.7759    11.8931
  550.8000    82.3887    11.7767    11.8938
  550.9000    82.7938    11.7775    11.8944
  551.0000    83.2225    11.7783    11.8951
  551.1000    83.4884    11.7791    11.8957
  551.2000    83.7365    11.7799    11.8964
  551.3000    83.7411    11.7808    11.8766
  551.4000    83.9840    11.7816    11.8154
  551.5000    84.0514    11.7298    11.8162
  551.6000    84.2135    11.6605    11.8169
  551.7000    84.3619    11.6218    11.7594
  551.8000    84.4430    11.6031    11.6897
  551.9000    84.6725    11.5430    11.6560
  552.0000    84.6768    11.5440    11.6319
  552.1000    84.9838    11.5449    11.5766
  552.2000    84.9873    11.4894    11.5773
  552.3000    84.9915    11.4666    11.5780
  552.4000    84.8596    11.4674    11.5786
  552.5000    84.6022    11.4682    11.5285
  552.6000    84.1793    11.4822    11.4999
  552.7000    83.1365    11.5495    11.5005
  552.8000    81.9920    11.5504    11.5011
  552.9000    81.2880    11.5511    11.5018
  553.0000    80.1164    11.5519    11.5024
  553.1000    78.9678    11.5527    11.5031
  553.2000    77.9256    11.5823    11.5037
  553.3000    77.0310    11.6347    11.5043
  553.4000    76.5122    11.6355    11.5387
  553.5000    75.9790    11.6364    11.5857
  553.6000    75.6817    11.6371    11.5986
  553.7000    75.4711    11.6379    11.6676
  553.8000    75.3873    11.6387    11.6683
  553.9000    75.7911    11.6395    11.6689
  554.0000    76.9512    11.6404    11.6695
  554.1000    78.6296    11.6412    11.7091
  554.2000    79.6687    11.6420    11.7802
  554.3000    80.5449    11.6429    11.8345
  554.4000    80.7814    11.6436    11.8352
  554.5000    81.2397    11.6935    11.8359
  554.6000    81.4634    11.7262    11.8365
  554.7000    81.4677    11.7545    11.8924
  554.8000    81.4719    11.8094    11.9202
  554.9000    81.4761    11.8102    11.9208
  555.0000    81.4805    11.8111    11.9215
  555.1000    81.4854    11.8118    11.9222
  555.2000    81.4888    11.8126    11.9228
  555.3000    81.4930    11.8135    11.9236
  555.4000    81.4973    11.8143    11.9242
  555.5000    81.5015    11.8151    11.9248
  555.6000    81.5057    11.8159    11.9255
  555.7000    81.5186    11.8167    11.9261
  555.8000    81.8168    11.8177    11.9268
  555.9000    82.0504    11.8184    11.9275
  556.0000    82.3163    11.8192    11.9282
  556.1000    82.7310    11.8200    11.9288
  556.2000    83.1500    11.8208    11.9294
  556.3000    83.3480    11.8216    11.9301
  556.4000    83.3523    11.8225    11.9308
  556.5000    83.3567    11.8234    11.9314
  556.6000    83.6093    11.8241    11.9321
  556.7000    83.6671    11.8249    11.9328
  556.8000    83.6713    11.8257    11.9335
  556.9000    83.8027    11.8266    11.9341
  557.0000    83.9819    11.8274    11.9347
  557.1000    83.9861    11.8282    11.9354
  557.2000    83.9903    11.8290    11.9361
  557.3000    83.9951    11.8300    11.9367
  557.4000    83.9988    11.8307    11.9374
  557.5000    84.0030    11.8315    11.9381
  557.6000    83.7157    11.8323    11.9387
  557.7000    83.4073    11.8331    11.9394
  557.8000    83.2818    11.8339    11.9400
  557.9000    82.7871    11.8348    11.9407
  558.0000    82.5139    11.8357    11.9227
  558.1000    82.2723    11.8364    11.8594
  558.2000    81.8099    11.8372    11.8602
  558.3000    81.4554    11.7980    11.8608
  558.4000    81.1980    11.7571    11.8051
  558.5000    80.9405    11.7401    11.7801
  558.6000    80.6833    11.6774    11.7467
  558.7000    80.4257    11.6784    11.7000
  558.8000    80.1311    11.6133    11.7007
  558.9000    79.9109    11.5993    11.7013
  559.0000    79.4702    11.5563    11.7021
  559.1000    79.0941    11.5208    11.7026
  559.2000    78.9390    11.5216    11.7033
  559.3000    78.8814    11.5224    11.7039
  559.4000    78.6450    11.5232    11.7046
  559.5000    78.6499    11.5241    11.7052
  559.6000    78.6538    11.5248    11.7059
  559.7000    78.6580    11.4775    11.7066
  559.8000    78.8238    11.4468    11.7072
  559.9000    79.3317    11.4475    11.7078
  560.0000    80.2823    11.4483    11.6653
  560.1000    81.5143    11.4491    11.6282
  560.2000    82.3045    11.4500    11.6288
  560.3000    82.9137    11.4507    11.6191
  560.4000    83.3588    11.4515    11.5497
  560.5000    83.7060    11.4523    11.5505
  560.6000    83.8320    11.4221    11.5510
  560.7000    83.8363    11.3748    11.5517
  560.8000    83.8405    11.3756    11.5523
  560.9000    83.8447    11.3764    11.5529
  561.0000    83.8493    11.3773    11.5387
  561.1000    83.8532    11.3215    11.4743
  561.2000    83.6585    11.3001    11.4751
  561.3000    83.5595    11.3009    11.4756
  561.4000    83.4457    11.2772    11.4249
  561.5000    83.1109    11.2244    11.3976
  561.6000    82.5545    11.2252    11.3982
  561.7000    81.7638    11.2261    11.3989
  561.8000    81.1645    11.2268    11.3909
  561.9000    80.2970    11.2276    11.3213
  562.0000    79.4320    11.2283    11.3221
  562.1000    78.6514    11.2291    11.2674
  562.2000    77.9670    11.2299    11.2450
  562.3000    77.5038    11.2227    11.2117
  562.4000    77.2464    11.1539    11.1685
  562.5000    76.9641    11.0778    11.1562
  562.6000    76.9680    11.0784    11.0925
  562.7000    77.1682    11.0791    11.0932
  562.8000    77.4340    11.0471    11.0937
  562.9000    77.8150    11.0042    11.0944
  563.0000    78.4171    10.9928    11.0950
  563.1000    79.1380    10.9297    11.0956
  563.2000    79.4104    10.9305    11.0962
  563.3000    80.3216    10.9312    11.0900
  563.4000    80.9692    10.9319    11.0208
  563.5000    81.5841    10.9327    11.0214
  563.6000    81.9778    10.9069    11.0220
  563.7000    82.2437    10.8587    11.0226
  563.8000    82.5096    10.8533    10.9915
  563.9000    82.7755    10.7852    10.9476
  564.0000    83.0699    10.7860    10.9482
  564.1000    83.3072    10.7867    10.9488
