~VERSION INFORMATION
 VERS.                2.0:   CWLS LOG ASCII STANDARD - VERSION 2.0
 WRAP.                 NO:   ONE LINE PER DEPTH STEP
~WELL INFORMATION
#MNEM.UNIT      DATA TYPE    INFORMATION
#----------   ------------   ------------------------------
 STRT.F            0.0000:   START DEPTH
 STOP.F          666.0000:   STOP DEPTH
 STEP.F            0.1000:   STEP LENGTH
 NULL.          -999.2500:   NO VALUE
 COMP.   FLUOR DANIEL INC:   COMPANY
 WELL.   77-2 X 34 #77-34:   WELL
 FLD .             TEAPOT:   FIELD
 LOC .      S34 T39N R78W:   LOCATION
 CNTY.            NATRONA:   COUNTY
 STAT.            WYOMING:   STATE
 CTRY. UNITED STATES OF AMERICA:   COUNTRY
 SRVC.      Western Atlas:   SERVICE COMPANY
 DATE.        01-APR-1995:   LOGDATE
 API .       490252270000:   API NUMBER
~CURVE INFORMATION
#MNEM.UNIT       API CODE    CURVE DESCRIPTION
#----------   ------------   ------------------------------
 DEPT.F                  :   
 GRR .GAPI   07 310 01 00:   GAMMA RAY
 RILD.OHMM   07 120 46 00:   INDUCTION LOG DEEP RESISTIVITY
 RILM.OHMM   07 120 44 00:   INDUCTION LOG MEDIUM RESISTIVITY
~PARAMETER INFORMATION
#MNEM.UNIT          VALUE    DESCRIPTION
#----------   ------------   ------------------------------
 PD  .                 GL:   PERMANENT DATUM
 EPD .F              5106:   ELEVATION PERMANENT DATUM
 LMF .                 KB:   LOG MEASURED FROM
 DAPD.F                10:   FEET ABOVE PERMANENT DATUM
 DMF .                 KB:   DRILLING MEASURED FROM
 EKB .F              5116:   KELLING BUSHING
 EDF .F              5115:   DRILLING FLOOR
 EGL .F              5106:   GROUND LEVEL
 DATE.        01-APR-1995:   RUN DATE
 RUN .                  1:   RUN NUMBER
 DD  .F               674:   DEPTH DRILLER
 DL  .F               674:   DEPTH LOGGER
 BLI .F               666:   BOTTOM LOG INTERVAL
 TLI .F                52:   TOP LOG INTERVAL
 CS  .IN            9.625:   CASING SIZE
 CBD .F                52:   CASING BOTTOM DRILLER
 CBL .F                52:   CASING BOTTOM LOGGER
 BS  .IN             8.75:   BIT SIZE
 BSD .F               674:   BIT SIZE AT DEPTH
 DFT .                AIR:   DRILLING FLUID TYPE
 MRT .F                89:   MAXIMUM RECORDED TEMPERATURE
 LUN .            HL 6530:   LOGGING UNIT NUMBER
 LUL .             CASPER:   LOGGING UNIT LOCATION
 ENGI.      PAT RASMUSSEN:   RECORDING ENGINEER
 WITN.        GARY STRONG:   WITNESSED BY
 CLNT.            A2DTECH:   CLIENT CODE
 ORIG.           5" PRINT:   ORIGIN OF DATA
 UWI .       490252270000:   UNIQUE WELL ID
 DICO. A2D Technologies, Inc.:   DIGITIZING COMPANY
~OTHER INFORMATION
~A    DEPT      GRR      RILD       RILM   
# ...
  127.4000   125.5015     7.3076     7.1207
  127.5000   126.3952     7.3078     7.1209
  127.6000   127.0090     7.3080     7.1211
  127.7000   127.2865     7.3082     7.0823
  127.8000   127.8357     7.3084     7.0723
  127.9000   128.0659     7.3086     7.0725
  128.0000   128.3177     7.3088     7.0727
  128.1000   128.4320     7.3090     7.0705
  128.2000   128.4296     7.3092     7.0571
  128.3000   128.4272     7.3094     7.0436
  128.4000   128.4247     7.3096     7.0301
  128.5000   128.4223     7.3098     7.0248
  128.6000   128.4199     7.3100     7.0250
  128.7000   128.4175     7.3103     7.0252
  128.8000   128.3081     7.3104     7.0254
  128.9000   128.0515     7.2818     7.0256
  129.0000   127.7827     7.2600     7.0257
  129.1000   127.2009     7.2478     7.0259
  129.2000   127.1988     7.2100     7.0261
  129.3000   127.0251     7.2102     7.0263
  129.4000   126.8923     7.1721     7.0265
  129.5000   126.9663     7.1305     7.0268
  129.6000   127.1894     7.0891     7.0269
  129.7000   127.1865     7.0617     7.0271
  129.8000   127.4200     7.0560     7.0273
  129.9000   127.8600     7.0131     7.0275
  130.0000   128.2252     7.0133     7.0277
  130.1000   128.4770     7.0135     7.0279
  130.2000   128.7288     7.0137     7.0281
  130.3000   128.9822     7.0295     7.0283
  130.4000   129.2810     7.0709     7.0285
  130.5000   129.2790     7.1127     7.0412
  130.6000   129.2766     7.1130     7.0778
  130.7000   129.1640     7.1467     7.0780
  130.8000   128.8446     7.1631     7.0782
  130.9000   128.3491     7.1633     7.1084
  131.0000   128.0600     7.1732     7.1352
  131.1000   127.8359     7.2155     7.1493
  131.2000   127.7538     7.2645     7.1633
  131.3000   127.6243     7.2647     7.1780
  131.4000   127.5270     7.2929     7.1782
  131.5000   127.7469     7.3159     7.1784
  131.6000   127.7440     7.3161     7.2024
  131.7000   127.9807     7.3199     7.2288
  131.8000   128.2325     7.3678     7.2315
  131.9000   128.3403     7.3679     7.2458
  132.0000   128.4344     7.3682     7.2600
  132.1000   128.6376     7.3903     7.2743
  132.2000   128.3298     7.4201     7.2801
  132.3000   127.7269     7.4258     7.2803
  132.4000   127.0998     7.4725     7.2805
  132.5000   126.1739     7.4727     7.2816
  132.6000   125.1547     7.5054     7.3316
  132.7000   124.1355     7.5254     7.3318
  132.8000   123.1164     7.5256     7.3320
  132.9000   121.9810     7.5332     7.3322
  133.0000   121.1906     7.5787     7.3430
  133.1000   120.2985     7.5789     7.3836
  133.2000   119.8624     7.5791     7.3839
  133.3000   119.8600     7.6057     7.3841
  133.4000   119.9284     7.6325     7.3843
  133.5000   120.4584     7.6422     7.4049
  133.6000   120.9403     7.6864     7.4361
  133.7000   121.6410     7.6866     7.4400
  133.8000   122.2540     7.7241     7.4883
  133.9000   122.8597     7.7408     7.4884
  134.0000   123.6199     7.7612     7.4886
  134.1000   124.3849     7.7954     7.5110
  134.2000   125.5694     7.7956     7.5412
  134.3000   125.7790     7.7958     7.5467
  134.4000   126.0308     7.8359     7.5941
  134.5000   126.2825     7.8821     7.5943
  134.6000   126.4652     7.9059     7.6108
  134.7000   126.4627     7.9199     7.6331
  134.8000   126.4601     7.9617     7.6478
  134.9000   126.2295     7.9619     7.6480
  135.0000   125.9729     8.0049     7.6482
  135.1000   125.7162     8.0181     7.6913
  135.2000   125.3735     8.0433     7.7019
  135.3000   124.9013     8.0907     7.7279
  135.4000   124.6358     8.1313     7.7559
  135.5000   124.1427     8.1316     7.7646
  135.6000   123.6320     8.1775     7.8103
  135.7000   122.9707     8.1889     7.8106
  135.8000   122.3087     8.2167     7.8472
  135.9000   121.7979     8.2467     7.8653
  136.0000   121.2870     8.2469     7.8845
  136.1000   120.6971     8.2471     7.9205
  136.2000   120.4802     8.3051     7.9220
  136.3000   120.3909     8.3447     7.9761
  136.4000   120.5084     8.3939     7.9763
  136.5000   120.9049     8.4224     8.0063
  136.6000   121.6900     8.4226     8.0323
  136.7000   122.7944     8.4250     8.0325
  136.8000   123.7189     8.4821     8.0327
  136.9000   124.3648     8.4823     8.0329
  137.0000   125.0075     8.4825     8.0738
  137.1000   125.5891     8.5060     8.0893
  137.2000   125.8827     8.5423     8.0895
  137.3000   126.3999     8.5468     8.0897
  137.4000   126.6462     8.6026     8.0944
  137.5000   126.6968     8.6028     8.1465
  137.6000   126.6944     8.6385     8.1467
  137.7000   126.5858     8.6635     8.1469
  137.8000   126.2705     8.6800     8.1716
  137.9000   125.7709     8.7246     8.2041
  138.0000   125.4778     8.7249     8.2043
  138.1000   124.8217     8.7251     8.2046
  138.2000   124.3978     8.7635     8.2048
  138.3000   123.8951     8.8152     8.2050
  138.4000   123.3569     8.8483     8.2052
  138.5000   123.3826     8.8486     8.2054
  138.6000   123.6535     8.8488     8.2057
  138.7000   123.8862     8.9000     8.2059
  138.8000   124.1380     8.9112     8.2061
  138.9000   124.3897     8.9115     8.2064
  139.0000   124.8266     8.9117     8.2066
  139.1000   125.4966     8.9120     8.2068
  139.2000   125.7508     8.9111     8.1978
  139.3000   126.6529     8.8506     8.1505
  139.4000   126.8553     8.8508     8.1508
  139.5000   127.2640     8.8511     8.1129
  139.6000   127.6605     8.8282     8.0949
  139.7000   127.7884     8.7769     8.0951
  139.8000   127.5173     8.7292     8.0953
  139.9000   126.9403     8.7295     8.0940
  140.0000   126.7169     8.6852     8.0399
  140.1000   126.4604     8.6693     8.0401
  140.2000   126.0775     8.6447     8.0252
  140.3000   125.6455     8.6095     8.0021
  140.4000   125.3575     8.6044     7.9731
  140.5000   124.8143     8.5502     7.9302
  140.6000   124.5740     8.5047     7.9304
  140.7000   124.1267     8.4913     7.8905
  140.8000   123.6159     8.4651     7.8760
  140.9000   123.1051     8.4327     7.8540
  141.0000   122.5943     8.4330     7.8220
  141.1000   122.0851     8.4332     7.8222
  141.2000   122.0822     8.4334     7.8225
  141.3000   122.0802     8.3959     7.8227
  141.4000   121.9177     8.3753     7.7905
  141.5000   121.7738     8.3567     7.7573
  141.6000   121.8365     8.3082     7.7350
  141.7000   122.0883     8.2600     7.7157
  141.8000   122.3696     8.2603     7.7160
  141.9000   122.5919     8.2605     7.7162
  142.0000   123.0207     8.2309     7.6830
  142.1000   123.2676     8.1831     7.6633
  142.2000   123.3472     8.1468     7.6635
  142.3000   123.5990     8.1470     7.6637
  142.4000   123.8635     8.1473     7.6639
  142.5000   123.8612     8.1069     7.6641
  142.6000   123.8588     8.0598     7.6644
  142.7000   123.7100     8.0351     7.6646
  142.8000   123.4534     8.0353     7.6648
  142.9000   123.2483     8.0355     7.6650
  143.0000   123.2418     8.0358     7.6652
  143.1000   122.9414     8.0360     7.6655
  143.2000   122.7286     8.0362     7.6656
  143.3000   122.4720     8.0123     7.6658
  143.4000   122.2154     7.9808     7.6661
  143.5000   121.9588     7.9810     7.6663
  143.6000   121.6604     7.9813     7.6671
  143.7000   120.8154     7.9815     7.6822
  143.8000   120.5856     7.9817     7.6973
  143.9000   120.3290     7.9819     7.7125
  144.0000   120.0724     7.9822     7.7207
  144.1000   119.9011     7.9824     7.7209
  144.2000   119.9364     7.9826     7.7211
  144.3000   120.1978     7.9828     7.7214
  144.4000   120.4400     7.9830     7.7216
  144.5000   120.6918     8.0114     7.7218
  144.6000   120.7940     8.0393     7.7220
  144.7000   120.8937     8.0396     7.7222
  144.8000   121.1455     8.0398     7.7224
  144.9000   121.3901     8.0401     7.7226
  145.0000   121.3872     8.0402     7.7228
  145.1000   121.3852     8.0405     7.7231
  145.2000   121.3828     8.0407     7.7233
  145.3000   121.2613     8.0532     7.7285
  145.4000   121.0763     8.0974     7.7437
  145.5000   121.0498     8.0977     7.7590
