~VERSION INFORMATION
 VERS.                2.0:   CWLS LOG ASCII STANDARD - VERSION 2.0
 WRAP.                 NO:   ONE LINE PER DEPTH STEP
~WELL INFORMATION
#MNEM.UNIT      DATA TYPE    INFORMATION
#----------   ------------   ------------------------------
 STRT.F           10.0000:   START DEPTH
 STOP.F          756.0000:   STOP DEPTH
 STEP.F            0.1000:   STEP LENGTH
 NULL.          -999.2500:   NO VALUE
 COMP. BROWN JOHN E&C INC:   COMPANY
 WELL. N P R 3 SHX- #31-1-X-14:   WELL
 FLD .             TEAPOT:   FIELD
 LOC .      S14 T38N R78W:   LOCATION
 CNTY.            NATRONA:   COUNTY
 STAT.            WYOMING:   STATE
 CTRY. UNITED STATES OF AMERICA:   COUNTRY
 SRVC.     Atlas Wireline:   SERVICE COMPANY
 DATE.        07-JAN-1992:   LOGDATE
 API .       490252249700:   API NUMBER
~CURVE INFORMATION
#MNEM.UNIT       API CODE    CURVE DESCRIPTION
#----------   ------------   ------------------------------
 DEPT.F                  :   
 GRR .GAPI   07 310 01 00:   GAMMA RAY
 RFOC.OHMM   07 220 04 00:   RESISTIVITY FOCUSED LOG RES.
 RILD.OHMM   07 120 46 00:   INDUCTION LOG DEEP RESISTIVITY
 RILM.OHMM   07 120 44 00:   INDUCTION LOG MEDIUM  RESISTIVITY
~PARAMETER INFORMATION
#MNEM.UNIT          VALUE    DESCRIPTION
#----------   ------------   ------------------------------
 PD  .                 GL:   PERMANENT DATUM
 EPD .F              5210:   ELEVATION PERMANENT DATUM
 LMF .                 KB:   LOG MEASURED FROM
 DAPD.F                10:   FEET ABOVE PERMANENT DATUM
 DMF .                 KB:   DRILLING MEASURED FROM
 EKB .F              5220:   KELLING BUSHING
 EDF .F              5219:   DRILLING FLOOR
 EGL .F              5210:   GROUND LEVEL
 DATE.        07-JAN-1992:   RUN DATE
 RUN .                  1:   RUN NUMBER
 DD  .F               762:   DEPTH DRILLER
 DL  .F               760:   DEPTH LOGGER
 BLI .F               758:   BOTTOM LOG INTERVAL
 CS  .IN            9.625:   CASING SIZE
 CBD .F                48:   CASING BOTTOM DRILLER
 CBL .F                50:   CASING BOTTOM LOGGER
 BS  .IN             8.75:   BIT SIZE
 BSD .F               762:   BIT SIZE AT DEPTH
 DFT .    FORMATION FLUID:   DRILLING FLUID TYPE
 MRT .F                90:   MAXIMUM RECORDED TEMPERATURE
 LUN .            HL-6274:   LOGGING UNIT NUMBER
 LUL .             CASPER:   LOGGING UNIT LOCATION
 ENGI.             RAUTIC:   RECORDING ENGINEER
 WITN.        GARY STRONG:   WITNESSED BY
 CLNT.            A2DTECH:   CLIENT CODE
 ORIG.           5" PRINT:   ORIGIN OF DATA
 UWI .       490252249700:   UNIQUE WELL ID
 DICO. A2D Technologies, Inc.:   DIGITIZING COMPANY
~OTHER INFORMATION
~A   DEPT       GRR      RFOC       RILD       RILM   
# ...
  243.6000   111.8912     7.7687     7.0621     6.7209
  243.7000   111.8947     7.7688     7.0623     6.7209
  243.8000   112.1120     7.7689     7.0584     6.7209
  243.9000   112.3682     7.7690     7.0138     6.7209
  244.0000   112.5076     7.7691     7.0140     6.7209
  244.1000   112.4427     7.7692     7.0142     6.7209
  244.2000   112.2113     7.7693     7.0144     6.7209
  244.3000   112.2149     7.7686     7.0279     6.7435
  244.4000   111.9944     7.7156     7.0637     6.7677
  244.5000   111.9184     7.7527     7.0639     6.7677
  244.6000   111.7962     7.7698     7.0641     6.7677
  244.7000   111.5460     7.7699     7.0643     6.7677
  244.8000   111.3229     7.7700     7.0645     6.7677
  244.9000   111.3265     7.7701     7.0647     6.7677
  245.0000   111.3293     7.7702     7.0649     6.7866
  245.1000   111.1496     7.7703     7.0651     6.8149
  245.2000   111.0332     7.7704     7.1051     6.8149
  245.3000   110.9514     7.7705     7.1148     6.8149
  245.4000   110.7367     7.7706     7.1150     6.8149
  245.5000   110.7403     7.7707     7.1152     6.8149
  245.6000   110.5031     7.7709     7.1154     6.8373
  245.7000   110.2530     7.7710     7.1156     6.8624
  245.8000   110.1450     7.7711     7.1158     6.8624
  245.9000   110.0548     7.7712     7.1160     6.8628
  246.0000   109.8046     7.7713     7.1161     6.9102
  246.1000   109.5499     7.7748     7.1163     6.9102
  246.2000   109.3043     7.8259     7.1165     6.9364
  246.3000   109.0542     7.8260     7.1158     6.9773
  246.4000   108.8040     7.8261     7.0677     7.0069
  246.5000   108.6556     7.8262     7.0678     7.0108
  246.6000   108.6059     7.8263     7.0680     7.0557
  246.7000   108.3557     7.8264     7.0682     7.0936
  246.8000   108.0610     7.8265     7.0684     7.1354
  246.9000   107.8554     7.8266     7.0686     7.1774
  247.0000   107.7644     7.8589     7.0688     7.2043
  247.1000   107.6572     7.8816     7.0690     7.2119
  247.2000   107.4683     7.8960     7.0829     7.2545
  247.3000   107.4590     7.9370     7.1037     7.3051
  247.4000   107.1726     7.9371     7.1303     7.3401
  247.5000   107.1752     7.9798     7.1721     7.3833
  247.6000   107.1782     8.0266     7.2190     7.4268
  247.7000   107.0627     8.0736     7.2565     7.4705
  247.8000   106.8125     8.1366     7.2991     7.5145
  247.9000   106.5828     8.2192     7.3419     7.5632
  248.0000   106.5864     8.2194     7.3850     7.6033
  248.1000   106.5891     8.3098     7.4282     7.6481
  248.2000   106.7682     8.3711     7.4756     7.6690
  248.3000   107.0244     8.4201     7.5157     7.6849
  248.4000   107.2805     8.4695     7.5598     7.7225
  248.5000   107.5368     8.5115     7.6041     7.7225
  248.6000   107.8129     8.5117     7.6487     7.7225
  248.7000   108.5160     8.5593     7.6874     7.7225
  248.8000   109.0941     8.6095     7.6876     7.7225
  248.9000   109.4679     8.6600     7.7301     7.7225
  249.0000   109.8107     8.6921     7.7755     7.7340
  249.1000   110.3201     8.6922     7.8211     7.7763
  249.2000   110.8521     8.6923     7.8505     7.7763
  249.3000   111.0969     8.7420     7.8583     7.7763
  249.4000   111.1601     8.7534     7.9057     7.7763
  249.5000   111.1631     8.7535     7.9059     7.7763
  249.6000   111.0711     8.7734     7.9061     7.7763
  249.7000   110.8665     8.8150     7.9063     7.7763
  249.8000   110.8701     8.8151     7.9245     7.7763
  249.9000   109.3694     8.8152     7.9619     7.7321
  250.0000   108.0564     8.8565     7.9621     7.7225
  250.1000   107.1003     8.8771     7.9624     7.7225
  250.2000   106.3444     8.8983     7.9626     7.7761
  250.3000   105.5909     8.9395     7.9628     7.7760
  250.4000   105.0369     8.9396     7.9630     7.7759
  250.5000   104.6838     8.9398     7.9633     7.7758
  250.6000   104.4322     8.9399     7.9635     7.7757
  250.7000   104.2296     8.9400     7.9637     7.7686
  250.8000   104.2296     8.9401     7.9639     7.7216
  250.9000   104.4796     8.9742     7.9641     7.7215
  251.0000   104.5317     9.0634     7.9644     7.7214
  251.1000   104.6806     9.0633     7.9530     7.6977
  251.2000   104.9321     9.0631     7.9096     7.6678
  251.3000   105.1837     9.0630     7.9099     7.6625
  251.4000   105.4381     9.0629     7.9101     7.6145
  251.5000   105.9355     9.0628     7.9103     7.5747
  251.6000   106.4387     9.0416     7.9105     7.5311
  251.7000   106.9418     8.9891     7.9107     7.5091
  251.8000   107.3478     8.9369     7.9070     7.4967
  251.9000   107.5994     8.8746     7.8564     7.4535
  252.0000   107.8550     8.7926     7.8566     7.4052
  252.1000   107.8550     8.7211     7.8250     7.3681
  252.2000   107.8550     8.6705     7.7798     7.3258
  252.3000   107.8550     8.6102     7.7349     7.2837
  252.4000   107.8550     8.5105     7.6851     7.2418
  252.5000   107.9456     8.4611     7.5893     7.2001
  252.6000   108.4592     8.4120     7.5490     7.1518
  252.7000   108.7056     8.3631     7.5054     7.1176
  252.8000   108.9571     8.3338     7.4620     7.0767
  252.9000   109.2086     8.3241     7.4045     7.0529
  253.0000   109.4602     8.2757     7.3250     7.0443
  253.1000   109.7118     8.2756     7.2805     7.0037
  253.2000   109.9698     8.2371     7.2406     6.9236
  253.3000   110.2149     8.2179     7.1988     6.8756
  253.4000   110.4665     8.2178     7.1572     6.8591
  253.5000   110.7180     8.2176     7.1159     6.8442
  253.6000   110.8761     8.2175     7.0747     6.8115
  253.7000   110.8761     8.1698     7.0329     6.6709
  253.8000   110.8761     8.1224     7.0331     6.6340
  253.9000   110.6322     8.1034     7.0014     6.5959
  254.0000   110.3807     8.0845     6.9609     6.5786
  254.1000   110.1291     8.0375     6.9207     6.5785
  254.2000   109.8775     7.9908     6.8888     6.5784
  254.3000   109.5842     7.9907     6.8889     6.5783
  254.4000   109.0634     7.9168     6.8415     6.5782
  254.5000   108.8207     7.8525     6.8652     6.5782
  254.6000   108.5692     7.8069     6.8763     6.5589
  254.7000   108.4592     7.7615     6.8599     6.5324
  254.8000   108.3682     7.7164     6.8285     6.5323
  254.9000   108.1571     7.6094     6.8284     6.5322
  255.0000   108.1571     7.5741     6.8283     6.5322
  255.1000   108.1571     7.5564     6.8282     6.5321
  255.2000   108.3480     7.5388     6.8281     6.5320
  255.3000   108.5996     7.5037     6.8127     6.5319
  255.4000   108.8511     7.5036     6.7806     6.5339
  255.5000   109.1420     7.5035     6.7805     6.5772
  255.6000   109.6677     7.5034     6.7804     6.5771
  255.7000   110.1482     7.5295     6.7803     6.5771
  255.8000   110.6514     7.5556     6.7803     6.5933
  255.9000   111.1545     7.5555     6.7802     6.6227
  256.0000   111.6576     7.5554     6.7801     6.6226
  256.1000   112.1607     7.5553     6.7800     6.6225
  256.2000   112.6888     7.5552     6.8174     6.6533
  256.3000   113.1669     7.5815     6.8271     6.6685
  256.4000   113.6701     7.6079     6.8270     6.6684
  256.5000   114.1732     7.6166     6.8269     6.6683
  256.6000   114.6763     7.6609     6.8268     6.6682
  256.7000   115.1426     7.6608     6.8267     6.6681
  256.8000   115.4079     7.6607     6.8266     6.6680
  256.9000   115.6457     7.6874     6.8265     6.6896
  257.0000   115.7100     7.7141     6.8264     6.7143
  257.1000   115.4364     7.7229     6.8263     6.7142
  257.2000   114.8472     7.7678     6.8262     6.7141
  257.3000   114.0211     7.7677     6.8261     6.7141
  257.4000   112.6888     7.8038     6.8619     6.7423
  257.5000   112.2155     7.8218     6.8735     6.7607
  257.6000   111.7124     7.8400     6.8735     6.7729
  257.7000   111.3448     7.8855     6.8850     6.8076
  257.8000   111.0082     7.9313     6.9212     6.8075
  257.9000   110.5395     7.9775     6.9211     6.8428
  258.0000   110.2719     8.0239     6.9210     6.8548
  258.1000   110.0365     8.0705     6.9481     6.8738
