~VERSION INFORMATION
 VERS.                2.0:   CWLS LOG ASCII STANDARD - VERSION 2.0
 WRAP.                 NO:   ONE LINE PER DEPTH STEP
~WELL INFORMATION
#MNEM.UNIT      DATA TYPE    INFORMATION
#----------   ------------   ------------------------------
 STRT.F           29.0000:   START DEPTH
 STOP.F          435.0000:   STOP DEPTH
 STEP.F            0.5000:   STEP LENGTH
 NULL.          -999.2500:   NO VALUE
 COMP. FENIX & SCISSON INC:   COMPANY
 WELL.    525 X 10 #52-10:   WELL
 FLD .             TEAPOT:   FIELD
 LOC .      S10 T38N R78W:   LOCATION
 CNTY.            NATRONA:   COUNTY
 STAT.            WYOMING:   STATE
 CTRY. UNITED STATES OF AMERICA:   COUNTRY
 SRVC.       Schlumberger:   SERVICE COMPANY
 DATE.        18-NOV-1978:   LOGDATE
 API .       490251077700:   API NUMBER
~CURVE INFORMATION
#MNEM.UNIT       API CODE    CURVE DESCRIPTION
#----------   ------------   ------------------------------
 DEPT.F                  :   
 NEUT.NAPI   35 330 01 00:   NEUTRON
 SPR .MV     07 010 01 00:   SPONTANEOUS POTENTIAL
 SFL .OHMM   07 220 01 00:   SHALLOW FOCUSED LOG RESISTIVITY
 ILD .OHMM   07 120 46 00:   INDUCTION LOG DEEP RESISTIVITY
 ILM .OHMM   07 120 44 00:   INDUCTION LOG MEDIUM
 CORR.G/C3   45 356 01 00:   DENSITY CORRECTION
 RHOB.G/C3   45 350 01 00:   BULK DENSITY
 DPHI.DEC    45 890 12 00:   DENSITY POROSITY SANDSTONE
 CALD.IN     45 280 60 00:   CALIPER
 GRD .GAPI   45 310 01 00:   GAMMA RAY FROM DENSITY LOG
~PARAMETER INFORMATION
#MNEM.UNIT          VALUE    DESCRIPTION
#----------   ------------   ------------------------------
 PD  .                 GL:   PERMANENT DATUM
 EPD .F              5176:   ELEVATION PERMANENT DATUM
 LMF .                 KB:   LOG MEASURED FROM
 DAPD.F                 4:   FEET ABOVE PERMANENT DATUM
 DMF .                 KB:   DRILLING MEASURED FROM
 EKB .F              5180:   KELLING BUSHING
 EGL .F              5176:   GROUND LEVEL
 DATE.           11-18-78:   RUN DATE
 RUN .                  1:   RUN NUMBER
 DD  .F               433:   DEPTH DRILLER
 DL  .F               435:   DEPTH LOGGER
 BLI .F               429:   BOTTOM LOG INTERVAL
 TLI .F                48:   TOP LOG INTERVAL
 CS  .IN            8.625:   CASING SIZE
 CBD .F                40:   CASING BOTTOM DRILLER
 CBL .F                48:   CASING BOTTOM LOGGER
 BS  .IN            7.875:   BIT SIZE
 BSD .F               433:   BIT SIZE AT DEPTH
 DFT .            KCL MUD:   DRILLING FLUID TYPE
 DFD .                8.5:   DRILLING FLUID DENSITY
 DFV .                 30:   DRILLING FLUID VISCOSITY
 DFPH.                9.6:   DRILLING FLUID PH
 DFL .                 16:   DRILLING FLUID LOSS
 MSS .             MUDPIT:   MUD SAMPLE SOURCE
 RMS .OHMM            .45:   RESISTIVITY MUD SAMPLE
 MST .F                50:   MUD SAMPLE TEMPERATURE
 RMF .OHMM            .37:   RESISTIVITY MUD FILTRATE SAMPLE
 MFST.F                50:   MUD FILTRATE SAMPLE TEMPERATURE
 RMC .OHMM            .43:   RESISTIVITY MUD CAKE
 MCST.F                50:   MUD CAKE SAMPLE TEMPERATURE
 MFSS.                  M:   MUD FILTRATE SAMPLE SOURCE
 MCSS.                  C:   MUD CAKE SAMPLE SOURCE
 RMB .OHMM            .42:   RESISTIVITY MUD AT BHT
 BHT .F                63:   BOTTOM HOLE TEMPERATURE
 TCS .HRS            2400:   TIME CURCULATED STOPPED
 TLAB.HRS            1300:   TIME LOGGER AT BOTTOM
 MRT .F                63:   MAXIMUM RECORDED TEMPERATURE
 LUN .               7663:   LOGGING UNIT NUMBER
 LUL .                GLT:   LOGGING UNIT LOCATION
 ENGI.        SATTERFIELD:   RECORDING ENGINEER
 WITN.              AMEND:   WITNESSED BY
 CLNT.            A2DTECH:   CLIENT CODE
 ORIG.     1", 2.5" PRINT:   ORIGIN OF DATA
 UWI .       490251077700:   UNIQUE WELL ID
 DICO. A2D Technologies, Inc.:   DIGITIZING COMPANY
~OTHER INFORMATION
~A   DEPT     NEUT        SPR        SFL        ILD        ILM       CORR       RHOB       DPHI       CALD         GRD  
# ...
  196.5000   268.3792   -36.6031     5.7387     5.4646     5.8909     0.0571     2.4035     0.1692     8.0854   127.9491
  197.0000   269.4766   -36.3256     6.7189     5.7755     6.2046     0.0596     2.4337     0.1540     8.0533   126.2075
  197.5000   271.1907   -36.0468     8.0801     6.1041     6.5350     0.0604     2.4642     0.1307     8.0667   123.7786
  198.0000   274.1189   -35.7680     9.4585     6.4515     6.8830     0.0470     2.4762     0.1223     8.0814   122.2763
  198.5000   267.2985   -35.4899     9.8407     6.7842     7.2496     0.0342     2.4578     0.1327     8.0972   124.6774
  199.0000   269.9200   -35.2108     9.8407     7.1966     7.6356     0.0196     2.4451     0.1425     8.1128   128.2690
  199.5000   272.4956   -34.9322     9.7490     7.6235     7.9256     0.0130     2.4532     0.1360     8.1273   129.2111
  200.0000   270.0666   -34.6563     9.6377     8.0756     8.0565     0.0170     2.4668     0.1295     8.1454   130.0825
  200.5000   268.3185   -34.3708     9.4814     8.1812     8.1894     0.0195     2.4809     0.1198     8.1666   130.7917
  201.0000   271.4662   -34.1024     9.6498     8.2080     8.3246     0.0203     2.4820     0.1190     8.1782   131.6396
  201.5000   267.8637   -33.8274     9.9487     8.2348     8.4620     0.0137     2.4782     0.1256     8.1829   131.3693
  202.0000   266.1555   -33.9033    10.2136     8.2618     8.6347     0.0083     2.4662     0.1312     8.1883   130.5978
  202.5000   270.7569   -33.9950    10.2803     8.2888     8.6243     0.0082     2.4575     0.1336     8.1936   130.4388
  203.0000   272.4786   -34.1017    10.3392     8.3241     8.6036     0.0150     2.4667     0.1247     8.1987   131.5914
  203.5000   266.7191   -34.1983    10.4053     8.3179     8.5829     0.0147     2.4734     0.1265     8.2041   131.3547
  204.0000   267.6962   -34.2978    10.3716     8.3091     8.5623     0.0065     2.4735     0.1272     8.2091   130.4362
  204.5000   275.1122   -34.4005    10.3337     8.3003     8.5417     0.0006     2.4746     0.1255     8.2147   129.5799
  205.0000   270.6451   -34.4954    10.2960     8.2914     8.5211     0.0017     2.4779     0.1239     8.2186   128.8262
  205.5000   275.1787   -34.6068    10.2584     8.2826     8.5007     0.0025     2.4836     0.1188     8.2273   127.9616
  206.0000   271.3489   -34.6145    10.2209     8.2738     8.4804     0.0063     2.4905     0.1138     8.2354   129.2443
  206.5000   273.7415   -34.6188    10.1836     8.2650     8.4804     0.0116     2.4977     0.1087     8.2436   131.4739
  207.0000   252.6358   -34.6124    10.1468     8.2562     8.4801     0.0148     2.5038     0.1068     8.2524   132.4044
  207.5000   255.4676   -34.6140    10.1098     8.2474     8.4805     0.0099     2.4958     0.1120     8.2570   130.8973
  208.0000   251.6818   -34.4310    10.0727     8.2387     8.4803     0.0098     2.4902     0.1157     8.2640   129.7858
  208.5000   243.3682   -34.1787    10.0356     8.2300     8.4803     0.0153     2.4897     0.1157     8.2709   128.7528
  209.0000   235.4746   -33.9275    10.0916     8.2213     8.4806     0.0140     2.4817     0.1146     8.2782   130.3161
  209.5000   375.1210   -33.6814    10.1840     8.2124     8.4803     0.0084     2.4880     0.1102     8.2852   132.1175
  210.0000   188.5518   -33.4307    10.2779     8.2042     8.4808     0.0114     2.4920     0.1134     8.2924   131.6239
  210.5000   292.7802   -33.1760    10.4053     8.1950     8.4802     0.0108     2.4802     0.1190     8.2995   129.3541
  211.0000   294.4502   -33.0216    10.3787     8.1862     8.4827     0.0058     2.4681     0.1245     8.3066   127.8150
  211.5000   304.2631   -33.1266    10.2737     8.1776     8.4791     0.0008     2.4609     0.1304     8.3138   127.9183
  212.0000   310.5878   -33.2117    10.1698     8.1344     8.4787     0.0007     2.4642     0.1320     8.3209   130.2324
  212.5000   283.8877   -33.3243    10.0669     7.9707     8.4840     0.0022     2.4646     0.1309     8.3279   132.9165
  213.0000   284.2224   -33.4336    10.0254     7.8102     8.2000     0.0036     2.4608     0.1310     8.3352   135.6612
  213.5000   284.2212   -33.8698     9.4955     7.6530     7.9307     0.0052     2.4572     0.1324     8.3366   137.2486
  214.0000   284.1646   -34.2415     9.1353     7.4453     7.6705     0.0068     2.4554     0.1338     8.3345   136.1081
  214.5000   284.1061   -34.6382     7.9860     7.1412     7.4187     0.0097     2.4576     0.1352     8.3329   135.0071
  215.0000   284.0476   -35.0201     7.5692     6.8879     7.1751     0.0113     2.4661     0.1360     8.3312   134.0963
  215.5000   283.9890   -35.4165     8.0731     6.6436     6.9394     0.0125     2.4772     0.1248     8.3295   131.3011
  216.0000   283.9305   -35.7883     8.5486     6.4079     6.7114     0.0105     2.4805     0.1215     8.3278   127.0622
  216.5000   283.8719   -36.2074     9.1174     6.1806     6.4913     0.0091     2.4814     0.1225     8.3261   123.1574
  217.0000   283.8134   -36.2284     8.8471     5.9614     6.2787     0.0182     2.4730     0.1266     8.3244   121.2902
  217.5000   283.7549   -36.2337     8.6191     5.7499     6.0734     0.0260     2.4605     0.1326     8.3228   122.2971
  218.0000   283.6963   -35.9566     7.3466     5.6329     5.8500     0.0306     2.4484     0.1385     8.3211   123.8865
  218.5000   283.6378   -35.6275     6.0868     5.4597     5.6835     0.0302     2.4363     0.1445     8.3194   125.4113
  219.0000   283.5792   -35.2929     5.3273     5.2291     5.5292     0.0220     2.4242     0.1475     8.3177   125.0596
  219.5000   283.5206   -34.9604     5.3273     5.3471     5.5292     0.0141     2.4335     0.1490     8.3160   125.0090
  220.0000   283.4622   -34.6289     6.8222     5.5549     5.9414     0.0048     2.4615     0.1387     8.3143   124.8743
  220.5000   283.4026   -34.3000     8.9669     5.7387     6.3151     0.0025     2.4714     0.1215     8.3126   124.7341
  221.0000   283.4081   -33.9522     9.1353     6.2410     6.7123     0.0099     2.4820     0.1176     8.3109   124.6554
  221.5000   283.4458   -33.7922     9.3067     6.6592     7.1344     0.0162     2.4911     0.1150     8.3092   124.4044
  222.0000   283.4843   -33.8083     9.2476     7.0073     7.5188     0.0228     2.4993     0.1077     8.3076   125.4559
  222.5000   283.5229   -33.8057     9.1949     7.3353     7.7686     0.0249     2.5080     0.1045     8.3059   127.1762
  223.0000   283.5613   -33.8041     9.1353     7.6787     8.0266     0.0264     2.5116     0.1024     8.3041   128.5818
  223.5000   283.5997   -33.8065     9.1353     7.8724     8.1708     0.0247     2.4968     0.1121     8.3027   129.9628
  224.0000   283.6382   -33.8063     9.4814     7.4588     7.8724     0.0175     2.4839     0.1179     8.3008   131.4914
  224.5000   283.6766   -33.8032     9.2998     6.9465     7.4370     0.0092     2.4735     0.1247     8.2984   132.8029
  225.0000   283.7150   -33.8106     8.8840     6.4693     6.9438     0.0066     2.4632     0.1315     8.2997   134.0438
  225.5000   283.7534   -33.8031     8.4804     6.0250     6.4833     0.0023     2.4544     0.1385     8.2781   131.2635
  226.0000   283.7919   -33.7799     8.0202     5.6045     6.0800    -0.0013     2.4394     0.1455     8.2439   128.2648
  226.5000   283.8303   -33.4477     6.1360     5.2090     5.7202    -0.0010     2.4268     0.1571     8.2206   126.6167
  227.0000   283.8687   -33.1637     5.0382     5.0382     5.4273     0.0042     2.4265     0.1543     8.2736   126.2903
  227.5000   283.9072   -32.8540     5.6329     5.3075     5.7174     0.0080     2.4307     0.1459     8.3211   126.6505
  228.0000   283.9456   -32.5868     6.9167     5.5560     5.9850     0.0039     2.4539     0.1344     8.3390   127.8170
  228.5000   283.9840   -32.3703     7.9253     5.8464     6.2652     0.0000     2.4735     0.1223     8.3372   129.0963
  229.0000   284.0225   -32.1719     8.0643     6.1174     6.5584    -0.0043     2.4790     0.1198     8.3372   128.5354
  229.5000   284.0609   -31.9723     8.1708     6.4383     6.8654    -0.0083     2.4798     0.1209     8.3376   126.8928
