~VERSION INFORMATION
 VERS.                2.0:   CWLS LOG ASCII STANDARD - VERSION 2.0
 WRAP.                 NO:   ONE LINE PER DEPTH STEP
~WELL INFORMATION
#MNEM.UNIT      DATA TYPE    INFORMATION
#----------   ------------   ------------------------------
 STRT.F           10.0000:   START DEPTH
 STOP.F          485.0000:   STOP DEPTH
 STEP.F            0.5000:   STEP LENGTH
 NULL.          -999.2500:   NO VALUE
 COMP. FENIX & SCISSON INC:   COMPANY
 WELL.    56 S 3 SX #56-3:   WELL
 FLD .             TEAPOT:   FIELD
 LOC .       S3 T38N R78W:   LOCATION
 CNTY.            NATRONA:   COUNTY
 STAT.            WYOMING:   STATE
 CTRY. UNITED STATES OF AMERICA:   COUNTRY
 SRVC.            Unknown:   SERVICE COMPANY
 DATE.        09-OCT-1978:   LOGDATE
 API .       490251071900:   API NUMBER
~CURVE INFORMATION
#MNEM.UNIT       API CODE    CURVE DESCRIPTION
#----------   ------------   ------------------------------
 DEPT.F                  :   
 SPR .MV     05 010 01 00:   SPONTANEOUS POTENTIAL FROM RES.
 SN  .OHMM   05 040 16 00:   SHORT NORMAL 16"
 ILD .OHMM   05 120 46 00:   INDUCTION LOG DEEP
 CALD.IN     45 280 60 00:   CALIPER
 GRD .GAPI   45 310 01 00:   GAMMA RAY FROM DENSITY LOG
 CORR.G/C3   45 356 01 00:   DENSITY CORRECTION
 RHOB.G/C3   45 350 01 00:   BULK DENSITY
 DPHI.DEC    45 890 12 00:   DENSITY POROSITY SANDSTONE
~PARAMETER INFORMATION
#MNEM.UNIT          VALUE    DESCRIPTION
#----------   ------------   ------------------------------
 PD  .                 GL:   PERMANENT DATUM
 EPD .F              5188:   ELEVATION PERMANENT DATUM
 LMF .                 KB:   LOG MEASURED FROM
 DAPD.F                 4:   FEET ABOVE PERMANENT DATUM
 DMF .                 KB:   DRILLING MEASURED FROM
 EKB .F              5192:   KELLING BUSHING
 EGL .F              5188:   GROUND LEVEL
 DATE.            10-9-78:   RUN DATE
 RUN .                  1:   RUN NUMBER
 DD  .F               485:   DEPTH DRILLER
 DL  .F               485:   DEPTH LOGGER
 BLI .F               479:   BOTTOM LOG INTERVAL
 TLI .F                32:   TOP LOG INTERVAL
 CS  .IN            8.625:   CASING SIZE
 BS  .IN            7.875:   BIT SIZE
 BSD .F               485:   BIT SIZE AT DEPTH
 DFT .                KCL:   DRILLING FLUID TYPE
 DFD .                8.8:   DRILLING FLUID DENSITY
 DFV .                 41:   DRILLING FLUID VISCOSITY
 DFPH.                  9:   DRILLING FLUID PH
 DFL .                7.6:   DRILLING FLUID LOSS
 MSS .          FLOW LINE:   MUD SAMPLE SOURCE
 RMS .OHMM            .18:   RESISTIVITY MUD SAMPLE
 MST .F                60:   MUD SAMPLE TEMPERATURE
 RMF .OHMM            .16:   RESISTIVITY MUD FILTRATE SAMPLE
 MFST.F                70:   MUD FILTRATE SAMPLE TEMPERATURE
 RMC .OHMM            .26:   RESISTIVITY MUD CAKE
 MCST.F                70:   MUD CAKE SAMPLE TEMPERATURE
 MFSS.               MEAS:   MUD FILTRATE SAMPLE SOURCE
 MCSS.               MEAS:   MUD CAKE SAMPLE SOURCE
 TCS .HRS             1.5:   TIME CURCULATED STOPPED
 LUN .               2958:   LOGGING UNIT NUMBER
 LUL .               CASP:   LOGGING UNIT LOCATION
 ENGI.             MILLER:   RECORDING ENGINEER
 WITN.              AMEND:   WITNESSED BY
 CLNT.            A2DTECH:   CLIENT CODE
 ORIG.           5" PRINT:   ORIGIN OF DATA
 UWI .       490251071900:   UNIQUE WELL ID
 DICO. A2D Technologies, Inc.:   DIGITIZING COMPANY
~OTHER INFORMATION
~A   DEPT      SPR         SN        ILD       CALD         GRD      CORR       RHOB       DPHI   
# ...
  293.5000   -18.6873    14.4828    22.3628     8.0873    69.4087     0.0372     2.3369     0.2080
  294.0000   -18.7626    14.3792    21.8364     8.0877    70.5154     0.0451     2.3496     0.1989
  294.5000   -18.8369    14.2727    21.3225     8.0881    72.0931     0.0529     2.3641     0.1899
  295.0000   -18.9115    14.1757    20.8773     8.0885    74.1743     0.0611     2.3811     0.1808
  295.5000   -18.9480    14.0757    20.5473     8.0888    76.2988     0.0701     2.3980     0.1717
  296.0000   -18.9482    13.9764    20.0527     8.0892    76.6359     0.0675     2.4051     0.1645
  296.5000   -18.9484    13.8846    20.0760     8.0896    76.7219     0.0566     2.4072     0.1649
  297.0000   -18.9484    13.7378    20.1240     8.0899    76.1398     0.0467     2.4076     0.1650
  297.5000   -18.9484    13.6585    20.1724     8.0903    77.0218     0.0369     2.4079     0.1636
  298.0000   -18.9484    13.5797    20.2214     8.0907    77.8104     0.0268     2.4085     0.1623
  298.5000   -18.9484    13.5014    20.2705     8.0911    77.7746     0.0168     2.4049     0.1620
  299.0000   -18.9484    13.4235    20.3197     8.0914    77.1020     0.0091     2.4009     0.1670
  299.5000   -18.9484    13.3461    20.3691     8.0918    76.4562     0.0091     2.3919     0.1720
  300.0000   -18.9484    13.2612    20.4186     8.0922    75.8182     0.0091     2.3834     0.1770
  300.5000   -18.9484    13.2867    20.4682     8.0926    75.1768     0.0093     2.3751     0.1819
  301.0000   -18.9484    13.3152    20.5179     8.0929    74.4621     0.0094     2.3736     0.1829
  301.5000   -18.9485    13.3437    20.5677     8.0933    74.0045     0.0095     2.3723     0.1839
  302.0000   -18.9485    13.3722    20.6177     8.0937    76.4431     0.0097     2.3713     0.1848
  302.5000   -18.9479    13.3835    20.6675     8.0941    77.9538     0.0098     2.3702     0.1858
  303.0000   -19.0215    13.3835    20.7174     8.0944    78.4809     0.0099     2.3689     0.1868
  303.5000   -19.0898    13.3836    20.7683     8.0948    79.0361     0.0100     2.3679     0.1877
  304.0000   -20.4713    13.3836    20.8020     8.0952    79.1425     0.0102     2.3670     0.1883
  304.5000   -20.9111    13.3836    20.5600     8.0955    79.0655     0.0103     2.3706     0.1863
  305.0000   -20.9683    13.3836    20.3801     8.0959    79.0007     0.0104     2.3741     0.1844
  305.5000   -21.7876    13.3836    20.2017     8.0963    78.9552     0.0105     2.3778     0.1825
  306.0000   -21.9107    13.3836    20.0249     8.0967    78.8644     0.0106     2.3807     0.1806
  306.5000   -21.9007    13.3836    19.8496     8.0970    78.8383     0.0107     2.3807     0.1795
  307.0000   -21.8857    13.3837    19.6759     8.0974    78.8454     0.0109     2.3807     0.1796
  307.5000   -21.8716    13.3837    19.5039     8.0978    79.1728     0.0110     2.3808     0.1800
  308.0000   -21.8578    13.3841    19.3338     8.0982    79.9624     0.0111     2.3795     0.1804
  308.5000   -21.8439    13.3716    19.1495     8.0985    83.2545     0.0112     2.3772     0.1808
  309.0000   -21.8301    13.2769    19.1520     8.0989    85.8397     0.0113     2.3800     0.1811
  309.5000   -21.8163    13.1828    19.1512     8.0993    86.2627     0.0114     2.3844     0.1793
  310.0000   -21.8024    13.0893    19.1510     8.0997    86.1405     0.0116     2.3884     0.1762
  310.5000   -21.7886    13.0191    19.1511     8.1000    83.7251     0.0117     2.3865     0.1745
  311.0000   -21.7747    13.0197    19.1511     8.1004    81.2810     0.0118     2.3845     0.1766
  311.5000   -21.7609    13.0197    19.1511     8.1008    80.4084     0.0119     2.3826     0.1786
  312.0000   -21.7475    13.0197    19.1511     8.1011    79.9676     0.0120     2.3812     0.1796
  312.5000   -21.7341    13.0197    19.1511     8.1015    79.5253     0.0121     2.3868     0.1764
  313.0000   -21.7794    13.0201    19.1507     8.1019    79.0383     0.0123     2.3923     0.1715
  313.5000   -21.8843    12.9696    19.1517     8.1023    78.7439     0.0124     2.3910     0.1740
  314.0000   -22.1484    12.8999    19.1539     8.1026    78.7775     0.0125     2.3811     0.1793
  314.5000   -22.4930    12.8309    19.0274     8.1030    78.7674     0.0126     2.3720     0.1846
  315.0000   -22.8384    12.7624    18.9133     8.1034    78.7783     0.0127     2.3626     0.1899
  315.5000   -23.1847    12.6941    18.8003     8.1038    78.7729     0.0129     2.3573     0.1962
  316.0000   -23.5336    12.6262    18.6880     8.1041    78.8323     0.0129     2.3573     0.1946
  316.5000   -23.8929    12.5586    18.5764     8.1045    79.1293     0.0129     2.3647     0.1908
  317.0000   -23.9344    12.4914    18.4600     8.1049    79.2982     0.0129     2.3723     0.1869
  317.5000   -23.9579    12.4246    18.0402     8.1053    82.6790     0.0129     2.3753     0.1827
  318.0000   -23.9827    12.3581    17.6090     8.1054    83.4982     0.0129     2.3757     0.1827
  318.5000   -24.0082    12.2920    17.2799     8.1050    83.7279     0.0129     2.3763     0.1827
  319.0000   -24.0337    12.2262    17.1766     8.1047    84.4726     0.0129     2.3776     0.1819
  319.5000   -24.0592    12.1608    17.0741     8.1044    85.7275     0.0129     2.3812     0.1808
  320.0000   -24.0847    12.0971    16.9647     8.1040    88.0439     0.0129     2.3850     0.1794
  320.5000   -24.1102    12.0378    16.8307     8.1037    90.2877     0.0129     2.3865     0.1780
  321.0000   -24.1357    11.9800    16.6978     8.1034    92.1811     0.0129     2.3853     0.1763
  321.5000   -24.1611    11.9225    16.5659     8.1031    91.4900     0.0129     2.3846     0.1771
  322.0000   -24.1866    11.8652    16.2674     8.1027    89.1804     0.0129     2.3791     0.1779
  322.5000   -24.2121    11.8082    15.9193     8.1024    86.5733     0.0129     2.3696     0.1831
  323.0000   -24.2373    11.7515    15.5786     8.1021    84.1217     0.0129     2.3623     0.1882
  323.5000   -24.2626    11.6951    15.2452     8.1018    82.0103     0.0129     2.3680     0.1887
  324.0000   -24.2918    11.6389    14.9190     8.1014    81.9491     0.0129     2.3807     0.1871
  324.5000   -24.4012    11.5830    14.6727     8.1011    81.9018     0.0129     2.3928     0.1750
  325.0000   -24.6994    11.5274    14.6695     8.1008    81.9268     0.0129     2.4022     0.1672
  325.5000   -24.7074    11.4720    14.6711     8.1005    81.9224     0.0129     2.4004     0.1668
  326.0000   -24.8296    11.4342    14.6715     8.1002    81.9208     0.0129     2.3990     0.1683
  326.5000   -25.3790    11.4095    14.6715     8.0998    81.9269     0.0129     2.3971     0.1697
  327.0000   -25.9159    11.3849    14.6716     8.0995    81.9277     0.0129     2.3953     0.1711
  327.5000   -26.4550    11.3603    14.6716     8.0992    81.9296     0.0129     2.3954     0.1724
  328.0000   -26.5376    11.3358    14.6711     8.0989    81.9320     0.0129     2.3973     0.1724
  328.5000   -26.5002    11.3114    14.6715     8.0985    81.9329     0.0129     2.3989     0.1703
  329.0000   -26.5174    11.2870    14.5766     8.0982    81.9370     0.0129     2.4007     0.1683
  329.5000   -26.5344    11.2626    14.3599     8.0979    81.9277     0.0129     2.4028     0.1659
  330.0000   -26.5512    11.2383    14.1465     8.0976    81.9322     0.0129     2.4088     0.1629
  330.5000   -26.5681    11.2141    13.9362     8.0972    81.9313     0.0129     2.4160     0.1597
  331.0000   -26.5849    11.1899    13.7290     8.0969    81.6111     0.0129     2.4141     0.1604
  331.5000   -26.6018    11.1657    13.5071     8.0966    81.2269     0.0129     2.4113     0.1616
  332.0000   -26.6186    11.1416    13.5645     8.0962    77.9592     0.0129     2.4134     0.1613
  332.5000   -26.6354    11.1176    13.6460     8.0959    76.3431     0.0129     2.4189     0.1584
  333.0000   -26.6523    11.0936    13.7280     8.0956    76.3845     0.0129     2.4240     0.1554
  333.5000   -26.6691    11.0697    13.8105     8.0953    78.9560     0.0129     2.4218     0.1524
