~VERSION INFORMATION
 VERS.                2.0:   CWLS LOG ASCII STANDARD - VERSION 2.0
 WRAP.                 NO:   ONE LINE PER DEPTH STEP
~WELL INFORMATION
#MNEM.UNIT      DATA TYPE    INFORMATION
#----------   ------------   ------------------------------
 STRT.F           45.5000:   START DEPTH
 STOP.F          740.0000:   STOP DEPTH
 STEP.F            0.5000:   STEP LENGTH
 NULL.          -999.2500:   NO VALUE
 COMP. FENIX & SCISSON INC:   COMPANY
 WELL.       NPR 3 #22-14:   WELL
 FLD .             TEAPOT:   FIELD
 LOC .      S14 T38N R78W:   LOCATION
 CNTY.            NATRONA:   COUNTY
 STAT.            WYOMING:   STATE
 CTRY. UNITED STATES OF AMERICA:   COUNTRY
 SRVC.           BIRDWELL:   SERVICE COMPANY
 DATE.        23-DEC-1978:   LOGDATE
 API .       490251075800:   API NUMBER
~CURVE INFORMATION
#MNEM.UNIT       API CODE    CURVE DESCRIPTION
#----------   ------------   ------------------------------
 DEPT.F                  :   
 SPR .MV     05 010 01 00:   SPONTANEOUS POTENTIAL FROM RES.
 SN  .OHMM   05 040 16 00:   SHORT NORMAL 16"
 IL  .OHMM   05 120 00 00:   INDUCTION LOG
 CALD.IN     45 280 60 00:   CALIPER
 GRD .GAPI   45 310 01 00:   GAMMA RAY FROM DENSITY LOG
 RHOB.G/C3   45 350 01 00:   BULK DENSITY
 DPHI.DEC    45 890 12 00:   DENSITY POROSITY SANDSTONE
 CORR.G/C3   45 356 01 00:   DENSITY CORRECTION
~PARAMETER INFORMATION
#MNEM.UNIT          VALUE    DESCRIPTION
#----------   ------------   ------------------------------
 PD  .                 GL:   PERMANENT DATUM
 EPD .F              5212:   ELEVATION PERMANENT DATUM
 LMF .                 KB:   LOG MEASURED FROM
 DAPD.F                 4:   FEET ABOVE PERMANENT DATUM
 DMF .                 KB:   DRILLING MEASURED FROM
 EKB .F              5216:   KELLING BUSHING
 EGL .F              5212:   GROUND LEVEL
 DATE.           12-23-78:   RUN DATE
 RUN .                  1:   RUN NUMBER
 DD  .F               735:   DEPTH DRILLER
 DL  .F               740:   DEPTH LOGGER
 BLI .F               733:   BOTTOM LOG INTERVAL
 TLI .F                50:   TOP LOG INTERVAL
 CS  .IN            8.625:   CASING SIZE
 CBD .F                40:   CASING BOTTOM DRILLER
 CBL .F                40:   CASING BOTTOM LOGGER
 BS  .IN            7.875:   BIT SIZE
 BSD .F               735:   BIT SIZE AT DEPTH
 DFT .                KCL:   DRILLING FLUID TYPE
 DFD .                8.7:   DRILLING FLUID DENSITY
 DFV .                 35:   DRILLING FLUID VISCOSITY
 DFPH.               10.5:   DRILLING FLUID PH
 DFL .               11.6:   DRILLING FLUID LOSS
 MSS .           FLOWLINE:   MUD SAMPLE SOURCE
 RMS .OHMM             .5:   RESISTIVITY MUD SAMPLE
 MST .F                60:   MUD SAMPLE TEMPERATURE
 RMF .OHMM             .5:   RESISTIVITY MUD FILTRATE SAMPLE
 MFST.F                60:   MUD FILTRATE SAMPLE TEMPERATURE
 RMC .OHMM             .7:   RESISTIVITY MUD CAKE
 MCST.F                60:   MUD CAKE SAMPLE TEMPERATURE
 MFSS.           MEASURED:   MUD FILTRATE SAMPLE SOURCE
 MCSS.           MEASURED:   MUD CAKE SAMPLE SOURCE
 RMB .OHMM           .518:   RESISTIVITY MUD AT BHT
 BHT .F                58:   BOTTOM HOLE TEMPERATURE
 TCS .HRS               5:   TIME CURCULATED STOPPED
 MRT .F                58:   MAXIMUM RECORDED TEMPERATURE
 LUN .               2958:   LOGGING UNIT NUMBER
 LUL .             CASPER:   LOGGING UNIT LOCATION
 ENGI.         B. ROLLINS:   RECORDING ENGINEER
 WITN.              IMMEL:   WITNESSED BY
 CLNT.            A2DTECH:   CLIENT CODE
 ORIG.           5" PRINT:   ORIGIN OF DATA
 UWI .       490251075800:   UNIQUE WELL ID
 DICO. A2D Technologies, Inc.:   DIGITIZING COMPANY
~OTHER INFORMATION
~A   DEPT      SPR         SN         IL       CALD         GRD      RHOB       DPHI       CORR   
# ...
  207.5000  -999.2500     8.2990     8.6060     7.9730    94.6390     2.4770     0.1200    -0.0160
  208.0000  -999.2500     8.2930     8.6140     7.9790    95.2590     2.4860     0.1200    -0.0220
  208.5000  -999.2500     8.2870     8.6220     7.9860    95.2220     2.4910     0.1270    -0.0260
  209.0000  -999.2500     8.2810     8.6310     7.9680    94.9620     2.4810     0.1330    -0.0220
  209.5000  -999.2500     8.2760     8.6390     7.9230    95.7620     2.4700     0.1380    -0.0120
  210.0000  -999.2500     8.2700     8.6620     7.8890    97.7430     2.4600     0.1420    -0.0020
  210.5000  -999.2500     8.2640     8.7380     7.8980    99.5770     2.4500     0.1410     0.0090
  211.0000  -999.2500     8.2570     8.8130     7.9100    99.6580     2.4480     0.1350     0.0120
  211.5000  -999.2500     8.3410     8.8890     7.9230    98.4490     2.4570     0.1300     0.0120
  212.0000  -999.2500     8.4780     8.9640     7.9300    97.0990     2.4690     0.1250     0.0140
  212.5000  -999.2500     8.6150     9.0400     7.9300    95.6760     2.4760     0.1200     0.0210
  213.0000  -999.2500     8.7260     9.1150     7.9330    95.3440     2.4820     0.1190     0.0200
  213.5000  -999.2500     8.7510     9.1900     7.9510    95.2500     2.4860     0.1150     0.0180
  214.0000  -999.2500     8.7760     9.2660     7.9680    94.7240     2.4890     0.1090     0.0150
  214.5000  -999.2500     8.8060     9.3410     7.9870    94.0930     2.4950     0.1090     0.0110
  215.0000  -999.2500     8.7980     9.4170     7.9600    94.0430     2.5010     0.1110     0.0070
  215.5000  -999.2500     8.7870     9.4790     7.9190    96.0200     2.4990     0.1120     0.0030
  216.0000  -999.2500     8.7770     9.4270     7.9410    98.1620     2.4960     0.1150     0.0000
  216.5000  -999.2500     8.7660     9.3830     7.9650    99.3850     2.4920     0.1180     0.0000
  217.0000  -999.2500     8.7550     9.3380     7.9400    98.8310     2.4880     0.1210    -0.0010
  217.5000  -999.2500     8.7450     9.2940     7.9160    96.3140     2.4840     0.1210    -0.0010
  218.0000  -999.2500     8.7340     9.2500     7.9270    95.1120     2.4830     0.1220    -0.0010
  218.5000  -999.2500     8.7230     9.2060     7.9490    94.7450     2.4820     0.1220    -0.0010
  219.0000  -999.2500     8.7130     9.1620     7.9330    94.5920     2.4810     0.1220    -0.0020
  219.5000  -999.2500     8.7020     9.1170     7.9160    94.4520     2.4810     0.1220    -0.0020
  220.0000  -999.2500     8.6910     9.0730     7.9000    94.0090     2.4810     0.1210     0.0000
  220.5000  -999.2500     8.6810     9.0530     7.8900    93.6690     2.4820     0.1210     0.0030
  221.0000  -999.2500     8.6700     9.1310     7.8900    94.5760     2.4820     0.1240     0.0050
  221.5000  -999.2500     8.6590     9.2380     7.8900    95.7820     2.4800     0.1270     0.0070
  222.0000  -999.2500     8.6460     9.3440     7.8900    95.8220     2.4750     0.1300     0.0090
  222.5000  -999.2500     8.6700     9.4510     7.8900    96.4440     2.4690     0.1330     0.0120
  223.0000  -999.2500     8.7030     9.5660     7.8900    97.5300     2.4670     0.1240     0.0070
  223.5000  -999.2500     8.7820     9.6550     7.8900    98.6220     2.4760     0.1170     0.0020
  224.0000  -999.2500     8.9600     9.6550     7.8900    99.7390     2.4890     0.1100    -0.0040
  224.5000  -999.2500     9.1390     9.6850     7.8900   100.0580     2.5020     0.1030    -0.0080
  225.0000  -999.2500     9.3170     9.7270     7.8900   100.1390     2.5110     0.1100    -0.0090
  225.5000  -999.2500     9.4790     9.7700     7.8900   100.1930     2.5030     0.1150    -0.0100
  226.0000  -999.2500     9.3700     9.8340     7.8900    98.8830     2.4960     0.1160    -0.0070
  226.5000  -999.2500     9.2490     9.7700     7.8900    96.5090     2.4900     0.1160     0.0020
  227.0000  -999.2500     9.1270     9.6390     7.8900    95.0660     2.4900     0.1150     0.0100
  227.5000  -999.2500     9.0060     9.5080     7.8900    94.7470     2.4920     0.1120     0.0110
  228.0000  -999.2500     8.8850     9.3770     7.8900    94.1730     2.4950     0.1090     0.0110
  228.5000  -999.2500     8.7630     9.2460     7.8900    93.6590     2.4980     0.1060     0.0110
  229.0000  -999.2500     8.6420     9.1150     7.8900    94.0430     2.5010     0.1090     0.0120
  229.5000  -999.2500     8.5210     8.9840     7.8900    95.4440     2.5040     0.1140     0.0120
  230.0000  -999.2500     8.3990     8.8880     7.8870    97.9930     2.4990     0.1170     0.0130
  230.5000  -999.2500     8.3330     8.9600     7.8850   100.1880     2.4930     0.1190     0.0130
  231.0000  -999.2500     8.3330     9.0430     7.8830    99.5320     2.4860     0.1220     0.0130
  231.5000  -999.2500     8.3330     9.1270     7.8800    98.9290     2.4800     0.1240     0.0140
  232.0000  -999.2500     8.3720     9.2110     7.8780    98.3360     2.4790     0.1250     0.0170
  232.5000  -999.2500     8.5280     9.2940     7.8760    97.7920     2.4780     0.1250     0.0210
  233.0000  -999.2500     8.6840     9.3780     7.8740    98.9640     2.4770     0.1250     0.0250
  233.5000  -999.2500     8.8400     9.3990     7.8710   100.5960     2.4760     0.1170     0.0260
  234.0000  -999.2500     8.9970     9.4090     7.8840   100.3970     2.4830     0.1030     0.0180
  234.5000  -999.2500     9.1530     9.4200     7.9140    99.3990     2.5010     0.0890     0.0060
  235.0000  -999.2500     9.3060     9.4310     7.9240    97.8230     2.5190     0.0720     0.0020
  235.5000  -999.2500     9.2760     9.4410     7.9120    97.1990     2.5380     0.0800    -0.0010
  236.0000  -999.2500     9.2470     9.4520     7.9000    96.2430     2.5580     0.0900    -0.0030
  236.5000  -999.2500     9.2180     9.4630     7.8950    90.2060     2.5420     0.1000    -0.0030
  237.0000  -999.2500     9.1880     9.4730     7.9180    83.5610     2.5190     0.1100    -0.0040
  237.5000  -999.2500     9.1590     9.4840     7.9420    80.8430     2.4970     0.1200    -0.0050
  238.0000  -999.2500     9.1300     9.4940     7.9660    88.0440     2.4780     0.1240    -0.0060
  238.5000  -999.2500     9.1000     9.5050     7.9500    93.9080     2.4790     0.1220    -0.0060
  239.0000  -999.2500     9.0710     9.5160     7.9260    93.2630     2.4830     0.1200    -0.0070
  239.5000  -999.2500     9.0420     9.5260     7.9010    92.7870     2.4870     0.1190    -0.0080
  240.0000  -999.2500     9.0130     9.5370     7.8960    94.2410     2.4880     0.1180    -0.0070
  240.5000  -999.2500     8.9830     9.5480     7.9070    96.8440     2.4880     0.1170    -0.0050
  241.0000  -999.2500     8.9540     9.5580     7.9180    99.4930     2.4890     0.1170    -0.0030
  241.5000  -999.2500     8.9250     9.5690     7.9290    99.6360     2.4890     0.1160    -0.0010
  242.0000  -999.2500     8.8960     9.5800     7.9400    99.6310     2.4900     0.1150     0.0010
  242.5000  -999.2500     8.8660     9.5900     7.9500   100.5120     2.4910     0.1150     0.0010
  243.0000  -999.2500     8.8370     9.6010     7.9440   102.3440     2.4920     0.1140     0.0010
  243.5000  -999.2500     8.8060     9.6110     7.9390   104.1560     2.4930     0.1140     0.0000
  244.0000  -999.2500     8.8220     9.6220     7.9340   104.5200     2.4940     0.1140    -0.0010
  244.5000  -999.2500     8.8390     9.6330     7.9300   104.5110     2.4930     0.1150    -0.0020
  245.0000  -999.2500     8.8560     9.6430     7.9370   101.8280     2.4910     0.1170    -0.0020
  245.5000  -999.2500     8.8730     9.6550     7.9480    99.0970     2.4890     0.1180    -0.0030
  246.0000  -999.2500     8.8900     9.6550     7.9590    96.3670     2.4870     0.1190    -0.0040
  246.5000  -999.2500     8.9070     9.6550     7.9700    93.6970     2.4850     0.1200    -0.0040
  247.0000  -999.2500     8.9240     9.6550     7.9530    93.0560     2.4850     0.1210    -0.0030
  247.5000  -999.2500     8.9410     9.6550     7.9310    92.8540     2.4860     0.1220    -0.0020
