~VERSION INFORMATION
 VERS.                2.0:   CWLS LOG ASCII STANDARD - VERSION 2.0
 WRAP.                 NO:   ONE LINE PER DEPTH STEP
~WELL INFORMATION
#MNEM.UNIT      DATA TYPE    INFORMATION
#----------   ------------   ------------------------------
 STRT.F           17.0000:   START DEPTH
 STOP.F          634.0000:   STOP DEPTH
 STEP.F            0.5000:   STEP LENGTH
 NULL.          -999.2500:   NO VALUE
 COMP. FENIX & SCISSON INC:   COMPANY
 WELL.        NPR 3 #72-3:   WELL
 FLD .             TEAPOT:   FIELD
 LOC .       S3 T38N R78W:   LOCATION
 CNTY.            NATRONA:   COUNTY
 STAT.            WYOMING:   STATE
 CTRY. UNITED STATES OF AMERICA:   COUNTRY
 SRVC.           BIRDWELL:   SERVICE COMPANY
 DATE.        24-SEP-1978:   LOGDATE
 API .       490251069100:   API NUMBER
~CURVE INFORMATION
#MNEM.UNIT       API CODE    CURVE DESCRIPTION
#----------   ------------   ------------------------------
 DEPT.F                  :   
 SPR .MV     05 010 01 00:   SPONTANEOUS POTENTIAL FROM RES.
 SN  .OHMM   05 040 16 00:   SHORT NORMAL 16"
 ILD .OHMM   05 120 46 00:   INDUCTION LOG DEEP
 GRD .GAPI   45 310 01 00:   GAMMA RAY FROM DENSITY LOG
 CALD.IN     45 280 60 00:   CALIPER
 DEN .G/C3   45 350 01 00:   COMPENSATED BULK DENSTIY
 DPHI.DEC    45 890 12 00:   DENSITY POROSITY SANDSTONE
 CORR.G/C3   45 356 01 00:   DENSITY CORRECTION
~PARAMETER INFORMATION
#MNEM.UNIT          VALUE    DESCRIPTION
#----------   ------------   ------------------------------
 PD  .                 GL:   PERMANENT DATUM
 EPD .F              5155:   ELEVATION PERMANENT DATUM
 LMF .                 KB:   LOG MEASURED FROM
 DAPD.F                 4:   FEET ABOVE PERMANENT DATUM
 DMF .                 KB:   DRILLING MEASURED FROM
 EKB .F              5159:   KELLING BUSHING
 EGL .F              5155:   GROUND LEVEL
 DATE.            9-24-78:   RUN DATE
 RUN .                  1:   RUN NUMBER
 DD  .F               635:   DEPTH DRILLER
 DL  .F               634:   DEPTH LOGGER
 BLI .F               627:   BOTTOM LOG INTERVAL
 TLI .F                30:   TOP LOG INTERVAL
 CS  .IN            8.625:   CASING SIZE
 CBD .F                34:   CASING BOTTOM DRILLER
 CBL .F                34:   CASING BOTTOM LOGGER
 BS  .IN            7.875:   BIT SIZE
 BSD .F               635:   BIT SIZE AT DEPTH
 DFT .                KCL:   DRILLING FLUID TYPE
 DFD .                8.7:   DRILLING FLUID DENSITY
 DFV .                 36:   DRILLING FLUID VISCOSITY
 DFPH.                9.5:   DRILLING FLUID PH
 DFL .                8.2:   DRILLING FLUID LOSS
 MSS .          FLOW LINE:   MUD SAMPLE SOURCE
 RMS .OHMM             .2:   RESISTIVITY MUD SAMPLE
 MST .F                68:   MUD SAMPLE TEMPERATURE
 RMF .OHMM            .18:   RESISTIVITY MUD FILTRATE SAMPLE
 MFST.F                76:   MUD FILTRATE SAMPLE TEMPERATURE
 RMC .OHMM            .32:   RESISTIVITY MUD CAKE
 MCST.F                76:   MUD CAKE SAMPLE TEMPERATURE
 MFSS.               MEAS:   MUD FILTRATE SAMPLE SOURCE
 RMB .OHMM             .2:   RESISTIVITY MUD AT BHT
 BHT .F                70:   BOTTOM HOLE TEMPERATURE
 TCS .HRS               3:   TIME CURCULATED STOPPED
 MRT .F                70:   MAXIMUM RECORDED TEMPERATURE
 LUN .               2958:   LOGGING UNIT NUMBER
 LUL .               CASP:   LOGGING UNIT LOCATION
 ENGI.           REYNOLDS:   RECORDING ENGINEER
 WITN.              AMEND:   WITNESSED BY
 CLNT.            A2DTECH:   CLIENT CODE
 ORIG.           5" PRINT:   ORIGIN OF DATA
 UWI .       490251069100:   UNIQUE WELL ID
 DICO. A2D Technologies, Inc.:   DIGITIZING COMPANY
~OTHER INFORMATION
~A   DEPT      SPR         SN        ILD         GRD      CALD        DEN       DPHI       CORR   
# ...
  503.0000   -51.9835     9.2949    10.7413   106.8009     7.8386     2.4937     0.1126     0.0345
  503.5000   -51.7166     9.2689    10.7854   108.1873     7.8615     2.4841     0.1173     0.0345
  504.0000   -51.4965     9.3343    10.8252   110.1341     7.8842     2.4757     0.1221     0.0345
  504.5000   -51.2695     9.4246    10.8652   110.4627     7.8970     2.4760     0.1229     0.0342
  505.0000   -51.0424     9.5158    10.9055   110.2518     7.8927     2.4784     0.1212     0.0323
  505.5000   -50.8083     9.6079    10.9758   110.0510     7.8886     2.4801     0.1195     0.0305
  506.0000   -50.4336     9.7058    11.2327   108.4107     7.8845     2.4797     0.1188     0.0286
  506.5000   -49.5500     9.8097    11.4958   106.3905     7.8804     2.4688     0.1266     0.0267
  507.0000   -48.6802     9.9503    11.8294   102.9401     7.8763     2.4601     0.1327     0.0248
  507.5000   -47.6330    10.1196    12.3520    99.5413     7.8722     2.4558     0.1324     0.0245
  508.0000   -46.2362    10.4364    13.2210    96.8688     7.8681     2.4391     0.1458     0.0245
  508.5000   -45.2295    10.7631    14.1500    95.0311     7.8639     2.4156     0.1588     0.0245
  509.0000   -45.1347    11.1660    15.1482    92.8139     7.8604     2.3919     0.1719     0.0281
  509.5000   -44.8744    11.6046    16.4028    89.4601     7.8235     2.3726     0.1838     0.0349
  510.0000   -44.4942    12.0604    17.8285    86.0415     7.7792     2.3584     0.1933     0.0416
  510.5000   -44.5438    12.5343    19.3749    84.6867     7.7788     2.3542     0.1961     0.0432
  511.0000   -44.6715    13.0264    21.0649    84.0540     7.7786     2.3557     0.1955     0.0442
  511.5000   -44.7951    13.5383    22.2278    83.4015     7.7630     2.3571     0.1946     0.0452
  512.0000   -44.7957    13.9126    23.2815    82.8891     7.7127     2.3586     0.1927     0.0461
  512.5000   -44.5375    14.2553    23.5355    82.4852     7.6825     2.3600     0.1917     0.0519
  513.0000   -44.2909    14.6065    23.7857    81.6215     7.6945     2.3376     0.2106     0.0593
  513.5000   -44.4495    14.9634    23.9369    80.2641     7.7056     2.3074     0.2278     0.0670
  514.0000   -44.6446    14.9310    23.8020    78.9375     7.7165     2.2919     0.2360     0.0710
  514.5000   -44.4210    14.8780    23.7141    78.9110     7.6906     2.2970     0.2224     0.0727
  515.0000   -44.0940    14.8251    23.2567    79.5834     7.6145     2.3264     0.2101     0.0743
  515.5000   -44.2340    14.7725    22.7071    83.0725     7.5391     2.3496     0.2014     0.0759
  516.0000   -44.4053    14.7201    22.1705    86.7117     7.4639     2.3503     0.1992     0.0792
  516.5000   -44.4772    14.6679    21.6462    87.2600     7.4178     2.3509     0.1970     0.0870
  517.0000   -44.4755    14.6160    21.1344    87.0430     7.4132     2.3495     0.1961     0.0948
  517.5000   -44.3176    14.5631    20.6545    86.8201     7.4081     2.3480     0.2001     0.1025
  518.0000   -43.8628    14.4884    20.4576    86.7364     7.4033     2.3474     0.2033     0.1005
  518.5000   -43.6794    14.3822    20.2782    86.8218     7.4144     2.3492     0.2018     0.0981
  519.0000   -43.7353    14.2773    20.1649    86.9002     7.4447     2.3515     0.1979     0.0956
  519.5000   -43.7984    14.1737    19.9395    87.5931     7.4747     2.3679     0.1836     0.0932
  520.0000   -43.8617    13.9917    19.6070    89.8366     7.5050     2.3767     0.1859     0.0880
  520.5000   -43.9246    13.7990    19.3656    92.2707     7.5167     2.3769     0.1864     0.0669
  521.0000   -43.9874    13.7538    19.3656    94.7719     7.5113     2.3782     0.1791     0.0534
  521.5000   -44.0507    13.7249    18.9728    94.7788     7.5055     2.3801     0.1777     0.0512
  522.0000   -44.0759    13.6961    18.6107    94.8580     7.4998     2.3603     0.1955     0.0487
  522.5000   -44.0765    13.6668    18.4066    95.0100     7.4940     2.3309     0.2079     0.0466
  523.0000   -44.0764    13.6179    18.2251    92.8249     7.4883     2.3277     0.2153     0.0474
  523.5000   -44.0622    13.5214    18.0454    90.4202     7.4824     2.3384     0.2079     0.0481
  524.0000   -43.9805    13.5443    17.9900    88.5481     7.4935     2.3538     0.1966     0.0489
  524.5000   -43.8995    13.5652    17.9900    87.6306     7.5166     2.3651     0.1865     0.0497
  525.0000   -43.8175    13.5862    17.9900    88.9524     7.5398     2.3634     0.1903     0.0505
  525.5000   -43.7386    13.6074    17.9900    90.7990     7.5631     2.3572     0.1960     0.0544
  526.0000   -43.7913    13.6282    17.9900    91.4871     7.5862     2.3509     0.2003     0.0588
  526.5000   -44.4517    13.6470    18.0750    91.3956     7.5997     2.3509     0.1975     0.0631
  527.0000   -45.0969    13.4312    18.2429    91.1406     7.5996     2.3598     0.1927     0.0674
  527.5000   -45.5310    13.2396    18.4124    90.8875     7.5996     2.3688     0.1877     0.0749
  528.0000   -45.6399    13.0509    18.5834    90.6369     7.5996     2.3728     0.1880     0.0844
  528.5000   -45.6824    12.8649    18.6651    90.5827     7.5996     2.3726     0.1884     0.0957
  529.0000   -45.6825    12.6817    18.5520    90.7648     7.6022     2.3722     0.1874     0.1006
  529.5000   -45.6811    12.5446    17.6616    90.9444     7.6134     2.3724     0.1860     0.1009
  530.0000   -45.6913    12.4231    16.8091    91.1252     7.6241     2.3761     0.1829     0.0904
  530.5000   -45.9376    12.3028    16.3875    91.3082     7.6349     2.3801     0.1773     0.0772
  531.0000   -46.1912    12.1836    16.3514    91.4979     7.6457     2.3922     0.1701     0.0724
  531.5000   -46.4453    12.0953    16.3155    91.4984     7.6570     2.4017     0.1667     0.0721
  532.0000   -46.5032    12.0624    16.2796    90.4724     7.6549     2.4063     0.1666     0.0717
  532.5000   -46.5240    12.0297    16.1670    88.0901     7.6488     2.4144     0.1558     0.0713
  533.0000   -46.5440    11.9958    15.9198    88.2005     7.6427     2.4375     0.1432     0.0709
  533.5000   -46.5645    11.8189    15.6686    88.9733     7.6366     2.4392     0.1441     0.0706
  534.0000   -46.5850    11.6381    15.6686    89.7390     7.6305     2.4220     0.1587     0.0706
  534.5000   -46.6056    11.5619    15.6686    90.0972     7.6244     2.4044     0.1685     0.0706
  535.0000   -46.6261    11.5619    15.4621    91.0644     7.6199     2.4005     0.1677     0.0706
  535.5000   -46.6459    11.5619    15.1083    95.3768     7.6228     2.3987     0.1659     0.0706
  536.0000   -46.6636    11.4724    14.8236    96.0177     7.6255     2.3960     0.1705     0.0710
  536.5000   -46.7071    11.3593    14.8240    95.5798     7.6282     2.3877     0.1778     0.0714
  537.0000   -47.2101    11.2468    14.8262    94.4641     7.6309     2.3817     0.1801     0.0718
  537.5000   -47.7147    11.2468    14.8262    89.5659     7.6337     2.3837     0.1764     0.0723
  538.0000   -48.1010    11.2465    14.8262    87.9765     7.6364     2.3836     0.1788     0.0727
  538.5000   -48.0931    11.2475    14.8262    90.4933     7.6389     2.3810     0.1809     0.0731
  539.0000   -48.0933    11.1018    14.8262    93.5281     7.6449     2.3829     0.1799     0.0735
  539.5000   -48.0427    10.9994    14.4115    95.9855     7.6512     2.3857     0.1788     0.0739
  540.0000   -47.9690    10.8981    13.7604    96.2276     7.6579     2.3860     0.1777     0.0743
  540.5000   -47.8941    10.7976    13.1532    96.3638     7.6505     2.3872     0.1760     0.0741
  541.0000   -47.8179    10.6984    13.0623    96.4974     7.6380     2.3921     0.1735     0.0725
  541.5000   -47.7466    10.5084    12.9529    96.6400     7.6254     2.4046     0.1669     0.0710
  542.0000   -47.8379    10.3534    12.5929    96.2648     7.6128     2.4122     0.1631     0.0695
  542.5000   -48.5031    10.2007    12.1739    95.7731     7.6002     2.4199     0.1537     0.0689
  543.0000   -49.0951    10.0502    11.9877    95.4869     7.5878     2.4279     0.1529     0.0698
