~VERSION INFORMATION
 VERS.                2.0:   CWLS LOG ASCII STANDARD - VERSION 2.0
 WRAP.                 NO:   ONE LINE PER DEPTH STEP
~WELL INFORMATION
#MNEM.UNIT      DATA TYPE    INFORMATION
#----------   ------------   ------------------------------
 STRT.F            1.0000:   START DEPTH
 STOP.F          755.5000:   STOP DEPTH
 STEP.F            0.5000:   STEP LENGTH
 NULL.          -999.2500:   NO VALUE
 COMP. FENIX & SCISSON INC:   COMPANY
 WELL.       25-SX #25-14:   WELL
 FLD .        TEAPOT DOME:   FIELD
 LOC .      S14 T38N R78W:   LOCATION
 CNTY.            NATRONA:   COUNTY
 STAT.            WYOMING:   STATE
 CTRY. UNITED STATES OF AMERICA:   COUNTRY
 SRVC.           BIRDWELL:   SERVICE COMPANY
 DATE.        29-DEC-1978:   LOGDATE
 API .       490251076000:   API NUMBER
~CURVE INFORMATION
#MNEM.UNIT       API CODE    CURVE DESCRIPTION
#----------   ------------   ------------------------------
 DEPT.F                  :   
 SPR .MV     05 010 01 00:   SPONTANEOUS POTENTIAL FROM RES.
 SN  .OHMM   05 040 16 00:   SHORT NORMAL 16"
 IL  .OHMM   05 120 00 00:   INDUCTION LOG
 CALD.IN     45 280 60 00:   CALIPER
 GRD .GAPI   45 310 01 00:   GAMMA RAY FROM DENSITY LOG
 CORR.G/C3   45 356 01 00:   DENSITY CORRECTION
 DPHI.DEC    45 890 12 00:   DENSITY POROSITY SANDSTONE
 RHOB.G/C3   45 350 01 00:   BULK DENSITY
~PARAMETER INFORMATION
#MNEM.UNIT          VALUE    DESCRIPTION
#----------   ------------   ------------------------------
 PD  .                 GL:   PERMANENT DATUM
 EPD .F              5214:   ELEVATION PERMANENT DATUM
 LMF .                 KB:   LOG MEASURED FROM
 DAPD.F                 4:   FEET ABOVE PERMANENT DATUM
 DMF .                 KB:   DRILLING MEASURED FROM
 EKB .F              5218:   KELLING BUSHING
 EGL .F              5214:   GROUND LEVEL
 DATE.           12-29-79:   RUN DATE
 RUN .                  1:   RUN NUMBER
 DD  .F               765:   DEPTH DRILLER
 DL  .F               747:   DEPTH LOGGER
 BLI .F               740:   BOTTOM LOG INTERVAL
 TLI .F                40:   TOP LOG INTERVAL
 CS  .IN            8.625:   CASING SIZE
 CBD .F                40:   CASING BOTTOM DRILLER
 CBL .F                40:   CASING BOTTOM LOGGER
 BS  .IN            7.875:   BIT SIZE
 BSD .F               765:   BIT SIZE AT DEPTH
 DFT .                KCL:   DRILLING FLUID TYPE
 DFD .                8.8:   DRILLING FLUID DENSITY
 DFV .                 48:   DRILLING FLUID VISCOSITY
 DFPH.                9.2:   DRILLING FLUID PH
 MSS .           FLOWLINE:   MUD SAMPLE SOURCE
 RMS .OHMM            .17:   RESISTIVITY MUD SAMPLE
 MST .F                56:   MUD SAMPLE TEMPERATURE
 RMF .OHMM            .15:   RESISTIVITY MUD FILTRATE SAMPLE
 MFST.F                56:   MUD FILTRATE SAMPLE TEMPERATURE
 RMC .OHMM            .23:   RESISTIVITY MUD CAKE
 MCST.F                64:   MUD CAKE SAMPLE TEMPERATURE
 MFSS.           MEASURED:   MUD FILTRATE SAMPLE SOURCE
 MCSS.           MEASURED:   MUD CAKE SAMPLE SOURCE
 RMB .OHMM            .16:   RESISTIVITY MUD AT BHT
 BHT .F                59:   BOTTOM HOLE TEMPERATURE
 TCS .HRS              12:   TIME CURCULATED STOPPED
 MRT .F                59:   MAXIMUM RECORDED TEMPERATURE
 LUN .               2958:   LOGGING UNIT NUMBER
 LUL .             CASPER:   LOGGING UNIT LOCATION
 ENGI.            ROLLINS:   RECORDING ENGINEER
 WITN.         RICHARDSON:   WITNESSED BY
 CLNT.            A2DTECH:   CLIENT CODE
 ORIG.           5" PRINT:   ORIGIN OF DATA
 UWI .       490251076000:   UNIQUE WELL ID
 DICO. A2D Technologies, Inc.:   DIGITIZING COMPANY
~OTHER INFORMATION
~A    DEPT     SPR         SN         IL       CALD         GRD      CORR       DPHI       RHOB   
# ...
  365.5000   -63.9810     6.0500     5.0190     7.5470   112.1790     0.0460     0.1230     2.4760
  366.0000   -63.9890     6.0520     5.0140     7.5580   115.2750     0.0460     0.1220     2.4750
  366.5000   -63.9970     6.0560     5.0140     7.5570   119.1860     0.0450     0.1220     2.4800
  367.0000   -64.0050     6.0600     5.0140     7.5570   122.0780     0.0430     0.1220     2.4870
  367.5000   -64.0130     6.0650     5.0140     7.5570   124.1020     0.0410     0.1250     2.4900
  368.0000   -64.0210     6.0690     5.0140     7.5570   124.6670     0.0390     0.1300     2.4820
  368.5000   -64.0240     6.0730     5.0140     7.5570   124.2100     0.0420     0.1360     2.4710
  369.0000   -63.9290     6.0780     5.0140     7.5570   121.6020     0.0480     0.1410     2.4600
  369.5000   -63.8320     6.0820     5.0140     7.5570   119.2280     0.0570     0.1430     2.4520
  370.0000   -63.7350     6.0870     5.0140     7.5570   119.1700     0.0650     0.1420     2.4450
  370.5000   -63.6390     6.0910     5.0140     7.5570   119.0790     0.0710     0.1420     2.4370
  371.0000   -63.5420     6.0960     5.0490     7.5570   116.8920     0.0700     0.1380     2.4490
  371.5000   -63.4450     6.1000     5.0840     7.5570   112.4040     0.0680     0.1310     2.4710
  372.0000   -63.4170     6.1240     5.1180     7.5570   111.0560     0.0670     0.1240     2.4870
  372.5000   -63.4040     6.1600     5.1530     7.5570   111.4650     0.0660     0.1180     2.4990
  373.0000   -63.3910     6.1970     5.1880     7.5570   113.8940     0.0650     0.1190     2.4920
  373.5000   -63.3790     6.2330     5.2220     7.5570   118.3520     0.0610     0.1200     2.4850
  374.0000   -63.3660     6.2700     5.2570     7.5570   122.7830     0.0540     0.1220     2.4830
  374.5000   -63.3530     6.3060     5.2780     7.5570   126.7710     0.0380     0.1250     2.4830
  375.0000   -63.3410     6.3130     5.2810     7.5290   127.0160     0.0350     0.1260     2.4800
  375.5000   -63.3280     6.3130     5.2840     7.4990   126.5050     0.0360     0.1270     2.4740
  376.0000   -63.3150     6.3130     5.2870     7.4760   122.1250     0.0360     0.1270     2.4690
  376.5000   -63.3030     6.3130     5.2900     7.4770   117.9720     0.0360     0.1250     2.4660
  377.0000   -63.2900     6.3120     5.2930     7.4770   117.7820     0.0370     0.1220     2.4680
  377.5000   -63.2770     6.3070     5.2960     7.4770   117.8200     0.0370     0.1200     2.4750
  378.0000   -63.2650     6.3030     5.2990     7.4930   117.8620     0.0380     0.1180     2.4800
  378.5000   -63.2520     6.2990     5.3020     7.5230   117.8960     0.0380     0.1200     2.4810
  379.0000   -63.2390     6.2950     5.3050     7.5370   117.9310     0.0380     0.1230     2.4790
  379.5000   -63.2260     6.2900     5.3080     7.5370   117.9700     0.0390     0.1230     2.4770
  380.0000   -63.1930     6.2860     5.3110     7.5370   118.1210     0.0390     0.1220     2.4750
  380.5000   -63.1580     6.2820     5.3140     7.5370   118.4960     0.0400     0.1210     2.4720
  381.0000   -63.1240     6.2780     5.3170     7.5370   118.9300     0.0400     0.1200     2.4710
  381.5000   -63.0890     6.2740     5.3220     7.5370   119.3750     0.0410     0.1190     2.4740
  382.0000   -63.0550     6.2690     5.3210     7.5370   118.9570     0.0410     0.1190     2.4820
  382.5000   -63.0200     6.2640     5.3820     7.5370   117.8810     0.0410     0.1210     2.4880
  383.0000   -62.9860     6.2580     5.4420     7.5370   116.9160     0.0420     0.1250     2.4830
  383.5000   -62.9510     6.3130     5.5030     7.5370   116.8620     0.0420     0.1280     2.4750
  384.0000   -62.9170     6.4840     5.5640     7.5370   116.7880     0.0430     0.1300     2.4670
  384.5000   -62.8820     6.5040     5.6240     7.5370   116.5390     0.0430     0.1310     2.4610
  385.0000   -62.8460     6.5240     5.6850     7.5370   115.5680     0.0440     0.1320     2.4580
  385.5000   -62.7550     6.5770     5.7460     7.5370   115.0760     0.0440     0.1260     2.4640
  386.0000   -62.5530     6.6580     5.8080     7.5370   114.7120     0.0450     0.1180     2.4720
  386.5000   -62.3540     6.7380     5.8780     7.5370   114.3030     0.0450     0.1150     2.4790
  387.0000   -62.1540     6.8180     5.9480     7.5370   112.7870     0.0440     0.1140     2.4810
  387.5000   -61.9540     6.8990     6.0180     7.5370   112.5720     0.0420     0.1120     2.4820
  388.0000   -61.7540     6.9680     6.0880     7.5370   112.4140     0.0410     0.1110     2.4830
  388.5000   -61.5540     7.0290     6.1580     7.5370   111.5410     0.0400     0.1110     2.4880
  389.0000   -61.3550     7.0900     6.2280     7.5370   109.7890     0.0390     0.1110     2.4920
  389.5000   -61.2120     7.1510     6.3280     7.5370   109.4240     0.0380     0.1110     2.4920
  390.0000   -61.0460     7.2120     6.4550     7.5370   109.0270     0.0360     0.1100     2.4900
  390.5000   -60.4470     7.2730     6.5810     7.5370   108.6130     0.0350     0.1090     2.4890
  391.0000   -60.3920     7.3330     6.7080     7.5370   107.9320     0.0340     0.1070     2.4890
  391.5000   -60.3660     7.3670     6.8170     7.5370   106.1990     0.0330     0.1060     2.4900
  392.0000   -60.3400     7.3770     6.8170     7.5370   105.4730     0.0310     0.1040     2.4950
  392.5000   -60.3110     7.3870     6.8170     7.5370   105.3490     0.0320     0.1010     2.5010
  393.0000   -60.2840     7.3970     6.8170     7.5370   105.4270     0.0330     0.0990     2.5060
  393.5000   -60.2560     7.4060     6.8170     7.5370   105.5040     0.0340     0.0970     2.5110
  394.0000   -60.2280     7.4160     6.8170     7.5370   105.5850     0.0340     0.0980     2.5170
  394.5000   -60.2000     7.4240     6.7320     7.5370   105.6760     0.0340     0.1000     2.5260
  395.0000   -60.1730     7.3360     6.6130     7.5370   105.4630     0.0330     0.1030     2.5250
  395.5000   -60.1450     7.2570     6.5300     7.5370   104.7120     0.0320     0.1050     2.5180
  396.0000   -60.1170     7.1790     6.5230     7.5370   103.9830     0.0310     0.1080     2.5080
  396.5000   -60.0900     7.1000     6.5160     7.5370   104.3860     0.0300     0.1100     2.5030
  397.0000   -60.0620     7.0210     6.5090     7.5370   104.5810     0.0280     0.1130     2.5010
  397.5000   -60.0350     6.9350     6.5020     7.5360   103.0380     0.0270     0.1160     2.4990
  398.0000   -60.0940     6.9290     6.4950     7.5190   102.3940     0.0250     0.1180     2.4960
  398.5000   -60.2370     6.9230     6.4880     7.5020   102.2200     0.0210     0.1210     2.4860
  399.0000   -60.3790     6.9170     6.4810     7.4860   102.1870     0.0170     0.1220     2.4820
  399.5000   -60.5270     6.9110     6.4650     7.4920   104.5800     0.0130     0.1210     2.4780
  400.0000   -60.7930     6.9050     6.4240     7.5220   105.8890     0.0090     0.1200     2.4740
  400.5000   -61.4540     6.8990     6.3830     7.5370   102.0850     0.0090     0.1190     2.4720
  401.0000   -61.6410     6.8920     6.3430     7.5350    97.5160     0.0090     0.1180     2.4720
  401.5000   -61.6820     6.8860     6.3020     7.5340    92.4180     0.0080     0.1160     2.4720
  402.0000   -61.7180     6.8800     6.2610     7.5320    94.6020     0.0050     0.1140     2.4720
  402.5000   -61.7530     6.8690     6.2200     7.5300    97.6800     0.0030     0.1120     2.4750
  403.0000   -61.7880     6.8470     6.1800     7.5290    98.4160     0.0040     0.1100     2.4790
  403.5000   -61.8230     6.8250     6.1390     7.5270    98.0260     0.0050     0.1080     2.4830
  404.0000   -61.8580     6.8030     6.0980     7.5260    97.2320     0.0060     0.1060     2.4900
  404.5000   -61.8930     6.7810     6.0570     7.5240    97.0530     0.0070     0.1040     2.5040
  405.0000   -61.9280     6.7590     6.0170     7.5230    97.1690     0.0100     0.1020     2.5170
  405.5000   -61.9630     6.7370     5.9760     7.5210    99.4390     0.0140     0.1010     2.5180
