~VERSION INFORMATION
 VERS.                2.0:   CWLS LOG ASCII STANDARD - VERSION 2.0
 WRAP.                 NO:   ONE LINE PER DEPTH STEP
~WELL INFORMATION
#MNEM.UNIT      DATA TYPE    INFORMATION
#----------   ------------   ------------------------------
 STRT.F            0.0000:   START DEPTH
 STOP.F          404.0000:   STOP DEPTH
 STEP.F            0.1000:   STEP LENGTH
 NULL.          -999.2500:   NO VALUE
 COMP.   FLUOR DANIEL INC:   COMPANY
 WELL.   62-1 X 10 #62-10:   WELL
 FLD .             TEAPOT:   FIELD
 LOC .      S10 T38N R78W:   LOCATION
 CNTY.            NATRONA:   COUNTY
 STAT.            WYOMING:   STATE
 CTRY. UNITED STATES OF AMERICA:   COUNTRY
 SRVC.      Western Atlas:   SERVICE COMPANY
 DATE.        29-MAR-1995:   LOGDATE
 API .       490252270300:   API NUMBER
~CURVE INFORMATION
#MNEM.UNIT       API CODE    CURVE DESCRIPTION
#----------   ------------   ------------------------------
 DEPT.F                  :   
 GRR .GAPI   07 310 01 00:   GAMMA RAY
 RILD.OHMM   07 120 46 00:   INDUCTION LOG DEEP RESISTIVITY
 RILM.OHMM   07 120 44 00:   RESITIVITY LONG MEDIUM
~PARAMETER INFORMATION
#MNEM.UNIT          VALUE    DESCRIPTION
#----------   ------------   ------------------------------
 PD  .                 GL:   PERMANENT DATUM
 EPD .F              5160:   ELEVATION PERMANENT DATUM
 LMF .                 KB:   LOG MEASURED FROM
 DAPD.F                10:   FEET ABOVE PERMANENT DATUM
 DMF .                 KB:   DRILLING MEASURED FROM
 EKB .F              5170:   KELLING BUSHING
 EDF .F              5169:   DRILLING FLOOR
 EGL .F              5160:   GROUND LEVEL
 DATE.        29-MAR-1995:   RUN DATE
 RUN .                  1:   RUN NUMBER
 DD  .F               455:   DEPTH DRILLER
 DL  .F               416:   DEPTH LOGGER
 BLI .F               408:   BOTTOM LOG INTERVAL
 TLI .F                95:   TOP LOG INTERVAL
 CS  .IN            9.625:   CASING SIZE
 CBD .F                95:   CASING BOTTOM DRILLER
 CBL .F                95:   CASING BOTTOM LOGGER
 BS  .IN             8.75:   BIT SIZE
 BSD .F               455:   BIT SIZE AT DEPTH
 DFT .                AIR:   DRILLING FLUID TYPE
 MRT .F               204:   MAXIMUM RECORDED TEMPERATURE
 LUN .            HL 6530:   LOGGING UNIT NUMBER
 LUL .             CASPER:   LOGGING UNIT LOCATION
 ENGI.        VERN RAUTIO:   RECORDING ENGINEER
 WITN.        GARY STRONG:   WITNESSED BY
 CLNT.            A2DTECH:   CLIENT CODE
 ORIG.           5" PRINT:   ORIGIN OF DATA
 UWI .       490252270300:   UNIQUE WELL ID
 DICO. A2D Technologies, Inc.:   DIGITIZING COMPANY
~OTHER INFORMATION
~A    DEPT      GRR      RILD       RILM   
# ...
  218.4000   133.0228     1.0368     1.0392
  218.5000   134.3018     1.0464     1.0575
  218.6000   136.0836     1.0539     1.0774
  218.7000   137.3580     1.0663     1.0953
  218.8000   138.2267     1.0806     1.1196
  218.9000   138.8549     1.1026     1.1460
  219.0000   139.5495     1.1198     1.1705
  219.1000   140.0370     1.1362     1.1912
  219.2000   140.3175     1.1584     1.2123
  219.3000   140.5494     1.1849     1.2464
  219.4000   140.8056     1.2073     1.2642
  219.5000   140.6546     1.2272     1.2866
  219.6000   139.6167     1.2489     1.3059
  219.7000   137.5835     1.2710     1.3213
  219.8000   135.5017     1.2935     1.3368
  219.9000   134.5100     1.3163     1.3545
  220.0000   133.4943     1.3396     1.3614
  220.1000   132.9400     1.3583     1.3804
  220.2000   132.7940     1.3779     1.3966
  220.3000   132.8551     1.4022     1.4073
  220.4000   133.1113     1.4233     1.4228
  220.5000   133.4030     1.4378     1.4317
  220.6000   133.6237     1.4462     1.4474
  220.7000   134.0519     1.4556     1.4580
  220.8000   134.5625     1.4631     1.4666
  220.9000   135.0731     1.4656     1.4751
  221.0000   135.6139     1.4656     1.4838
  221.1000   136.4303     1.4655     1.4925
  221.2000   136.6693     1.4655     1.5029
  221.3000   136.9255     1.4654     1.5099
  221.4000   137.0389     1.4653     1.5133
  221.5000   137.0407     1.4653     1.5133
  221.6000   137.0425     1.4602     1.5132
  221.7000   137.0453     1.4550     1.5127
  221.8000   137.3481     1.4531     1.5027
  221.9000   137.1415     1.4443     1.4876
  222.0000   137.0498     1.4248     1.4645
  222.1000   136.9379     1.4039     1.4431
  222.2000   136.7517     1.3742     1.4213
  222.3000   136.7345     1.3459     1.3884
  222.4000   136.4539     1.3202     1.3540
  222.5000   136.2293     1.2910     1.3178
  222.6000   135.9767     1.2746     1.2910
  222.7000   135.7241     1.2543     1.2645
  222.8000   135.4715     1.2377     1.2352
  222.9000   135.2189     1.2232     1.2079
  223.0000   134.9563     1.2089     1.1867
  223.1000   134.7137     1.1936     1.1541
  223.2000   134.4611     1.1724     1.1327
  223.3000   134.3584     1.1457     1.1026
  223.4000   134.3602     1.1191     1.0735
  223.5000   134.3620     1.0932     1.0486
  223.6000   134.3718     1.0652     1.0243
  223.7000   134.6676     1.0316     0.9975
  223.8000   135.0994     0.9909     0.9825
  223.9000   135.7779     0.9649     0.9617
  224.0000   136.6637     0.9407     0.9421
  224.1000   137.6097     0.9136     0.9257
  224.2000   138.3746     0.8871     0.9090
  224.3000   139.2032     0.8661     0.8864
  224.4000   140.1379     0.8566     0.8628
  224.5000   140.7853     0.8513     0.8380
  224.6000   141.4347     0.8419     0.8138
  224.7000   142.0167     0.8395     0.7970
  224.8000   142.3171     0.8367     0.7924
  224.9000   142.8338     0.8317     0.7877
  225.0000   142.8360     0.8268     0.7822
  225.1000   142.6333     0.8220     0.7786
  225.2000   142.3807     0.8163     0.7768
  225.3000   142.0185     0.8163     0.7768
  225.4000   141.5115     0.8132     0.7768
  225.5000   141.0045     0.8084     0.7770
  225.6000   140.4334     0.8036     0.7822
  225.7000   140.2128     0.7993     0.7822
  225.8000   139.7852     0.7993     0.7853
  225.9000   139.2782     0.7951     0.7921
  226.0000   138.6908     0.7904     0.8000
  226.1000   137.9294     0.7857     0.8052
  226.2000   137.1259     0.7811     0.8154
  226.3000   136.4066     0.7772     0.8242
  226.4000   135.8383     0.7772     0.8339
  226.5000   135.6229     0.7816     0.8437
  226.6000   135.6247     0.7825     0.8555
  226.7000   135.6778     0.7852     0.8688
  226.8000   135.9300     0.7898     0.8739
  226.9000   135.9321     0.7955     0.8892
  227.0000   136.1448     0.8050     0.9007
  227.1000   136.5649     0.8213     0.9112
  227.2000   137.0755     0.8338     0.9243
  227.3000   137.5862     0.8519     0.9393
  227.4000   138.0967     0.8695     0.9506
  227.5000   138.6578     0.8849     0.9697
  227.6000   139.3473     0.9005     0.9795
  227.7000   140.2942     0.9177     0.9910
  227.8000   141.1789     0.9378     1.0055
  227.9000   141.9439     0.9558     1.0215
  228.0000   142.6285     0.9759     1.0342
  228.1000   142.8918     0.9990     1.0538
  228.2000   142.6461     1.0215     1.0595
  228.3000   142.3936     1.0396     1.0703
  228.4000   142.1410     1.0615     1.0829
  228.5000   141.8884     1.0716     1.0956
  228.6000   141.5775     1.0882     1.1085
  228.7000   141.0925     1.1045     1.1217
  228.8000   141.0947     1.1192     1.1281
  228.9000   140.8780     1.1380     1.1401
  229.0000   140.7964     1.1455     1.1493
  229.1000   140.7982     1.1633     1.1560
  229.2000   140.8764     1.1743     1.1644
  229.3000   141.1035     1.1811     1.1774
  229.4000   141.1054     1.1903     1.1774
  229.5000   141.5797     1.2023     1.1833
  229.6000   141.9012     1.2022     1.1949
  229.7000   142.1575     1.2157     1.2055
  229.8000   142.4137     1.2300     1.2105
  229.9000   142.6699     1.2402     1.2120
  230.0000   142.9261     1.2474     1.2274
  230.1000   143.2299     1.2562     1.2340
  230.2000   143.4385     1.2706     1.2412
  230.3000   143.6947     1.2705     1.2445
  230.4000   143.8383     1.2831     1.2471
  230.5000   143.7748     1.2932     1.2544
  230.6000   143.5040     1.3007     1.2618
  230.7000   142.9390     1.3083     1.2691
  230.8000   142.4901     1.3159     1.2765
  230.9000   141.9831     1.3243     1.2885
  231.0000   141.3454     1.3313     1.3037
  231.1000   140.4170     1.3391     1.3172
  231.2000   139.1470     1.3426     1.3249
  231.3000   137.8215     1.3454     1.3337
  231.4000   136.3631     1.3519     1.3404
  231.5000   135.0347     1.3518     1.3482
  231.6000   133.6157     1.3596     1.3523
  231.7000   132.5989     1.3611     1.3546
  231.8000   132.4549     1.3611     1.3617
  231.9000   132.7111     1.3610     1.3617
  232.0000   133.0078     1.3610     1.3617
  232.1000   133.4377     1.3609     1.3616
  232.2000   133.9483     1.3609     1.3616
  232.3000   134.3392     1.3608     1.3588
  232.4000   134.6679     1.3607     1.3522
  232.5000   135.1785     1.3607     1.3521
  232.6000   135.7335     1.3606     1.3444
  232.7000   135.9674     1.3596     1.3366
  232.8000   136.4087     1.3511     1.3287
  232.9000   136.7815     1.3510     1.3210
  233.0000   137.1282     1.3510     1.3150
  233.1000   137.6388     1.3465     1.3150
  233.2000   138.1575     1.3415     1.3150
  233.3000   138.4097     1.3415     1.3084
  233.4000   138.6659     1.3414     1.3059
  233.5000   138.7662     1.3321     1.3058
  233.6000   138.7680     1.3320     1.3058
  233.7000   138.7698     1.3270     1.3058
  233.8000   138.7576     1.3192     1.3058
  233.9000   138.4720     1.3135     1.3058
  234.0000   138.2524     1.3134     1.3058
  234.1000   137.8258     1.3134     1.3057
  234.2000   137.1922     1.3133     1.3057
  234.3000   136.5103     1.3133     1.3070
  234.4000   136.0033     1.3132     1.3148
  234.5000   135.4662     1.3132     1.3148
  234.6000   134.9893     1.3119     1.3147
  234.7000   134.4823     1.3040     1.3147
  234.8000   133.9753     1.3039     1.3147
  234.9000   133.5658     1.3038     1.3147
  235.0000   133.3631     1.3038     1.3147
  235.1000   133.3653     1.3037     1.3146
  235.2000   133.3674     1.3037     1.3146
  235.3000   133.5791     1.3036     1.3146
  235.4000   133.8353     1.3036     1.3109
  235.5000   134.0915     1.2971     1.3055
  235.6000   134.2793     1.2944     1.3047
  235.7000   134.2811     1.2908     1.2964
  235.8000   134.2831     1.2854     1.2964
  235.9000   134.0565     1.2845     1.2909
  236.0000   133.6229     1.2764     1.2874
  236.1000   132.9823     1.2695     1.2847
  236.2000   132.1344     1.2674     1.2785
  236.3000   131.1577     1.2633     1.2784
  236.4000   130.3723     1.2586     1.2712
  236.5000   129.3887     1.2572     1.2696
