~VERSION INFORMATION
 VERS.                2.0:   CWLS LOG ASCII STANDARD - VERSION 2.0
 WRAP.                 NO:   ONE LINE PER DEPTH STEP
~WELL INFORMATION
#MNEM.UNIT      DATA TYPE    INFORMATION
#----------   ------------   ------------------------------
 STRT.F           34.0000:   START DEPTH
 STOP.F          582.0000:   STOP DEPTH
 STEP.F            0.5000:   STEP LENGTH
 NULL.          -999.2500:   NO VALUE
 COMP. FENIX & SCISSON INC:   COMPANY
 WELL. NPR 3 SX-33 #88-33:   WELL
 FLD .             TEAPOT:   FIELD
 LOC .      S33 T39N R78W:   LOCATION
 CNTY.            NATRONA:   COUNTY
 STAT.            WYOMING:   STATE
 CTRY. UNITED STATES OF AMERICA:   COUNTRY
 SRVC.           BIRDWELL:   SERVICE COMPANY
 DATE.        04-AUG-1978:   LOGDATE
 API .       490251068000:   API NUMBER
~CURVE INFORMATION
#MNEM.UNIT       API CODE    CURVE DESCRIPTION
#----------   ------------   ------------------------------
 DEPT.F                  :   
 SPR .MV     05 010 01 00:   SPONTANEOUS POTENTIAL FROM RES.
 ILD .OHMM   05 120 46 00:   INDUCTION LOG DEEP
 SN  .OHMM   05 040 16 00:   SHORT NORMAL 16"
 CALD.IN     45 280 60 00:   CALIPER
 GRD .GAPI   45 310 01 00:   GAMMA RAY FROM DENSITY LOG
 DEN .G/C3   45 350 01 00:   COMPENSATED BULK DENSTIY
 CORR.G/C3   45 356 01 00:   DENSITY CORRECTION
 DPHI.DEC    45 890 12 00:   DENSITY POROSITY SANDSTONE
~PARAMETER INFORMATION
#MNEM.UNIT          VALUE    DESCRIPTION
#----------   ------------   ------------------------------
 PD  .                 GL:   PERMANENT DATUM
 EPD .F              5146:   ELEVATION PERMANENT DATUM
 LMF .                 KB:   LOG MEASURED FROM
 DAPD.F                 4:   FEET ABOVE PERMANENT DATUM
 DMF .                 KB:   DRILLING MEASURED FROM
 EKB .F              5150:   KELLING BUSHING
 EGL .F              5146:   GROUND LEVEL
 DATE.             8-4-78:   RUN DATE
 RUN .                  1:   RUN NUMBER
 DD  .F               570:   DEPTH DRILLER
 DL  .F               588:   DEPTH LOGGER
 BLI .F               582:   BOTTOM LOG INTERVAL
 TLI .F                50:   TOP LOG INTERVAL
 CS  .IN            8.625:   CASING SIZE
 CBD .F                40:   CASING BOTTOM DRILLER
 BS  .IN            7.875:   BIT SIZE
 BSD .F               570:   BIT SIZE AT DEPTH
 DFT .                KCL:   DRILLING FLUID TYPE
 DFD .                8.7:   DRILLING FLUID DENSITY
 DFV .                 34:   DRILLING FLUID VISCOSITY
 DFPH.                  9:   DRILLING FLUID PH
 DFL .                9.6:   DRILLING FLUID LOSS
 MSS .          FLOW LINE:   MUD SAMPLE SOURCE
 RMS .OHMM            .24:   RESISTIVITY MUD SAMPLE
 MST .F                70:   MUD SAMPLE TEMPERATURE
 RMF .OHMM            .24:   RESISTIVITY MUD FILTRATE SAMPLE
 MFST.F                80:   MUD FILTRATE SAMPLE TEMPERATURE
 RMC .OHMM             .3:   RESISTIVITY MUD CAKE
 MCST.F                75:   MUD CAKE SAMPLE TEMPERATURE
 MFSS.               MEAS:   MUD FILTRATE SAMPLE SOURCE
 TCS .HRS               2:   TIME CURCULATED STOPPED
 LUN .               3006:   LOGGING UNIT NUMBER
 LUL .               CASP:   LOGGING UNIT LOCATION
 ENGI.             MILLER:   RECORDING ENGINEER
 WITN.           MCGINLEY:   WITNESSED BY
 CLNT.            A2DTECH:   CLIENT CODE
 ORIG.        2" 5" PRINT:   ORIGIN OF DATA
 UWI .       490251068000:   UNIQUE WELL ID
 DICO. A2D Technologies, Inc.:   DIGITIZING COMPANY
~OTHER INFORMATION
~A   DEPT      SPR        ILD         SN       CALD         GRD       DEN       CORR       DPHI   
# ...
  196.0000   -23.1906    12.0454    10.6189     7.2923    92.6021     2.5088     0.0815     0.0881
  196.5000   -23.2075    12.1151    10.7719     7.2078    92.8575     2.5367     0.1130     0.0680
  197.0000   -23.2072    12.1808    10.9270     7.1205    93.1314     2.5657     0.1443     0.0599
  197.5000   -23.2072    12.1349    11.1023     7.0322    91.7212     2.5705     0.1616     0.0695
  198.0000   -23.2072    12.0918    11.3012     6.9907    89.8025     2.5660     0.1599     0.0836
  198.5000   -23.2072    12.0489    11.5281     6.9993    89.8770     2.5448     0.1252     0.0917
  199.0000   -23.2072    12.0062    11.5149     7.0171    91.5322     2.5239     0.0868     0.0965
  199.5000   -23.2072    11.9591    11.5003     7.0397    93.6604     2.5119     0.0661     0.1103
  200.0000   -23.2072    12.0830    11.4854     7.0829    89.2009     2.4825     0.0510     0.1219
  200.5000   -23.2073    12.2932    11.4707     7.1963    88.4955     2.4628     0.0389     0.1297
  201.0000   -23.2075    12.2876    11.4560     7.3102    88.8151     2.4864     0.0474     0.1281
  201.5000   -23.2066    12.2765    11.4415     7.4144    89.2622     2.4620     0.0457     0.1288
  202.0000   -23.1523    12.2654    11.4269     7.2029    88.8316     2.4573     0.0418     0.1306
  202.5000   -22.9583    12.2544    11.3378     7.2084    86.8484     2.4569     0.0429     0.1320
  203.0000   -22.7666    12.2433    11.2185     7.2374    87.1654     2.4563     0.0443     0.1333
  203.5000   -22.5741    12.2323    11.1009     7.2657    88.0641     2.4557     0.0456     0.1344
  204.0000   -22.3818    12.2213    10.9845     7.3022    88.9425     2.4558     0.0470     0.1308
  204.5000   -22.2468    12.2103    10.8693     7.3899    89.7226     2.4576     0.0500     0.1243
  205.0000   -22.5746    12.1993    10.7553     7.4559    89.6962     2.4685     0.0565     0.1233
  205.5000   -22.9090    12.1882    10.6425     7.4706    89.3836     2.4818     0.0630     0.1209
  206.0000   -23.2076    12.1808    10.5307     7.4864    89.7455     2.4822     0.0641     0.1205
  206.5000   -23.2292    12.5028    10.4209     7.5362    91.0481     2.4780     0.0490     0.1224
  207.0000   -23.2469    12.7518    10.3203     7.6198    90.1578     2.4747     0.0399     0.1196
  207.5000   -23.2654    13.0057    10.2926     7.7040    87.9413     2.4833     0.0439     0.1157
  208.0000   -23.2842    13.2303    10.2640     7.7881    88.5229     2.4970     0.0509     0.1118
  208.5000   -23.3030    13.2006    10.2354     7.7364    90.3196     2.4977     0.0580     0.1086
  209.0000   -23.3218    13.1601    10.2069     7.6653    91.7109     2.4979     0.0650     0.1086
  209.5000   -23.3406    13.1198    10.1785     7.5935    92.8242     2.4981     0.0712     0.1086
  210.0000   -23.3594    13.1093    10.1506     7.4655    93.7717     2.4984     0.0814     0.1086
  210.5000   -23.3782    12.8984    10.1237     7.2652    90.2205     2.5022     0.0943     0.1002
  211.0000   -23.3970    12.6778    10.0844     7.0851    91.6329     2.5203     0.1180     0.0803
  211.5000   -23.4064    12.4610    10.0453     6.9464    92.6051     2.5403     0.1489     0.0758
  212.0000   -23.4064    11.9877    10.0063     6.9447    90.6887     2.5456     0.1773     0.0867
  212.5000   -23.4064    11.4487     9.9675     6.9404    88.3216     2.5314     0.1763     0.0999
  213.0000   -23.4064    10.9339     9.9288     6.9361    86.7494     2.5086     0.1499     0.1132
  213.5000   -23.4064    10.4423     9.8903     6.9314    89.2830     2.4878     0.1173     0.1226
  214.0000   -23.4066    10.2306     9.8519     6.9389    90.5099     2.4755     0.0910     0.1309
  214.5000   -23.4064    10.2529     9.8137     6.9643    89.8213     2.4632     0.0747     0.1385
  215.0000   -23.3937    10.2722     9.7756     7.0393    89.2843     2.4508     0.0601     0.1441
  215.5000   -23.2875    10.2915     9.7377     7.1131    90.4678     2.4422     0.0557     0.1437
  216.0000   -23.3711    10.3108     9.6999     7.1867    91.9506     2.4422     0.0559     0.1408
  216.5000   -23.9440    10.3302     9.6622     7.2603    90.5581     2.4449     0.0559     0.1381
  217.0000   -24.0226    10.3496     9.6247     7.3340    88.4417     2.4476     0.0560     0.1389
  217.5000   -24.0410    10.3691     9.5763     7.4044    87.7409     2.4486     0.0494     0.1401
  218.0000   -24.0591    10.3884     9.4740     7.4682    88.4526     2.4486     0.0395     0.1413
  218.5000   -24.0780    10.4080     9.3729     7.5007    89.1838     2.4486     0.0295     0.1389
  219.0000   -24.0970    10.4193     9.2728     7.5174    89.6616     2.4493     0.0260     0.1292
  219.5000   -24.1159    10.3733     9.1738     7.5336    90.1199     2.4570     0.0256     0.1218
  220.0000   -24.1349    10.3396     9.0758     7.5543    90.0280     2.4734     0.0369     0.1198
  220.5000   -24.1539    10.3248     8.9941     7.6562    86.8828     2.4736     0.0438     0.1276
  221.0000   -24.1728    10.3250     8.9809     7.7558    89.1483     2.4648     0.0406     0.1317
  221.5000   -24.1918    10.3250     8.9678     7.7920    91.9093     2.4574     0.0376     0.1313
  222.0000   -24.2108    10.3250     8.9547     7.7926    92.1877     2.4566     0.0359     0.1354
  222.5000   -24.2297    10.3251     8.9417     7.7023    88.3488     2.4566     0.0384     0.1350
  223.0000   -24.2487    10.3253     8.9286     7.6011    91.5206     2.4565     0.0421     0.1313
  223.5000   -24.2677    10.3251     8.9156     7.5045    91.9649     2.4563     0.0496     0.1219
  224.0000   -24.2867    10.3270     8.9026     7.4105    89.3465     2.4776     0.0641     0.1131
  224.5000   -24.3056    10.2062     8.8896     7.3170    88.0017     2.4997     0.0895     0.1050
  225.0000   -24.3246    10.1078     8.8766     7.2233    91.2410     2.5116     0.1139     0.0984
  225.5000   -24.3436    10.0104     8.8636     7.1298    91.3605     2.5165     0.1366     0.1002
  226.0000   -24.3626     9.9158     8.8507     7.0369    88.6589     2.5077     0.1259     0.1076
  226.5000   -24.3817     9.8158     8.8378     6.9558    87.6882     2.4921     0.1118     0.1151
  227.0000   -24.4003     9.4641     8.6772     6.9302    90.4560     2.4821     0.0978     0.1239
  227.5000   -24.3887     8.9728     8.4269     6.9415    92.2480     2.4764     0.0837     0.1369
  228.0000   -24.3733     8.5115     8.2499     6.9574    86.8392     2.4468     0.0693     0.1409
  228.5000   -24.3580     8.4170     8.1704     6.9734    90.4980     2.4469     0.0637     0.1357
  229.0000   -24.3426     8.3920     8.0916     6.9894    91.1002     2.4472     0.0663     0.1483
  229.5000   -24.3273     8.3683     7.9841     7.0054    89.6905     2.4330     0.0697     0.1637
  230.0000   -24.3120     8.3443     8.0126     7.0213    91.3874     2.4109     0.0411     0.1641
  230.5000   -24.2967     8.3203     8.0588     7.0373    93.4417     2.4162     0.0309     0.1521
  231.0000   -24.2813     8.2955     8.1049     7.0531    94.5836     2.4248     0.0387     0.1521
  231.5000   -24.2660     8.2832     8.1691     7.0698    95.4099     2.4276     0.0461     0.1517
  232.0000   -24.2507     8.4658     8.2559     7.1102    92.6801     2.4293     0.0458     0.1408
  232.5000   -24.2352     8.6448     8.3442     7.2057    90.6831     2.4374     0.0522     0.1493
  233.0000   -24.2191     8.8567     8.4333     7.3063    91.0794     2.4389     0.0532     0.1529
  233.5000   -24.2058     9.0739     8.5233     7.4069    91.9068     2.4270     0.0458     0.1342
  234.0000   -24.3825     9.2971     8.6394     7.5078    92.8588     2.4591     0.0407     0.1231
  234.5000   -24.5805     9.3541     8.6959     7.6069    94.5319     2.4848     0.0684     0.1170
  235.0000   -24.6270     9.3797     8.7245     7.6315    96.2059     2.4844     0.0617     0.1150
  235.5000   -24.6545     9.4033     8.7532     7.6526    96.3058     2.4871     0.0529     0.1138
  236.0000   -24.6819     9.5243     8.7820     7.6752    93.0338     2.4913     0.0452     0.1138
