~VERSION INFORMATION
 VERS.                2.0:   CWLS LOG ASCII STANDARD - VERSION 2.0
 WRAP.                 NO:   ONE LINE PER DEPTH STEP
~WELL INFORMATION
#MNEM.UNIT      DATA TYPE    INFORMATION
#----------   ------------   ------------------------------
 STRT.F           12.0000:   START DEPTH
 STOP.F          551.0000:   STOP DEPTH
 STEP.F            0.5000:   STEP LENGTH
 NULL.          -999.2500:   NO VALUE
 COMP. LAWRENCE-ALLISON &AS:   COMPANY
 WELL. NPR 3 #58-46SX3LP4:   WELL
 FLD .             TEAPOT:   FIELD
 LOC .       S3 T38N R78W:   LOCATION
 CNTY.            NATRONA:   COUNTY
 STAT.            WYOMING:   STATE
 CTRY. UNITED STATES OF AMERICA:   COUNTRY
 SRVC.      Dresser Atlas:   SERVICE COMPANY
 DATE.        14-DEC-1984:   LOGDATE
 API .       490251099900:   API NUMBER
~CURVE INFORMATION
#MNEM.UNIT       API CODE    CURVE DESCRIPTION
#----------   ------------   ------------------------------
 DEPT.F                  :   
 RD  .OHMM   11 220 10 00:   RESISTIVITY DEEP
 RS  .OHMM   11 220 09 00:   RESISTIVITY SHALLOW
 SPR .MV     11 010 01 00:   SPONTANEOUS POTENTIAL FROM RES.
 AC  .US/F   60 520 00 00:   ACOUSTIC SONIC
 CALD.IN     45 280 60 00:   CALIPER FROM DENSITY
 CORR.G/C3   45 356 01 00:   DENSITY CORRECTION
 DEN .G/C3   45 350 01 00:   COMPENSATED BULK DENSTIY
 GRD .GAPI   45 310 01 00:   GAMMA RAY FROM DENSITY LOG
 PORD.DEC    45 890 12 00:   POROSITY DENSITY SANDSTONE
 CNC .DEC    42 890 03 00:   NEUTRON POROSITY SANDSTONE
~PARAMETER INFORMATION
#MNEM.UNIT          VALUE    DESCRIPTION
#----------   ------------   ------------------------------
 PD  .                 GL:   PERMANENT DATUM
 EPD .F              5201:   ELEVATION PERMANENT DATUM
 LMF .                 GL:   LOG MEASURED FROM
 DMF .                 GL:   DRILLING MEASURED FROM
 EGL .F              5201:   GROUND LEVEL
 DATE.        14-DEC-1984:   RUN DATE
 RUN .                  1:   RUN NUMBER
 DD  .F               552:   DEPTH DRILLER
 DL  .F               552:   DEPTH LOGGER
 BLI .F               550:   BOTTOM LOG INTERVAL
 TLI .F                20:   TOP LOG INTERVAL
 CS  .IN            8.625:   CASING SIZE
 CBD .F                20:   CASING BOTTOM DRILLER
 CBL .F                20:   CASING BOTTOM LOGGER
 BS  .IN            7.875:   BIT SIZE
 BSD .F               552:   BIT SIZE AT DEPTH
 DFT .          KCL WATER:   DRILLING FLUID TYPE
 MSS .            MUDTANK:   MUD SAMPLE SOURCE
 RMS .OHMM          0.152:   RESISTIVITY MUD SAMPLE
 MST .F                76:   MUD SAMPLE TEMPERATURE
 RMF .OHMM           0.11:   RESISTIVITY MUD FILTRATE SAMPLE
 MFST.F                76:   MUD FILTRATE SAMPLE TEMPERATURE
 RMC .OHMM           0.19:   RESISTIVITY MUD CAKE
 MCST.F                76:   MUD CAKE SAMPLE TEMPERATURE
 MFSS.               CALC:   MUD FILTRATE SAMPLE SOURCE
 MCSS.               CALC:   MUD CAKE SAMPLE SOURCE
 TCS .HRS               5:   TIME CURCULATED STOPPED
 MRT .F               100:   MAXIMUM RECORDED TEMPERATURE
 LUN .               6270:   LOGGING UNIT NUMBER
 ENGI.            LEBSOCK:   RECORDING ENGINEER
 WITN.        GREG GROOMS:   WITNESSED BY
 CLNT.            A2DTECH:   CLIENT CODE
 ORIG.           5" PRINT:   ORIGIN OF DATA
 UWI .       490251099900:   UNIQUE WELL ID
 DICO. A2D Technologies, Inc.:   DIGITIZING COMPANY
~OTHER INFORMATION
~A   DEPT       RD         RS        SPR         AC       CALD       CORR        DEN        GRD       PORD          CNC 
# ...
  213.0000    12.2835     9.1563   -70.3144   111.1205     7.7104     0.0701     2.4777   104.6547     0.1209     0.2789
  213.5000    12.0392     8.9759   -70.1543   111.7243     7.7253     0.0579     2.4784   105.5510     0.1200     0.2732
  214.0000    11.7183     8.7975   -69.9901   112.5399     7.7251     0.0443     2.4715   110.2068     0.1249     0.2791
  214.5000    11.3273     8.5631   -69.8244   113.3769     7.7250     0.0141     2.4579   112.6083     0.1325     0.3004
  215.0000    10.7987     8.0516   -69.6736   115.1765     7.7248     0.0035     2.4465   111.3979     0.1380     0.3101
  215.5000     9.8076     7.4151   -69.6617   117.0150     7.7246     0.0034     2.4442   108.0837     0.1395     0.3234
  216.0000     8.8460     6.6886   -69.6498   121.2233     7.7094     0.0064     2.4426   109.7319     0.1414     0.3455
  216.5000     7.0437     5.6299   -69.4873   121.0271     7.6943     0.0199     2.4328   113.6357     0.1577     0.3628
  217.0000     6.9515     5.2208   -69.4755   119.0082     7.6791     0.0379     2.4070   116.1862     0.1853     0.3634
  217.5000     7.2583     5.4459   -69.4638   114.7007     7.6940     0.0333     2.3523   115.8795     0.1998     0.3153
  218.0000     7.8846     5.9774   -69.3036   110.7077     7.6938     0.0197     2.3397   114.6706     0.1986     0.2833
  218.5000    10.2095     7.0165   -69.1435   108.5322     7.6937     0.0272     2.3760   112.5594     0.1583     0.2803
  219.0000    12.4503     8.7753   -69.1318   107.9729     7.7086     0.0301     2.4197   110.2897     0.1414     0.2815
  219.5000    12.8323     9.5647   -68.9716   108.2787     7.7235     0.0210     2.4514   110.5143     0.1356     0.2909
  220.0000    12.6645     9.6374   -68.9599   108.5651     7.7083     0.0059     2.4551   115.0877     0.1341     0.3061
  220.5000    12.5836     9.4459   -68.9481   108.5605     7.7081     0.0149     2.4536   120.5055     0.1341     0.3088
  221.0000    12.7700     9.5196   -68.9363   108.5455     7.6929     0.0178     2.4520   119.1447     0.1344     0.3078
  221.5000    13.1377     9.7935   -68.9246   108.2294     7.6928     0.0117     2.4497   116.5824     0.1357     0.3025
  222.0000    13.4227    10.0752   -68.9128   107.6344     7.6926     0.0086     2.4482   114.4712     0.1369     0.2949
  222.5000    13.5252    10.2226   -68.9010   107.2652     7.7075     0.0056     2.4466   110.7059     0.1381     0.2907
  223.0000    13.7233    10.3006   -68.8893   107.2607     7.7224     0.0025     2.4458   105.8879     0.1387     0.2925
  223.5000    13.7327    10.3077   -68.8775   107.2562     7.7223     0.0009     2.4450   106.4835     0.1384     0.3095
  224.0000    13.6473    10.3147   -68.7174   107.2517     7.7221     0.0024     2.4570   111.1392     0.1351     0.3149
  224.5000    13.5601    10.3218   -68.7056   107.2472     7.7220     0.0234     2.4676   112.0370     0.1291     0.3113
  225.0000    13.2926    10.3289   -68.6939   107.3180     7.7068     0.0415     2.4736   111.1273     0.1242     0.2856
  225.5000    13.2077    10.3359   -68.6821   107.5515     7.6916     0.0475     2.4788   110.8206     0.1203     0.2844
  226.0000    13.1255    10.2717   -68.6703   107.8477     7.6914     0.0413     2.4765   114.1230     0.1200     0.2842
  226.5000    13.0439    10.2061   -68.6586   108.2061     7.6913     0.0368     2.4704   119.5306     0.1238     0.2856
  227.0000    12.8751    10.1441   -68.9436   108.4403     7.6911     0.0533     2.4666   122.2314     0.1258     0.2978
  227.5000    12.7951    10.1513   -69.3793   108.9006     7.6910     0.0502     2.4772   121.6240     0.1234     0.3072
  228.0000    12.8042    10.1583   -69.6619   109.4976     7.7058     0.0411     2.4808   118.6105     0.1201     0.3057
  228.5000    12.9020    10.1652   -69.4881   109.8550     7.7208     0.0380     2.4721   117.1008     0.1234     0.2885
  229.0000    13.0006    10.1722   -69.1741   109.9867     7.7507     0.0108     2.4625   117.0947     0.1283     0.2827
  229.5000    12.9197    10.1793   -68.8843   109.5016     7.7505     0.0017     2.4686   117.2393     0.1286     0.2837
  230.0000    12.9287    10.1863   -68.8701   109.0750     7.7504     0.0107     2.4746   113.4725     0.1253     0.2876
  230.5000    12.9377    10.1934   -69.1580   108.8451     7.7653     0.0091     2.4723   113.7673     0.1235     0.2882
  231.0000    12.8570    10.2726   -69.2946   108.7654     7.7801     0.0106     2.4602   116.9193     0.1274     0.2834
  231.5000    12.8662    10.2796   -69.4312   108.6858     7.7800     0.0105     2.4488   120.6727     0.1350     0.2792
  232.0000    12.6997    10.2867   -69.7162   108.5310     7.7648     0.0120     2.4450   122.0202     0.1371     0.2798
  232.5000    12.5336    10.2937   -69.7015   108.5265     7.7647     0.0165     2.4570   121.2624     0.1365     0.2958
  233.0000    12.3676    10.1592   -69.8410   108.5983     7.7645     0.0287     2.4668   118.2489     0.1290     0.2974
  233.5000    11.9569    10.0264   -69.8263   108.9683     7.7493     0.0378     2.4713   116.2881     0.1254     0.2962
  234.0000    11.4782     9.6252   -69.8145   110.4665     7.7492     0.0303     2.4697   115.9829     0.1248     0.3002
  234.5000    10.5701     8.6822   -69.8028   112.1900     7.7490    -0.0004     2.4674   117.3288     0.1260     0.3026
  235.0000     9.2733     7.7775   -69.6426   113.7632     7.7489     0.0252     2.4651   118.8267     0.1315     0.3008
  235.5000     9.7406     7.6216   -69.4825   114.2106     7.7487     0.0402     2.4590   122.4298     0.1372     0.2938
  236.0000    10.3025     7.9515   -69.4707   113.0029     7.7485     0.0552     2.4393   127.0855     0.1430     0.3077
  236.5000    10.8969     8.7060   -69.3106   111.4206     7.7635     0.0672     2.4348   126.9292     0.1469     0.3335
  237.0000    11.3670     9.2078   -69.2989   110.4394     7.7482     0.0340     2.4332   124.5172     0.1470     0.3368
  237.5000    11.7755     9.4074   -69.2871   110.5112     7.7481    -0.0143     2.4362   120.1504     0.1460     0.3383
  238.0000    11.5413     9.1568   -69.2753   112.0082     7.7480    -0.0053     2.4543   117.5639     0.1364     0.3408
  238.5000    10.7765     8.7904   -69.4125   114.1257     7.7478     0.0157     2.4663   117.1310     0.1279     0.3420
  239.0000     9.7875     7.8202   -69.5486   116.9512     7.7627     0.0126     2.4639   121.1067     0.1273     0.3445
  239.5000     8.4686     6.8113   -69.5368   118.5319     7.7625     0.0126     2.4493   121.9311     0.1316     0.3645
  240.0000     7.9548     6.5869   -69.6736   118.3771     7.7624     0.0155     2.4139   120.4200     0.1543     0.3774
  240.5000     8.3635     6.8873   -69.6616   116.7197     7.7622     0.0215     2.3678   119.9629     0.1837     0.3366
  241.0000     9.2854     7.6707   -69.5015   113.7851     7.7621     0.0245     2.3664   119.0547     0.1852     0.3142
  241.5000    11.0481     9.1389   -69.3412   111.6769     7.7469     0.0078     2.3912   115.8909     0.1777     0.2919
  242.0000    11.5247     9.5328   -69.1691   110.4703     7.7468    -0.0103     2.4176   113.0278     0.1604     0.2949
  242.5000    11.3689     9.5394   -69.0208   109.4891     7.7466    -0.0119     2.4319   110.6159     0.1528     0.2989
  243.0000    11.2252     9.5459   -68.8605   108.7332     7.7164    -0.0014     2.4364   108.5047     0.1474     0.3061
  243.5000    11.3228     9.4849   -68.5519   108.0525     7.7313     0.0093     2.4341   108.1994     0.1456     0.3083
  244.0000    11.4919     9.3610   -68.3894   107.5973     7.7462     0.0120     2.4311   112.3348     0.1450     0.2971
  244.5000    11.6466     9.3690   -68.0809   107.2171     7.7460     0.0085     2.4371   115.1039     0.1450     0.2893
  245.0000    11.8172     9.4405   -67.7724   107.1375     7.7459    -0.0032     2.4347   115.0777     0.1450     0.2890
  245.5000    11.6626     9.4469   -67.6123   107.5086     7.7607    -0.0138     2.4355   113.8988     0.1450     0.2917
  246.0000    11.1184     9.1319   -67.4522   110.0586     7.7606    -0.0154     2.4369   107.7162     0.1451     0.2972
