~VERSION INFORMATION
 VERS.                2.0:   CWLS LOG ASCII STANDARD - VERSION 2.0
 WRAP.                 NO:   ONE LINE PER DEPTH STEP
~WELL INFORMATION
#MNEM.UNIT      DATA TYPE    INFORMATION
#----------   ------------   ------------------------------
 STRT.F            0.0000:   START DEPTH
 STOP.F          546.0000:   STOP DEPTH
 STEP.F            0.5000:   STEP LENGTH
 NULL.          -999.2500:   NO VALUE
 COMP. LAWRENCE/ALLISON INC:   COMPANY
 WELL.   NPR 3 #76-21SX10:   WELL
 FLD .             TEAPOT:   FIELD
 LOC .      S10 T38N R78W:   LOCATION
 CNTY.            NATRONA:   COUNTY
 STAT.            WYOMING:   STATE
 CTRY. UNITED STATES OF AMERICA:   COUNTRY
 SRVC.      Dresser Atlas:   SERVICE COMPANY
 DATE.        22-JUL-1984:   LOGDATE
 API .       490251097000:   API NUMBER
~CURVE INFORMATION
#MNEM.UNIT       API CODE    CURVE DESCRIPTION
#----------   ------------   ------------------------------
 DEPT.F                  :   
 CALD.IN     45 280 60 00:   CALIPER FROM DENSITY LOG
 DEN .G/C3   45 350 01 00:   COMPENSATED BULK DENSTIY
 CORR.G/C3   45 356 01 00:   DENSITY CORRECTION
 DPHI.DEC    45 890 12 00:   POROSITY DENSITY SANDSTONE
 CNC .DEC    42 890 03 00:   NEUTRON POROSITY SANDSTONE
 GRR .GAPI   07 310 01 00:   GAMMA RAY
 SPR .MV     07 010 01 00:   SPONTANEOUS POTENTIAL
 RILD.OHMM   07 120 46 00:   INDUCTION LOG DEEP RESISTIVITY
 RILM.OHMM   07 120 44 00:   INDUCTION LOG MEDIUM RESISTIVITY
 RFOC.OHMM   07 220 04 00:   RESISTIVITY FOCUSED LOG
 AC  .US/F   60 520 00 00:   ACCOUSTIC
~PARAMETER INFORMATION
#MNEM.UNIT          VALUE    DESCRIPTION
#----------   ------------   ------------------------------
 PD  .                 GL:   PERMANENT DATUM
 EPD .F              5167:   ELEVATION PERMANENT DATUM
 LMF .                 GL:   LOG MEASURED FROM
 DMF .                 GL:   DRILLING MEASURED FROM
 EGL .F              5167:   GROUND LEVEL
 DATE.        22-JUL-1984:   RUN DATE
 RUN .                  1:   RUN NUMBER
 DD  .F               551:   DEPTH DRILLER
 DL  .F               547:   DEPTH LOGGER
 BLI .F               544:   BOTTOM LOG INTERVAL
 CS  .IN            9.625:   CASING SIZE
 CBD .F                40:   CASING BOTTOM DRILLER
 CBL .F                42:   CASING BOTTOM LOGGER
 BS  .IN            7.875:   BIT SIZE
 BSD .F               551:   BIT SIZE AT DEPTH
 DFT .        KCL POLYMER:   DRILLING FLUID TYPE
 MSS .           FLOWLINE:   MUD SAMPLE SOURCE
 RMS .OHMM           .193:   RESISTIVITY MUD SAMPLE
 MST .F                75:   MUD SAMPLE TEMPERATURE
 RMF .OHMM           .144:   RESISTIVITY MUD FILTRATE SAMPLE
 MFST.F                75:   MUD FILTRATE SAMPLE TEMPERATURE
 RMC .OHMM            .24:   RESISTIVITY MUD CAKE
 MCST.F                74:   MUD CAKE SAMPLE TEMPERATURE
 MFSS.               CALC:   MUD FILTRATE SAMPLE SOURCE
 MCSS.               CALC:   MUD CAKE SAMPLE SOURCE
 TCS .HRS               5:   TIME CURCULATED STOPPED
 MRT .F                90:   MAXIMUM RECORDED TEMPERATURE
 LUN .               6274:   LOGGING UNIT NUMBER
 LUL .               GLTE:   LOGGING UNIT LOCATION
 ENGI.             RAUTIO:   RECORDING ENGINEER
 WITN.              FIVAS:   WITNESSED BY
 CLNT.            A2DTECH:   CLIENT CODE
 ORIG.       2", 5" PRINT:   ORIGIN OF DATA
 UWI .       490251097000:   UNIQUE WELL ID
 DICO. A2D Technologies, Inc.:   DIGITIZING COMPANY
~OTHER INFORMATION
~A    DEPT    CALD        DEN       CORR       DPHI        CNC         GRR       SPR       RILD       RILM       RFOC         AC   
# ...
  457.5000     7.9730     2.5250     0.0570     0.0760     0.2780    99.6950   -19.5660    10.2640     8.9390    12.0820    92.9540
  458.0000     7.9770     2.5220     0.0420     0.0780     0.2730   100.4110   -20.3110    10.2380     9.0110    12.0820    93.1470
  458.5000     7.9820     2.5240     0.0400     0.0750     0.2670   101.5460   -21.0570    10.2130     8.9420    11.9200    93.3390
  459.0000     7.9870     2.5290     0.0510     0.0720     0.2660   103.2380   -21.7980    10.1870     8.8840    11.7520    93.4600
  459.5000     7.9890     2.5340     0.0610     0.0700     0.2670   104.9440   -22.5540    10.1510     8.8470    11.6160    93.2900
  460.0000     7.9860     2.5370     0.0640     0.0680     0.2660   107.8310   -23.3150    10.1710     8.9210    11.5340    93.0400
  460.5000     7.9830     2.5400     0.0670     0.0660     0.2590   108.9810   -23.7970    10.2060     9.0110    11.4350    92.7900
  461.0000     7.9810     2.5420     0.0750     0.0650     0.2580   107.7160   -23.8730    10.2410     8.9410    11.5140    92.8080
  461.5000     7.9780     2.5430     0.0850     0.0660     0.2610   106.1850   -23.9610    10.2760     8.7600    11.6140    93.0170
  462.0000     7.9750     2.5390     0.0910     0.0680     0.2650   105.9830   -23.6550    10.3110     8.6680    11.7540    93.1840
  462.5000     7.9720     2.5320     0.0800     0.0720     0.2666   107.0760   -23.2860    10.3390     8.6380    11.6900    93.4920
  463.0000     7.9690     2.5250     0.0720     0.0760     0.2703   108.8530   -23.1160    10.1990     8.6070    11.5840    93.8010
  463.5000     7.9660     2.5220     0.0680     0.0770     0.2764   111.0710   -23.0150    10.0820     8.5640    11.4770    94.1100
  464.0000     7.9630     2.5200     0.0610     0.0770     0.2825   112.0200   -22.6460     9.9660     8.3570    11.3050    94.4200
  464.5000     7.9610     2.5130     0.0450     0.0840     0.2816   109.3880   -22.1350     9.6150     8.1500    11.0900    95.1450
  465.0000     7.9580     2.5070     0.0290     0.0860     0.2766   106.1590   -22.0010     9.2680     7.9430    10.8560    95.9650
  465.5000     7.9550     2.5060     0.0250     0.0870     0.2648   104.2860   -21.9950     8.9290     7.7230    10.5490    96.7660
  466.0000     7.9520     2.5050     0.0430     0.0870     0.2535   103.5750   -22.2100     8.5720     7.4590    10.0990    97.7890
  466.5000     7.9530     2.4980     0.0420     0.0910     0.2514   103.5850   -22.6600     8.1240     7.1950     9.5640    98.5250
  467.0000     7.9590     2.4920     0.0390     0.0940     0.2680   104.7430   -23.0110     7.5430     6.9310     9.1490    98.9140
  467.5000     7.9650     2.4900     0.0350     0.0960     0.2921   107.8560   -23.3690     6.9470     6.5490     8.8870    99.6210
  468.0000     7.9710     2.4870     0.0350     0.0990     0.2886   108.9920   -24.2150     6.2330     6.0180     8.6260   100.5090
  468.5000     7.9770     2.4820     0.0370     0.1020     0.2812   108.1230   -25.1340     5.5050     5.4860     8.3650   102.4750
  469.0000     7.9830     2.4740     0.0320     0.1050     0.2786   106.8050   -26.0730     4.9300     4.9540     7.9330   104.6390
  469.5000     7.9890     2.4620     0.0250     0.1140     0.2863   107.3350   -27.1390     4.5400     4.4230     7.3180   106.9550
  470.0000     7.9890     2.4470     0.0180     0.1230     0.3039   108.6760   -28.2100     4.2650     4.1030     6.4380   109.1160
  470.5000     7.9880     2.4330     0.0270     0.1330     0.3227   110.2000   -28.9100     4.1350     3.9860     5.5110   109.9000
  471.0000     7.9860     2.4230     0.0360     0.1380     0.3174   109.1020   -29.3080     4.0600     3.9860     4.8080   108.0100
  471.5000     7.9850     2.4240     0.0420     0.1370     0.3013   105.7250   -29.4830     4.1390     4.1920     4.7440   104.6240
  472.0000     7.9840     2.4330     0.0360     0.1330     0.2913   102.0600   -29.4840     4.3080     4.5000     5.3770   101.5270
  472.5000     7.9830     2.4500     0.0290     0.1240     0.2831   102.8320   -29.4850     4.4780     4.8070     6.4380    99.3530
  473.0000     7.9810     2.4730     0.0280     0.1090     0.2768   103.9270   -29.3270     4.8580     5.1320     7.6660    99.3730
  473.5000     7.9800     2.4920     0.0430     0.0970     0.2722   103.2340   -29.0560     5.3750     5.4760     8.4510    99.8270
  474.0000     7.9790     2.4990     0.0600     0.0910     0.2754   101.9770   -28.5870     5.9860     5.8570     8.1470   100.0040
  474.5000     7.9770     2.5020     0.0660     0.0890     0.2766   101.7300   -27.7760     6.5380     6.1140     8.2610    99.5520
  475.0000     7.9760     2.5000     0.0440     0.0900     0.2719   103.1710   -26.9700     6.9270     6.4010     8.4920    98.7560
  475.5000     7.9750     2.5000     0.0270     0.0900     0.2669   104.6060   -26.0610     7.2040     6.6590     8.7960    98.9110
  476.0000     7.9740     2.5020     0.0110     0.0890     0.2650   104.6640   -24.7840     7.4810     6.7500     9.1730    99.2180
  476.5000     7.9720     2.5060     0.0220     0.0880     0.2726   103.9050   -23.5360     7.7820     6.8320     9.4330    99.5520
  477.0000     7.9710     2.5070     0.0350     0.0870     0.2763   103.2330   -22.5990     7.9510     6.9140     9.3700    99.7950
  477.5000     7.9700     2.5020     0.0470     0.0900     0.2800   104.3090   -22.2050     8.0720     6.9960     9.2810   100.0620
  478.0000     7.9690     2.4960     0.0430     0.0930     0.2682   106.8080   -21.8860     8.1050     7.0720     9.4360   100.3480
  478.5000     7.9690     2.4940     0.0450     0.0950     0.2601   108.0640   -21.6390     8.1410     7.1410     9.5920   100.2460
  479.0000     7.9680     2.4970     0.0490     0.0930     0.2659   108.3710   -21.3930     8.1770     7.2110     9.7060   100.1250
  479.5000     7.9670     2.5000     0.0380     0.0910     0.2847   109.9660   -21.2050     8.2220     7.2800     9.7360    99.9440
  480.0000     7.9670     2.5070     0.0290     0.0880     0.2934   112.4850   -21.3300     8.2050     7.3060     9.7660    99.7510
  480.5000     7.9660     2.5290     0.0290     0.0740     0.2939   115.0430   -21.8760     8.1830     7.3170     9.7850    99.8560
  481.0000     7.9650     2.5540     0.0220     0.0580     0.2957   117.8440   -22.4230     8.1610     7.3280     9.6480    99.9360
  481.5000     7.9650     2.5640    -0.0010     0.0510     0.2913   116.8450   -22.9720     8.1470     7.3390     9.5200    99.8430
  482.0000     7.9640     2.5390     0.0150     0.0660     0.2885   113.3790   -23.5570     8.1890     7.3500     9.7080    99.7490
  482.5000     7.9630     2.5150     0.0370     0.0810     0.2919   110.0690   -24.1910     8.2220     7.3650     9.9660    99.6520
  483.0000     7.9630     2.5080     0.0580     0.0860     0.2916   109.1550   -25.0460     8.2050     7.2490    10.0110    99.8570
  483.5000     7.9620     2.5120     0.0760     0.0830     0.2905   111.1830   -25.9110     8.1880     7.0360    10.0580   100.2050
  484.0000     7.9610     2.5150     0.0670     0.0820     0.2904   114.5920   -26.0640     8.1710     6.9990     9.7840   100.6540
  484.5000     7.9610     2.5140     0.0540     0.0830     0.2895   116.4270   -25.9900     8.1470     6.9610     9.5000   100.9410
  485.0000     7.9600     2.5180     0.0420     0.0810     0.2798   117.2350   -25.9100     8.1600     6.9080     9.2170   100.9190
  485.5000     7.9590     2.5160     0.0410     0.0810     0.2776   119.6630   -25.8280     8.1820     6.9660     8.9290   100.5130
  486.0000     7.9590     2.5090     0.0400     0.0850     0.2816   121.4940   -25.7300     8.2040     7.0650     9.1410    99.7800
  486.5000     7.9580     2.5050     0.0420     0.0880     0.2794   118.8720   -25.1620     8.2210     7.1660     9.3570    99.0470
  487.0000     7.9570     2.5150     0.0520     0.0830     0.2778   112.8490   -24.5440     8.1900     7.1660     9.5730    98.3600
  487.5000     7.9570     2.5360     0.0620     0.0710     0.2728   110.5580   -23.9030     8.1470     7.1660     9.8760    98.2730
