~VERSION INFORMATION
 VERS.                2.0:   CWLS LOG ASCII STANDARD - VERSION 2.0
 WRAP.                 NO:   ONE LINE PER DEPTH STEP
~WELL INFORMATION
#MNEM.UNIT      DATA TYPE    INFORMATION
#----------   ------------   ------------------------------
 STRT.F           31.0000:   START DEPTH
 STOP.F          521.0000:   STOP DEPTH
 STEP.F            0.5000:   STEP LENGTH
 NULL.          -999.2500:   NO VALUE
 COMP. FENIX & SCISSON INC:   COMPANY
 WELL.      NPR-3 #52SX-3:   WELL
 FLD .             TEAPOT:   FIELD
 LOC .       S3 T38N R78W:   LOCATION
 CNTY.            NATRONA:   COUNTY
 STAT.            WYOMING:   STATE
 CTRY. UNITED STATES OF AMERICA:   COUNTRY
 SRVC.            Unknown:   SERVICE COMPANY
 DATE.        03-OCT-1978:   LOGDATE
 API .       490251071800:   API NUMBER
~CURVE INFORMATION
#MNEM.UNIT       API CODE    CURVE DESCRIPTION
#----------   ------------   ------------------------------
 DEPT.F                  :   
 SPR .MV     05 010 01 00:   SPONTANEOUS POTENTIAL FROM RES.
 GRD .GAPI   45 310 01 00:   GAMMA RAY FROM DENSITY LOG
 CALD.IN     45 280 60 00:   CALIPER
 RHOB.G/C3   45 350 01 00:   BULK DENSITY
 DPHI.DEC    45 890 12 00:   DENSITY POROSITY SANDSTONE
 CORR.G/C3   45 356 01 00:   DENSITY CORRECTION
 SN  .OHMM   05 040 16 00:   SHORT NORMAL 16"
 IL  .OHMM   05 120 00 00:   INDUCTION LOG
~PARAMETER INFORMATION
#MNEM.UNIT          VALUE    DESCRIPTION
#----------   ------------   ------------------------------
 PD  .                 GL:   PERMANENT DATUM
 EPD .F              5129:   ELEVATION PERMANENT DATUM
 LMF .                 KB:   LOG MEASURED FROM
 DAPD.F                 4:   FEET ABOVE PERMANENT DATUM
 DMF .                 KB:   DRILLING MEASURED FROM
 EKB .F              5133:   KELLING BUSHING
 EGL .F              5129:   GROUND LEVEL
 DATE.            10-3-78:   RUN DATE
 RUN .                  1:   RUN NUMBER
 DD  .F               521:   DEPTH DRILLER
 DL  .F               520:   DEPTH LOGGER
 BLI .F               514:   BOTTOM LOG INTERVAL
 TLI .F                46:   TOP LOG INTERVAL
 CS  .IN            8.625:   CASING SIZE
 CBL .F                44:   CASING BOTTOM LOGGER
 BS  .IN            7.875:   BIT SIZE
 BSD .F               521:   BIT SIZE AT DEPTH
 DFT .                KCL:   DRILLING FLUID TYPE
 DFD .                8.7:   DRILLING FLUID DENSITY
 DFV .                 34:   DRILLING FLUID VISCOSITY
 DFPH.                  9:   DRILLING FLUID PH
 DFL .               10.8:   DRILLING FLUID LOSS
 MSS .            MUD PIT:   MUD SAMPLE SOURCE
 RMS .OHMM            .24:   RESISTIVITY MUD SAMPLE
 MST .F                54:   MUD SAMPLE TEMPERATURE
 RMF .OHMM            .22:   RESISTIVITY MUD FILTRATE SAMPLE
 MFST.F                60:   MUD FILTRATE SAMPLE TEMPERATURE
 RMC .OHMM             .3:   RESISTIVITY MUD CAKE
 MCST.F                64:   MUD CAKE SAMPLE TEMPERATURE
 MFSS.               MEAS:   MUD FILTRATE SAMPLE SOURCE
 MCSS.               MEAS:   MUD CAKE SAMPLE SOURCE
 BHT .F                60:   BOTTOM HOLE TEMPERATURE
 TCS .HRS               3:   TIME CURCULATED STOPPED
 MRT .F                60:   MAXIMUM RECORDED TEMPERATURE
 LUN .               2958:   LOGGING UNIT NUMBER
 LUL .               CASP:   LOGGING UNIT LOCATION
 ENGI.             MILLER:   RECORDING ENGINEER
 WITN.           DINSMORE:   WITNESSED BY
 CLNT.            A2DTECH:   CLIENT CODE
 ORIG.       2", 5" PRINT:   ORIGIN OF DATA
 UWI .       490251071800:   UNIQUE WELL ID
 DICO. A2D Technologies, Inc.:   DIGITIZING COMPANY
~OTHER INFORMATION
~A   DEPT      SPR         GRD      CALD       RHOB       DPHI       CORR         SN         IL   
# ...
  476.5000   -19.3704    89.3809     7.8419     2.5229     0.0923     0.0245    10.2608    12.1753
  477.0000   -19.3927    89.2124     7.8423     2.5203     0.0944     0.0193    10.2974    12.1856
  477.5000   -19.4152    89.0301     7.8435     2.5121     0.1024     0.0181    10.2883    12.1959
  478.0000   -19.4377    88.8483     7.8446     2.5039     0.1081     0.0190    10.2772    12.2063
  478.5000   -19.4602    88.7226     7.8458     2.4997     0.1094     0.0198    10.2661    12.2166
  479.0000   -19.4827    88.7986     7.8470     2.5002     0.1094     0.0207    10.2550    12.2269
  479.5000   -19.5051    88.8644     7.8482     2.5021     0.1069     0.0216    10.2439    12.2373
  480.0000   -19.5276    88.6470     7.8493     2.5087     0.1016     0.0224    10.2329    12.2478
  480.5000   -19.5501    88.1125     7.8505     2.5152     0.0984     0.0233    10.2219    12.2589
  481.0000   -19.5725    88.0498     7.8517     2.5159     0.0985     0.0241    10.2109    12.2694
  481.5000   -19.5950    90.3923     7.8529     2.5163     0.0989     0.0250    10.1708    12.1201
  482.0000   -19.6175    92.4066     7.8540     2.5147     0.0993     0.0255    10.0715    11.9604
  482.5000   -19.6400    92.5415     7.8552     2.5090     0.1019     0.0251     9.9732    11.8219
  483.0000   -19.6624    91.3450     7.8564     2.5072     0.1036     0.0247     9.8759    11.8007
  483.5000   -19.6847    89.9330     7.8575     2.5087     0.1029     0.0244     9.7796    11.7796
  484.0000   -19.7073    89.3743     7.8587     2.5178     0.0992     0.0240     9.6842    11.7585
  484.5000   -19.7315    89.4730     7.8599     2.5261     0.0922     0.0237     9.5897    11.7375
  485.0000   -19.8328    89.6040     7.8611     2.5278     0.0909     0.0233     9.4962    11.7165
  485.5000   -20.0336    89.8550     7.8608     2.5297     0.0896     0.0230     9.4550    11.6350
  486.0000   -20.1495    91.0575     7.8600     2.5315     0.0889     0.0226     9.4266    11.5542
  486.5000   -20.1709    93.2573     7.8591     2.5324     0.0880     0.0223     9.3983    11.4745
  487.0000   -20.1927    96.2135     7.8583     2.5334     0.0876     0.0219     9.3701    11.3959
  487.5000   -20.2144    99.1645     7.8575     2.5323     0.0883     0.0216     9.3420    11.1581
  488.0000   -20.2361   102.0749     7.8566     2.5308     0.0891     0.0216     9.3140    10.9331
  488.5000   -20.2579   103.8504     7.8558     2.5296     0.0896     0.0216     9.1511    10.7126
  489.0000   -20.2793   102.4485     7.8550     2.5283     0.0900     0.0216     8.9247    10.5636
  489.5000   -20.3008   101.3830     7.8541     2.5231     0.0927     0.0216     8.7222    10.4264
  490.0000   -20.3251   101.7500     7.8533     2.5180     0.0974     0.0216     8.6398    10.2911
  490.5000   -20.4838   106.2001     7.8525     2.5157     0.0982     0.0228     8.5640    10.1574
  491.0000   -20.9165   106.6920     7.8517     2.5159     0.0988     0.0241     8.4889    10.0256
  491.5000   -20.9982   105.0953     7.8508     2.5161     0.0991     0.0255     8.4145     9.8954
  492.0000   -21.0601   103.7330     7.8500     2.5163     0.0995     0.0268     8.3406     9.7669
  492.5000   -21.1464   103.6246     7.8492     2.5166     0.0996     0.0282     8.2676     9.6401
  493.0000   -21.7955   103.9883     7.8483     2.5233     0.0938     0.0296     8.1783     9.5149
  493.5000   -21.9567   107.1968     7.8475     2.5306     0.0892     0.0312     8.2264     9.3914
  494.0000   -22.0007   109.4584     7.8467     2.5298     0.0889     0.0329     8.2905     9.2192
  494.5000   -22.0402   109.6815     7.8458     2.5236     0.0930     0.0345     8.3551     9.2344
  495.0000   -22.0803   110.0085     7.8450     2.5286     0.0913     0.0341     8.4072     9.2605
  495.5000   -22.1460   112.2085     7.8442     2.5351     0.0883     0.0301     8.3488     9.2867
  496.0000   -22.7442   115.7271     7.8434     2.5363     0.0838     0.0262     8.3004     9.3129
  496.5000   -22.2899   119.2051     7.8425     2.5343     0.0860     0.0222     8.2522     9.3392
  497.0000   -20.3734   122.4963     7.8418     2.5321     0.0882     0.0215     8.2043     9.3656
  497.5000   -20.9837   124.3790     7.8390     2.5283     0.0916     0.0212     8.1568     9.3908
  498.0000   -21.4532   123.7802     7.8359     2.5180     0.0952     0.0202     8.1097     9.3255
  498.5000   -21.3536   119.1205     7.8329     2.5095     0.1062     0.0194     8.0611     9.2636
  499.0000   -21.8633   113.5010     7.8299     2.5179     0.0973     0.0186     7.9509     9.2022
  499.5000   -22.3719   110.6694     7.8269     2.5275     0.0916     0.0179     7.6645     9.1412
  500.0000   -22.5973   108.8181     7.8238     2.5235     0.0925     0.0172     7.5264     8.8039
  500.5000   -22.7071   106.6724     7.8208     2.5148     0.0934     0.0165     7.5263     8.6667
  501.0000   -22.6693   102.0507     7.8178     2.5173     0.0943     0.0157     7.5266     8.5438
  501.5000   -22.6134   102.0566     7.8148     2.5198     0.0959     0.0168     7.5267     8.4762
  502.0000   -22.5591   102.6194     7.8117     2.5203     0.0977     0.0185     7.5267     8.4621
  502.5000   -22.5723   102.7965     7.8087     2.5158     0.0993     0.0203     7.5267     8.4470
  503.0000   -22.7614   102.7939     7.8057     2.5161     0.0983     0.0216     7.5267     8.4320
  503.5000   -22.9474   102.7993     7.8026     2.5184     0.0973     0.0216     7.5267     8.4171
  504.0000   -23.1402   103.5599     7.7996     2.5175     0.0977     0.0217     7.5267     8.3843
  504.5000   -23.3877   104.6723     7.7966     2.5105     0.1015     0.0219     7.5267     8.3196
  505.0000   -23.6371   107.5867     7.7936     2.5013     0.1071     0.0221     7.5267     8.2555
  505.5000   -23.8862   111.2497     7.7905     2.4921     0.1145     0.0223     7.5267     8.1918
  506.0000   -24.0607   123.1953     7.7875     2.4880     0.1190     0.0224     7.5267     8.1287
  506.5000   -23.6325   131.2255     7.7845     2.4950     0.1148     0.0226     7.5267     8.0660
  507.0000   -23.1946   134.2485     7.7814     2.5029     0.1063     0.0227     7.5263     8.0038
  507.5000   -22.7633   138.1740     7.7784     2.5104     0.1030     0.0229     7.5257     7.9548
  508.0000   -22.6540   142.9804     7.7754     2.5135     0.1019     0.0231     7.5255     7.9995
  508.5000   -22.5842   143.4104     7.7724     2.5135     0.1018     0.0233     7.7143     8.0822
  509.0000   -22.4726   141.0564     7.7693     2.5135     0.1018     0.0234     7.8727     8.3314
  509.5000   -22.0214   139.0693     7.7663     2.5135     0.1018     0.0239     8.0285     8.5881
  510.0000   -21.5650   138.3864     7.7635     2.5173     0.0984     0.0276     8.4239     8.8528
  510.5000   -21.1095   138.4346     7.7517     2.5248     0.0935     0.0312     8.8242     9.1257
  511.0000   -20.6569   138.5741     7.7365     2.5269     0.0920     0.0319     9.2557     9.3908
  511.5000   -20.3304   138.8645     7.7213     2.5283     0.0919     0.0322     9.7457     9.4937
  512.0000   -20.3333   140.4215     7.7060     2.5290     0.0929     0.0326    10.0190     9.5827
  512.5000   -20.3409   143.0415     7.6908     2.5185     0.0977     0.0329    10.0182     9.6464
  513.0000   -21.0805   147.8123     7.6715     2.5095     0.1016     0.0332    10.0199     9.7106
  513.5000   -21.9098  -999.2500     7.6482     2.5082     0.1024     0.0336    10.1257     9.7436
  514.0000   -22.7137  -999.2500     7.6248     2.5156     0.1003     0.0403    10.6777    10.0168
  514.5000  -999.2500  -999.2500     7.6041     2.5269     0.0931     0.0458  -999.2500  -999.2500
  515.0000  -999.2500  -999.2500     7.6039     2.5303     0.0890     0.0466  -999.2500  -999.2500
  515.5000  -999.2500  -999.2500     7.6039     2.5315     0.0890     0.0476  -999.2500  -999.2500
  516.0000  -999.2500  -999.2500     7.6040     2.5266     0.0905     0.0485  -999.2500  -999.2500
  516.5000  -999.2500  -999.2500     7.6040     2.5211     0.0941     0.0493  -999.2500  -999.2500
