~VERSION INFORMATION
 VERS.                2.0:   CWLS LOG ASCII STANDARD - VERSION 2.0
 WRAP.                 NO:   ONE LINE PER DEPTH STEP
~WELL INFORMATION
#MNEM.UNIT      DATA TYPE    INFORMATION
#----------   ------------   ------------------------------
 STRT.F            0.0000:   START DEPTH
 STOP.F          404.0000:   STOP DEPTH
 STEP.F            0.1000:   STEP LENGTH
 NULL.          -999.2500:   NO VALUE
 COMP.   FLUOR DANIEL INC:   COMPANY
 WELL.   62-1 X 10 #62-10:   WELL
 FLD .             TEAPOT:   FIELD
 LOC .      S10 T38N R78W:   LOCATION
 CNTY.            NATRONA:   COUNTY
 STAT.            WYOMING:   STATE
 CTRY. UNITED STATES OF AMERICA:   COUNTRY
 SRVC.      Western Atlas:   SERVICE COMPANY
 DATE.        29-MAR-1995:   LOGDATE
 API .       490252270300:   API NUMBER
~CURVE INFORMATION
#MNEM.UNIT       API CODE    CURVE DESCRIPTION
#----------   ------------   ------------------------------
 DEPT.F                  :   
 GRR .GAPI   07 310 01 00:   GAMMA RAY
 RILD.OHMM   07 120 46 00:   INDUCTION LOG DEEP RESISTIVITY
 RILM.OHMM   07 120 44 00:   RESITIVITY LONG MEDIUM
~PARAMETER INFORMATION
#MNEM.UNIT          VALUE    DESCRIPTION
#----------   ------------   ------------------------------
 PD  .                 GL:   PERMANENT DATUM
 EPD .F              5160:   ELEVATION PERMANENT DATUM
 LMF .                 KB:   LOG MEASURED FROM
 DAPD.F                10:   FEET ABOVE PERMANENT DATUM
 DMF .                 KB:   DRILLING MEASURED FROM
 EKB .F              5170:   KELLING BUSHING
 EDF .F              5169:   DRILLING FLOOR
 EGL .F              5160:   GROUND LEVEL
 DATE.        29-MAR-1995:   RUN DATE
 RUN .                  1:   RUN NUMBER
 DD  .F               455:   DEPTH DRILLER
 DL  .F               416:   DEPTH LOGGER
 BLI .F               408:   BOTTOM LOG INTERVAL
 TLI .F                95:   TOP LOG INTERVAL
 CS  .IN            9.625:   CASING SIZE
 CBD .F                95:   CASING BOTTOM DRILLER
 CBL .F                95:   CASING BOTTOM LOGGER
 BS  .IN             8.75:   BIT SIZE
 BSD .F               455:   BIT SIZE AT DEPTH
 DFT .                AIR:   DRILLING FLUID TYPE
 MRT .F               204:   MAXIMUM RECORDED TEMPERATURE
 LUN .            HL 6530:   LOGGING UNIT NUMBER
 LUL .             CASPER:   LOGGING UNIT LOCATION
 ENGI.        VERN RAUTIO:   RECORDING ENGINEER
 WITN.        GARY STRONG:   WITNESSED BY
 CLNT.            A2DTECH:   CLIENT CODE
 ORIG.           5" PRINT:   ORIGIN OF DATA
 UWI .       490252270300:   UNIQUE WELL ID
 DICO. A2D Technologies, Inc.:   DIGITIZING COMPANY
~OTHER INFORMATION
~A    DEPT      GRR      RILD       RILM   
# ...
   91.0000    73.4962  -999.2500  -999.2500
   91.1000    73.4976  -999.2500  -999.2500
   91.2000    73.7118  -999.2500  -999.2500
   91.3000    73.8015  -999.2500  -999.2500
   91.4000    73.8027  -999.2500  -999.2500
   91.5000    73.8039  -999.2500  -999.2500
   91.6000    73.8051  -999.2500  -999.2500
   91.7000    73.8065  -999.2500  -999.2500
   91.8000    73.3691  -999.2500  -999.2500
   91.9000    73.0355  -999.2500  -999.2500
   92.0000    72.4223  -999.2500  -999.2500
   92.1000    71.4854  -999.2500  -999.2500
   92.2000    70.7737  -999.2500  -999.2500
   92.3000    70.4955  -999.2500  -999.2500
   92.4000    69.8208  -999.2500  -999.2500
   92.5000    69.4168  -999.2500  -999.2500
   92.6000    69.1656  -999.2500  -999.2500
   92.7000    68.9144  -999.2500  -999.2500
   92.8000    68.6913  -999.2500  -999.2500
   92.9000    68.6927  -999.2500  -999.2500
   93.0000    68.6938  -999.2500  -999.2500
   93.1000    68.6950  -999.2500  -999.2500
   93.2000    68.8290  -999.2500  -999.2500
   93.3000    69.1660  -999.2500  -999.2500
   93.4000    69.7403  -999.2500  -999.2500
   93.5000    70.8115  -999.2500  -999.2500
   93.6000    72.4738  -999.2500  -999.2500
   93.7000    74.6177  -999.2500  -999.2500
   93.8000    77.0292  -999.2500  -999.2500
   93.9000    79.6439  -999.2500  -999.2500
   94.0000    82.5018  -999.2500  -999.2500
   94.1000    85.9017  -999.2500  -999.2500
   94.2000    87.8496  -999.2500  -999.2500
   94.3000    90.0640  -999.2500  -999.2500
   94.4000    92.1919  -999.2500  -999.2500
   94.5000    94.2122  -999.2500  -999.2500
   94.6000    96.2325  -999.2500  -999.2500
   94.7000    98.2769  -999.2500  -999.2500
   94.8000   100.2731  -999.2500  -999.2500
   94.9000   102.4935  -999.2500  -999.2500
   95.0000   104.6154 10006.3535  9925.0928
   95.1000   106.6357 10006.6309  9925.3682
   95.2000   108.6037 10006.9092  9925.6445
   95.3000   110.3747 10007.1875  9925.9189
   95.4000   112.7652  8401.3340  9926.2373
   95.5000   113.1785  2075.6411   236.8839
   95.6000   113.8413  1999.8888   112.8686
   95.7000   114.5997  1239.7795    57.1426
   95.8000   115.1831   176.0348    17.7460
   95.9000   115.1843    12.3050     3.5679
   96.0000   115.1857     4.8100     3.0631
   96.1000   114.7624     3.0890     2.7350
   96.2000   114.4217     2.4945     2.7351
   96.3000   114.2842     2.2849     2.7352
   96.4000   114.2854     2.1284     2.7487
   96.5000   114.3017     2.0158     2.7868
   96.6000   114.5896     2.0051     2.8615
   96.7000   114.5907     2.0332     2.9647
   96.8000   114.5919     2.1006     3.0789
   96.9000   114.7127     2.1960     3.2540
   97.0000   114.8959     2.3264     3.4640
   97.1000   114.9182     2.5382     3.7503
   97.2000   115.2001     2.8547     4.0590
   97.3000   115.2012     3.2092     4.3944
   97.4000   115.5523     3.6700     4.7414
   97.5000   116.0583     4.0928     5.0286
   97.6000   116.5643     4.6762     5.3645
   97.7000   117.0703     5.3225     5.6608
   97.8000   117.6206     5.9970     6.0326
   97.9000   117.8520     6.7262     6.4161
   98.0000   118.1056     7.6648     6.8703
   98.1000   118.3592     9.1822     7.4791
   98.2000   118.6952    10.0736     8.2101
   98.3000   119.2012    11.2743     8.9675
   98.4000   119.7394    12.3263     9.4335
   98.5000   119.9769    13.2465     9.9678
   98.6000   120.2305    14.3699    10.6752
   98.7000   120.3463    14.8307    11.5460
   98.8000   120.3475    14.5888    12.3787
   98.9000   120.3487    14.0826    13.2296
   99.0000   120.3500    13.1612    13.4600
   99.1000   120.3511    12.1249    13.0747
   99.2000   120.3523    11.3504    12.4128
   99.3000   120.2098    10.8120    11.6425
   99.4000   120.0531     9.9839    10.8768
   99.5000   120.0543     9.6798    10.2510
   99.6000   120.0555     9.3054     9.6155
   99.7000   119.8083     8.8749     8.9200
   99.8000   119.7563     8.2692     8.2498
   99.9000   119.7575     7.4872     7.6901
  100.0000   119.7587     7.0557     7.3197
  100.1000   120.3620     6.8626     7.1578
  100.2000   120.3620     6.7635     7.0322
  100.3000   120.3620     6.6449     6.8924
  100.4000   120.3620     6.5283     6.8226
  100.5000   120.3620     6.4137     6.7701
  100.6000   120.3620     6.3011     6.7509
  100.7000   120.3620     6.1846     6.7646
  100.8000   120.3620     6.1160     6.8181
  100.9000   120.1605     6.0171     6.9415
  101.0000   120.0603     5.9116     7.1372
  101.1000   120.0603     5.8078     7.2761
  101.2000   119.9928     5.7059     7.4503
  101.3000   119.7128     5.6079     7.6497
  101.4000   119.1554     5.5352     7.9063
  101.5000   118.9201     5.5353     8.2226
  101.6000   118.4724     5.5590     8.4322
  101.7000   117.9584     5.6283     8.4791
  101.8000   117.5457     5.7418     8.4914
  101.9000   117.3454     5.8928     8.3763
  102.0000   117.3816     6.1043     8.1810
  102.1000   118.2504     6.3173     7.9688
  102.2000   118.6992     6.5096     7.6812
  102.3000   119.2133     6.7449     7.1895
  102.4000   119.7273     6.9679     6.9699
  102.5000   120.0603     7.1768     6.7554
  102.6000   120.1062     7.3856     6.5591
  102.7000   120.3632     7.5689     6.4211
  102.8000   120.6637     7.8328     6.3768
  102.9000   120.6637     8.1162     6.3023
  103.0000   120.6637     8.4096     6.3025
  103.1000   120.6637     8.6675     6.3026
  103.2000   120.6637     8.8609     6.3271
  103.3000   120.6287     9.0103     6.3648
  103.4000   120.3620     9.0688     6.3912
  103.5000   120.1146     9.1671     6.3962
  103.6000   119.6549     9.2764     6.4361
  103.7000   119.2989     9.3251     6.4363
  103.8000   119.0419     9.2422     6.4660
  103.9000   118.6474     9.0155     6.5045
  104.0000   117.9246     8.7543     6.5432
  104.1000   117.6471     8.5209     6.5724
  104.2000   116.9376     8.3511     6.5754
  104.3000   116.1665     8.1889     6.6186
  104.4000   115.5427     8.0453     6.6188
  104.5000   115.0287     7.9193     6.6472
  104.6000   114.5726     7.8264     6.6652
  104.7000   114.3155     7.7326     6.6654
  104.8000   114.0272     7.6262     6.6656
  104.9000   114.0272     7.5545     6.6658
  105.0000   114.0272     7.4936     6.6660
  105.1000   114.0272     7.4496     6.6662
  105.2000   114.0272     7.4059     6.6663
  105.3000   114.0272     7.3668     6.6665
  105.4000   114.0296     7.3670     6.6667
  105.5000   114.3288     7.4076     6.6669
  105.6000   114.5436     7.4517     6.6671
  105.7000   114.9708     7.4707     6.7054
  105.8000   115.2338     7.4886     6.7139
  105.9000   115.3146     7.5331     6.7385
  106.0000   115.5716     7.5801     6.7610
  106.1000   115.8371     7.6821     6.7612
  106.2000   116.0857     7.7219     6.7614
  106.3000   116.3427     7.7679     6.7616
  106.4000   116.4404     7.8142     6.7618
  106.5000   116.5550     7.8607     6.7915
  106.6000   116.7421     7.8996     6.8093
  106.7000   116.7928     7.8998     6.8094
  106.8000   117.3454     7.9551     6.8096
  106.9000   117.5831     7.9553     6.8112
  107.0000   117.8401     7.9858     6.8575
  107.1000   117.9487     8.0112     6.8576
  107.2000   118.0525     8.0114     6.8856
  107.3000   118.3095     8.0171     6.9058
  107.4000   118.5665     8.0677     6.9196
  107.5000   118.8537     8.0679     6.9543
  107.6000   118.8537     8.1047     6.9545
  107.7000   118.6715     8.1246     7.0031
  107.8000   118.2769     8.1248     7.0033
  107.9000   117.6700     8.1251     7.0035
  108.0000   116.9472     8.1283     7.0225
  108.1000   116.4332     8.1822     7.0526
  108.2000   115.8371     8.1824     7.0572
  108.3000   115.4051     8.1826     7.1022
  108.4000   114.7198     8.2088     7.1414
  108.5000   114.3288     8.2401     7.1520
  108.6000   114.3288     8.2494     7.1522
  108.7000   114.3288     8.2980     7.1694
  108.8000   114.3288     8.2983     7.2024
  108.9000   114.5786     8.2984     7.2048
  109.0000   114.8356     8.3311     7.2530
  109.1000   115.2531     8.3568     7.2532
