~VERSION INFORMATION
 VERS.                2.0:   CWLS LOG ASCII STANDARD - VERSION 2.0
 WRAP.                 NO:   ONE LINE PER DEPTH STEP
~WELL INFORMATION
#MNEM.UNIT      DATA TYPE    INFORMATION
#----------   ------------   ------------------------------
 STRT.F            0.0000:   START DEPTH
 STOP.F          547.0000:   STOP DEPTH
 STEP.F            0.1000:   STEP LENGTH
 NULL.          -999.2500:   NO VALUE
 COMP.     BROWN JOHN E&C:   COMPANY
 WELL.    NPR 3 #86-1-X-3:   WELL
 FLD .             TEAPOT:   FIELD
 LOC .       S3 T38N R78W:   LOCATION
 CNTY.            NATRONA:   COUNTY
 STAT.            WYOMING:   STATE
 CTRY. UNITED STATES OF AMERICA:   COUNTRY
 SRVC.     Atlas Wireline:   SERVICE COMPANY
 DATE.        09-FEB-1992:   LOGDATE
 API .       490252249800:   API NUMBER
~CURVE INFORMATION
#MNEM.UNIT       API CODE    CURVE DESCRIPTION
#----------   ------------   ------------------------------
 DEPT.F                  :   
 GRR .GAPI   07 310 01 00:   GAMMA RAY
 RFOC.OHMM   07 220 04 00:   RESISTIVITY FOCUSED LOG
 RILD.OHMM   07 120 46 00:   INDUCTION LOG DEEP RESISTIVITY
 RILM.OHMM   07 120 44 00:   INDUCTION LOG MEDIUM RESISTIVITY
 SPR .MV     07 010 01 00:   SPONTANEOUS POTENTIAL
~PARAMETER INFORMATION
#MNEM.UNIT          VALUE    DESCRIPTION
#----------   ------------   ------------------------------
 PD  .                 GL:   PERMANENT DATUM
 EPD .F              5145:   ELEVATION PERMANENT DATUM
 LMF .                 KB:   LOG MEASURED FROM
 DAPD.F                10:   FEET ABOVE PERMANENT DATUM
 DMF .                 KB:   DRILLING MEASURED FROM
 EKB .F              5155:   KELLING BUSHING
 EDF .F              5154:   DRILLING FLOOR
 EGL .F              5145:   GROUND LEVEL
 DATE.        09-FEB-1992:   RUN DATE
 RUN .                  1:   RUN NUMBER
 DD  .F               562:   DEPTH DRILLER
 DL  .F               550:   DEPTH LOGGER
 BLI .F               547:   BOTTOM LOG INTERVAL
 CS  .IN            8.625:   CASING SIZE
 CBD .F               183:   CASING BOTTOM DRILLER
 CBL .F               181:   CASING BOTTOM LOGGER
 BS  .IN            7.875:   BIT SIZE
 BSD .F               562:   BIT SIZE AT DEPTH
 DFT .            GEL BAR:   DRILLING FLUID TYPE
 DFD .               17.8:   DRILLING FLUID DENSITY
 DFV .                 52:   DRILLING FLUID VISCOSITY
 DFPH.                  9:   DRILLING FLUID PH
 DFL .                5.2:   DRILLING FLUID LOSS
 MSS .           FLOWLINE:   MUD SAMPLE SOURCE
 RMS .OHMM           1.78:   RESISTIVITY MUD SAMPLE
 MST .F                68:   MUD SAMPLE TEMPERATURE
 RMF .OHMM          1.335:   RESISTIVITY MUD FILTRATE SAMPLE
 MFST.F                68:   MUD FILTRATE SAMPLE TEMPERATURE
 RMC .OHMM          2.225:   RESISTIVITY MUD CAKE
 MCST.F                68:   MUD CAKE SAMPLE TEMPERATURE
 MFSS.               MEAS:   MUD FILTRATE SAMPLE SOURCE
 MCSS.               MEAS:   MUD CAKE SAMPLE SOURCE
 TCS .HRS               3:   TIME CURCULATED STOPPED
 LUN .            HL 6274:   LOGGING UNIT NUMBER
 LUL .             CASPER:   LOGGING UNIT LOCATION
 ENGI.       P. RASMUSSEN:   RECORDING ENGINEER
 WITN.          G. STRONG:   WITNESSED BY
 CLNT.            A2DTECH:   CLIENT CODE
 ORIG.           5" PRINT:   ORIGIN OF DATA
 UWI .       490252249800:   UNIQUE WELL ID
 DICO. A2D Technologies, Inc.:   DIGITIZING COMPANY
~OTHER INFORMATION
~A    DEPT      GRR      RFOC       RILD       RILM        SPR   
# ...
  256.2000    89.6648     7.6167     8.5413     7.2534   -13.0385
  256.3000    89.9198     7.6169     8.5416     7.2536   -12.9179
  256.4000    90.4292     7.5642     8.5418     7.2538   -12.9179
  256.5000    91.1144     7.5643     8.5421     7.2134   -12.9179
  256.6000    91.6231     7.5645     8.5423     7.2037   -12.8338
  256.7000    92.1788     7.5648     8.5425     7.1799   -12.7660
  256.8000    93.3308     7.5650     8.5427     7.1540   -12.7660
  256.9000    94.2407     7.5643     8.5430     7.1464   -12.7660
  257.0000    94.7437     7.5128     8.5432     7.1046   -12.7660
  257.1000    94.9192     7.5130     8.5435     7.1048   -12.7660
  257.2000    94.9204     7.5132     8.4983     7.0719   -12.7660
  257.3000    94.9217     7.4945     8.4844     7.0557   -12.8283
  257.4000    95.1554     7.4613     8.4592     7.0390   -12.9179
  257.5000    95.2280     7.4598     8.4258     7.0070   -12.9179
  257.6000    95.2292     7.4098     8.4201     7.0051   -12.9179
  257.7000    95.2304     7.4100     8.3676     6.9103   -12.9179
  257.8000    95.2316     7.3823     8.3230     6.8769   -13.0081
  257.9000    95.2329     7.3589     8.2400     6.8625   -13.0699
  258.0000    95.4691     7.3481     8.1447     6.8449   -13.0699
  258.1000    95.7240     7.3080     8.0812     6.8051   -13.0699
  258.2000    95.9789     7.3083     8.0753     6.7656   -13.0699
  258.3000    96.1495     7.2718     8.0254     6.7210   -13.1879
  258.4000    96.1848     7.2578     7.9821     6.6873   -13.2219
  258.5000    96.4560     7.2381     7.9021     6.6485   -13.2219
  258.6000    96.6946     7.2077     7.8350     6.6099   -13.2219
  258.7000    96.9495     7.2046     7.7897     6.5715   -13.2406
  258.8000    97.0675     7.1580     7.7383     6.5333   -13.3739
  258.9000    96.9820     7.1214     7.6435     6.4915   -13.3739
  259.0000    96.7658     7.0802     7.6019     6.4576   -13.3739
  259.1000    96.7672     7.0392     7.5253     6.3938   -13.3739
  259.2000    96.5285     7.0103     7.4618     6.3385   -13.4205
  259.3000    96.2760     7.0066     7.4037     6.3016   -13.5258
  259.4000    96.0235     6.9620     7.3243     6.2605   -13.5258
  259.5000    95.7710     6.9257     7.2799     6.1829   -13.5258
  259.6000    95.5186     6.8855     7.1998     6.1160   -13.5258
  259.7000    95.2548     6.8457     7.1165     6.0451   -13.4514
  259.8000    95.0136     6.8060     7.0342     5.9939   -13.3739
  259.9000    94.9532     6.7666     6.9528     5.9469   -13.3490
  260.0000    94.9544     6.7242     6.8786     5.8778   -13.2219
  260.1000    95.0472     6.6884     6.8373     5.8072   -13.0699
  260.2000    95.3021     6.6497     6.7613     5.7747   -12.9676
  260.3000    95.5660     6.6111     6.6831     5.7154   -12.7629
  260.4000    95.8120     6.5728     6.6275     5.6490   -12.5613
  260.5000    96.0669     6.5296     6.5751     5.5834   -12.4341
  260.6000    96.1775     6.4494     6.4990     5.5186   -12.3070
  260.7000    96.2728     6.4143     6.4216     5.4544   -12.1581
  260.8000    96.4839     6.3772     6.3855     5.4166   -12.0527
  260.9000    96.4851     6.3201     6.3201     5.3660   -11.9255
  261.0000    96.4863     6.2469     6.2678     5.3038   -11.8541
  261.1000    96.4875     6.1801     6.2180     5.2422   -11.8541
  261.2000    96.4888     6.1428     6.1460     5.1745   -11.8541
  261.3000    96.4900     6.0746     6.0734     5.0835   -11.8541
  261.4000    96.4912     6.0310     6.0046     4.9474   -11.7457
  261.5000    96.4924     5.9764     5.9083     4.8754   -11.7021
  261.6000    96.4936     5.9072     5.7671     4.7907   -11.7021
  261.7000    96.2954     5.8387     5.5891     4.6952   -11.7021
  261.8000    96.1921     5.7696     5.4024     4.5934   -11.7113
  261.9000    96.1933     5.7043     5.2453     4.5084   -11.8541
  262.0000    96.1458     5.6383     4.9528     4.3334   -11.8541
  262.1000    95.8918     5.5730     4.7157     4.2035   -11.7675
  262.2000    95.3888     5.5085     4.5162     4.0907   -11.7021
  262.3000    95.0845     5.4446     4.3355     3.9961   -11.7021
  262.4000    94.6805     5.3813     4.1617     3.9103   -11.7021
  262.5000    94.2756     5.2699     3.9947     3.8401   -11.7021
  262.6000    94.0231     5.2211     3.8041     3.7430   -11.5876
  262.7000    93.7706     5.1427     3.7340     3.6456   -11.5502
  262.8000    93.4689     5.0535     3.6481     3.5407   -11.5502
  262.9000    93.0614     4.9538     3.5557     3.4387   -11.5502
  263.0000    92.7092     4.8119     3.4454     3.3458   -11.5502
  263.1000    92.3530     4.7136     3.3073     3.2683   -11.5502
  263.2000    91.7932     4.6248     3.1726     3.1882   -11.5502
  263.3000    91.0368     4.5345     3.0989     3.1021   -11.5502
  263.4000    90.4367     4.4450     2.9786     2.9743   -11.5502
  263.5000    90.2310     4.3424     2.8697     2.8655   -11.5071
  263.6000    90.1349     4.2437     2.8000     2.7886   -11.3982
  263.7000    90.2424     4.1867     2.7197     2.7215   -11.3982
  263.8000    90.4413     4.1059     2.6460     2.6408   -11.3982
  263.9000    90.4482     4.0263     2.5960     2.4957   -11.3025
  264.0000    90.7479     3.9667     2.5454     2.3754   -11.2462
  264.1000    91.3764     3.8929     2.5013     2.2898   -11.2001
  264.2000    91.9798     3.7388     2.4580     2.2339   -11.0729
  264.3000    92.3797     3.6163     2.4161     2.1925   -10.9422
  264.4000    92.6930     3.5449     2.3998     2.1419   -10.9422
  264.5000    93.1935     3.4240     2.3882     2.1124   -10.9422
  264.6000    93.4908     3.3133     2.3657     2.0925   -10.8683
  264.7000    93.4918     3.2368     2.3502     2.0757   -10.7903
  264.8000    93.4930     3.1594     2.3470     2.0636   -10.7903
  264.9000    93.4942     3.0375     2.3339     2.0544   -10.7903
  265.0000    93.4954     2.7608     2.3340     2.0540   -10.7903
  265.1000    93.4755     2.6393     2.3341     2.0403   -10.7903
  265.2000    92.8902     2.6536     2.3341     2.0403   -10.7903
  265.3000    92.4632     2.7070     2.3342     2.0482   -10.7903
  265.4000    91.6296     2.7403     2.3376     2.0547   -10.7629
  265.5000    90.7296     2.7938     2.3507     2.0580   -10.6383
  265.6000    89.8431     2.8382     2.3508     2.0701   -10.6383
  265.7000    88.5888     2.8648     2.3625     2.0838   -10.7432
  265.8000    87.4263     2.8902     2.3855     2.1164   -10.7903
  265.9000    86.1289     2.9242     2.4071     2.1627   -10.7903
  266.0000    84.7741     2.9567     2.4249     2.2271   -10.8207
  266.1000    83.3910     2.9756     2.4518     2.2983   -10.9422
  266.2000    81.7387     3.0077     2.4518     2.3497   -10.9422
  266.3000    79.7871     3.0560     2.4519     2.3798   -11.0501
  266.4000    78.9230     3.1197     2.4520     2.4185   -11.0942
  266.5000    79.1429     3.2060     2.4520     2.4719   -11.1525
  266.6000    79.3978     3.3148     2.4616     2.5305   -11.2462
  266.7000    79.6527     3.3983     2.4694     2.5905   -11.2548
  266.8000    79.9076     3.5314     2.4772     2.6496   -11.3982
  266.9000    80.1803     3.6630     2.5063     2.6990   -11.5091
  267.0000    80.7540     3.7937     2.5396     2.7752   -11.6363
  267.1000    81.4188     3.9127     2.5921     2.8578   -11.7634
  267.2000    82.1812     4.0308     2.6534     2.9427   -11.8541
  267.3000    82.8227     4.3096     2.7161     3.0368   -11.8657
  267.4000    83.4017     4.4568     2.7848     3.1452   -12.0061
  267.5000    84.1642     4.6161     2.8657     3.2596   -12.1201
  267.6000    85.0166     4.7808     2.9415     3.3355   -12.2472
  267.7000    85.9124     4.9512     3.0030     3.5119   -12.3744
  267.8000    86.7550     5.1222     3.0864     3.6453   -12.5015
  267.9000    87.3941     5.2779     3.1871     3.7316   -12.6140
  268.0000    88.2673     5.3996     3.3237     3.8247   -12.6140
  268.1000    90.0218     5.4772     3.5166     3.9381   -12.6140
  268.2000    91.7108     5.5607     3.6793     4.0765   -12.6140
  268.3000    91.7119     5.6720     3.8368     4.1560   -12.6814
