~VERSION INFORMATION
 VERS.                2.0:   CWLS LOG ASCII STANDARD - VERSION 2.0
 WRAP.                 NO:   ONE LINE PER DEPTH STEP
~WELL INFORMATION
#MNEM.UNIT      DATA TYPE    INFORMATION
#----------   ------------   ------------------------------
 STRT.F           30.0000:   START DEPTH
 STOP.F          510.0000:   STOP DEPTH
 STEP.F            0.5000:   STEP LENGTH
 NULL.          -999.2500:   NO VALUE
 COMP. FENIX & SCISSON INC:   COMPANY
 WELL.    66-SX 3FP #54-3:   WELL
 FLD .             TEAPOT:   FIELD
 LOC .       S3 T38N R78W:   LOCATION
 CNTY.            NATRONA:   COUNTY
 STAT.            WYOMING:   STATE
 CTRY. UNITED STATES OF AMERICA:   COUNTRY
 SRVC.              Welex:   SERVICE COMPANY
 DATE.        25-JUN-1980:   LOGDATE
 API .       490251081400:   API NUMBER
~CURVE INFORMATION
#MNEM.UNIT       API CODE    CURVE DESCRIPTION
#----------   ------------   ------------------------------
 DEPT.F                  :   
 SGRD.OHMM   07 220 05 00:   SHALLOW GUARD RESISTIVITY
 ILD .OHMM   07 120 46 00:   INDUCTION LOG DEEP RESISTIVITY
 ILM .OHMM   07 120 44 00:   INDUCTION LOG MEDIUM
 CALD.IN     45 280 60 00:   CALIPER
 GRD .GAPI   45 310 01 00:   GAMMA RAY FROM DENSITY LOG
 CORR.G/C3   45 356 01 00:   DENSITY CORRECTION
 NPHI.DEC    42 890 03 00:   NEUTRON POROSITY SANDSTONE
 DPHI.DEC    45 890 12 00:   DENSITY POROSITY SANDSTONE
 SPR .MV     07 010 01 00:   SPONTANEOUS POTENTIAL
 RHOB.G/C3   45 350 01 00:   BULK DENSITY
~PARAMETER INFORMATION
#MNEM.UNIT          VALUE    DESCRIPTION
#----------   ------------   ------------------------------
 PD  .                 GL:   PERMANENT DATUM
 EPD .F              5158:   ELEVATION PERMANENT DATUM
 LMF .                 KB:   LOG MEASURED FROM
 DAPD.F                 5:   FEET ABOVE PERMANENT DATUM
 DMF .                 KB:   DRILLING MEASURED FROM
 EKB .F              5163:   KELLING BUSHING
 EGL .F              5158:   GROUND LEVEL
 DATE.            6-25-80:   RUN DATE
 RUN .                  1:   RUN NUMBER
 DD  .F               516:   DEPTH DRILLER
 DL  .F               512:   DEPTH LOGGER
 BLI .F               510:   BOTTOM LOG INTERVAL
 TLI .F                30:   TOP LOG INTERVAL
 BS  .IN            9.875:   BIT SIZE
 BSD .F               516:   BIT SIZE AT DEPTH
 DFT .            KCL MUD:   DRILLING FLUID TYPE
 DFD .                9.2:   DRILLING FLUID DENSITY
 DFV .                 52:   DRILLING FLUID VISCOSITY
 DFPH.                 12:   DRILLING FLUID PH
 DFL .                  6:   DRILLING FLUID LOSS
 MSS .           FLOWLINE:   MUD SAMPLE SOURCE
 RMB .OHMM            .35:   RESISTIVITY MUD AT BHT
 BHT .F                75:   BOTTOM HOLE TEMPERATURE
 TCS .HRS               1:   TIME CURCULATED STOPPED
 MRT .F                75:   MAXIMUM RECORDED TEMPERATURE
 LUN .               1892:   LOGGING UNIT NUMBER
 LUL .             CASPER:   LOGGING UNIT LOCATION
 ENGI.            TOTHILL:   RECORDING ENGINEER
 WITN.              AMEND:   WITNESSED BY
 CLNT.            A2DTECH:   CLIENT CODE
 ORIG.           5" PRINT:   ORIGIN OF DATA
 UWI .       490251081400:   UNIQUE WELL ID
 DICO. A2D Technologies, Inc.:   DIGITIZING COMPANY
~OTHER INFORMATION
~A   DEPT       SGRD        ILD        ILM     CALD        GRD       CORR       NPHI       DPHI        SPR       RHOB   
# ...
  365.0000    10.9499     8.9346     9.2602    10.0640    86.1040     0.0591     0.2537     0.1327   -44.2349     2.4546
  365.5000    10.8602     8.8973     9.1964    10.0645    86.8115     0.0655     0.2498     0.1300   -44.1080     2.4599
  366.0000    10.7713     8.8662     9.1331    10.0650    82.0936     0.0712     0.2448     0.1247   -44.1057     2.4755
  366.5000    10.6831     8.9858     9.0702    10.0654    81.5007     0.0767     0.2398     0.1170   -44.1053     2.4882
  367.0000    10.5581     9.0898     8.9395    10.0659    86.2454     0.0735     0.2386     0.1226   -44.1023     2.4787
  367.5000    10.6097     9.1951     8.6959    10.0663    86.1461     0.0643     0.2370     0.1249   -44.2434     2.4666
  368.0000    10.7008     9.3019     8.4923    10.0668    87.6758     0.0585     0.2344     0.1290   -44.4076     2.4663
  368.5000    10.7930     9.4550     8.3457    10.0672    89.7845     0.0666     0.2312     0.1281   -44.5728     2.4702
  369.0000    10.8859     9.4434     8.2034    10.0674    91.9744     0.0752     0.2304     0.1270   -44.7383     2.4728
  369.5000    10.9796     9.4203     8.0710    10.0730    93.4127     0.0752     0.2310     0.1345   -44.8842     2.4641
  370.0000    11.0740     9.3981     7.9786    10.0792    94.6825     0.0511     0.2301     0.1414   -44.7770     2.4470
  370.5000    11.1695     9.3759     7.8873    10.0854    95.1723     0.0522     0.2275     0.1378   -44.7015     2.4368
  371.0000    11.2663     9.3538     7.8676    10.0916    93.2368     0.0634     0.2277     0.1333   -44.8688     2.4493
  371.5000    11.3632     9.3317     8.2857    10.0978    89.7427     0.0747     0.2294     0.1290   -45.0372     2.4620
  372.0000    11.2487     9.3097     8.6562    10.1043    86.2700     0.0862     0.2311     0.1220   -45.0457     2.4746
  372.5000    11.1314     9.2878     9.0434    10.1057    82.8174     0.0903     0.2318     0.1170   -44.9856     2.4839
  373.0000    11.0163     9.1490     9.3689    10.1017    80.1558     0.0870     0.2283     0.1233   -44.9227     2.4728
  373.5000    10.9023     8.9820     9.3689    10.0899    80.9487     0.0797     0.2287     0.1337   -44.8322     2.4612
  374.0000    10.7895     8.8181     9.3689    10.0780    83.9555     0.0592     0.2338     0.1430   -44.7094     2.4426
  374.5000    10.6779     8.6571     9.2732    10.0669    86.4061     0.0582     0.2389     0.1398   -44.5844     2.4410
  375.0000    10.6393     8.5597     9.1544    10.0480    86.3836     0.0596     0.2430     0.1360   -44.3966     2.4476
  375.5000    10.6121     8.4785     9.0371    10.0294    85.9327     0.0672     0.2438     0.1334   -43.9916     2.4544
  376.0000    10.5848     8.3981     8.9202    10.0363    84.1157     0.0640     0.2415     0.1312   -43.7077     2.4611
  376.5000    10.5580     8.3184     8.8101    10.0441    82.2590     0.0645     0.2386     0.1288   -43.7139     2.4679
  377.0000    10.5581     8.2395     8.7010    10.0521    81.9087     0.0742     0.2386     0.1170   -43.7127     2.4746
  377.5000    10.5902     8.1622     8.7047    10.0601    82.7367     0.0697     0.2386     0.1253   -43.8093     2.4795
  378.0000    10.6215     8.1082     8.7047    10.0671    84.3225     0.0574     0.2454     0.1353   -43.9943     2.4632
  378.5000    10.6569     8.0550     8.7047    10.0647    85.8743     0.0450     0.2518     0.1444   -44.1764     2.4420
  379.0000    11.1278     8.0017     8.7047    10.0622    87.4096     0.0326     0.2510     0.1454   -44.2659     2.4354
  379.5000    11.5893     7.9380     8.7992    10.0598    88.4026     0.0256     0.2488     0.1378   -44.1413     2.4412
  380.0000    12.0699     7.9375     9.0302    10.0573    86.6105     0.0435     0.2448     0.1354   -43.7613     2.4595
  380.5000    12.6911     8.3653     9.2671    10.0549    84.8861     0.0709     0.2386     0.1329   -43.2950     2.4651
  381.0000    13.7994     8.7308     9.5381    10.0525    84.0986     0.0771     0.2371     0.1333   -42.8257     2.4598
  381.5000    14.9721     9.2668     9.9171    10.0500    83.6455     0.0832     0.2345     0.1438   -42.3515     2.4546
  382.0000    16.6645    10.0621    10.3112    10.0476    82.6757     0.0832     0.2295     0.1527   -42.0233     2.4368
  382.5000    18.4980    10.9256    10.5581    10.0451    81.5946     0.0818     0.2266     0.1641   -41.6964     2.4163
  383.0000    20.4649    11.8632    10.5003    10.0427    80.5134     0.0805     0.2274     0.1750   -41.3577     2.3998
  383.5000    21.6316    12.8813    10.4607    10.0402    79.4249     0.0848     0.2310     0.1778   -40.8599     2.3892
  384.0000    22.8256    13.9868    11.3535    10.0378    78.7608     0.0943     0.2389     0.1815   -40.3453     2.3778
  384.5000    23.5424    15.1872    12.2981    10.0354    78.3467     0.0928     0.2438     0.1860   -39.8305     2.3673
  385.0000    23.9678    16.0328    13.3168    10.0329    78.2396     0.0884     0.2404     0.1876   -39.3157     2.3675
  385.5000    24.4009    16.8340    14.4194    10.0305    78.1199     0.0914     0.2368     0.1872   -38.7370     2.3725
  386.0000    24.8223    17.6751    15.0948    10.0281    77.5936     0.0966     0.2334     0.1867   -38.0497     2.3773
  386.5000    24.9361    18.4968    15.3754    10.0256    77.0565     0.0959     0.2324     0.1981   -37.3634     2.3695
  387.0000    25.0716    18.1962    15.6762    10.0232    76.7677     0.0859     0.2358     0.1989   -36.6761     2.3592
  387.5000    25.2078    17.9583    14.7264    10.0207    76.6897     0.0762     0.2393     0.2009   -35.9815     2.3489
  388.0000    25.2829    17.7236    13.2857    10.0183    77.0037     0.0667     0.2428     0.2030   -35.6965     2.3379
  388.5000    24.5289    17.5043    13.4869    10.0159    76.8229     0.0662     0.2458     0.1962   -35.4971     2.3493
  389.0000    23.8329    17.1465    13.8011    10.0134    75.9000     0.0767     0.2487     0.1887   -35.2944     2.3643
  389.5000    23.1640    16.8139    14.1225    10.0110    75.0030     0.0869     0.2516     0.1811   -35.4254     2.3796
  390.0000    22.8413    16.4875    14.4316    10.0078    74.6098     0.0972     0.2548     0.1707   -35.6237     2.3905
  390.5000    22.8465    16.1676    14.1066    10.0039    75.3936     0.1071     0.2590     0.1586   -35.8324     2.4125
  391.0000    22.8517    15.8538    13.8066     9.9999    76.1398     0.1120     0.2585     0.1582   -35.4936     2.4235
  391.5000    22.8545    15.5462    13.5322     9.9959    75.4134     0.1172     0.2552     0.1609   -35.0555     2.4223
  392.0000    22.8571    15.2445    13.6864     9.9920    74.7848     0.1119     0.2519     0.1658   -34.6171     2.4141
  392.5000    22.3972    14.9487    13.8326     9.9899    74.6452     0.1041     0.2506     0.1674   -34.2751     2.4060
  393.0000    21.8899    14.6517    13.9106     9.9892    74.6421     0.1066     0.2507     0.1674   -34.2822     2.4032
  393.5000    21.3910    14.4377    13.2418     9.9884    74.6510     0.1117     0.2515     0.1633   -34.2832     2.4078
  394.0000    20.9015    14.5873    12.8057     9.9876    74.7823     0.1164     0.2524     0.1628   -34.2827     2.4143
  394.5000    20.5661    14.6969    12.3839     9.9868    74.8200     0.1103     0.2534     0.1622   -34.2466     2.4151
  395.0000    20.2528    14.8056    12.0081     9.9861    74.0313     0.1025     0.2534     0.1614   -34.0777     2.4114
  395.5000    20.0934    14.9151    11.9795     9.9853    73.2456     0.1033     0.2534     0.1602   -33.9208     2.4086
  396.0000    20.2308    14.9721    11.9468     9.9845    74.6698     0.1061     0.2534     0.1568   -33.5656     2.4146
  396.5000    20.4416    14.7689    11.9152     9.9838    76.3414     0.1087     0.2526     0.1506   -33.1901     2.4290
  397.0000    20.4649    14.6335    11.8711     9.9830    77.5524     0.1066     0.2504     0.1494   -32.8136     2.4339
  397.5000    20.4625    14.4971    11.8170     9.9822    77.5099     0.0995     0.2477     0.1523   -32.4333     2.4269
  398.0000    20.4600    14.4328    11.7627     9.9815    76.4657     0.0924     0.2450     0.1559   -32.3195     2.4199
