~VERSION INFORMATION
 VERS.                2.0:   CWLS LOG ASCII STANDARD - VERSION 2.0
 WRAP.                 NO:   ONE LINE PER DEPTH STEP
~WELL INFORMATION
#MNEM.UNIT      DATA TYPE    INFORMATION
#----------   ------------   ------------------------------
 STRT.F            8.0000:   START DEPTH
 STOP.F          970.0000:   STOP DEPTH
 STEP.F            0.1000:   STEP LENGTH
 NULL.          -999.2500:   NO VALUE
 COMP.       F D SERV INC:   COMPANY
 WELL. N P R 3 STX-35 #15-35:   WELL
 FLD .             TEAPOT:   FIELD
 LOC .      S35 T39N R78W:   LOCATION
 CNTY.            NATRONA:   COUNTY
 STAT.            WYOMING:   STATE
 CTRY. UNITED STATES OF AMERICA:   COUNTRY
 SRVC.     Atlas Wireline:   SERVICE COMPANY
 DATE.        02-FEB-1992:   LOGDATE
 API .       490252250100:   API NUMBER
~CURVE INFORMATION
#MNEM.UNIT       API CODE    CURVE DESCRIPTION
#----------   ------------   ------------------------------
 DEPT.F                  :   
 GRR .GAPI   07 310 01 00:   GAMMA RAY
 RILD.OHMM   07 120 46 00:   INDUCTION LOG DEEP RESISTIVITY
 RILM.OHMM   07 120 44 00:   INDUCTION LOG MEDIUM RESISTIVITY
~PARAMETER INFORMATION
#MNEM.UNIT          VALUE    DESCRIPTION
#----------   ------------   ------------------------------
 PD  .                 GL:   PERMANENT DATUM
 EPD .F              5084:   ELEVATION PERMANENT DATUM
 LMF .                 KB:   LOG MEASURED FROM
 DAPD.F                10:   FEET ABOVE PERMANENT DATUM
 DMF .                 KB:   DRILLING MEASURED FROM
 EKB .F              5094:   KELLING BUSHING
 EDF .F              5093:   DRILLING FLOOR
 EGL .F              5084:   GROUND LEVEL
 DATE.        02-FEB-1982:   RUN DATE
 RUN .                  1:   RUN NUMBER
 DD  .F               980:   DEPTH DRILLER
 CS  .IN            8.625:   CASING SIZE
 BSD .F               980:   BIT SIZE AT DEPTH
 DFT .                AIR:   DRILLING FLUID TYPE
 LUN .            HL-6272:   LOGGING UNIT NUMBER
 LUL .             CASPER:   LOGGING UNIT LOCATION
 ENGI.       R. RASMLSSEN:   RECORDING ENGINEER
 WITN.          G. STRONG:   WITNESSED BY
 CLNT.            A2DTECH:   CLIENT CODE
 ORIG.           5" PRINT:   ORIGIN OF DATA
 UWI .       490252250100:   UNIQUE WELL ID
 DICO. A2D Technologies, Inc.:   DIGITIZING COMPANY
~OTHER INFORMATION
~A    DEPT      GRR      RILD       RILM   
# ...
  444.8000   135.8085     8.2266     8.0615
  444.9000   135.8133     8.2399     8.0953
  445.0000   135.8182     8.2837     8.0957
  445.1000   135.8239     8.2836     8.0963
  445.2000   135.8279     8.2835     8.0967
  445.3000   135.8327     8.3158     8.0971
  445.4000   135.8376     8.3410     8.0976
  445.5000   135.7929     8.3541     8.0980
  445.6000   135.5443     8.3989     8.0952
  445.7000   135.5491     8.3988     8.0430
  445.8000   135.1653     8.3987     8.0434
  445.9000   134.6695     8.3985     8.0438
  446.0000   134.0851     8.3984     8.0228
  446.1000   133.3391     8.3856     7.9891
  446.2000   132.5434     8.3372     7.9896
  446.3000   132.0805     8.2822     7.9901
  446.4000   131.5846     8.2821     7.9905
  446.5000   131.0887     8.2507     7.9607
  446.6000   130.5931     8.2246     7.9361
  446.7000   130.0974     8.2125     7.9251
  446.8000   129.5424     8.1650     7.8798
  446.9000   129.3263     8.1107     7.8282
  447.0000   128.9132     8.1106     7.8286
  447.1000   128.5324     8.0803     7.7998
  447.2000   128.2868     8.0336     7.7753
  447.3000   128.0507     7.9984     7.7648
  447.4000   128.0566     7.9964     7.7206
  447.5000   128.0606     7.9428     7.6695
  447.6000   128.2199     7.9427     7.6328
  447.7000   128.3733     7.9134     7.5893
  447.8000   128.4270     7.8677     7.5651
  447.9000   128.6861     7.8328     7.5553
  448.0000   129.1838     7.8327     7.5122
  448.1000   129.4955     7.8326     7.4622
  448.2000   129.7507     7.7950     7.4269
  448.3000   130.0059     7.7781     7.3846
  448.4000   130.2610     7.7781     7.3606
  448.5000   130.5337     7.7780     7.3610
  448.6000   130.5382     7.7778     7.3603
  448.7000   130.7234     7.7777     7.3110
  448.8000   130.8509     7.7776     7.3113
  448.9000   130.9307     7.7775     7.3117
  449.0000   131.1636     7.7774     7.3121
  449.1000   131.1691     7.7773     7.3125
  449.2000   131.1733     7.7772     7.3129
  449.3000   131.3454     7.7770     7.3134
  449.4000   131.4861     7.7769     7.3481
  449.5000   131.5525     7.7768     7.3651
  449.6000   131.7988     7.7768     7.3655
  449.7000   131.8045     7.7767     7.3659
  449.8000   132.0150     7.7765     7.3664
  449.9000   132.2701     7.7764     7.4180
  450.0000   132.6619     7.7993     7.4349
  450.1000   133.2562     7.8278     7.4560
  450.2000   133.8505     7.8564     7.4770
  450.3000   134.4448     7.8850     7.4981
  450.4000   135.0391     7.9135     7.5192
  450.5000   135.6334     7.9421     7.5403
  450.6000   136.2278     7.9706     7.5614
  450.7000   136.8605     7.9992     7.5780
  450.8000   137.6242     8.0277     7.5785
  450.9000   138.5126     8.0563     7.5791
  451.0000   139.3636     8.0849     7.6158
  451.1000   140.3806     8.1060     7.6606
  451.2000   141.3979     8.1059     7.7056
  451.3000   142.4152     8.1058     7.7405
  451.4000   143.4041     8.1057     7.7426
  451.5000   143.9853     8.1055     7.7956
  451.6000   144.6423     8.1055     7.7960
  451.7000   145.0686     8.1054     7.7966
  451.8000   145.2061     8.1052     7.8172
  451.9000   145.2091     8.1051     7.8631
  452.0000   145.1919     8.1479     7.9093
  452.1000   144.9125     8.1614     7.9628
  452.2000   144.6910     8.1613     7.9632
  452.3000   144.0910     8.1611     7.9638
  452.4000   143.5838     8.1610     7.9644
  452.5000   143.1816     8.1609     7.9649
  452.6000   142.4503     8.1608     7.9654
  452.7000   141.9003     8.1607     7.9661
  452.8000   141.4426     8.1606     7.9665
  452.9000   140.7577     8.1605     7.9671
  453.0000   140.1312     8.1604     7.9677
  453.1000   139.6272     8.1602     7.9557
  453.2000   139.1557     8.1601     7.9103
  453.3000   138.8881     8.1972     7.8596
  453.4000   139.3636     8.2168     7.8202
  453.5000   139.8738     8.2167     7.7755
  453.6000   140.3839     8.2166     7.7312
  453.7000   140.8939     8.2164     7.6743
  453.8000   141.3655     8.2163     7.5943
  453.9000   141.6335     8.2162     7.5949
  454.0000   141.8788     8.2161     7.5561
  454.1000   141.7494     8.2160     7.5433
  454.2000   141.4989     8.2159     7.5439
  454.3000   141.2484     8.2157     7.5445
  454.4000   140.9537     8.2156     7.5450
  454.5000   140.4395     8.2155     7.5455
  454.6000   140.1939     8.2154     7.5460
  454.7000   139.9433     8.2374     7.5466
  454.8000   139.5432     8.2725     7.5471
  454.9000   139.1393     8.2723     7.5476
  455.0000   138.8889     8.2722     7.5481
  455.1000   138.6384     8.2721     7.5487
  455.2000   138.3400     8.2720     7.5492
  455.3000   138.1375     8.2719     7.5497
  455.4000   137.8870     8.2717     7.5502
  455.5000   137.6364     8.2716     7.5507
  455.6000   137.2727     8.2715     7.5513
  455.7000   136.5293     8.2714     7.5518
  455.8000   136.2369     8.2713     7.5523
  455.9000   136.2394     8.2458     7.5528
  456.0000   136.2424     8.2138     7.5533
  456.1000   136.3576     8.2137     7.5539
  456.2000   136.8021     8.2136     7.5609
  456.3000   137.7930     8.2134     7.6075
  456.4000   138.3762     8.2133     7.6080
  456.5000   138.3788     8.2133     7.6085
  456.6000   138.3818     8.2131     7.6091
  456.7000   138.3848     8.2130     7.6096
  456.8000   138.3879     8.2129     7.6101
  456.9000   138.3909     8.2128     7.6107
  457.0000   138.3943     8.2127     7.6112
  457.1000   138.1738     8.2126     7.6117
  457.2000   138.0970     8.2124     7.6122
  457.3000   137.9758     8.2123     7.6128
  457.4000   137.6504     8.2122     7.6133
  457.5000   137.1463     8.2121     7.6138
  457.6000   136.5942     8.2120     7.6144
  457.7000   136.5970     8.2118     7.6149
  457.8000   136.6000     8.2118     7.6154
  457.9000   136.6030     8.2117     7.6159
  458.0000   136.6870     8.2115     7.6165
  458.1000   137.0065     8.2114     7.6170
  458.2000   137.8245     8.2113     7.6175
  458.3000   138.7686     8.2112     7.6181
  458.4000   139.6001     8.2111     7.6186
  458.5000   140.2274     8.2110     7.6191
  458.6000   140.6506     8.2108     7.6196
  458.7000   140.8697     8.2107     7.6201
  458.8000   140.8729     8.2106     7.6208
  458.9000   140.8758     8.2105     7.6212
  459.0000   140.8788     8.1865     7.6217
  459.1000   140.7394     8.1534     7.6222
  459.2000   140.5818     8.1533     7.6228
  459.3000   140.5848     8.1532     7.6233
  459.4000   140.5880     8.1531     7.6239
  459.5000   140.3434     8.1530     7.6244
  459.6000   139.8948     8.1529     7.6249
  459.7000   139.5394     8.1528     7.6254
  459.8000   139.1900     8.1527     7.6259
  459.9000   138.6860     8.1525     7.6265
  460.0000   138.1818     8.1979     7.6271
  460.1000   137.2764     8.2091     7.6275
  460.2000   136.8706     8.2090     7.6281
  460.3000   136.2122     8.2089     7.6286
  460.4000   135.5597     8.2088     7.6291
  460.5000   135.0000     8.2087     7.6296
  460.6000   134.2484     8.2085     7.6303
  460.7000   133.6581     8.1706     7.6307
  460.8000   133.4504     8.1515     7.6312
  460.9000   133.8425     8.1514     7.6318
  461.0000   134.4948     8.1513     7.6208
  461.1000   135.0666     8.1512     7.5801
  461.2000   135.8305     8.1510     7.5807
  461.3000   136.7065     8.1118     7.5811
  461.4000   137.1414     8.0944     7.5816
  461.5000   137.6514     8.0943     7.5822
  461.6000   138.0444     8.0942     7.5827
  461.7000   138.4364     8.0941     7.5832
  461.8000   139.1637     8.0939     7.5838
  461.9000   139.4519     8.0938     7.5843
  462.0000   139.8989     8.0937     7.5848
  462.1000   140.2363     8.0936     7.5853
  462.2000   140.6162     8.0935     7.5859
  462.3000   141.0526     8.0934     7.5864
  462.4000   141.2849     8.0933     7.5870
  462.5000   141.2882     8.0931     7.5875
  462.6000   141.2909     8.0930     7.5880
  462.7000   141.1151     8.0930     7.5664
  462.8000   140.8646     8.0928     7.5366
  462.9000   140.6141     8.0927     7.5323
