~VERSION INFORMATION
 VERS.                2.0:   CWLS LOG ASCII STANDARD - VERSION 2.0
 WRAP.                 NO:   ONE LINE PER DEPTH STEP
~WELL INFORMATION
#MNEM.UNIT      DATA TYPE    INFORMATION
#----------   ------------   ------------------------------
 STRT.F            2.0000:   START DEPTH
 STOP.F          500.0000:   STOP DEPTH
 STEP.F            0.1000:   STEP LENGTH
 NULL.          -999.2500:   NO VALUE
 COMP.   FLUOR DANIEL INC:   COMPANY
 WELL.   73-5 X 10 #73-10:   WELL
 FLD .             TEAPOT:   FIELD
 LOC .      S10 T38N R78W:   LOCATION
 CNTY.            NATRONA:   COUNTY
 STAT.            WYOMING:   STATE
 CTRY. UNITED STATES OF AMERICA:   COUNTRY
 SRVC.      Western Atlas:   SERVICE COMPANY
 DATE.        07-JUN-1995:   LOGDATE
 API .       490252271400:   API NUMBER
~CURVE INFORMATION
#MNEM.UNIT       API CODE    CURVE DESCRIPTION
#----------   ------------   ------------------------------
 DEPT.F                  :   
 GRR .GAPI   07 310 01 00:   GAMMA RAY
 RILD.OHMM   07 120 46 00:   INDUCTION LOG DEEP RESISTIVITY
 RILM.OHMM   07 120 44 00:   RESITIVITY LONG MEDIUM
~PARAMETER INFORMATION
#MNEM.UNIT          VALUE    DESCRIPTION
#----------   ------------   ------------------------------
 PD  .                 GL:   PERMANENT DATUM
 EPD .F              5175:   ELEVATION PERMANENT DATUM
 LMF .                 KB:   LOG MEASURED FROM
 DAPD.F                10:   FEET ABOVE PERMANENT DATUM
 DMF .                 KB:   DRILLING MEASURED FROM
 EKB .F              5185:   KELLING BUSHING
 EDF .F              5184:   DRILLING FLOOR
 EGL .F              5175:   GROUND LEVEL
 DATE.        07-JUN-1995:   RUN DATE
 RUN .                  1:   RUN NUMBER
 DD  .F               511:   DEPTH DRILLER
 DL  .F               508:   DEPTH LOGGER
 BLI .F               500:   BOTTOM LOG INTERVAL
 TLI .F                96:   TOP LOG INTERVAL
 CS  .IN            9.625:   CASING SIZE
 CBD .F                96:   CASING BOTTOM DRILLER
 CBL .F                96:   CASING BOTTOM LOGGER
 BS  .IN             8.75:   BIT SIZE
 BSD .F               511:   BIT SIZE AT DEPTH
 DFT .                AIR:   DRILLING FLUID TYPE
 MRT .F               116:   MAXIMUM RECORDED TEMPERATURE
 LUN .            HL 6530:   LOGGING UNIT NUMBER
 LUL .             CASPER:   LOGGING UNIT LOCATION
 ENGI.        VERN RAUTIO:   RECORDING ENGINEER
 WITN.        GARY STRONG:   WITNESSED BY
 CLNT.            A2DTECH:   CLIENT CODE
 ORIG.           5" PRINT:   ORIGIN OF DATA
 UWI .       490252271400:   UNIQUE WELL ID
 DICO. A2D Technologies, Inc.:   DIGITIZING COMPANY
~OTHER INFORMATION
~A    DEPT       GRR     RILD       RILM   
# ...
  238.6000   148.0629     7.7001     7.8491
  238.7000   147.3287     7.6868     7.9030
  238.8000   146.7762     7.6472     7.9033
  238.9000   146.2804     7.6473     7.9036
  239.0000   145.8711     7.6474     7.9040
  239.1000   145.6577     7.6475     7.9043
  239.2000   145.6606     7.6476     7.9046
  239.3000   145.4330     7.6477     7.9049
  239.4000   145.5400     7.6478     7.9053
  239.5000   145.6677     7.6479     7.9310
  239.6000   145.7410     7.6480     7.9608
  239.7000   145.9746     7.6481     7.9612
  239.8000   145.9774     7.6482     7.9615
  239.9000   146.4076     7.6483     7.9618
  240.0000   146.9084     7.6484     7.9621
  240.1000   147.3009     7.6486     7.9625
  240.2000   147.6076     7.6487     7.9488
  240.3000   148.1062     7.6488     7.9082
  240.4000   148.3577     7.6489     7.9086
  240.5000   148.8076     7.6490     7.9089
  240.6000   149.1629     7.6491     7.9092
  240.7000   149.2296     7.6492     7.9095
  240.8000   149.0220     7.6493     7.9099
  240.9000   149.0249     7.6494     7.9102
  241.0000   148.7915     7.6495     7.9106
  241.1000   148.5448     7.6496     7.9108
  241.2000   148.2981     7.6497     7.9112
  241.3000   148.0514     7.6498     7.9115
  241.4000   147.7809     7.6499     7.9118
  241.5000   147.2269     7.6500     7.9122
  241.6000   147.2290     7.6501     7.9126
  241.7000   147.2314     7.6502     7.9128
  241.8000   147.2338     7.6504     7.9131
  241.9000   147.2363     7.6505     7.9135
  242.0000   147.2548     7.6506     7.9058
  242.1000   147.8457     7.6507     7.8596
  242.2000   148.0520     7.6508     7.8599
  242.3000   148.3035     7.6509     7.8602
  242.4000   148.5551     7.6510     7.8605
  242.5000   148.8520     7.6511     7.8609
  242.6000   149.3681     7.6251     7.8552
  242.7000   150.0949     7.5985     7.8073
  242.8000   150.8447     7.5986     7.8076
  242.9000   152.1367     7.5987     7.7760
  243.0000   153.9657     7.5988     7.7544
  243.1000   155.8429     7.5989     7.7415
  243.2000   156.9356     7.5752     7.7016
  243.3000   157.3893     7.5466     7.7020
  243.4000   157.7172     7.5412     7.6635
  243.5000   157.8490     7.4947     7.6201
  243.6000   157.8514     7.4948     7.5769
  243.7000   157.8399     7.4949     7.5339
  243.8000   157.5545     7.4736     7.4932
  243.9000   156.9263     7.4434     7.4936
  244.0000   156.1813     7.4400     7.4580
  244.1000   155.3321     7.3922     7.4157
  244.2000   154.3891     7.3923     7.3914
  244.3000   153.6387     7.3644     7.3828
  244.4000   153.1464     7.3414     7.3410
  244.5000   152.4562     7.3314     7.2994
  244.6000   151.9940     7.2896     7.2911
  244.7000   151.8356     7.2407     7.2670
  244.8000   151.8026     7.2408     7.2258
  244.9000   151.5385     7.2155     7.1917
  245.0000   151.5408     7.1909     7.1921
  245.1000   151.5432     7.1831     7.1530
  245.2000   151.6713     7.1415     7.1430
  245.3000   151.8501     7.1015     7.1212
  245.4000   151.8723     7.0610     7.0944
  245.5000   152.1574     7.0208     7.0947
  245.6000   152.5913     6.9808     7.0950
  245.7000   153.2550     6.9410     7.0953
  245.8000   154.0049     6.8988     7.0956
  245.9000   154.7547     6.8621     7.0757
  246.0000   155.4965     6.8230     7.0472
  246.1000   155.7975     6.8042     7.0475
  246.2000   156.1998     6.7923     7.0478
  246.3000   156.5533     6.7573     7.0130
  246.4000   156.8048     6.7575     6.9998
  246.5000   157.0564     6.7233     6.9819
  246.6000   157.3197     6.6850     6.9423
  246.7000   157.5595     6.6647     6.9044
  246.8000   157.6266     6.6550     6.9048
  246.9000   157.6290     6.6170     6.8723
  247.0000   157.7100     6.5733     6.8093
  247.1000   157.9360     6.5733     6.7478
  247.2000   157.9386     6.5498     6.7095
  247.3000   157.9408     6.5125     6.6713
  247.4000   157.9432     6.4754     6.5961
  247.5000   157.9456     6.4384     6.5506
  247.6000   158.0109     6.3653     6.4922
  247.7000   158.2526     6.3213     6.4185
  247.8000   158.2554     6.2646     6.3514
  247.9000   158.2574     6.1932     6.3136
  248.0000   158.2598     6.1227     6.2456
  248.1000   158.2623     6.0496     6.1748
  248.2000   158.2647     5.9518     6.1233
  248.3000   158.2671     5.8753     6.0774
  248.4000   158.2695     5.7909     6.0084
  248.5000   158.2719     5.6923     5.9339
  248.6000   158.2743     5.5988     5.8729
  248.7000   158.2767     5.5289     5.7833
  248.8000   158.2477     5.4721     5.6850
  248.9000   157.9797     5.4099     5.5884
  249.0000   157.7543     5.3483     5.4933
  249.1000   157.5076     5.2874     5.3873
  249.2000   157.1392     5.2272     5.3610
  249.3000   156.6433     5.1591     5.3107
  249.4000   156.1474     5.1340     5.2638
  249.5000   155.5774     5.1048     5.2340
  249.6000   155.1557     5.0757     5.2052
  249.7000   154.6598     5.0532     5.2054
  249.8000   154.2699     5.0533     5.2056
  249.9000   153.9702     5.0534     5.2058
  250.0000   153.4743     5.1717     5.2060
  250.1000   153.2276     5.2319     5.2348
  250.2000   153.1770     5.2321     5.3895
  250.3000   152.8931     5.2323     5.4185
  250.4000   152.3069     5.2325     5.4270
  250.5000   151.4665     5.2596     5.4422
  250.6000   150.0849     5.2897     5.4730
  250.7000   148.7033     5.3198     5.5039
  250.8000   147.3216     5.3502     5.5412
  250.9000   145.9378     5.3807     5.5413
  251.0000   143.7282     5.4420     5.5593
  251.1000   142.8429     5.4801     5.5907
  251.2000   142.6199     5.5284     5.6224
  251.3000   142.6217     5.5813     5.6578
  251.4000   142.6236     5.6160     5.6862
  251.5000   142.6256     5.6889     5.7184
  251.6000   143.0509     5.7168     5.7646
  251.7000   143.5450     5.7702     5.8234
  251.8000   144.1390     5.8359     5.8574
  251.9000   144.9231     5.9024     5.8895
  252.0000   145.9578     5.9729     5.9476
  252.1000   146.1936     6.0377     6.0150
  252.2000   146.2634     6.0816     6.0831
  252.3000   146.2653     6.1335     6.1502
  252.4000   146.2671     6.2034     6.1913
  252.5000   146.2689     6.2740     6.2489
  252.6000   146.2710     6.3589     6.3198
  252.7000   146.2725     6.4180     6.3783
  252.8000   146.2743     6.4696     6.4192
  252.9000   146.1879     6.5197     6.4991
  253.0000   145.9756     6.5891     6.5322
  253.1000   145.9778     6.6303     6.5692
  253.2000   145.9794     6.6645     6.6229
  253.3000   145.8149     6.7282     6.6899
  253.4000   145.4603     6.7876     6.7283
  253.5000   144.9698     6.8263     6.7284
  253.6000   144.4762     6.8654     6.7572
  253.7000   143.9889     6.9044     6.8156
  253.8000   143.4985     6.9438     6.8698
  253.9000   143.0080     6.9834     6.8725
  254.0000   142.5941     7.0232     6.9177
  254.1000   142.3702     7.0599     6.9178
  254.2000   142.3725     7.0602     6.9416
  254.3000   142.1634     7.0947     6.9809
  254.4000   142.0737     7.1352     7.0145
  254.5000   142.1742     7.1596     7.0146
  254.6000   142.3795     7.1599     7.0147
  254.7000   142.3814     7.1602     7.0148
  254.8000   142.6159     7.1605     7.0149
  254.9000   143.2176     7.1608     7.0150
  255.0000   144.1995     7.1611     7.0151
  255.1000   145.4319     7.1508     7.0152
  255.2000   146.6464     7.1122     7.0153
  255.3000   147.5284     7.1126     7.0154
  255.4000   147.7289     7.1128     7.0155
  255.5000   147.6908     7.0899     7.0156
  255.6000   147.4465     7.0503     7.0157
  255.7000   147.1402     7.0059     6.9822
  255.8000   146.3289     6.9195     6.9432
  255.9000   145.6670     6.8501     6.8891
  256.0000   144.9304     6.7228     6.8120
  256.1000   144.0847     6.5729     6.7308
  256.2000   143.1553     6.4035     6.5912
  256.3000   142.4103     6.1518     6.3946
  256.4000   141.6821     5.9833     6.2312
  256.5000   138.6982     5.8173     6.1185
  256.6000   136.8464     5.6556     5.9826
  256.7000   136.7527     5.5075     5.8827
