~VERSION INFORMATION
 VERS.                2.0:   CWLS LOG ASCII STANDARD - VERSION 2.0
 WRAP.                 NO:   ONE LINE PER DEPTH STEP
~WELL INFORMATION
#MNEM.UNIT      DATA TYPE    INFORMATION
#----------   ------------   ------------------------------
 STRT.F            3.0000:   START DEPTH
 STOP.F         3449.0000:   STOP DEPTH
 STEP.F            0.5000:   STEP LENGTH
 NULL.          -999.2500:   NO VALUE
 COMP. LAWRENCE/ALLISON INC:   COMPANY
 WELL.       NPR 3 #24-10:   WELL
 FLD .             TEAPOT:   FIELD
 LOC .      S10 T38N R78W:   LOCATION
 CNTY.            NATRONA:   COUNTY
 STAT.            WYOMING:   STATE
 CTRY. UNITED STATES OF AMERICA:   COUNTRY
 SRVC.      Dresser Atlas:   SERVICE COMPANY
 DATE.        28-JUL-1985:   LOGDATE
 API .       490251104400:   API NUMBER
~CURVE INFORMATION
#MNEM.UNIT       API CODE    CURVE DESCRIPTION
#----------   ------------   ------------------------------
 DEPT.F                  :   
 PORD.DEC    45 890 12 00:   POROSITY DENSITY SANDSTONE
 CNC .DEC    42 890 03 00:   NEUTRON POROSITY SANDSTONE
 CORR.G/C3   45 356 01 00:   DENSITY CORRECTION
 DEN .G/C3   45 350 01 00:   COMPENSATED BULK DENSTIY
 AC  .US/F   60 520 00 00:   ACCOUSTIC
 CALR.IN     07 280 01 00:   CALIPER FROM RESISTIVITY
 GRR .GAPI   07 310 01 00:   GAMMA RAY
 RFOC.OHMM   07 220 04 00:   RESISTIVITY FOCUSED LOG
 RILD.OHMM   07 120 46 00:   INDUCTION LOG DEEP RESISTIVITY
 RILM.OHMM   07 120 44 00:   INDUCTION LOG MEDIUM RESISTIVITY
 SPR .MV     07 010 01 00:   SPONTANEOUS POTENTIAL
~PARAMETER INFORMATION
#MNEM.UNIT          VALUE    DESCRIPTION
#----------   ------------   ------------------------------
 PD  .                 GL:   PERMANENT DATUM
 EPD .F              5242:   ELEVATION PERMANENT DATUM
 LMF .                 KB:   LOG MEASURED FROM
 DAPD.F                13:   FEET ABOVE PERMANENT DATUM
 DMF .                 KB:   DRILLING MEASURED FROM
 EKB .F              5255:   KELLING BUSHING
 EGL .F              5242:   GROUND LEVEL
 DATE.        28-JUL-1985:   RUN DATE
 RUN .                  1:   RUN NUMBER
 DD  .F              3451:   DEPTH DRILLER
 DL  .F              3451:   DEPTH LOGGER
 BLI .F              3449:   BOTTOM LOG INTERVAL
 CS  .IN            8.625:   CASING SIZE
 CBD .F               688:   CASING BOTTOM DRILLER
 CBL .F               686:   CASING BOTTOM LOGGER
 BS  .IN            7.875:   BIT SIZE
 BSD .F              3451:   BIT SIZE AT DEPTH
 DFT .            KCL GEL:   DRILLING FLUID TYPE
 DFD .                8.9:   DRILLING FLUID DENSITY
 DFV .                 40:   DRILLING FLUID VISCOSITY
 DFPH.                8.0:   DRILLING FLUID PH
 DFL .                 10:   DRILLING FLUID LOSS
 MSS .           FLOWLINE:   MUD SAMPLE SOURCE
 RMS .OHMM           0.87:   RESISTIVITY MUD SAMPLE
 MST .F                92:   MUD SAMPLE TEMPERATURE
 RMF .OHMM             65:   RESISTIVITY MUD FILTRATE SAMPLE
 MFST.F                92:   MUD FILTRATE SAMPLE TEMPERATURE
 RMC .OHMM           1.09:   RESISTIVITY MUD CAKE
 MCST.F                92:   MUD CAKE SAMPLE TEMPERATURE
 MFSS.               CALC:   MUD FILTRATE SAMPLE SOURCE
 MCSS.               CALC:   MUD CAKE SAMPLE SOURCE
 RMB .OHMM            .66:   RESISTIVITY MUD AT BHT
 BHT .F               121:   BOTTOM HOLE TEMPERATURE
 TCS .HRS               4:   TIME CURCULATED STOPPED
 MRT .F               121:   MAXIMUM RECORDED TEMPERATURE
 LUN .               6264:   LOGGING UNIT NUMBER
 LUL .               GLTE:   LOGGING UNIT LOCATION
 ENGI.           FAHLSING:   RECORDING ENGINEER
 WITN.             STRONG:   WITNESSED BY
 CLNT.            A2DTECH:   CLIENT CODE
 ORIG.        2" 5" PRINT:   ORIGIN OF DATA
 UWI .       490251104400:   UNIQUE WELL ID
 DICO. A2D Technologies, Inc.:   DIGITIZING COMPANY
 R1  . POROSITY WITH SANDSTONE:   REMARKS 1
~OTHER INFORMATION
~A    DEPT    PORD        CNC       CORR        DEN         AC       CALR         GRR      RFOC       RILD       RILM        SPR   
# ...
 1802.5000  -999.2500  -999.2500  -999.2500  -999.2500  -999.2500     9.6230    99.5702     8.3701     7.6270     7.7633   -46.5210
 1803.0000  -999.2500  -999.2500  -999.2500  -999.2500  -999.2500     9.6528    98.4435     8.3701     7.6270     7.7626   -46.6686
 1803.5000  -999.2500  -999.2500  -999.2500  -999.2500  -999.2500     9.6674    99.1634     8.3123     7.6270     7.6552   -46.8163
 1804.0000  -999.2500  -999.2500  -999.2500  -999.2500  -999.2500     9.6670   101.9093     8.1410     7.6270     7.5494   -46.8194
 1804.5000  -999.2500  -999.2500  -999.2500  -999.2500  -999.2500     9.6514   103.4342     7.9732     7.5743     7.5488   -46.9609
 1805.0000  -999.2500  -999.2500  -999.2500  -999.2500  -999.2500     9.6359   101.1774     7.8633     7.5220     7.4962   -46.9578
 1805.5000  -999.2500  -999.2500  -999.2500  -999.2500  -999.2500     9.6354    99.8244     7.8089     7.5220     7.4439   -46.9549
 1806.0000  -999.2500  -999.2500  -999.2500  -999.2500  -999.2500     9.6199    99.1490     7.7549     7.4700     7.3920   -46.8006
 1806.5000  -999.2500  -999.2500  -999.2500  -999.2500  -999.2500     9.6043    98.9272     7.8089     7.4183     7.3915   -46.4964
 1807.0000  -999.2500  -999.2500  -999.2500  -999.2500  -999.2500     9.6039    98.4803     7.9181     7.3671     7.3910   -46.3429
 1807.5000  -999.2500  -999.2500  -999.2500  -999.2500  -999.2500     9.5883    97.8060     7.9834     7.3162     7.3905   -46.1893
 1808.0000  -999.2500  -999.2500  -999.2500  -999.2500  -999.2500     9.5879    96.9055     8.1410     7.3162     7.3900   -46.1863
 1808.5000  -999.2500  -999.2500  -999.2500  -999.2500  -999.2500     9.5874    95.7788     8.2548     7.3162     7.3384   -46.6351
 1809.0000  -999.2500  -999.2500  -999.2500  -999.2500  -999.2500     9.5870    94.6520     8.3701     7.3162     7.3379   -47.0840
 1809.5000  -999.2500  -999.2500  -999.2500  -999.2500  -999.2500     9.5714    93.2990     8.3701     7.3162     7.3886   -47.5335
 1810.0000  -999.2500  -999.2500  -999.2500  -999.2500  -999.2500     9.5710    92.1722     8.2548     7.3671     7.4394   -47.8318
 1810.5000  -999.2500  -999.2500  -999.2500  -999.2500  -999.2500     9.5705    91.4969     8.1410     7.4183     7.4907   -47.8281
 1811.0000  -999.2500  -999.2500  -999.2500  -999.2500  -999.2500     9.5701    93.0862     7.9732     7.4700     7.5421   -47.8251
 1811.5000  -999.2500  -999.2500  -999.2500  -999.2500  -999.2500     9.5696    96.9368     7.8633     7.5220     7.5416   -47.6715
 1812.0000  -999.2500  -999.2500  -999.2500  -999.2500  -999.2500     9.5692   100.5611     7.8633     7.6270     7.6463   -47.5179
 1812.5000  -999.2500  -999.2500  -999.2500  -999.2500  -999.2500     9.5687   101.6968     7.9181     7.7336     7.7525   -47.2137
 1813.0000  -999.2500  -999.2500  -999.2500  -999.2500  -999.2500     9.5532   102.8446     8.0287     7.8416     7.8602   -46.9095
 1813.5000  -999.2500  -999.2500  -999.2500  -999.2500  -999.2500     9.5501   103.2896     8.1410     7.9511     8.0247   -46.6054
 1814.0000  -999.2500  -999.2500  -999.2500  -999.2500  -999.2500     9.4918   100.7777     8.3123     8.0622     8.1943   -46.4518
 1814.5000  -999.2500  -999.2500  -999.2500  -999.2500  -999.2500     9.4611    94.9285     8.4284     8.1748     8.4225   -46.4458
 1815.0000  -999.2500  -999.2500  -999.2500  -999.2500  -999.2500     9.4304    94.4793     8.5483     8.2890     8.4864   -46.2952
 1815.5000  -999.2500  -999.2500  -999.2500  -999.2500  -999.2500     9.4149    98.1048     8.7316     8.3466     8.4799   -46.2922
 1816.0000  -999.2500  -999.2500  -999.2500  -999.2500  -999.2500     9.3993   101.9554     8.8571     8.4047     8.4207   -46.4399
 1816.5000  -999.2500  -999.2500  -999.2500  -999.2500  -999.2500     9.3989   104.4486     8.9097     8.3466     8.3041   -46.7374
 1817.0000  -999.2500  -999.2500  -999.2500  -999.2500  -999.2500     9.3984   101.2856     8.8481     8.2890     8.1892   -46.8857
 1817.5000  -999.2500  -999.2500  -999.2500  -999.2500  -999.2500     9.4132    98.8014     8.7261     8.1748     8.1321   -47.1832
 1818.0000  -999.2500  -999.2500  -999.2500  -999.2500  -999.2500     9.4430    99.9371     8.7261     8.0622     7.9643   -47.4814
 1818.5000  -999.2500  -999.2500  -999.2500  -999.2500  -999.2500     9.4727   103.3352     8.7261     7.8962     7.9087   -47.7797
 1819.0000  -999.2500  -999.2500  -999.2500  -999.2500  -999.2500     9.5175   105.1497     8.6657     7.7874     7.7993   -47.7767
 1819.5000  -999.2500  -999.2500  -999.2500  -999.2500  -999.2500     9.5472   101.0817     8.4284     7.6270     7.6914   -47.7737
 1820.0000  -999.2500  -999.2500  -999.2500  -999.2500  -999.2500     9.5771   100.1801     8.1410     7.4700     7.5850   -47.7707
 1820.5000  -999.2500  -999.2500  -999.2500  -999.2500  -999.2500     9.6219   101.5432     7.9732     7.3671     7.5321   -47.6172
 1821.0000  -999.2500  -999.2500  -999.2500  -999.2500  -999.2500     9.6516   102.0210     7.9732     7.2154     7.3766   -47.4636
 1821.5000  -999.2500  -999.2500  -999.2500  -999.2500  -999.2500     9.6814   101.3258     7.9732     7.1160     7.2746   -47.3100
 1822.0000  -999.2500  -999.2500  -999.2500  -999.2500  -999.2500     9.7112   104.5094     7.9732     6.9695     7.1244   -47.1564
 1822.5000  -999.2500  -999.2500  -999.2500  -999.2500  -999.2500     9.7560   108.6355     7.8633     6.8734     7.0747   -47.1534
 1823.0000  -999.2500  -999.2500  -999.2500  -999.2500  -999.2500     9.7707   112.0270     7.7013     6.7788     6.9287   -46.9999
 1823.5000  -999.2500  -999.2500  -999.2500  -999.2500  -999.2500     9.8011   111.8598     7.6480     6.7319     6.8804   -47.1475
 1824.0000  -999.2500  -999.2500  -999.2500  -999.2500  -999.2500     9.8302   108.5891     7.7013     6.6854     6.8324   -47.1445
 1824.5000  -999.2500  -999.2500  -999.2500  -999.2500  -999.2500     9.8449   106.3311     7.7013     6.6392     6.8319   -47.2921
 1825.0000  -999.2500  -999.2500  -999.2500  -999.2500  -999.2500     9.8268   103.8469     7.5864     6.6392     6.8790   -47.4398
 1825.5000  -999.2500  -999.2500  -999.2500  -999.2500  -999.2500     9.7381   103.3978     7.3360     6.6392     6.9263   -47.4368
 1826.0000  -999.2500  -999.2500  -999.2500  -999.2500  -999.2500     9.6319   104.9870     7.2349     6.6392     7.0225   -47.4337
 1826.5000  -999.2500  -999.2500  -999.2500  -999.2500  -999.2500     9.4804   106.8015     7.1849     6.6392     7.1200   -47.2801
 1827.0000  -999.2500  -999.2500  -999.2500  -999.2500  -999.2500     9.1326   108.6159     7.2853     6.6392     7.1195   -47.0983
 1827.5000  -999.2500  -999.2500  -999.2500  -999.2500  -999.2500     9.0113   110.4303     7.4386     6.6392     6.9244   -46.8217
 1828.0000  -999.2500  -999.2500  -999.2500  -999.2500  -999.2500     8.9504   112.2447     7.5426     6.6392     6.8260   -46.5175
 1828.5000  -999.2500  -999.2500  -999.2500  -999.2500  -999.2500     8.9046   110.4392     7.6480     6.6392     6.7810   -46.3640
 1829.0000  -999.2500  -999.2500  -999.2500  -999.2500  -999.2500     8.8891   108.6338     7.5951     6.6392     6.7337   -46.3610
 1829.5000  -999.2500  -999.2500  -999.2500  -999.2500  -999.2500     8.8886   109.7694     7.4904     6.6392     6.7332   -46.6592
 1830.0000  -999.2500  -999.2500  -999.2500  -999.2500  -999.2500     8.8882   111.8101     7.3871     6.6392     6.6400   -46.9574
 1830.5000  -999.2500  -999.2500  -999.2500  -999.2500  -999.2500     8.8726   111.8871     7.3360     6.6392     6.5937   -47.2557
 1831.0000  -999.2500  -999.2500  -999.2500  -999.2500  -999.2500     8.8722   107.2941     7.2853     6.5933     6.5932   -47.5539
 1831.5000  -999.2500  -999.2500  -999.2500  -999.2500  -999.2500     8.8566   102.7556     7.2853     6.5477     6.5928   -47.5509
 1832.0000  -999.2500  -999.2500  -999.2500  -999.2500  -999.2500     8.8411   100.7058     7.2349     6.5025     6.6382   -47.5479
 1832.5000  -999.2500  -999.2500  -999.2500  -999.2500  -999.2500     8.8406    99.8415     7.2349     6.5025     6.6840   -47.3944
