~VERSION INFORMATION
 VERS.                2.0:   CWLS LOG ASCII STANDARD - VERSION 2.0
 WRAP.                 NO:   ONE LINE PER DEPTH STEP
~WELL INFORMATION
#MNEM.UNIT      DATA TYPE    INFORMATION
#----------   ------------   ------------------------------
 STRT.F           16.0000:   START DEPTH
 STOP.F          484.5000:   STOP DEPTH
 STEP.F            0.5000:   STEP LENGTH
 NULL.          -999.2500:   NO VALUE
 COMP. FENIX & SCISSON INC:   COMPANY
 WELL. NPR 3 #83 SX 10-10:   WELL
 FLD .             TEAPOT:   FIELD
 LOC .      S10 T38N R78W:   LOCATION
 CNTY.            NATRONA:   COUNTY
 STAT.            WYOMING:   STATE
 CTRY. UNITED STATES OF AMERICA:   COUNTRY
 SRVC.           BIRDWELL:   SERVICE COMPANY
 DATE.        25-NOV-1978:   LOGDATE
 API .       490251075200:   API NUMBER
~CURVE INFORMATION
#MNEM.UNIT       API CODE    CURVE DESCRIPTION
#----------   ------------   ------------------------------
 DEPT.F                  :   
 SPR .MV     05 010 01 00:   SPONTANEOUS POTENTIAL FROM RES.
 SN  .OHMM   05 040 16 00:   SHORT NORMAL 16"
 IL  .OHMM   05 120 00 00:   INDUCTION LOG
 CALD.IN     45 280 60 00:   CALIPER
 GRD .GAPI   45 310 01 00:   GAMMA RAY FROM DENSITY LOG
 CORR.G/C3   45 356 01 00:   DENSITY CORRECTION
 DPHI.DEC    45 890 12 00:   DENSITY POROSITY SANDSTONE
 RHOB.G/C3   45 350 01 00:   BULK DENSITY
~PARAMETER INFORMATION
#MNEM.UNIT          VALUE    DESCRIPTION
#----------   ------------   ------------------------------
 PD  .                 GL:   PERMANENT DATUM
 EPD .F              5145:   ELEVATION PERMANENT DATUM
 LMF .                 KB:   LOG MEASURED FROM
 DAPD.F                 4:   FEET ABOVE PERMANENT DATUM
 DMF .                 KB:   DRILLING MEASURED FROM
 EKB .F              5149:   KELLING BUSHING
 EGL .F              5145:   GROUND LEVEL
 DATE.           11-25-78:   RUN DATE
 RUN .                  1:   RUN NUMBER
 DD  .F               490:   DEPTH DRILLER
 DL  .F               487:   DEPTH LOGGER
 BLI .F               481:   BOTTOM LOG INTERVAL
 TLI .F                30:   TOP LOG INTERVAL
 CS  .IN            8.625:   CASING SIZE
 CBD .F                40:   CASING BOTTOM DRILLER
 CBL .F                35:   CASING BOTTOM LOGGER
 BS  .IN            7.875:   BIT SIZE
 BSD .F               490:   BIT SIZE AT DEPTH
 DFT .             SEAMUD:   DRILLING FLUID TYPE
 DFD .                8.8:   DRILLING FLUID DENSITY
 DFV .                 38:   DRILLING FLUID VISCOSITY
 DFPH.               11.1:   DRILLING FLUID PH
 DFL .                9.6:   DRILLING FLUID LOSS
 MSS .           FLOWLINE:   MUD SAMPLE SOURCE
 RMS .OHMM            .28:   RESISTIVITY MUD SAMPLE
 MST .F                58:   MUD SAMPLE TEMPERATURE
 RMF .OHMM            .25:   RESISTIVITY MUD FILTRATE SAMPLE
 MFST.F                70:   MUD FILTRATE SAMPLE TEMPERATURE
 RMC .OHMM             .3:   RESISTIVITY MUD CAKE
 MCST.F                70:   MUD CAKE SAMPLE TEMPERATURE
 MFSS.           MEASURED:   MUD FILTRATE SAMPLE SOURCE
 MCSS.           MEASURED:   MUD CAKE SAMPLE SOURCE
 BHT .F                58:   BOTTOM HOLE TEMPERATURE
 TCS .HRS               3:   TIME CURCULATED STOPPED
 MRT .F                58:   MAXIMUM RECORDED TEMPERATURE
 LUN .               3029:   LOGGING UNIT NUMBER
 LUL .               CASP:   LOGGING UNIT LOCATION
 ENGI.           REYNOLDS:   RECORDING ENGINEER
 WITN.           DINSMORE:   WITNESSED BY
 CLNT.            A2DTECH:   CLIENT CODE
 ORIG.     1", 2.5" PRINT:   ORIGIN OF DATA
 UWI .       490251075200:   UNIQUE WELL ID
 DICO. A2D Technologies, Inc.:   DIGITIZING COMPANY
~OTHER INFORMATION
~A   DEPT      SPR         SN         IL       CALD         GRD      CORR       DPHI       RHOB   
# ...
  421.0000   -51.8280    11.9300    12.6700     7.6490    93.0450     0.0290     0.1300     2.4720
  421.5000   -52.5350    11.8560    12.5970     7.6490    93.7270     0.0220     0.1330     2.4630
  422.0000   -52.8220    11.7820    12.5250     7.6490    94.4660     0.0160     0.1350     2.4610
  422.5000   -52.6540    11.7080    12.4530     7.6490    95.7150     0.0160     0.1330     2.4610
  423.0000   -52.5390    11.6330    12.3820     7.6490    97.9970     0.0150     0.1320     2.4610
  423.5000   -52.3980    11.5590    12.3100     7.6490   100.3240     0.0150     0.1280     2.4730
  424.0000   -52.2740    11.4850    12.2270     7.6490   101.9260     0.0150     0.1270     2.4770
  424.5000   -52.1340    11.4110    12.1520     7.6490    99.4840     0.0140     0.1290     2.4720
  425.0000   -52.0220    11.3520    11.9810     7.6490    97.9450     0.0140     0.1310     2.4680
  425.5000   -52.0200    11.1580    11.8090     7.6490    98.7750     0.0130     0.1310     2.4690
  426.0000   -52.4770    10.9970    11.6380     7.6490   100.4050     0.0130     0.1290     2.4720
  426.5000   -53.1310    10.8360    11.4660     7.6490    99.6250     0.0130     0.1280     2.4720
  427.0000   -53.7280    10.6760    11.2940     7.6490    98.3000     0.0120     0.1310     2.4710
  427.5000   -54.4290    10.5150    11.1230     7.6490    98.2320     0.0130     0.1280     2.4750
  428.0000   -54.8630    10.3540    10.9510     7.6490    98.0490     0.0210     0.1220     2.4830
  428.5000   -54.7610    10.1930    10.7800     7.6490   100.0710     0.0270     0.1150     2.4930
  429.0000   -54.7000    10.0330    10.6080     7.6490   104.4420     0.0180     0.1200     2.4920
  429.5000   -54.5860     9.9680    10.3460     7.6490   106.6640     0.0090     0.1280     2.4740
  430.0000   -54.5260     9.8910    10.0230     7.6490   108.1690     0.0010     0.1360     2.4580
  430.5000   -54.3870     9.7930     9.7010     7.6490   108.6850     0.0060     0.1370     2.4570
  431.0000   -54.7850     9.6940     9.3780     7.6490   109.0270     0.0120     0.1370     2.4570
  431.5000   -55.5680     9.6050     9.0840     7.6490   112.1490     0.0130     0.1380     2.4550
  432.0000   -56.2630     8.9720     8.6420     7.6490   117.7820     0.0140     0.1490     2.4400
  432.5000   -57.0050     8.3920     8.2370     7.6470   120.6450     0.0150     0.1570     2.4270
  433.0000   -57.6990     7.8120     7.8310     7.6390   123.1380     0.0150     0.1660     2.4130
  433.5000   -58.4790     7.2310     7.4260     7.6310   123.4790     0.0170     0.1720     2.4010
  434.0000   -58.8740     6.6510     7.0200     7.6230   120.2990     0.0220     0.1640     2.4100
  434.5000   -58.7920     6.0380     6.6150     7.6140   107.5510     0.0210     0.1490     2.4390
  435.0000   -58.5530     5.9270     6.2090     7.6060   105.0630     0.0070     0.1330     2.4650
  435.5000   -58.3140     6.4470     5.9270     7.5980   102.8940     0.0000     0.1240     2.4810
  436.0000   -58.0790     6.8760     6.2220     7.5900   101.9790     0.0000     0.1260     2.4780
  436.5000   -57.8480     7.8960     6.8320     7.5820   101.2640     0.0010     0.1250     2.4750
  437.0000   -57.6090     8.5930     7.4420     7.5730   100.7280     0.0070     0.1240     2.4750
  437.5000   -57.3830     8.9590     8.0520     7.5720   100.1230     0.0240     0.1130     2.4960
  438.0000   -57.1320     9.3250     8.6630     7.5840    99.5020     0.0270     0.1090     2.5040
  438.5000   -56.9360     9.6920     9.2730     7.5940   100.2160     0.0280     0.1080     2.5040
  439.0000   -56.5340     9.9150     9.5620     7.6050   101.2590     0.0280     0.1150     2.5010
  439.5000   -56.0110    10.0910     9.7420     7.6160   102.3040     0.0290     0.1130     2.4990
  440.0000   -55.5150    10.2660     9.9220     7.6270   102.9290     0.0350     0.1120     2.4970
  440.5000   -55.0420    10.4410    10.1010     7.6370   102.5830     0.0420     0.1100     2.5040
  441.0000   -54.5540    10.6170    10.2810     7.6480   102.0760     0.0430     0.1080     2.5070
  441.5000   -55.0060    10.7920    10.4610     7.6470   100.0380     0.0330     0.1140     2.4970
  442.0000   -55.8970    10.9670    10.6410     7.6450    96.5670     0.0230     0.1200     2.4890
  442.5000   -56.8060    11.1420    10.8200     7.6420    98.2120     0.0230     0.1180     2.4860
  443.0000   -56.5000    11.3180    11.0000     7.6400   100.7990     0.0310     0.1160     2.4920
  443.5000   -55.6890    11.4930    11.1800     7.6380    99.9930     0.0350     0.1130     2.5000
  444.0000   -55.6610    11.6680    11.3600     7.6360    99.9640     0.0300     0.1110     2.5010
  444.5000   -55.7870    11.8430    11.5640     7.6330   101.0510     0.0260     0.1140     2.5010
  445.0000   -55.8840    12.0190    11.6710     7.6310   102.0310     0.0210     0.1160     2.4970
  445.5000   -56.0250    12.2270    11.7940     7.6290   101.0260     0.0160     0.1150     2.4940
  446.0000   -55.8550    12.3260    11.9170     7.6270    98.4020     0.0120     0.1140     2.4950
  446.5000   -55.3370    12.4480    12.0400     7.6240    95.1910     0.0120     0.1130     2.4980
  447.0000   -54.8810    12.5700    12.1630     7.6220    93.5050     0.0120     0.1120     2.5010
  447.5000   -54.3090    12.6920    12.2860     7.6200    99.1520     0.0120     0.1130     2.5000
  448.0000   -54.1160    12.8140    12.4100     7.6180   103.3100     0.0100     0.1180     2.4920
  448.5000   -54.6220    12.9270    12.5330     7.6150   101.8800     0.0060     0.1230     2.4810
  449.0000   -55.0410    12.9730    12.6560     7.6130    99.2490     0.0040     0.1270     2.4730
  449.5000   -55.5200    13.0150    12.7790     7.6110    95.5800     0.0100     0.1280     2.4740
  450.0000   -55.9670    13.0570    12.9270     7.6090    96.4170     0.0150     0.1250     2.4750
  450.5000   -56.3790    13.1000    12.8970     7.6080    96.3750     0.0200     0.1240     2.4770
  451.0000   -56.5190    13.1680    12.8590     7.6060    93.6660     0.0200     0.1240     2.4780
  451.5000   -56.8420    13.1630    12.8200     7.6050    91.1970     0.0200     0.1240     2.4790
  452.0000   -56.4640    13.1380    12.7820     7.6030    92.7300     0.0200     0.1240     2.4800
  452.5000   -56.1440    13.1120    12.7440     7.6020    96.3750     0.0200     0.1230     2.4810
  453.0000   -55.7600    13.0870    12.7060     7.6010    97.8340     0.0200     0.1200     2.4850
  453.5000   -55.4370    13.0630    12.6670     7.5990    98.5440     0.0200     0.1170     2.4890
  454.0000   -55.0210    13.0390    12.6290     7.5980    99.8770     0.0240     0.1140     2.4950
  454.5000   -54.8160    13.0140    12.5910     7.5960   102.9000     0.0270     0.1100     2.5020
  455.0000   -54.7880    12.9890    12.5520     7.5950   101.3810     0.0310     0.1070     2.5090
  455.5000   -55.2150    12.9650    12.5140     7.5940    97.7900     0.0350     0.1050     2.5160
  456.0000   -55.9620    12.9400    12.4760     7.5920    94.6510     0.0350     0.1050     2.5210
  456.5000   -56.5950    12.8680    12.4060     7.5910    97.8030     0.0320     0.1060     2.5160
  457.0000   -57.2700    12.7470    12.3020     7.5890   101.6100     0.0300     0.1070     2.5100
  457.5000   -57.9280    12.6260    12.1980     7.5880   105.3980     0.0280     0.1080     2.5040
  458.0000   -58.5820    12.5040    12.0940     7.5860   109.3050     0.0250     0.1070     2.5130
  458.5000   -59.0540    12.3830    11.9900     7.5850   110.5600     0.0230     0.1050     2.5140
  459.0000   -59.4070    12.2620    11.8860     7.5840   109.9390     0.0210     0.1100     2.5040
  459.5000   -59.7600    12.1400    11.7820     7.5820   109.5800     0.0180     0.1130     2.4980
  460.0000   -60.1070    12.0190    11.6780     7.5810   110.8980     0.0160     0.1140     2.4970
  460.5000   -60.4650    11.8970    11.5740     7.5790   111.7140     0.0140     0.1140     2.4940
  461.0000   -60.8050    11.7760    11.4700     7.5780   112.0950     0.0110     0.1150     2.4930
