~VERSION INFORMATION
 VERS.                2.0:   CWLS LOG ASCII STANDARD - VERSION 2.0
 WRAP.                 NO:   ONE LINE PER DEPTH STEP
~WELL INFORMATION
#MNEM.UNIT      DATA TYPE    INFORMATION
#----------   ------------   ------------------------------
 STRT.F           16.5000:   START DEPTH
 STOP.F          640.0000:   STOP DEPTH
 STEP.F            0.5000:   STEP LENGTH
 NULL.          -999.2500:   NO VALUE
 COMP. FENIX & SCISSON INC:   COMPANY
 WELL.     11 SX 14 #3-14:   WELL
 FLD .             TEAPOT:   FIELD
 LOC .      S14 T38N R78W:   LOCATION
 CNTY.            NATRONA:   COUNTY
 STAT.            WYOMING:   STATE
 CTRY. UNITED STATES OF AMERICA:   COUNTRY
 SRVC.            Unknown:   SERVICE COMPANY
 DATE.        18-DEC-1978:   LOGDATE
 API .       490251075700:   API NUMBER
~CURVE INFORMATION
#MNEM.UNIT       API CODE    CURVE DESCRIPTION
#----------   ------------   ------------------------------
 DEPT.F                  :   
 SPR .MV     05 010 01 00:   SPONTANEOUS POTENTIAL FROM RES.
 SN  .OHMM   05 040 16 00:   SHORT NORMAL 16"
 IL  .OHMM   05 120 00 00:   INDUCTION LOG
 GRD .GAPI   45 310 01 00:   GAMMA RAY FROM DENSITY LOG
 CALD.IN     45 280 60 00:   CALIPER
 RHOB.G/C3   45 350 01 00:   BULK DENSITY
 DPHI.DEC    45 890 12 00:   DENSITY POROSITY SANDSTONE
 CORR.G/C3   45 356 01 00:   DENSITY CORRECTION
~PARAMETER INFORMATION
#MNEM.UNIT          VALUE    DESCRIPTION
#----------   ------------   ------------------------------
 PD  .                 GL:   PERMANENT DATUM
 EPD .F              5217:   ELEVATION PERMANENT DATUM
 LMF .                 KB:   LOG MEASURED FROM
 DAPD.F                 4:   FEET ABOVE PERMANENT DATUM
 DMF .                 KB:   DRILLING MEASURED FROM
 EKB .F              5221:   KELLING BUSHING
 EGL .F              5217:   GROUND LEVEL
 DATE.           12-18-78:   RUN DATE
 RUN .                  1:   RUN NUMBER
 DD  .F               653:   DEPTH DRILLER
 DL  .F               640:   DEPTH LOGGER
 BLI .F               634:   BOTTOM LOG INTERVAL
 TLI .F                32:   TOP LOG INTERVAL
 CS  .IN            8.625:   CASING SIZE
 CBD .F                40:   CASING BOTTOM DRILLER
 CBL .F                30:   CASING BOTTOM LOGGER
 BS  .IN            7.875:   BIT SIZE
 BSD .F               653:   BIT SIZE AT DEPTH
 DFT .                KCL:   DRILLING FLUID TYPE
 DFD .                8.3:   DRILLING FLUID DENSITY
 DFV .                 36:   DRILLING FLUID VISCOSITY
 DFPH.               12.5:   DRILLING FLUID PH
 DFL .               12.3:   DRILLING FLUID LOSS
 MSS .           FLOWLINE:   MUD SAMPLE SOURCE
 MST .F                56:   MUD SAMPLE TEMPERATURE
 RMF .OHMM            .44:   RESISTIVITY MUD FILTRATE SAMPLE
 MFST.F                58:   MUD FILTRATE SAMPLE TEMPERATURE
 RMC .OHMM            .58:   RESISTIVITY MUD CAKE
 MCST.F                66:   MUD CAKE SAMPLE TEMPERATURE
 MFSS.           MEASURED:   MUD FILTRATE SAMPLE SOURCE
 MCSS.           MEASURED:   MUD CAKE SAMPLE SOURCE
 BHT .F                58:   BOTTOM HOLE TEMPERATURE
 TCS .HRS               4:   TIME CURCULATED STOPPED
 MRT .F                58:   MAXIMUM RECORDED TEMPERATURE
 LUL .             CASPER:   LOGGING UNIT LOCATION
 ENGI.         B. ROLLINS:   RECORDING ENGINEER
 WITN.              AMEND:   WITNESSED BY
 CLNT.            A2DTECH:   CLIENT CODE
 ORIG.           5" PRINT:   ORIGIN OF DATA
 UWI .       490251075700:   UNIQUE WELL ID
 DICO. A2D Technologies, Inc.:   DIGITIZING COMPANY
~OTHER INFORMATION
~A   DEPT      SPR         SN         IL         GRD      CALD       RHOB       DPHI       CORR   
# ...
   97.5000   -47.4160     8.3390     7.5960    99.0690     8.0110     2.4780     0.1210     0.0120
   98.0000   -48.3620     8.5360     7.6140    99.4940     8.0030     2.4840     0.1200     0.0110
   98.5000   -49.3620     8.6430     7.6340   101.8340     8.0890     2.4850     0.1260     0.0090
   99.0000   -49.9030     8.2400     7.6550   103.8640     8.1860     2.4820     0.1330     0.0070
   99.5000   -49.8660     7.7740     7.6750   104.2340     8.0910     2.4680     0.1410     0.0060
  100.0000   -47.7150     7.3070     7.6950   104.6390     8.0000     2.4540     0.1460     0.0060
  100.5000   -47.4170     6.8010     7.7160   105.2460     8.0570     2.4460     0.1480     0.0070
  101.0000   -47.8150     6.8010     7.7380   106.5100     8.1940     2.4420     0.1470     0.0070
  101.5000   -47.3860     6.8010     7.7860   107.7810     8.3180     2.4420     0.1460     0.0110
  102.0000   -46.7010     6.8630     7.8380   107.5870     8.0000     2.4450     0.1440     0.0160
  102.5000   -46.0090     6.9770     7.8820   106.9180     8.0480     2.4480     0.1440     0.0220
  103.0000   -45.3240     7.0920     7.8170   106.0520     8.0960     2.4490     0.1450     0.0240
  103.5000   -45.1730     7.2060     7.7380   103.4260     8.1020     2.4490     0.1460     0.0270
  104.0000   -45.0440     7.3210     7.8460    99.8370     8.0700     2.4480     0.1530     0.0280
  104.5000   -44.9150     7.2520     8.0280    97.9760     8.0380     2.4390     0.1590     0.0320
  105.0000   -44.7850     7.1830     7.9540    97.9100     8.0060     2.4300     0.1530     0.0390
  105.5000   -44.6550     7.1130     7.8820    97.8690     7.9740     2.4270     0.1470     0.0610
  106.0000   -44.5260     7.0440     7.4580    97.8280     7.9480     2.4370     0.1390     0.0840
  106.5000   -44.3980     6.9830     7.5530    97.7840     8.1500     2.4560     0.1310     0.1040
  107.0000   -44.3290     6.9500     7.6660    97.6200     8.0890     2.4660     0.1230     0.1060
  107.5000   -44.4600     6.9170     7.7790    96.7650     7.9990     2.4750     0.1140     0.1060
  108.0000   -44.5870     6.8830     7.8820    96.3660     7.9330     2.4930     0.1110     0.0990
  108.5000   -44.6940     6.8500     7.5460    96.5290     7.9160     2.5050     0.1140     0.0770
  109.0000   -44.6040     6.8010     7.3040    97.9730     7.8860     2.5010     0.1170     0.0540
  109.5000   -44.5150     6.9090     7.1620    99.6980     7.8060     2.4940     0.1210     0.0310
  110.0000   -44.4270     7.1170     7.1120   100.3500     7.8440     2.4850     0.1240     0.0110
  110.5000   -44.3410     7.3250     7.0630   100.7220     7.9780     2.4790     0.1250     0.0110
  111.0000   -44.1860     7.5430     6.9920   100.6680     8.1140     2.4790     0.1240     0.0110
  111.5000   -44.2390     7.7790     7.1490   100.6230     8.1130     2.4790     0.1280     0.0110
  112.0000   -44.7000     8.0150     7.4250   100.5820     8.1060     2.4740     0.1310     0.0100
  112.5000   -45.2030     8.2520     7.7000   100.6890     8.1000     2.4710     0.1310     0.0100
  113.0000   -45.3470     8.4850     7.8160   101.4930     8.1130     2.4690     0.1280     0.0100
  113.5000   -45.4130     8.4910     7.8280   102.2900     8.1260     2.4730     0.1250     0.0100
  114.0000   -45.4770     8.4970     7.8390   103.0770     8.1170     2.4770     0.1210     0.0100
  114.5000   -45.5400     8.5030     7.8500   103.6010     8.0350     2.4810     0.1200     0.0090
  115.0000   -45.6030     8.5090     7.8610   102.8560     8.1240     2.4860     0.1190     0.0090
  115.5000   -45.6660     8.5140     7.8720   100.6180     8.1200     2.4880     0.1190     0.0090
  116.0000   -45.7000     8.5200     7.8840    98.3530     8.0980     2.4880     0.1180     0.0090
  116.5000   -45.7000     8.5260     7.8950    96.2210     8.0760     2.4870     0.1200     0.0090
  117.0000   -45.6990     8.5320     7.9060    96.0230     8.0480     2.4870     0.1220     0.0090
  117.5000   -45.6580     8.5380     7.9170    95.8930     8.0320     2.4840     0.1250     0.0090
  118.0000   -45.6110     8.5440     7.9290    95.7860     8.1910     2.4780     0.1280     0.0090
  118.5000   -45.5640     8.5490     7.9400    96.2130     8.1920     2.4730     0.1300     0.0100
  119.0000   -45.5190     8.5550     7.9510    96.7980     8.1350     2.4720     0.1320     0.0110
  119.5000   -45.3270     8.5610     7.9620    97.2420     8.0310     2.4680     0.1400     0.0140
  120.0000   -45.0240     8.5670     7.9740    94.3930     7.9950     2.4590     0.1430     0.0230
  120.5000   -44.7220     8.5730     7.9850    94.0260     7.9830     2.4500     0.1430     0.0310
  121.0000   -44.4180     8.5790     7.9960    94.0610     8.0100     2.4490     0.1450     0.0350
  121.5000   -44.2290     8.5850     8.0070    94.1020     8.0540     2.4480     0.1450     0.0390
  122.0000   -44.1090     8.5900     8.0190    94.1430     7.9930     2.4470     0.1400     0.0390
  122.5000   -43.9900     8.5960     8.0300    94.1760     7.8440     2.4510     0.1360     0.0370
  123.0000   -43.8700     8.6020     8.0410    94.1720     7.8940     2.4590     0.1330     0.0360
  123.5000   -43.7510     8.6080     8.0520    93.7730     7.9450     2.4660     0.1270     0.0400
  124.0000   -43.6320     8.6140     8.0630    93.2990     7.9910     2.4730     0.1230     0.0500
  124.5000   -43.5130     8.6200     8.0750    93.1820     8.0270     2.4810     0.1240     0.0600
  125.0000   -43.3950     8.6250     8.0860    93.9260     8.0640     2.4820     0.1300     0.0660
  125.5000   -43.2770     8.6310     8.0970    96.8240     8.1000     2.4750     0.1380     0.0680
  126.0000   -43.1570     8.6370     8.1080    97.2310     8.1080     2.4610     0.1410     0.0720
  126.5000   -43.1830     8.6430     8.1200    95.7420     8.0890     2.4530     0.1380     0.0950
  127.0000   -43.3360     8.6490     8.1310    94.2500     8.0690     2.4580     0.1270     0.1290
  127.5000   -43.4900     8.6550     8.1420    94.1100     8.0490     2.4830     0.1140     0.1630
  128.0000   -43.6390     8.6610     8.1530    94.0470     8.0300     2.5080     0.0990     0.1690
  128.5000   -44.2090     8.6660     8.1650    93.9710     8.0100     2.5090     0.1150     0.1560
  129.0000   -45.0740     8.6720     8.1760    93.4720     8.0530     2.4970     0.1180     0.1430
  129.5000   -45.9420     8.6780     8.1870    92.9250     8.1520     2.4930     0.1180     0.1290
  130.0000   -46.0610     8.6840     8.1980    92.9630     8.1470     2.4910     0.1170     0.1100
  130.5000   -46.0280     8.6900     8.2100    93.6120     7.9620     2.4920     0.1160     0.0910
  131.0000   -45.9900     8.6960     8.2210    94.4700     7.7340     2.4930     0.1200     0.0710
  131.5000   -45.9510     8.7010     8.2320    96.2810     7.7410     2.4910     0.1390     0.0520
  132.0000   -45.9130     8.7070     8.2430    98.1330     7.7430     2.4640     0.1440     0.0460
  132.5000   -45.7640     8.7130     8.2540    98.9470     7.7430     2.4510     0.1440     0.0520
  133.0000   -45.5700     8.7190     8.1200    98.4640     7.7410     2.4500     0.1420     0.0610
  133.5000   -45.0330     8.7230     7.9960    97.8650     7.7850     2.4500     0.1400     0.0700
  134.0000   -44.9640     8.3620     7.8730    97.3680     7.9340     2.4570     0.1320     0.0810
  134.5000   -45.4710     8.0840     7.7490    98.4370     8.0200     2.4650     0.1300     0.0890
  135.0000   -45.9740     7.9470     7.6550    99.1530     8.0570     2.4710     0.1300     0.0870
  135.5000   -46.4800     7.9250     7.6220    99.1430     8.1010     2.4700     0.1290     0.0830
  136.0000   -46.5940     7.9040     7.5880    99.1430     8.1530     2.4700     0.1280     0.0790
  136.5000   -46.6910     7.8820     7.5540    99.1460     8.0380     2.4740     0.1280     0.0720
  137.0000   -46.7890     7.8600     7.5210    99.1490     7.9610     2.4750     0.1370     0.0550
  137.5000   -46.8870     7.8380     7.4870    99.1510     8.0490     2.4630     0.1520     0.0410
