~VERSION INFORMATION
 VERS.                2.0:   CWLS LOG ASCII STANDARD - VERSION 2.0
 WRAP.                 NO:   ONE LINE PER DEPTH STEP
~WELL INFORMATION
#MNEM.UNIT      DATA TYPE    INFORMATION
#----------   ------------   ------------------------------
 STRT.F           32.0000:   START DEPTH
 STOP.F         1006.0000:   STOP DEPTH
 STEP.F            0.5000:   STEP LENGTH
 NULL.          -999.2500:   NO VALUE
 COMP. FENIX & SCISSON INC:   COMPANY
 WELL.        NPR-3 #54-2:   WELL
 FLD .             TEAPOT:   FIELD
 LOC .       S2 T38N R78W:   LOCATION
 CNTY.            NATRONA:   COUNTY
 STAT.            WYOMING:   STATE
 CTRY. UNITED STATES OF AMERICA:   COUNTRY
 SRVC.              Welex:   SERVICE COMPANY
 DATE.        08-SEP-1977:   LOGDATE
 API .       490251041600:   API NUMBER
~CURVE INFORMATION
#MNEM.UNIT       API CODE    CURVE DESCRIPTION
#----------   ------------   ------------------------------
 DEPT.F                  :   
 CALD.IN     45 280 60 00:   CALIPER FROM DENSITY LOG
 GRD .GAPI   45 310 01 00:   GAMMA RAY FROM DENSITY LOG
 CORR.G/C3   45 356 01 00:   DENSITY CORRECTION
 DPHI.DEC    45 890 12 00:   DENSITY POROSITY SANDSTONE
 RHOB.G/C3   45 350 01 00:   BULK DENSITY
 SPR .MV     07 010 01 00:   SPONTANEOUS POTENTIAL
 ILD .OHMM   07 120 46 00:   INDUCTION LOG DEEP
 ILM .OHMM   07 120 44 00:   INDUCTION LOG MEDIUM
 SGRD.OHMM   07 221 05 00:   SHALLOW SHORT GUARD RESISTIVITY
~PARAMETER INFORMATION
#MNEM.UNIT          VALUE    DESCRIPTION
#----------   ------------   ------------------------------
 PD  .                 GL:   PERMANENT DATUM
 EPD .F              5160:   ELEVATION PERMANENT DATUM
 LMF .                 KB:   LOG MEASURED FROM
 DAPD.F                10:   FEET ABOVE PERMANENT DATUM
 DMF .                 KB:   DRILLING MEASURED FROM
 EKB .F              5170:   KELLING BUSHING
 EGL .F              5160:   GROUND LEVEL
 DATE.        08-SEP-1977:   RUN DATE
 RUN .                  1:   RUN NUMBER
 DD  .F              1000:   DEPTH DRILLER
 DL  .F              1008:   DEPTH LOGGER
 BLI .F              1006:   BOTTOM LOG INTERVAL
 TLI .F                47:   TOP LOG INTERVAL
 CS  .IN            8.625:   CASING SIZE
 BS  .IN             6.75:   BIT SIZE
 BSD .F              1000:   BIT SIZE AT DEPTH
 DFT .            KCL MUD:   DRILLING FLUID TYPE
 DFD .                9.1:   DRILLING FLUID DENSITY
 BHT .F               100:   BOTTOM HOLE TEMPERATURE
 TCS .HRS            0230:   TIME CURCULATED STOPPED
 MRT .F               100:   MAXIMUM RECORDED TEMPERATURE
 ENGI.          D. LAWSON:   RECORDING ENGINEER
 WITN.         HARRINGTON:   WITNESSED BY
 CLNT.            A2DTECH:   CLIENT CODE
 ORIG.           5" PRINT:   ORIGIN OF DATA
 UWI .       490251041600:   UNIQUE WELL ID
 DICO. A2D Technologies, Inc.:   DIGITIZING COMPANY
~OTHER INFORMATION
~A   DEPT     CALD         GRD       CORR      DPHI         RHOB      SPR        ILD        ILM       SGRD   
   32.0000  -999.2500    65.0294    -0.5535  -999.2500     2.0629  -999.2500  -999.2500  -999.2500  -999.2500
   32.5000     6.8364    64.7429    -0.5504  -999.2500     2.0660  -999.2500  -999.2500  -999.2500  -999.2500
   33.0000     6.8377    66.4079    -0.5457  -999.2500     2.0729  -999.2500  -999.2500  -999.2500  -999.2500
   33.5000     6.8540    63.4349    -0.5395  -999.2500     2.0744  -999.2500  -999.2500  -999.2500  -999.2500
   34.0000     6.9002    63.1484    -0.5349  -999.2500     2.0573  -999.2500  -999.2500  -999.2500  -999.2500
   34.5000     6.9614    66.7565    -0.5287  -999.2500     2.0552  -999.2500  -999.2500  -999.2500  -999.2500
   35.0000     6.9478    70.6595    -0.5225  -999.2500     2.0537  -999.2500  -999.2500  -999.2500  -999.2500
   35.5000     6.7694    70.2276    -0.5134  -999.2500     2.0491  -999.2500  -999.2500  -999.2500  -999.2500
   36.0000     6.9056    67.7031    -0.5012  -999.2500     2.0450  -999.2500  -999.2500  -999.2500  -999.2500
   36.5000     6.7874    65.9218    -0.4905  -999.2500     2.0521  -999.2500  -999.2500  -999.2500  -999.2500
   37.0000     6.7286    67.2878    -0.4783  -999.2500     2.0580  -999.2500  -999.2500  -999.2500  -999.2500
   37.5000     6.7303    70.1444    -0.4616  -999.2500     2.0618  -999.2500  -999.2500  -999.2500  -999.2500
   38.0000     6.7466    73.0010    -0.4449  -999.2500     2.0595  -999.2500  -999.2500  -999.2500  -999.2500
   38.5000     6.8078    75.2598    -0.4267  -999.2500     2.0537  -999.2500  -999.2500  -999.2500  -999.2500
   39.0000     6.9287    71.6889    -0.4085  -999.2500     2.0531  -999.2500  -999.2500  -999.2500  -999.2500
   39.5000     7.1244    68.2675    -0.4009  -999.2500     2.0541  -999.2500  -999.2500  -999.2500  -999.2500
   40.0000     8.1571    64.8461    -0.3788  -999.2500     2.0595  -999.2500  -999.2500  -999.2500  -999.2500
   40.5000     8.0240    65.6100    -0.3255  -999.2500     2.0640  -999.2500  -999.2500  -999.2500  -999.2500
   41.0000     7.8758    68.0182    -0.2752  -999.2500     2.0678  -999.2500  -999.2500  -999.2500  -999.2500
   41.5000     7.8323    69.7021    -0.2284  -999.2500     2.0680  -999.2500  -999.2500  -999.2500  -999.2500
   42.0000     7.8486    68.9625    -0.1942  -999.2500     2.0719  -999.2500  -999.2500  -999.2500  -999.2500
   42.5000     7.8799    65.4359    -0.1404  -999.2500     2.0780  -999.2500  -999.2500  -999.2500  -999.2500
   43.0000     7.8812    63.1221    -0.0786  -999.2500     2.0880  -999.2500  -999.2500  -999.2500  -999.2500
   43.5000     7.8826    60.7307    -0.0207  -999.2500     2.1003  -999.2500  -999.2500  -999.2500  -999.2500
   44.0000     7.8391    59.4438     0.0202  -999.2500     2.1273  -999.2500  -999.2500  -999.2500  -999.2500
   44.5000     7.8252    60.0583     0.0198     0.2736     2.1476  -999.2500  -999.2500  -999.2500  -999.2500
   45.0000     7.8418    63.2139     0.0095     0.2388     2.1870  -999.2500  -999.2500  -999.2500  -999.2500
   45.5000     8.1272    67.2663    -0.0036     0.1772     2.2998  -999.2500  -999.2500  -999.2500  -999.2500
   46.0000     7.8452    70.8703     0.0087     0.1597     2.3862  -999.2500  -999.2500  -999.2500  -999.2500
   46.5000     7.5890    72.2322     0.0132     0.1621     2.3970  -999.2500  -999.2500  -999.2500  -999.2500
   47.0000     7.5330    69.8571     0.0134     0.1633     2.3874  -999.2500  -999.2500  -999.2500  -999.2500
   47.5000     7.5194    71.5180     0.0119     0.1591     2.3867   -26.0782     1.6330     2.1989     2.9275
   48.0000     7.5208    76.6167     0.0061     0.1618     2.3958   -32.4889     0.7329     3.0254     4.5633
   48.5000     7.5221    80.5197     0.0033     0.1654     2.3944   -35.3156     0.4044     3.2671     4.4417
   49.0000     7.5235    82.1805     0.0005     0.1647     2.3893   -39.0391     0.2672     3.7810     3.9786
   49.5000     7.4949    83.3929    -0.0039     0.1617     2.3909   -42.3142     0.2344     4.4675     4.7668
   50.0000     7.4664    85.3527    -0.0038     0.1617     2.3940   -44.2440     0.2411     4.5646     5.6325
   50.5000     7.4677    80.8849    -0.0036     0.1668     2.3904   -46.1738     0.4142     4.8621     5.9989
   51.0000     7.4840    81.4994    -0.0035     0.1679     2.3845   -48.1036     0.6155     5.0726     6.2577
   51.5000     7.5003    84.5055    -0.0033     0.1667     2.3823   -49.2860     0.9525     5.3651     6.5278
   52.0000     7.5017    79.8883    -0.0032     0.1640     2.3884   -50.0200     2.0088     5.5202     6.7157
   52.5000     7.5030    76.4669    -0.0015     0.1604     2.3968   -50.9035     4.0135     5.6797     6.8615
   53.0000     7.5044    75.4371    -0.0014     0.1559     2.4021   -51.7870     4.0717     5.8438     7.0591
   53.5000     7.5057    76.2011     0.0003     0.1517     2.4075   -52.6704     3.8813     5.9712     7.2123
   54.0000     7.5071    78.3103     0.0050     0.1523     2.4106   -53.4044     4.1330     6.0571     7.4715
   54.5000     7.5084    81.1669     0.0096     0.1556     2.4092   -53.9889     4.9163     6.1038     7.7401
   55.0000     7.4945    83.6697     0.0098     0.1574     2.4040   -54.5734     5.4570     6.1508     7.9630
   55.5000     7.4663    82.5440     0.0099     0.1616     2.3974   -55.0085     5.8513     6.1555     8.1358
   56.0000     7.4228    80.0194     0.0086     0.1654     2.3908   -55.4439     6.0180     6.2030     7.1873
   56.5000     7.3345    79.4381     0.0087     0.1666     2.3856   -56.0280     5.1717     6.2508     7.4457
   57.0000     7.3056    79.0062     0.0089     0.1672     2.3812   -56.3139     4.9852     6.2990     7.8753
   57.5000     7.3073    77.3785     0.0090     0.1696     2.3814   -56.7486     5.5484     6.3038     8.2150
   58.0000     7.3086    76.0498     0.0107     0.1714     2.3822   -57.0344     5.9082     6.3086     8.4516
   58.5000     7.3548    75.3190     0.0123     0.1663     2.3846   -57.1704     6.0354     6.3134     8.1133
   59.0000     7.4010    74.4387     0.0170     0.1639     2.3884   -57.7547     5.4434     6.2694     8.1753
   59.5000     7.4622    73.5584     0.0202     0.1618     2.3938   -58.3393     4.9435     6.2307     8.4107
   60.0000     7.5084    72.3792     0.0233     0.1591     2.3991   -59.3722     4.9121     6.1549     8.4736
   60.5000     7.5097    72.2421     0.0265     0.1549     2.4060   -56.6482     4.9149     6.1598     8.0796
   61.0000     7.5111    73.9071     0.0296     0.1516     2.4113   -50.0727     4.9176     6.1218     7.5442
   61.5000     7.4972    75.1195     0.0298     0.1498     2.4137   -52.2317     4.9203     6.0842     6.9945
   62.0000     7.4988    77.0792     0.0299     0.1486     2.4160   -53.0406     4.9572     6.0890     7.2976
   62.5000     7.5002    79.1885     0.0301     0.1473     2.4191   -45.7025     4.9944     6.0936     8.0461
   63.0000     7.5016    80.5503     0.0287     0.1458     2.4215   -45.6741     5.0318     6.2412     8.6290
   63.5000     7.5029    77.6251     0.0273     0.1470     2.4208   -44.1285     5.0346     6.5484     9.0013
   64.0000     7.5192    68.2576     0.0245     0.1497     2.4179   -45.2337     5.0724     6.7844     9.0686
   64.5000     7.5206    65.3492     0.0217     0.1524     2.4128   -54.1091     5.0752     6.8752     8.6469
   65.0000     7.5219    71.3455     0.0188     0.1518     2.4114   -55.0772     5.1132     6.8815     8.1866
   65.5000     7.5233    77.0732     0.0190     0.1500     2.4137   -55.4879     5.1516     6.9346     8.3065
   66.0000     7.5246    78.4154     0.0176     0.1476     2.4183   -55.7735     5.1544     6.9880     9.2862
   66.5000     7.5110    80.2199     0.0178     0.1499     2.4169   -55.7567     5.1931     6.9934     8.6709
   67.0000     7.5124    82.7714     0.0164     0.1520     2.4133   -55.8961     5.1960     6.9987     8.7372
   67.5000     7.5135    80.3963     0.0150     0.1538     2.4089   -56.0322     5.1988     6.9544     9.3055
   68.0000     7.5148    72.3411     0.0137     0.1556     2.4038   -56.1650     5.2017     6.9117     9.4402
