~VERSION INFORMATION
 VERS.                2.0:   CWLS LOG ASCII STANDARD - VERSION 2.0
 WRAP.                 NO:   ONE LINE PER DEPTH STEP
~WELL INFORMATION
#MNEM.UNIT      DATA TYPE    INFORMATION
#----------   ------------   ------------------------------
 STRT.F           32.0000:   START DEPTH
 STOP.F          688.5000:   STOP DEPTH
 STEP.F            0.5000:   STEP LENGTH
 NULL.          -999.2500:   NO VALUE
 COMP. FENIX & SCISSON INC:   COMPANY
 WELL.       NPR 3 #78-34:   WELL
 FLD .  TEAPOT DOME NPR-3:   FIELD
 LOC .      S34 T39N R78W:   LOCATION
 CNTY.            NATRONA:   COUNTY
 STAT.            WYOMING:   STATE
 CTRY. UNITED STATES OF AMERICA:   COUNTRY
 SRVC.           BIRDWELL:   SERVICE COMPANY
 DATE.        16-AUG-1978:   LOGDATE
 API .       490251070700:   API NUMBER
~CURVE INFORMATION
#MNEM.UNIT       API CODE    CURVE DESCRIPTION
#----------   ------------   ------------------------------
 DEPT.F                  :   
 SPR .MV     05 010 01 00:   SPONTANEOUS POTENTIAL
 SN  .OHMM   05 040 16 00:   SHORT NORMAL 16'
 ILD .OHMM   05 120 46 00:   INDUCTION LOG DEEP RESISTIVITY
 CALD.IN     45 280 60 00:   CALIPER
 GRD .GAPI   45 310 01 00:   GAMMA RAY FROM DENSITY LOG
 RHOB.G/C3   45 350 01 00:   BULK DENSITY
 DPHI.DEC    45 890 12 00:   DENSITY POROSITY SANDSTONE
 CORR.G/C3   45 356 01 00:   DENSITY CORRECTION
~PARAMETER INFORMATION
#MNEM.UNIT          VALUE    DESCRIPTION
#----------   ------------   ------------------------------
 PD  .                 GL:   PERMANENT DATUM
 EPD .F              5085:   ELEVATION PERMANENT DATUM
 LMF .                 KB:   LOG MEASURED FROM
 DAPD.F                 4:   FEET ABOVE PERMANENT DATUM
 DMF .                 KB:   DRILLING MEASURED FROM
 EKB .F              5089:   KELLING BUSHING
 EGL .F              5085:   GROUND LEVEL
 DATE.          8-16-1978:   RUN DATE
 RUN .                  1:   RUN NUMBER
 DD  .F               680:   DEPTH DRILLER
 DL  .F               688:   DEPTH LOGGER
 BLI .F               682:   BOTTOM LOG INTERVAL
 TLI .F                50:   TOP LOG INTERVAL
 CS  .IN            8.625:   CASING SIZE
 CBD .F                40:   CASING BOTTOM DRILLER
 BS  .IN            7.875:   BIT SIZE
 BSD .F               680:   BIT SIZE AT DEPTH
 DFT .                KCL:   DRILLING FLUID TYPE
 RMS .OHMM            .32:   RESISTIVITY MUD SAMPLE
 MST .F                64:   MUD SAMPLE TEMPERATURE
 RMF .OHMM             .3:   RESISTIVITY MUD FILTRATE SAMPLE
 MFST.F                76:   MUD FILTRATE SAMPLE TEMPERATURE
 RMC .OHMM            .16:   RESISTIVITY MUD CAKE
 MCST.F                64:   MUD CAKE SAMPLE TEMPERATURE
 MFSS.               MEAS:   MUD FILTRATE SAMPLE SOURCE
 MCSS.               MEAS:   MUD CAKE SAMPLE SOURCE
 TCS .HRS               1:   TIME CURCULATED STOPPED
 LUN .               3006:   LOGGING UNIT NUMBER
 LUL .               CASP:   LOGGING UNIT LOCATION
 ENGI.             MILLER:   RECORDING ENGINEER
 WITN.           MCGINLEY:   WITNESSED BY
 CLNT.            A2DTECH:   CLIENT CODE
 ORIG.           5" PRINT:   ORIGIN OF DATA
 UWI .       490251070700:   UNIQUE WELL ID
 DICO. A2D Technologies, Inc.:   DIGITIZING COMPANY
~OTHER INFORMATION
~A   DEPT      SPR         SN        ILD       CALD         GRD      RHOB       DPHI       CORR   
# ...
  234.5000   -33.5067     7.7825     6.8098     7.6852    90.6214     2.4707     0.1305     0.0445
  235.0000   -33.5703     7.7966     6.8386     7.7192    90.6782     2.4614     0.1341     0.0455
  235.5000   -33.5775     7.8106     6.8675     7.7533    90.7434     2.4548     0.1384     0.0562
  236.0000   -33.5858     7.8247     6.8965     7.7874    89.8029     2.4718     0.1413     0.0682
  236.5000   -33.5942     7.8388     6.9256     7.8214    88.3702     2.5063     0.1089     0.0725
  237.0000   -33.6027     7.8530     6.9549     7.8483    89.7302     2.5220     0.1001     0.0703
  237.5000   -33.6111     7.8671     6.9814     7.8543    91.7596     2.5226     0.0946     0.0676
  238.0000   -33.6196     7.8813     6.9815     7.8605    93.6154     2.5223     0.0971     0.0547
  238.5000   -33.6280     7.8955     6.9815     7.8668    93.2357     2.5166     0.1012     0.0413
  239.0000   -33.6364     7.9097     6.9814     7.8730    92.4617     2.5092     0.1053     0.0279
  239.5000   -33.6449     7.9240     6.9814     7.8793    89.1579     2.5014     0.1094     0.0238
  240.0000   -33.6533     7.9398     6.9814     7.8855    85.6219     2.4985     0.1146     0.0235
  240.5000   -33.6618     7.9328     6.9814     7.8917    82.1152     2.5028     0.1098     0.0232
  241.0000   -33.6702     7.9239     6.9814     7.8981    80.2734     2.5083     0.1049     0.0230
  241.5000   -33.6786     7.9152     6.9814     7.9051    78.9908     2.5098     0.1062     0.0227
  242.0000   -33.6871     7.9064     6.9814     7.9276    78.3018     2.4990     0.1202     0.0224
  242.5000   -33.6955     7.8977     6.9814     7.9264    78.0436     2.4858     0.1215     0.0222
  243.0000   -33.7040     7.8890     6.9814     7.9226    78.1285     2.4834     0.1204     0.0219
  243.5000   -33.7124     7.8803     6.9814     7.9163    79.5819     2.4847     0.1194     0.0216
  244.0000   -33.7208     7.8716     6.9814     7.9099    81.9917     2.4909     0.1162     0.0214
  244.5000   -33.7293     7.8630     6.9814     7.9035    84.4221     2.4977     0.1120     0.0211
  245.0000   -33.7377     7.8543     6.9814     7.8971    86.8518     2.5018     0.1077     0.0208
  245.5000   -33.7462     7.8456     6.9814     7.8907    87.4906     2.5024     0.1066     0.0206
  246.0000   -33.7546     7.8370     6.9814     7.8803    85.8406     2.4997     0.1121     0.0203
  246.5000   -33.7629     7.8283     6.9814     7.8596    84.2337     2.4936     0.1165     0.0200
  247.0000   -33.7597     7.8197     6.9814     7.8392    83.3074     2.4875     0.1210     0.0200
  247.5000   -33.7429     7.8111     6.9814     7.8187    83.8674     2.4828     0.1197     0.0200
  248.0000   -33.7262     7.8024     6.9814     7.7983    86.6693     2.4815     0.1227     0.0200
  248.5000   -33.7094     7.7962     6.9814     7.7778    86.0477     2.4822     0.1210     0.0200
  249.0000   -33.6926     7.8005     6.9814     7.7573    84.3982     2.4831     0.1205     0.0200
  249.5000   -33.6758     7.8046     6.9814     7.7369    84.5644     2.4839     0.1217     0.0200
  250.0000   -33.6591     7.8087     6.9814     7.7165    85.4688     2.4843     0.1213     0.0200
  250.5000   -33.6423     7.8128     6.9814     7.7028    86.3401     2.4814     0.1210     0.0200
  251.0000   -33.6255     7.8169     6.9814     7.6949    87.1962     2.4784     0.1233     0.0199
  251.5000   -33.6088     7.8210     6.9814     7.6873    89.4579     2.4756     0.1259     0.0221
  252.0000   -33.5920     7.8251     6.9814     7.6798    92.6365     2.4755     0.1274     0.0247
  252.5000   -33.5752     7.8292     6.9814     7.6716    94.5329     2.4789     0.1258     0.0274
  253.0000   -33.5585     7.8333     6.9814     7.6514    92.4323     2.4840     0.1213     0.0301
  253.5000   -33.5417     7.8374     6.9814     7.6462    88.0831     2.4892     0.1178     0.0315
  254.0000   -33.5249     7.8415     6.9814     7.6568    86.9099     2.4944     0.1100     0.0299
  254.5000   -33.5082     7.8457     6.9814     7.6746    87.8197     2.4996     0.1075     0.0283
  255.0000   -33.4914     7.8498     6.9814     7.6925    87.7738     2.5024     0.1098     0.0268
  255.5000   -33.4746     7.8539     6.9814     7.7103    87.5445     2.4979     0.1135     0.0263
  256.0000   -33.4579     7.8580     6.9814     7.7283    87.3194     2.4935     0.1174     0.0272
  256.5000   -33.4411     7.8621     6.9814     7.7459    87.3972     2.4913     0.1165     0.0281
  257.0000   -33.4243     7.8663     6.9814     7.7466    88.0078     2.4939     0.1134     0.0290
  257.5000   -33.4075     7.8704     6.9814     7.7465    88.9141     2.4950     0.1152     0.0299
  258.0000   -33.3908     7.8745     6.9814     7.7465    89.8631     2.4918     0.1171     0.0307
  258.5000   -33.3740     7.8787     6.9814     7.7465    89.3265     2.4894     0.1186     0.0316
  259.0000   -33.3572     7.8828     6.9814     7.7465    87.1748     2.4922     0.1133     0.0325
  259.5000   -33.3405     7.8869     6.9814     7.7465    85.0589     2.4983     0.1114     0.0333
  260.0000   -33.3237     7.8911     6.9814     7.7465    83.7435     2.4998     0.1128     0.0342
  260.5000   -33.3069     7.8952     6.9814     7.7465    85.2969     2.5080     0.1050     0.0351
  261.0000   -33.2901     7.8994     6.9814     7.7466    87.6667     2.5216     0.0973     0.0358
  261.5000   -33.2734     7.9035     6.9814     7.7445    88.5514     2.5235     0.0942     0.0342
  262.0000   -33.2566     7.9077     6.9814     7.7416    88.1041     2.5235     0.0967     0.0325
  262.5000   -33.2398     7.9118     6.9814     7.7387    87.2593     2.5235     0.0967     0.0309
  263.0000   -33.2231     7.9160     6.9814     7.7359    86.7500     2.5234     0.0950     0.0292
  263.5000   -33.2060     7.9201     6.9814     7.7330    86.9470     2.5163     0.1011     0.0282
  264.0000   -33.1898     7.9243     6.9814     7.7301    87.7275     2.5085     0.1073     0.0294
  264.5000   -33.1704     7.9284     6.9814     7.7267    88.8144     2.5021     0.1106     0.0362
  265.0000   -33.3692     7.9326     6.9814     7.7451    89.9079     2.5144     0.1028     0.0455
  265.5000   -33.6906     7.9369     6.9814     7.7697    90.5642     2.5266     0.0940     0.0470
  266.0000   -34.0168     7.9405     6.9814     7.7943    90.5586     2.5355     0.0902     0.0420
  266.5000   -34.1740     7.9202     6.9814     7.8197    90.5114     2.5289     0.0975     0.0369
  267.0000   -34.1926     7.8998     6.9814     7.8013    90.4102     2.5181     0.1026     0.0342
  267.5000   -34.2080     7.8795     6.9814     7.7659    89.5580     2.5107     0.1005     0.0347
  268.0000   -34.2232     7.8593     6.9814     7.7302    88.0765     2.5083     0.1076     0.0353
  268.5000   -34.2387     7.8391     6.9814     7.6944    86.5605     2.5023     0.1109     0.0358
  269.0000   -34.2542     7.8189     6.9814     7.6586    86.5360     2.4985     0.1123     0.0360
  269.5000   -34.2698     7.7988     6.9815     7.6262    90.7373     2.4978     0.1153     0.0389
  270.0000   -34.2853     7.7788     6.9816     7.6285    92.7266     2.5042     0.1131     0.0461
  270.5000   -34.3008     7.7588     6.9820     7.7535    91.2296     2.5109     0.1064     0.0533
  271.0000   -34.3163     7.7389     6.9383     7.8828    88.4960     2.5062     0.1132     0.0606
  271.5000   -34.3322     7.7189     6.9005     7.8870    85.7474     2.4987     0.1117     0.0723
  272.0000   -34.3470     7.6991     6.8629     7.8869    82.9807     2.5046     0.1138     0.0878
  272.5000   -34.3663     7.6793     6.8255     7.8531    82.7925     2.5235     0.0974     0.1014
  273.0000   -34.0870     7.6596     6.7883     7.8067    84.9218     2.5275     0.0954     0.1043
  273.5000   -33.6420     7.6399     6.7513     7.7596    85.6038     2.5291     0.0946     0.1122
  274.0000   -33.1863     7.6203     6.7146     7.7127    85.7327     2.5414     0.0881     0.1201
  274.5000   -33.2380     7.6007     6.6780     7.6865    85.8451     2.5541     0.0782     0.1223
