~VERSION INFORMATION
 VERS.                2.0:   CWLS LOG ASCII STANDARD - VERSION 2.0
 WRAP.                 NO:   ONE LINE PER DEPTH STEP
~WELL INFORMATION
#MNEM.UNIT      DATA TYPE    INFORMATION
#----------   ------------   ------------------------------
 STRT.F            2.0000:   START DEPTH
 STOP.F          592.0000:   STOP DEPTH
 STEP.F            0.1000:   STEP LENGTH
 NULL.          -999.2500:   NO VALUE
 COMP. BROWN JOHN E&C INC:   COMPANY
 WELL. NAVAL PETROLEUM RESERVE 3 SX-3 #73-3:   WELL
 FLD .             TEAPOT:   FIELD
 LOC .       S3 T38N R78W:   LOCATION
 CNTY.            NATRONA:   COUNTY
 STAT.            WYOMING:   STATE
 CTRY. UNITED STATES OF AMERICA:   COUNTRY
 SRVC.     Atlas Wireline:   SERVICE COMPANY
 DATE.        22-APR-1992:   LOGDATE
 API .       490252251000:   API NUMBER
~CURVE INFORMATION
#MNEM.UNIT       API CODE    CURVE DESCRIPTION
#----------   ------------   ------------------------------
 DEPT.F                  :   
 GRR .GAPI   07 310 01 00:   GAMMA RAY
 RILD.OHMM   07 120 46 00:   INDUCTION LOG DEEP RESISTIVITY
 RILM.OHMM   07 120 44 00:   INDUCTION LOG MEDIUM RESISTIVITY
~PARAMETER INFORMATION
#MNEM.UNIT          VALUE    DESCRIPTION
#----------   ------------   ------------------------------
 PD  .                 GL:   PERMANENT DATUM
 EPD .F              5148:   ELEVATION PERMANENT DATUM
 LMF .                 KB:   LOG MEASURED FROM
 DAPD.F                 5:   FEET ABOVE PERMANENT DATUM
 DMF .                 KB:   DRILLING MEASURED FROM
 EKB .F              5153:   KELLING BUSHING
 EDF .F              5152:   DRILLING FLOOR
 EGL .F              5148:   GROUND LEVEL
 DATE.        22-APR-1992:   RUN DATE
 RUN .                  1:   RUN NUMBER
 DD  .F               600:   DEPTH DRILLER
 DL  .F               601:   DEPTH LOGGER
 BLI .F               592:   BOTTOM LOG INTERVAL
 TLI .F                51:   TOP LOG INTERVAL
 CS  .IN            8.625:   CASING SIZE
 CBD .F                48:   CASING BOTTOM DRILLER
 CBL .F                51:   CASING BOTTOM LOGGER
 BS  .IN            7.875:   BIT SIZE
 BSD .F               600:   BIT SIZE AT DEPTH
 DFT .                AIR:   DRILLING FLUID TYPE
 LUN .            HL-5272:   LOGGING UNIT NUMBER
 LUL .             CASPER:   LOGGING UNIT LOCATION
 ENGI.       P. RAGMUSSEN:   RECORDING ENGINEER
 WITN.          G. STRONG:   WITNESSED BY
 CLNT.            A2DTECH:   CLIENT CODE
 ORIG.           5" PRINT:   ORIGIN OF DATA
 UWI .       490252251000:   UNIQUE WELL ID
 DICO. A2D Technologies, Inc.:   DIGITIZING COMPANY
~OTHER INFORMATION
~A    DEPT      GRR      RILD       RILM   
# ...
  220.4000   114.9411     9.1155     9.2697
  220.5000   114.6334     9.1161     9.2703
  220.6000   114.3911     9.1165     9.2357
  220.7000   114.1488     9.1170     9.2072
  220.8000   113.9169     9.0978     9.2078
  220.9000   113.9214     9.0547     9.2085
  221.0000   113.9244     9.0553     9.2091
  221.1000   113.7850     9.0558     9.2098
  221.2000   113.6291     9.0563     9.2104
  221.3000   113.6326     9.0568     9.2111
  221.4000   113.6367     9.0573     9.2117
  221.5000   113.8587     9.0578     9.2125
  221.6000   114.2703     9.0583     9.2130
  221.7000   114.7658     9.0588     9.2136
  221.8000   115.3098     9.0594     9.2142
  221.9000   116.0751     9.0599     9.2149
  222.0000   116.5545     9.0603     9.2156
  222.1000   117.4126     9.0609     9.2162
  222.2000   118.5244     9.0613     9.2168
  222.3000   119.7573     9.0619     9.2175
  222.4000   120.9683     9.0624     9.2181
  222.5000   121.8464     9.0629     9.2188
  222.6000   122.0498     9.0634     9.2194
  222.7000   122.1555     9.0149     9.2201
  222.8000   122.1592     9.0015     9.2207
  222.9000   122.1323     9.0020     9.2213
  223.0000   121.8642     9.0025     9.2220
  223.1000   121.4281     9.0030     9.2227
  223.2000   121.1030     9.0036     9.1789
  223.3000   120.7545     8.9626     9.1599
  223.4000   120.2663     8.9420     9.1606
  223.5000   119.7641     8.9426     9.1527
  223.6000   119.5288     8.9431     9.0983
  223.7000   119.1044     8.9436     9.0989
  223.8000   118.7417     8.9440     9.0996
  223.9000   118.4305     8.9445     9.0758
  224.0000   117.9546     8.9450     9.0377
  224.1000   117.6684     8.9455     9.0383
  224.2000   117.2688     8.9460     8.9871
  224.3000   116.9253     8.9465     8.9768
  224.4000   116.5950     8.9470     8.9492
  224.5000   116.1382     8.9476     8.9158
  224.6000   115.8709     8.9480     8.9165
  224.7000   115.4332     8.9485     8.9171
  224.8000   115.1088     8.9491     8.9177
  224.9000   114.9737     8.9495     8.9183
  225.0000   115.0277     8.9500     8.9189
  225.1000   115.2836     8.9505     8.9195
  225.2000   115.7663     8.9510     8.9202
  225.3000   116.2619     8.9515     8.8730
  225.4000   116.7573     8.9520     8.8595
  225.5000   117.1830     8.9525     8.8601
  225.6000   117.4453     8.9530     8.8607
  225.7000   118.0291     8.9535     8.8613
  225.8000   118.2341     8.9540     8.8621
  225.9000   118.3383     8.9545     8.8626
  226.0000   118.3419     8.9550     8.8632
  226.1000   118.2816     8.9555     8.8811
  226.2000   117.7444     8.9560     8.9264
  226.3000   116.4204     8.9565     8.9271
  226.4000   115.1130     8.9571     8.9276
  226.5000   113.8870     8.9575     8.8952
  226.6000   112.7638     8.9580     8.8669
  226.7000   112.0134     8.9375     8.8675
  226.8000   111.5362     8.8967     8.8682
  226.9000   110.8642     8.8974     8.8688
  227.0000   110.5113     8.8979     8.8694
  227.1000   110.4446     8.8984     8.8700
  227.2000   110.2158     8.8988     8.8706
  227.3000   110.8254     8.8993     8.8712
  227.4000   111.0314     8.8998     8.8720
  227.5000   111.5734     8.9004     8.8725
  227.6000   112.2251     8.9008     8.8731
  227.7000   112.7207     8.9013     8.8737
  227.8000   113.2639     8.9018     8.8743
  227.9000   113.4893     8.9023     8.8750
  228.0000   113.7388     8.9028     8.8756
  228.1000   113.8796     8.9032     8.8425
  228.2000   113.8832     8.9038     8.8152
  228.3000   113.8869     8.9043     8.8158
  228.4000   113.4078     8.9048     8.8164
  228.5000   113.1043     8.9053     8.8170
  228.6000   112.8621     8.9058     8.8177
  228.7000   112.6198     8.8681     8.8183
  228.8000   112.3776     8.8450     8.8189
  228.9000   112.0938     8.8454     8.8195
  229.0000   112.0968     8.8497     8.8202
  229.1000   111.9535     8.9083     8.8207
  229.2000   111.8015     8.9087     8.8213
  229.3000   111.8051     8.9092     8.8219
  229.4000   111.8091     8.9097     8.8226
  229.5000   111.8124     8.9102     8.8232
  229.6000   111.9822     8.9108     8.8238
  229.7000   112.1222     8.9113     8.8244
  229.8000   112.1787     8.9117     8.8250
  229.9000   112.4321     8.9122     8.8256
  230.0000   112.4357     8.9127     8.8263
  230.1000   112.6246     8.9132     8.8269
  230.2000   113.0028     8.9137     8.8275
  230.3000   113.7143     8.9142     8.8281
  230.4000   114.9166     8.9147     8.8287
  230.5000   115.7828     8.9152     8.8293
  230.6000   117.0129     8.9157     8.8300
  230.7000   118.7877     8.9162     8.8306
  230.8000   120.8498     8.9167     8.8312
  230.9000   122.9624     8.9172     8.8318
  231.0000   124.5752     8.9177     8.8324
  231.1000   125.4733     8.9182     8.8331
  231.2000   126.2936     8.9187     8.8336
  231.3000   126.9246     8.8708     8.8343
  231.4000   127.3662     8.8212     8.8112
  231.5000   127.6188     8.7718     8.7620
  231.6000   127.3795     8.7092     8.7131
  231.7000   127.1372     8.6114     8.6645
  231.8000   126.7654     8.4974     8.5781
  231.9000   126.3502     8.3808     8.4821
  232.0000   126.1078     8.2673     8.3871
  232.1000   125.8257     8.1746     8.2932
  232.2000   125.6233     8.0829     8.1882
  232.3000   125.3811     7.9835     8.1087
  232.4000   125.1388     7.9027     8.0180
  232.5000   124.9314     7.8141     7.9282
  232.6000   124.9359     7.7459     7.8473
  232.7000   124.7148     7.7026     7.8014
  232.8000   124.4725     7.6590     7.7600
  232.9000   124.2301     7.6166     7.7168
  233.0000   123.9878     7.5740     7.6738
  233.1000   123.7435     7.5543     7.6310
  233.2000   123.7470     7.5417     7.5898
  233.3000   123.7507     7.4995     7.5904
  233.4000   123.6240     7.4512     7.5564
  233.5000   123.4554     7.4515     7.5143
  233.6000   123.4590     7.4520     7.4723
  233.7000   123.4632     7.4359     7.4306
  233.8000   123.2601     7.4010     7.3845
  233.9000   122.8684     7.4015     7.3849
  234.0000   122.3803     7.4019     7.3581
  234.1000   121.8921     7.3728     7.3347
  234.2000   121.3631     7.3514     7.3352
  234.3000   121.1411     7.3518     7.3358
  234.4000   120.8989     7.3522     7.3363
  234.5000   120.6566     7.3526     7.3368
  234.6000   120.4143     7.3202     7.3372
  234.7000   120.1707     7.3024     7.3378
  234.8000   119.9298     7.2890     7.3383
  234.9000   120.0631     7.2525     7.3389
  235.0000   120.3126     7.2530     7.3393
  235.1000   120.6367     7.2534     7.3398
  235.2000   121.0966     7.2272     7.3404
  235.3000   121.1007     7.2039     7.3409
  235.4000   121.3108     7.2043     7.3414
  235.5000   121.2597     7.2047     7.3418
  235.6000   121.0174     7.2051     7.3704
  235.7000   120.7752     7.2055     7.3942
  235.8000   120.5135     7.2059     7.3947
  235.9000   120.2907     7.2177     7.3952
  236.0000   120.2179     7.2570     7.4370
  236.1000   120.1088     7.2575     7.4798
  236.2000   119.8664     7.2578     7.5228
  236.3000   119.6236     7.2582     7.5660
  236.4000   119.6272     7.2737     7.6096
  236.5000   119.6308     7.3098     7.6605
  236.6000   119.6345     7.3102     7.6973
  236.7000   119.7133     7.3483     7.7415
  236.8000   119.9813     7.3621     7.7694
  236.9000   120.5537     7.3813     7.7765
  237.0000   120.9721     7.4236     7.8248
  237.1000   121.6186     7.4665     7.8253
  237.2000   122.4544     7.5091     7.8259
  237.3000   123.4413     7.5195     7.8264
  237.4000   124.5050     7.5429     7.8269
  237.5000   125.1889     7.5862     7.8275
  237.6000   125.7602     7.6297     7.8281
  237.7000   126.1420     7.6800     7.8286
  237.8000   126.3915     7.6803     7.8291
  237.9000   126.6408     7.7079     7.8297
  238.0000   126.6445     7.7522     7.8302
  238.1000   126.8376     7.7894     7.8308
  238.2000   127.0871     7.7898     7.7936
  238.3000   127.4125     7.8316     7.7775
  238.4000   127.9275     7.8450     7.7780
  238.5000   128.7812     7.8455     7.7786
