~VERSION INFORMATION
 VERS.                2.0:   CWLS LOG ASCII STANDARD - VERSION 2.0
 WRAP.                 NO:   ONE LINE PER DEPTH STEP
~WELL INFORMATION
#MNEM.UNIT      DATA TYPE    INFORMATION
#----------   ------------   ------------------------------
 STRT.F            0.0000:   START DEPTH
 STOP.F          497.0000:   STOP DEPTH
 STEP.F            0.1000:   STEP LENGTH
 NULL.          -999.2500:   NO VALUE
 COMP.       F D SERV INC:   COMPANY
 WELL. NAVAL PETROLEUM RESERVE 3 SX-1 #81-1-10:   WELL
 FLD .             NPR #3:   FIELD
 LOC .      S10 T38N R78W:   LOCATION
 CNTY.            NATRONA:   COUNTY
 STAT.            WYOMING:   STATE
 CTRY. UNITED STATES OF AMERICA:   COUNTRY
 SRVC.     Atlas Wireline:   SERVICE COMPANY
 DATE.        14-DEC-1997:   LOGDATE
 API .       490252257400:   API NUMBER
~CURVE INFORMATION
#MNEM.UNIT       API CODE    CURVE DESCRIPTION
#----------   ------------   ------------------------------
 DEPT.F                  :   
 GRR .GAPI   07 310 01 00:   GAMMA RAY
 RILD.OHMM   07 120 46 00:   INDUCTION LOG DEEP RESISTIVITY
 RILM.OHMM   07 120 44 00:   INDUCTION LOG MEDIUM RESISTIVITY
~PARAMETER INFORMATION
#MNEM.UNIT          VALUE    DESCRIPTION
#----------   ------------   ------------------------------
 PD  .                 GL:   PERMANENT DATUM
 EPD .F              5132:   ELEVATION PERMANENT DATUM
 LMF .                 KB:   LOG MEASURED FROM
 DAPD.F                10:   FEET ABOVE PERMANENT DATUM
 DMF .                 KB:   DRILLING MEASURED FROM
 EKB .F              5142:   KELLING BUSHING
 EDF .F              5141:   DRILLING FLOOR
 EGL .F              5132:   GROUND LEVEL
 DATE.        14-DEC-1992:   RUN DATE
 RUN .                  1:   RUN NUMBER
 DD  .F               513:   DEPTH DRILLER
 DL  .F               505:   DEPTH LOGGER
 BLI .F               497:   BOTTOM LOG INTERVAL
 CS  .IN            8.625:   CASING SIZE
 CBD .F                53:   CASING BOTTOM DRILLER
 CBL .F                54:   CASING BOTTOM LOGGER
 BS  .IN            7.875:   BIT SIZE
 BSD .F               513:   BIT SIZE AT DEPTH
 DFT .           AIR FOAM:   DRILLING FLUID TYPE
 BHT .F                68:   BOTTOM HOLE TEMPERATURE
 MRT .F                68:   MAXIMUM RECORDED TEMPERATURE
 LUN .           HL- 6274:   LOGGING UNIT NUMBER
 LUL .             CASPER:   LOGGING UNIT LOCATION
 ENGI.             RAUTIO:   RECORDING ENGINEER
 WITN.          G. STRONG:   WITNESSED BY
 CLNT.            A2DTECH:   CLIENT CODE
 ORIG.           5" PRINT:   ORIGIN OF DATA
 UWI .       490252257400:   UNIQUE WELL ID
 DICO. A2D Technologies, Inc.:   DIGITIZING COMPANY
~OTHER INFORMATION
~A    DEPT      GRR      RILD       RILM   
# ...
   91.0000   126.8072     7.9777     8.0003
   91.1000   126.8972     7.9996     7.9646
   91.2000   127.4112     8.0342     7.9648
   91.3000   127.7108     8.0346     7.9650
   91.4000   127.9269     8.0351     7.9652
   91.5000   128.1847     8.0804     7.9655
   91.6000   128.5719     8.0920     7.9657
   91.7000   129.0016     8.0925     7.9659
   91.8000   129.2594     8.1133     7.9661
   91.9000   129.5181     8.1498     7.9664
   92.0000   130.1205     8.1503     7.9666
   92.1000   130.1205     8.1508     7.9668
   92.2000   130.2908     8.1075     7.9670
   92.3000   130.4217     8.0952     7.9672
   92.4000   130.3382     8.0956     7.9675
   92.5000   130.1205     8.0961     7.9677
   92.6000   130.1205     8.0965     7.9679
   92.7000   129.5181     8.0970     7.9682
   92.8000   129.3068     8.0975     7.9683
   92.9000   129.2169     8.0979     7.9686
   93.0000   129.2169     8.0647     7.9688
   93.1000   129.2169     8.0427     7.9690
   93.2000   129.2169     8.0431     7.9692
   93.3000   129.2169     8.0436     7.9695
   93.4000   128.9157     8.0448     7.9697
   93.5000   128.9157     8.1007     7.9699
   93.6000   128.9157     8.1010     7.9374
   93.7000   128.9157     8.1339     7.9151
   93.8000   128.9157     8.1827     7.9153
   93.9000   128.9157     8.2158     7.9155
   94.0000   128.9157     8.2163     7.9158
   94.1000   129.2169     8.2167     7.9160
   94.2000   129.2169     8.2746     7.9162
   94.3000   129.5430     8.2750     7.9164
   94.4000   130.0587     8.2754     7.9166
   94.5000   130.7269     8.2759     7.9329
   94.6000   131.7253     8.2764     7.9723
   94.7000   132.5301     8.2768     7.9726
   94.8000   132.7775     8.2773     7.9728
   94.9000   133.0353     8.2777     7.9730
   95.0000   133.4538     8.2782     8.0048
   95.1000   133.8522     8.2787     8.0291
   95.2000   134.1100     8.2791     8.0293
   95.3000   134.3679     8.2796     8.0296
   95.4000   134.6385     8.2800     8.0298
   95.5000   135.1285     8.2805     8.0300
   95.6000   135.2410     8.2358     8.0302
   95.7000   135.7157     8.2241     7.9996
   95.8000   136.2594     8.2245     7.9750
   95.9000   136.6603     8.2250     7.9752
   96.0000   137.3775     8.2140     7.9754
   96.1000   137.6506     8.1659     7.9757
   96.2000   137.8932     8.1128     7.9206
   96.3000   138.3502     8.1132     7.9208
   96.4000   138.7100     8.0792     7.8913
   96.5000   138.8554     8.0579     7.8663
   96.6000   138.9245     8.0584     7.8528
   96.7000   139.1566     8.0588     7.8064
   96.8000   138.8554     8.0578     7.7583
   96.9000   137.8948     8.0039     7.7585
   97.0000   137.2570     8.0043     7.7225
   97.1000   136.5879     7.9722     7.7052
   97.2000   135.8145     7.9498     7.6645
   97.3000   135.1743     7.9340     7.5991
   97.4000   134.8698     7.8955     7.5944
   97.5000   134.0361     7.8960     7.5469
   97.6000   133.0851     7.8965     7.5471
   97.7000   132.0538     7.8969     7.5127
   97.8000   130.8715     7.8667     7.4952
   97.9000   129.7976     7.8431     7.4761
   98.0000   129.2169     7.8435     7.4436
   98.1000   129.2796     7.8439     7.4396
   98.2000   130.1205     7.8444     7.3925
   98.3000   130.5912     7.8448     7.3927
   98.4000   131.4908     7.8452     7.3929
   98.5000   132.3735     7.8749     7.3931
   98.6000   133.2522     7.9008     7.4118
   98.7000   134.3454     7.9013     7.4562
   98.8000   135.6160     7.9017     7.4973
   98.9000   136.7470     7.9022     7.4975
   99.0000   137.6787     7.9026     7.4977
   99.1000   138.5205     7.9030     7.5311
   99.2000   138.8554     7.9035     7.5763
   99.3000   138.7526     7.9039     7.6217
   99.4000   138.4353     7.9044     7.6674
   99.5000   137.9358     7.9048     7.7103
   99.6000   137.6506     7.9053     7.7106
   99.7000   137.1895     7.9057     7.7521
   99.8000   136.3390     7.9061     7.7648
   99.9000   135.4929     7.9065     7.8049
  100.0000   134.6366     7.9070     7.7833
  100.1000   133.7826     7.8972     7.7652
  100.2000   133.5254     7.8531     7.7470
  100.3000   132.6297     7.8536     7.7114
  100.4000   132.6292     7.8540     7.7108
  100.5000   132.6286     7.8544     7.6579
  100.6000   132.6280     7.8548     7.6579
  100.7000   132.6859     7.8553     7.6579
  100.8000   132.9564     7.8557     7.6579
  100.9000   133.8291     7.8561     7.6579
  101.0000   134.4661     7.8022     7.6579
  101.1000   135.3847     7.8026     7.6579
  101.2000   136.3914     7.8030     7.6579
  101.3000   137.3323     7.7804     7.6579
  101.4000   138.0704     7.7348     7.6579
  101.5000   138.6375     7.6965     7.6579
  101.6000   139.0765     7.6970     7.6579
  101.7000   139.2379     7.6442     7.6579
  101.8000   139.2373     7.7176     7.6579
  101.9000   139.0907     7.7459     7.6579
  102.0000   138.5865     7.7460     7.6579
  102.1000   138.0324     7.7461     7.6579
  102.2000   137.3510     7.7509     7.6579
  102.3000   136.5949     7.8003     7.6579
  102.4000   136.2262     7.8004     7.6579
  102.5000   136.1454     7.8005     7.6579
  102.6000   135.8929     7.8006     7.6579
  102.7000   135.6228     7.8157     7.6579
  102.8000   135.3881     7.8553     7.6579
  102.9000   135.3209     7.8554     7.6579
  103.0000   135.3203     7.8555     7.6579
  103.1000   135.3197     7.8556     7.6270
  103.2000   135.3191     7.8557     7.6048
  103.3000   135.3185     7.8558     7.6048
  103.4000   135.3179     7.8485     7.6097
  103.5000   135.3173     7.8016     7.6579
  103.6000   135.3167     7.8017     7.6579
  103.7000   135.3161     7.8018     7.6579
  103.8000   135.3612     7.8019     7.6579
  103.9000   135.6156     7.8021     7.6579
  104.0000   135.8637     7.8022     7.6636
  104.1000   136.1149     7.8023     7.7114
  104.2000   136.6677     7.7484     7.7114
  104.3000   137.3207     7.7484     7.7114
  104.4000   137.8238     7.7485     7.7114
  104.5000   138.3228     7.7300     7.7268
  104.6000   138.6189     7.6951     7.7652
  104.7000   138.6184     7.6952     7.7652
  104.8000   138.6178     7.6953     7.7652
  104.9000   138.6171     7.6954     7.7652
  105.0000   138.4361     7.6955     7.7652
  105.1000   137.6912     7.6956     7.7652
  105.2000   137.1115     7.6957     7.7578
  105.3000   136.4685     7.6958     7.7114
  105.4000   135.5472     7.6960     7.7114
  105.5000   134.5393     7.6960     7.7114
  105.6000   133.5988     7.6962     7.7114
  105.7000   132.8612     7.7174     7.7114
  105.8000   132.2959     7.7501     7.7114
  105.9000   131.6313     7.7502     7.7114
  106.0000   131.0476     7.7503     7.7114
  106.1000   130.6669     7.7504     7.7114
  106.2000   130.4890     7.7505     7.7653
  106.3000   130.5141     7.7506     7.8194
  106.4000   130.7885     7.7507     7.8287
  106.5000   131.0165     7.7559     7.8740
  106.6000   131.4474     7.8050     7.8740
  106.7000   132.0812     7.8051     7.8740
  106.8000   132.6725     7.8052     7.8740
  106.9000   132.9566     7.8053     7.8740
  107.0000   133.4917     7.8207     7.8740
  107.1000   133.7269     7.8600     7.8740
  107.2000   133.7913     7.8601     7.8740
  107.3000   134.0666     7.8602     7.8740
  107.4000   134.4806     7.8603     7.8740
  107.5000   134.6918     7.8604     7.8740
  107.6000   133.7888     7.8605     7.8740
  107.7000   133.3023     7.8606     7.8740
  107.8000   132.6039     7.8607     7.8740
  107.9000   131.8478     7.8608     7.8740
  108.0000   131.1879     7.8968     7.8740
  108.1000   130.6837     7.9159     7.8950
  108.2000   130.1762     7.9341     7.9290
  108.3000   129.9254     7.9713     7.9290
  108.4000   129.2704     7.9714     7.9290
  108.5000   128.8190     7.9716     7.9692
  108.6000   128.5666     7.9717     7.9843
  108.7000   128.3142     8.0004     8.0065
  108.8000   128.0618     8.0275     8.0401
  108.9000   127.7659     8.0276     8.0401
  109.0000   127.5569     8.0277     8.0401
  109.1000   127.3045     8.0279     8.0401
