~VERSION INFORMATION
 VERS.                2.0:   CWLS LOG ASCII STANDARD - VERSION 2.0
 WRAP.                 NO:   ONE LINE PER DEPTH STEP
~WELL INFORMATION
#MNEM.UNIT      DATA TYPE    INFORMATION
#----------   ------------   ------------------------------
 STRT.F           20.0000:   START DEPTH
 STOP.F          626.0000:   STOP DEPTH
 STEP.F            0.5000:   STEP LENGTH
 NULL.          -999.2500:   NO VALUE
 COMP. FENIX & SCISSON INC:   COMPANY
 WELL. NPR-3  38-S-34 #38-34:   WELL
 FLD .             TEAPOT:   FIELD
 LOC .      S34 T39N R78W:   LOCATION
 CNTY.            NATRONA:   COUNTY
 STAT.            WYOMING:   STATE
 CTRY. UNITED STATES OF AMERICA:   COUNTRY
 SRVC.           BIRDWELL:   SERVICE COMPANY
 DATE.        08-AUG-1978:   LOGDATE
 API .       490251068300:   API NUMBER
~CURVE INFORMATION
#MNEM.UNIT       API CODE    CURVE DESCRIPTION
#----------   ------------   ------------------------------
 DEPT.F                  :   
 SPR .MV     05 010 01 00:   SPONTANEOUS POTENTIAL FROM RES.
 SN  .OHMM   05 040 16 00:   SHORT NORMAL 16"
 IL  .OHMM   05 120 00 00:   INDUCTION LOG
 RHOB.G/C3   45 350 01 00:   BULK DENSITY
 DPHI.DEC    45 890 12 00:   DENSITY POROSITY SANDSTONE
 CORR.G/C3   45 356 01 00:   DENSITY CORRECTION
 GRD .GAPI   45 310 01 00:   GAMMA RAY FROM DENSITY LOG
 CALD.IN     45 280 60 00:   CALIPER
~PARAMETER INFORMATION
#MNEM.UNIT          VALUE    DESCRIPTION
#----------   ------------   ------------------------------
 PD  .                 GL:   PERMANENT DATUM
 EPD .F              5213:   ELEVATION PERMANENT DATUM
 LMF .                 KB:   LOG MEASURED FROM
 DAPD.F                 4:   FEET ABOVE PERMANENT DATUM
 DMF .                 KB:   DRILLING MEASURED FROM
 EKB .F              5217:   KELLING BUSHING
 EGL .F              5213:   GROUND LEVEL
 DATE.             8-8-78:   RUN DATE
 RUN .                  1:   RUN NUMBER
 DD  .F               620:   DEPTH DRILLER
 DL  .F               632:   DEPTH LOGGER
 BLI .F               626:   BOTTOM LOG INTERVAL
 TLI .F                35:   TOP LOG INTERVAL
 CS  .IN            8.625:   CASING SIZE
 CBL .F                35:   CASING BOTTOM LOGGER
 BS  .IN            7.875:   BIT SIZE
 BSD .F               620:   BIT SIZE AT DEPTH
 DFT .                KCL:   DRILLING FLUID TYPE
 DFD .                8.7:   DRILLING FLUID DENSITY
 DFV .                 33:   DRILLING FLUID VISCOSITY
 DFPH.                  9:   DRILLING FLUID PH
 DFL .                  5:   DRILLING FLUID LOSS
 MSS .          FLOW LINE:   MUD SAMPLE SOURCE
 RMS .OHMM            .12:   RESISTIVITY MUD SAMPLE
 MST .F                80:   MUD SAMPLE TEMPERATURE
 RMF .OHMM            .13:   RESISTIVITY MUD FILTRATE SAMPLE
 MFST.F                83:   MUD FILTRATE SAMPLE TEMPERATURE
 RMC .OHMM            .16:   RESISTIVITY MUD CAKE
 MCST.F                84:   MUD CAKE SAMPLE TEMPERATURE
 MFSS.               MEAS:   MUD FILTRATE SAMPLE SOURCE
 TCS .HRS               1:   TIME CURCULATED STOPPED
 LUN .               3006:   LOGGING UNIT NUMBER
 LUL .               CASP:   LOGGING UNIT LOCATION
 ENGI.             MILLER:   RECORDING ENGINEER
 WITN.           MCGINLEY:   WITNESSED BY
 CLNT.            A2DTECH:   CLIENT CODE
 ORIG.           5" PRINT:   ORIGIN OF DATA
 UWI .       490251068300:   UNIQUE WELL ID
 DICO. A2D Technologies, Inc.:   DIGITIZING COMPANY
~OTHER INFORMATION
~A   DEPT      SPR         SN         IL       RHOB       DPHI       CORR         GRD      CALD   
# ...
  465.5000   -14.0825    11.1835    11.7173     2.3509     0.1955     0.0331    76.0883     7.1470
  466.0000   -14.1949    11.2456    11.7563     2.3433     0.1962     0.0343    77.2071     7.2807
  466.5000   -14.3106    11.3081    11.7954     2.3470     0.1935     0.0355    78.5248     7.2661
  467.0000   -14.5505    11.3709    11.8347     2.3531     0.1908     0.0367    78.3980     7.2221
  467.5000   -14.7833    11.4340    11.8740     2.3594     0.1907     0.0379    74.2190     7.1770
  468.0000   -15.0145    11.4975    11.9135     2.3567     0.1925     0.0391    70.0497     7.1589
  468.5000   -15.2455    11.5613    11.9532     2.3520     0.1931     0.0404    67.0768     7.2439
  469.0000   -15.4750    11.6255    11.9930     2.3524     0.1904     0.0418    68.5190     7.3384
  469.5000   -15.7109    11.6901    12.0851     2.3567     0.1880     0.0450    71.1039     7.3245
  470.0000   -16.1405    11.7550    12.2101     2.3608     0.1847     0.0483    73.7010     7.2825
  470.5000   -16.5706    11.8202    12.3365     2.3665     0.1799     0.0516    75.8685     7.4202
  471.0000   -16.8910    11.8858    12.4642     2.3738     0.1759     0.0548    76.3055     7.5533
  471.5000   -17.1624    11.9518    12.5932     2.3897     0.1654     0.0574    74.1447     7.5741
  472.0000   -17.4462    12.0084    12.7235     2.4194     0.1545     0.0522    71.8570     7.5915
  472.5000   -17.3746    11.8956    12.8061     2.4321     0.1460     0.0468    69.5739     7.6102
  473.0000   -17.2103    11.6976    12.4951     2.4679     0.1311     0.0415    67.2899     7.6047
  473.5000   -17.0440    11.5033    12.2731     2.5030     0.1165     0.0362    65.0220     7.5913
  474.0000   -16.8786    11.3124    12.0550     2.5183     0.1019     0.0309    63.3288     7.5777
  474.5000   -16.7135    11.1247    11.8587     2.5175     0.0998     0.0255    64.9766     7.5642
  475.0000   -16.5381    10.9401    11.7135     2.4957     0.1162     0.0201    68.8950     7.5507
  475.5000   -16.6444    10.7585    11.5700     2.4668     0.1339     0.0165    72.7855     7.5374
  476.0000   -16.8438    10.5800    11.4282     2.4377     0.1517     0.0268    76.6888     7.5201
  476.5000   -17.4191    10.4045    11.2882     2.4084     0.1702     0.0369    76.8997     7.5023
  477.0000   -18.0798    10.3391    11.1500     2.3823     0.1801     0.0445    74.6146     7.4845
  477.5000   -18.1044    10.3049    11.0134     2.3759     0.1904     0.0473    70.1398     7.4802
  478.0000   -18.1007    10.2708    10.8784     2.3510     0.1959     0.0502    65.4793     7.4909
  478.5000   -18.1000    10.2368    10.7540     2.3465     0.1917     0.0530    67.6497     7.5016
  479.0000   -18.1000    10.2029    10.7162     2.3539     0.1865     0.0558    71.7866     7.5122
  479.5000   -18.0999    10.1692    10.6808     2.3662     0.1838     0.0569    74.9129     7.5229
  480.0000   -18.0998    10.1355    10.6456     2.3711     0.1845     0.0545    76.0053     7.5335
  480.5000   -18.1082    10.1020    10.6105     2.3665     0.1851     0.0521    77.1311     7.5443
  481.0000   -18.1635    10.0686    10.5755     2.3651     0.1851     0.0496    78.2551     7.5546
  481.5000   -18.2185    10.0352    10.5407     2.3651     0.1845     0.0513    78.5800     7.5487
  482.0000   -18.2734    10.0020    10.5059     2.3665     0.1822     0.0535    78.1713     7.5414
  482.5000   -18.3282     9.9689    10.4713     2.3712     0.1800     0.0557    77.8511     7.5340
  483.0000   -18.3831     9.9360    10.4367     2.3758     0.1778     0.0569    78.4004     7.5267
  483.5000   -18.4379     9.9001    10.4023     2.3805     0.1756     0.0525    79.0146     7.5193
  484.0000   -18.4928     9.8646    10.3660     2.3848     0.1769     0.0482    79.6685     7.5120
  484.5000   -18.5476     9.8256    10.3307     2.3767     0.1816     0.0440    78.0831     7.5047
  485.0000   -18.6022     9.7868    10.2935     2.3681     0.1863     0.0420    75.8979     7.4973
  485.5000   -18.6572     9.7482    10.2563     2.3596     0.1909     0.0453    73.7640     7.4900
  486.0000   -18.7298     9.7097    10.2192     2.3530     0.1930     0.0485    74.0597     7.4827
  486.5000   -18.8788     9.6714    10.1823     2.3522     0.1920     0.0514    76.2804     7.4753
  487.0000   -19.0251     9.6332    10.1455     2.3545     0.1910     0.0511    78.4604     7.4679
  487.5000   -19.1714     9.5952    10.1088     2.3566     0.1899     0.0507    79.8241     7.4607
  488.0000   -19.3177     9.5573    10.0723     2.3582     0.1889     0.0504    78.3877     7.4583
  488.5000   -19.4640     9.5196    10.0359     2.3581     0.1878     0.0501    73.6322     7.4730
  489.0000   -19.6103     9.4820     9.9995     2.3582     0.1869     0.0497    71.2578     7.4871
  489.5000   -19.7566     9.4446     9.9717     2.3594     0.1856     0.0496    73.0572     7.5011
  490.0000   -19.9029     9.4073     9.9460     2.3629     0.1843     0.0510    75.0370     7.5152
  490.5000   -20.0503     9.3702     9.9206     2.3665     0.1846     0.0523    75.3806     7.5295
  491.0000   -20.1232     9.3332     9.8951     2.3678     0.1831     0.0536    74.6708     7.5435
  491.5000   -20.1596     9.2964     9.8698     2.3687     0.1821     0.0549    74.0795     7.5427
  492.0000   -20.1954     9.2597     9.8445     2.3695     0.1846     0.0561    73.9515     7.4697
  492.5000   -20.2312     9.2231     9.8192     2.3701     0.1870     0.0581    73.5927     7.3979
  493.0000   -20.2672     9.1867     9.7941     2.3617     0.1895     0.0746    73.2347     7.3236
  493.5000   -20.3031     9.1505     9.7690     2.3530     0.1879     0.0910    72.8997     7.4012
  494.0000   -20.3390     9.1144     9.7443     2.3610     0.1844     0.1074    72.8420     7.3913
  494.5000   -20.3750     9.0784     9.7194     2.3725     0.1832     0.1062    75.1046     7.3301
  495.0000   -20.4109     9.0426     9.6156     2.3679     0.1848     0.1042    77.0258     7.2667
  495.5000   -20.4467     9.0060     9.5152     2.3631     0.1846     0.1107    75.1736     7.3161
  496.0000   -20.4827     8.9692     9.4160     2.3674     0.1825     0.1258    72.7882     7.4021
  496.5000   -20.5214     8.9326     9.3183     2.3712     0.1838     0.1347    72.7695     7.3576
  497.0000   -20.5635     8.8961     9.2203     2.3672     0.1851     0.1303    73.5888     7.3158
  497.5000   -20.6053     8.8590     9.1862     2.3603     0.1863     0.1261    74.4506     7.2714
  498.0000   -20.6471     8.8181     9.1642     2.3623     0.1843     0.1218    75.3275     7.2799
  498.5000   -20.6888     8.7774     9.1426     2.3674     0.1797     0.1175    71.9839     7.2836
  499.0000   -20.7306     8.7370     9.1209     2.3722     0.1751     0.1132    72.5910     7.2891
  499.5000   -20.7724     8.6967     9.0994     2.3834     0.1705     0.1098    73.4445     7.2953
  500.0000   -20.8142     8.6566     9.0779     2.3942     0.1658     0.1179    73.7172     7.2548
  500.5000   -20.8560     8.6166     9.0564     2.3956     0.1612     0.1219    73.7642     7.1958
  501.0000   -20.8978     8.5769     9.0350     2.4075     0.1592     0.1102    73.8047     7.1425
  501.5000   -20.9396     8.5461     9.0208     2.4091     0.1594     0.0986    73.8407     7.2302
  502.0000   -20.9813     8.5619     9.0084     2.4080     0.1582     0.0869    73.8969     7.3191
  502.5000   -21.0231     8.5749     8.9961     2.4091     0.1533     0.0798    75.7104     6.8745
  503.0000   -21.0649     8.5879     8.9838     2.4163     0.1507     0.0746    77.7494     7.0704
  503.5000   -21.1067     8.6010     8.9715     2.4233     0.1473     0.0699    79.7866     7.0334
  504.0000   -21.1446     8.6140     8.9592     2.4305     0.1440     0.0555    81.6624     7.1478
  504.5000   -21.1830     8.6271     8.9483     2.4348     0.1477     0.0377    82.3819     7.5156
  505.0000   -21.2215     8.6402     8.9533     2.4190     0.1565     0.0337    81.8112     7.3022
  505.5000   -21.2602     8.6532     8.9581     2.4025     0.1653     0.0341    79.4443     7.0217
