~VERSION INFORMATION
 VERS.                2.0:   CWLS LOG ASCII STANDARD - VERSION 2.0
 WRAP.                 NO:   ONE LINE PER DEPTH STEP
~WELL INFORMATION
#MNEM.UNIT      DATA TYPE    INFORMATION
#----------   ------------   ------------------------------
 STRT.F            4.0000:   START DEPTH
 STOP.F          528.0000:   STOP DEPTH
 STEP.F            0.1000:   STEP LENGTH
 NULL.          -999.2500:   NO VALUE
 COMP. BROWN JOHN E&C INC:   COMPANY
 WELL.    84-1 SHX- #84-3:   WELL
 FLD .        TEAPOT DOME:   FIELD
 LOC .       S3 T38N R78W:   LOCATION
 CNTY.            NATRONA:   COUNTY
 STAT.            WYOMING:   STATE
 CTRY. UNITED STATES OF AMERICA:   COUNTRY
 SRVC.     Atlas Wireline:   SERVICE COMPANY
 DATE.        18-JAN-1992:   LOGDATE
 API .       490252249900:   API NUMBER
~CURVE INFORMATION
#MNEM.UNIT       API CODE    CURVE DESCRIPTION
#----------   ------------   ------------------------------
 DEPT.F                  :   
 GRR .GAPI   07 310 01 00:   GAMMA RAY
 RILD.OHMM   07 120 46 00:   INDUCTION LOG DEEP RESISTIVITY
 RILM.OHMM   07 120 44 00:   INDUCTION LOG MEDIUM RESISTIVITY
~PARAMETER INFORMATION
#MNEM.UNIT          VALUE    DESCRIPTION
#----------   ------------   ------------------------------
 PD  .                 GL:   PERMANENT DATUM
 EPD .F              5147:   ELEVATION PERMANENT DATUM
 LMF .                 KB:   LOG MEASURED FROM
 DAPD.F                10:   FEET ABOVE PERMANENT DATUM
 DMF .                 KB:   DRILLING MEASURED FROM
 EKB .F              5157:   KELLING BUSHING
 EDF .F              5156:   DRILLING FLOOR
 EGL .F              5147:   GROUND LEVEL
 DATE.        18-JAN-1992:   RUN DATE
 RUN .                  1:   RUN NUMBER
 DD  .F               842:   DEPTH DRILLER
 DL  .F               837:   DEPTH LOGGER
 BLI .F               835:   BOTTOM LOG INTERVAL
 TLI .F                 4:   TOP LOG INTERVAL
 CS  .IN            8.625:   CASING SIZE
 CBD .F                39:   CASING BOTTOM DRILLER
 CBL .F                56:   CASING BOTTOM LOGGER
 BS  .IN             8.75:   BIT SIZE
 BSD .F               842:   BIT SIZE AT DEPTH
 DFT .                AIR:   DRILLING FLUID TYPE
 LUN .           HL- 6272:   LOGGING UNIT NUMBER
 LUL .             CASPER:   LOGGING UNIT LOCATION
 ENGI.       P. RASMUSSEN:   RECORDING ENGINEER
 WITN.          G. STRONG:   WITNESSED BY
 CLNT.            A2DTECH:   CLIENT CODE
 ORIG.           5" PRINT:   ORIGIN OF DATA
 UWI .       490252249900:   UNIQUE WELL ID
 DICO. A2D Technologies, Inc.:   DIGITIZING COMPANY
~OTHER INFORMATION
~A    DEPT      GRR      RILD       RILM   
# ...
   95.0000   137.8691     7.6571     7.6675
   95.1000   137.5951     7.6566     7.7005
   95.2000   137.5951     7.6633     7.7208
   95.3000   137.4265     7.7093     7.7342
   95.4000   137.2907     7.7089     7.7745
   95.5000   137.3485     7.7085     7.7742
   95.6000   137.5976     7.7297     7.7741
   95.7000   137.8465     7.7616     7.7738
   95.8000   138.0956     7.7630     7.7920
   95.9000   138.6259     7.8150     7.8279
   96.0000   139.2024     7.8147     7.8276
   96.1000   139.4515     7.8142     7.8274
   96.2000   139.7260     7.8302     7.8605
   96.3000   140.3964     7.8681     7.8818
   96.4000   140.8073     7.8676     7.8950
   96.5000   141.1689     7.9085     7.9399
   96.6000   141.6097     7.9532     7.9920
   96.7000   141.8586     7.9768     7.9918
   96.8000   142.1077     7.9876     8.0202
   96.9000   142.5521     8.0318     8.0473
   97.0000   142.9102     8.0313     8.0553
   97.1000   143.0746     8.0674     8.1033
   97.2000   143.0746     8.0867     8.1031
   97.3000   143.0746     8.0862     8.1368
   97.4000   143.0746     8.0914     8.1832
   97.5000   143.0746     8.1419     8.2163
   97.6000   142.7386     8.1832     8.2190
   97.7000   142.1048     8.1980     8.2734
   97.8000   141.8532     8.2186     8.3130
   97.9000   141.1065     8.2545     8.3603
   98.0000   140.1644     8.2540     8.3891
   98.1000   139.0291     8.2536     8.3969
   98.2000   137.8682     8.2531     8.4474
   98.3000   136.9290     8.2526     8.4929
   98.4000   136.3775     8.2522     8.5413
   98.5000   136.1553     8.2517     8.5655
   98.6000   135.9063     8.2512     8.5787
   98.7000   135.7686     8.2922     8.6250
   98.8000   135.7686     8.3081     8.6247
   98.9000   135.7686     8.3077     8.6654
   99.0000   135.7686     8.3169     8.7148
   99.1000   136.3511     8.3649     8.7644
   99.2000   138.9283     8.4113     8.8143
   99.3000   139.7407     8.4589     8.8678
   99.4000   140.5531     8.5068     8.9149
   99.5000   141.3656     8.5400     8.9294
   99.6000   142.0970     8.5435     8.9541
   99.7000   142.2816     8.5987     9.0051
   99.8000   142.4662     8.6404     9.0563
   99.9000   142.6507     8.6580     9.1174
  100.0000   142.8353     8.6777     9.2027
  100.1000   143.0306     8.7268     9.2765
  100.2000   143.2927     8.7782     9.3294
  100.3000   143.2927     8.7777     9.3825
  100.4000   143.2927     8.8141     9.4401
  100.5000   143.0671     8.8639     9.4897
  100.6000   142.5747     8.9141     9.5057
  100.7000   142.0732     8.9645     9.5313
  100.8000   141.1068     9.0236     9.5856
  100.9000   140.1223     9.0663     9.6386
  101.0000   139.3859     9.1176     9.6383
  101.1000   138.9590     9.1692     9.6825
  101.2000   138.7195     9.2210     9.7054
  101.3000   139.7303     9.2764     9.7249
  101.4000   140.7152     9.3257     9.7803
  101.5000   141.4292     9.3785     9.8410
  101.6000   141.9215     9.4052     9.8407
  101.7000   142.4140     9.4189     9.8792
  101.8000   142.9878     9.4700     9.9091
  101.9000   143.1930     9.4694     9.9225
  102.0000   143.5857     9.5132     9.9780
  102.1000   143.9902     9.5348     9.9778
  102.2000   144.2364     9.5542     9.9774
  102.3000   144.5122     9.6083    10.0097
  102.4000   144.7288     9.6671    10.0468
  102.5000   144.8171     9.6666    10.0466
  102.6000   144.7181     9.7044    10.0462
  102.7000   144.5122     9.7332    10.0460
  102.8000   144.5122     9.7327    10.0392
  102.9000   144.5122     9.7321    10.0292
  103.0000   144.1741     9.7315    10.0192
  103.1000   143.6819     9.7753    10.0093
  103.2000   142.6236     9.7986     9.9993
  103.3000   139.3293     9.7980     9.9894
  103.4000   137.4178     9.7975     9.9794
  103.5000   136.3494     9.7969     9.9694
  103.6000   135.6109     9.7964     9.9595
  103.7000   134.9982     9.7958     9.9495
  103.8000   134.7522     9.7953     9.9395
  103.9000   134.5059     9.7948     9.9296
  104.0000   134.4512     9.7942     9.9196
  104.1000   134.4512     9.7936     9.9097
  104.2000   134.4512     9.7931     9.8997
  104.3000   134.4512     9.7926     9.8897
  104.4000   134.4512     9.7920     9.8798
  104.5000   134.4512     9.7915     9.8698
  104.6000   134.5952     9.7909     9.8598
  104.7000   134.7561     9.7904     9.8499
  104.8000   134.7561     9.7898     9.8561
  104.9000   134.7561     9.7893     9.8772
  105.0000   134.6491     9.7888     9.8983
  105.1000   134.5260     9.7882     9.9194
  105.2000   134.4030     9.7876     9.9405
  105.3000   134.2799     9.7871     9.9616
  105.4000   134.1463     9.7865     9.9828
  105.5000   134.5966     9.7860    10.0039
  105.6000   135.4220     9.7855    10.0250
  105.7000   136.1912     9.7848    10.0461
  105.8000   136.6833     9.7844    10.0672
  105.9000   137.1951     9.7838    10.0883
  106.0000   137.9044     9.7833    10.1094
  106.1000   138.6427     9.7827    10.1240
  106.2000   139.2623     9.7822    10.1240
  106.3000   139.6944     9.7817    10.1240
  106.4000   139.9390     9.7403    10.1240
  106.5000   139.9390     9.7126    10.1240
  106.6000   139.9380     9.7120    10.1240
  106.7000   139.9398     9.7081    10.1240
  106.8000   139.9416     9.6433    10.1240
  106.9000   139.9435     9.6428    10.1240
  107.0000   140.0710     9.6423     9.9948
  107.1000   140.3191     9.6206     9.9947
  107.2000   140.5886     9.5742     9.9946
  107.3000   141.4709     9.5736     9.9944
  107.4000   141.6718     9.5731     9.9943
  107.5000   142.0619     9.5726     9.9849
  107.6000   142.4721     9.5721     9.9246
  107.7000   142.7473     9.5572     9.9245
  107.8000   143.3036     9.5045     9.9244
  107.9000   143.9518     9.5038     9.8984
  108.0000   144.6929     9.5034     9.8553
  108.1000   145.4341     9.5029     9.8551
  108.2000   146.0891     9.4825     9.7998
  108.3000   146.3521     9.4357     9.7445
  108.4000   146.3538     9.4352     9.7185
  108.5000   146.5299     9.4347     9.7022
  108.6000   146.6614     9.3970     9.6508
  108.7000   146.6632     9.3680     9.6506
  108.8000   146.6650     9.3545     9.6055
  108.9000   146.6669     9.3008     9.5834
  109.0000   146.6687     9.2475     9.5638
  109.1000   146.8033     9.2361     9.5098
  109.2000   147.0516     9.2057     9.4505
  109.3000   147.2998     9.1709     9.4028
  109.4000   147.5881     9.1703     9.3847
  109.5000   147.7963     9.1698     9.3619
  109.6000   148.1937     9.1226     9.3040
  109.7000   148.5968     9.0703     9.2352
  109.8000   148.8790     9.0182     9.1760
  109.9000   149.4209     8.9664     9.0630
  110.0000   149.6454     8.9150     9.0168
  110.1000   149.7283     8.8639     8.9659
  110.2000   149.7301     8.8130     8.9153
  110.3000   149.7319     8.7624     8.8752
  110.4000   149.7338     8.7121     8.8751
  110.5000   149.7355     8.6621     8.8265
  110.6000   149.5558     8.6064     8.8132
  110.7000   149.4352     8.4782     8.7882
  110.8000   149.3706     8.3649     8.7519
  110.9000   149.1261     8.2897     8.7499
  111.0000   148.8332     8.2421     8.6909
  111.1000   148.8346     8.1939     8.6908
  111.2000   148.8365     8.1934     8.6628
  111.3000   148.8383     8.1578     8.6140
  111.4000   148.8401     8.1355     8.5605
  111.5000   148.8422     8.1209     8.4516
  111.6000   148.8438     8.0743     8.4102
  111.7000   148.8456     8.0214     8.3927
  111.8000   148.8474     8.0210     8.3549
  111.9000   148.8492     7.9918     8.2687
  112.0000   148.8512     7.9643     8.2190
  112.1000   149.3134     7.9556     8.1757
  112.2000   149.8079     7.9081     8.1617
  112.3000   150.1875     7.8646     8.1402
  112.4000   150.4934     7.8522     8.0942
  112.5000   150.9878     7.8518     8.0485
  112.6000   150.7433     7.8514     8.0032
  112.7000   150.6875     7.8510     7.9581
  112.8000   150.5581     7.8504     7.9369
  112.9000   150.3136     7.8128     7.9234
  113.0000   150.0689     7.7950     7.8816
  113.1000   149.7833     7.7946     7.8815
