~VERSION INFORMATION
 VERS.                2.0:   CWLS LOG ASCII STANDARD - VERSION 2.0
 WRAP.                 NO:   ONE LINE PER DEPTH STEP
~WELL INFORMATION
#MNEM.UNIT      DATA TYPE    INFORMATION
#----------   ------------   ------------------------------
 STRT.F           27.0000:   START DEPTH
 STOP.F          992.0000:   STOP DEPTH
 STEP.F            0.5000:   STEP LENGTH
 NULL.          -999.2500:   NO VALUE
 COMP. FENIX & SCISSON INC:   COMPANY
 WELL. NPR 3  77- S -27 #77-27:   WELL
 FLD .             TEAPOT:   FIELD
 LOC .      S27 T39N R78W:   LOCATION
 CNTY.            NATRONA:   COUNTY
 STAT.            WYOMING:   STATE
 CTRY. UNITED STATES OF AMERICA:   COUNTRY
 SRVC.            Unknown:   SERVICE COMPANY
 DATE.        09-SEP-1978:   LOGDATE
 API .       490251069700:   API NUMBER
~CURVE INFORMATION
#MNEM.UNIT       API CODE    CURVE DESCRIPTION
#----------   ------------   ------------------------------
 DEPT.F                  :   
 SPR .MV     05 010 01 00:   SPONTANEOUS POTENTIAL FROM RES.
 SN  .OHMM   05 040 16 00:   SHORT NORMAL 16"
 ILD .OHMM   05 120 46 00:   INDUCTION LOG DEEP
 CALD.IN     45 280 60 00:   CALIPER
 GRD .GAPI   45 310 01 00:   GAMMA RAY FROM DENSITY LOG
 RHOB.G/C3   45 350 01 00:   BULK DENSITY
 CORR.G/C3   45 356 01 00:   DENSITY CORRECTION
 DPHI.DEC    45 890 12 00:   DENSITY POROSITY SANDSTONE
~PARAMETER INFORMATION
#MNEM.UNIT          VALUE    DESCRIPTION
#----------   ------------   ------------------------------
 PD  .                 GL:   PERMANENT DATUM
 EPD .F              5069:   ELEVATION PERMANENT DATUM
 LMF .                 KB:   LOG MEASURED FROM
 DAPD.F                 4:   FEET ABOVE PERMANENT DATUM
 DMF .                 KB:   DRILLING MEASURED FROM
 EKB .F              5073:   KELLING BUSHING
 EGL .F              5069:   GROUND LEVEL
 DATE.           9-9-1978:   RUN DATE
 RUN .                  1:   RUN NUMBER
 DD  .F               990:   DEPTH DRILLER
 DL  .F               998:   DEPTH LOGGER
 BLI .F               992:   BOTTOM LOG INTERVAL
 TLI .F                50:   TOP LOG INTERVAL
 CS  .IN            8.625:   CASING SIZE
 CBD .F                40:   CASING BOTTOM DRILLER
 BS  .IN            7.875:   BIT SIZE
 BSD .F               990:   BIT SIZE AT DEPTH
 DFT .                KCL:   DRILLING FLUID TYPE
 DFD .                8.7:   DRILLING FLUID DENSITY
 DFV .                 34:   DRILLING FLUID VISCOSITY
 DFPH.                  9:   DRILLING FLUID PH
 DFL .                  8:   DRILLING FLUID LOSS
 MSS .          FLOW LINE:   MUD SAMPLE SOURCE
 RMS .OHMM             .4:   RESISTIVITY MUD SAMPLE
 MST .F                79:   MUD SAMPLE TEMPERATURE
 RMF .OHMM            .12:   RESISTIVITY MUD FILTRATE SAMPLE
 MFST.F                84:   MUD FILTRATE SAMPLE TEMPERATURE
 RMC .OHMM            .34:   RESISTIVITY MUD CAKE
 MCST.F                84:   MUD CAKE SAMPLE TEMPERATURE
 MFSS.               MEAS:   MUD FILTRATE SAMPLE SOURCE
 MCSS.               MEAS:   MUD CAKE SAMPLE SOURCE
 TCS .HRS               3:   TIME CURCULATED STOPPED
 LUN .               2958:   LOGGING UNIT NUMBER
 LUL .               CASP:   LOGGING UNIT LOCATION
 ENGI.             MILLER:   RECORDING ENGINEER
 WITN.              AMEND:   WITNESSED BY
 CLNT.            A2DTECH:   CLIENT CODE
 ORIG.           5" PRINT:   ORIGIN OF DATA
 UWI .       490251069700:   UNIQUE WELL ID
 DICO. A2D Technologies, Inc.:   DIGITIZING COMPANY
~OTHER INFORMATION
~A   DEPT      SPR         SN        ILD       CALD        GRD       RHOB       CORR       DPHI   
# ...
  837.0000   -17.7932     9.7942    12.4152     7.3284   103.7095     2.3881     0.0142     0.1718
  837.5000   -17.7932     9.8091    12.3922     7.2853   103.9411     2.3871     0.0145     0.1750
  838.0000   -17.7932     9.8240    12.3691     7.2682   104.1684     2.3829     0.0149     0.1805
  838.5000   -17.7932     9.8390    12.3456     7.3092   105.9802     2.3751     0.0153     0.1860
  839.0000   -17.7928     9.8540    12.3385     7.3490   108.4610     2.3674     0.0160     0.1914
  839.5000   -17.7928     9.8691    12.3183     7.3733   110.9665     2.3596     0.0175     0.1931
  840.0000   -17.8199     9.8841    13.0105     7.3678   112.0011     2.3516     0.0191     0.1894
  840.5000   -18.0199     9.8992    13.8282     7.3627   111.4746     2.3500     0.0206     0.1796
  841.0000   -18.2213     9.9143    14.6974     7.3578   109.5830     2.3536     0.0215     0.1599
  841.5000   -18.4871     9.9294    15.6212     7.3615   107.6932     2.3857     0.0212     0.1402
  842.0000   -19.0882     9.9445    16.1076     7.4007   105.8101     2.4189     0.0133     0.1280
  842.5000   -19.5817     9.9597    16.1901     7.4394   103.9250     2.4524     0.0049     0.1295
  843.0000   -19.4842     9.9749    16.3270     7.4779   102.0486     2.4596     0.0034     0.1442
  843.5000   -19.3854     9.9777    16.6406     7.5165   100.5450     2.4415     0.0098     0.1588
  844.0000   -19.9164     9.8517    17.2108     7.5550   100.5625     2.4199     0.0192     0.1734
  844.5000   -20.5842     9.7007    17.6616     7.5934   100.9674     2.3983     0.0200     0.1879
  845.0000   -21.2520     9.5520    16.6831     7.6152   102.2088     2.3767     0.0214     0.1915
  845.5000   -21.7819     9.4057    15.7552     7.6030   103.4140     2.3563     0.0263     0.1909
  846.0000   -21.7708     9.2689    14.8853     7.5751   103.7963     2.3539     0.0336     0.1902
  846.5000   -21.7696     9.0998    14.2740     7.5575   104.4703     2.3531     0.0411     0.1897
  847.0000   -21.7694     9.1071    13.7694     7.6232   105.7103     2.3523     0.0449     0.1894
  847.5000   -21.7694     9.1185    13.6468     7.6883   106.9198     2.3514     0.0459     0.1878
  848.0000   -21.7694     9.1295    13.7243     7.7363   107.9658     2.3517     0.0518     0.1827
  848.5000   -21.7694     9.1406    13.7731     7.7319   107.1200     2.3606     0.0581     0.1777
  849.0000   -21.7692     9.1518    13.6678     7.7283   105.7212     2.3702     0.0614     0.1759
  849.5000   -21.7686     9.1630    13.5495     7.7248   104.3324     2.3775     0.0615     0.1751
  850.0000   -21.7738     9.1743    13.4323     7.7214   104.3498     2.3782     0.0614     0.1720
  850.5000   -21.8670     9.1855    13.3977     7.7180   107.4218     2.3790     0.0650     0.1655
  851.0000   -21.9705     9.1967    13.3977     7.7131   110.9410     2.3816     0.0698     0.1590
  851.5000   -22.5381     9.2080    13.3977     7.6924   112.1997     2.3962     0.0717     0.1528
  852.0000   -22.9916     9.2193    13.3977     7.6715   111.4711     2.4121     0.0644     0.1597
  852.5000   -23.0569     9.2306    13.2749     7.6506   110.3822     2.4133     0.0572     0.1673
  853.0000   -23.1302     9.2419    12.8079     7.6295   110.8647     2.3940     0.0580     0.1693
  853.5000   -23.1843     9.2532    12.3392     7.5874   111.7689     2.3883     0.0684     0.1711
  854.0000   -23.2265     9.2646    11.8858     7.4954   112.2135     2.3870     0.0735     0.1735
  854.5000   -23.2683     9.2759    11.7309     7.4055   111.0570     2.3829     0.0707     0.1839
  855.0000   -23.3101     9.2873    11.5774     7.3484   109.3500     2.3701     0.0585     0.1871
  855.5000   -23.3520     9.2986    11.4260     7.2892   107.5490     2.3589     0.0558     0.1838
  856.0000   -23.3938     9.3100    11.2765     7.2299   105.7520     2.3657     0.0563     0.1746
  856.5000   -23.4356     9.3215    11.1289     7.1691   104.3030     2.3847     0.0570     0.1592
  857.0000   -23.4763     9.3323    10.9833     7.1177   105.6265     2.4028     0.0572     0.1448
  857.5000   -23.5138     9.3512    10.8396     7.0188   106.9445     2.4210     0.0508     0.1486
  858.0000   -23.5910     9.3448    10.6978     6.8836   106.4616     2.4302     0.0315     0.1609
  858.5000   -24.3509     9.4950    10.5446     7.1433   105.7163     2.4144     0.0124     0.1730
  859.0000   -25.1111     9.6038    10.6422     7.2804   104.9681     2.3941     0.0063     0.1863
  859.5000   -25.8548     9.7138    10.9437     7.3039   104.2239     2.3733     0.0082     0.1861
  860.0000   -26.1218     9.8251    11.3799     7.3257   104.3100     2.3638     0.0120     0.1615
  860.5000   -26.3398     9.9377    11.7141     7.3473   104.5908     2.3771     0.0155     0.1352
  861.0000   -27.2999    10.0515    11.8546     7.3688   104.5919     2.4174     0.0135     0.1086
  861.5000   -28.3558    10.1667    11.9925     7.4274   105.0209     2.4559     0.0098     0.0896
  862.0000   -29.4187    10.2832    12.1330     7.5022   106.5867     2.4947     0.0065     0.0908
  862.5000   -30.4733    10.4010    12.4002     7.4027   108.1586     2.5154     0.0032     0.0920
  863.0000   -30.5245    10.4479    12.8713     7.3147   109.7114     2.5160     0.0025     0.0869
  863.5000   -30.5183    10.3661    13.1532     7.3521   110.3348     2.5162     0.0061     0.0795
  864.0000   -30.5183    10.2859    12.9024     7.4185   110.6070     2.5252     0.0097     0.0744
  864.5000   -30.6118    10.1053    12.6052     7.4855   109.4086     2.5443     0.0117     0.0893
  865.0000   -30.8652     9.8726    12.3149     7.5526   107.2352     2.5466     0.0121     0.1008
  865.5000   -31.1159     9.6452    12.0312     7.6194   106.5995     2.5296     0.0125     0.1123
  866.0000   -31.3656     9.4230    11.7753     7.6811   106.0387     2.5025     0.0129     0.1237
  866.5000   -31.5055     9.2060    11.5989     7.7082   103.8619     2.4755     0.0133     0.1276
  867.0000   -31.4876     8.9939    11.4362     7.7362   101.6173     2.4623     0.0144     0.1238
  867.5000   -31.4718     8.9337    11.2762     7.7642   101.2000     2.4652     0.0162     0.1203
  868.0000   -31.4555     8.9337    11.1185     7.7921   103.3772     2.4715     0.0180     0.1171
  868.5000   -31.4393     8.8518    10.9629     7.8213   108.9922     2.4761     0.0197     0.1172
  869.0000   -31.4231     8.8495    10.8096     7.8351   114.4780     2.4758     0.0215     0.1177
  869.5000   -31.4069     8.8511    10.6583     7.8343   114.0634     2.4755     0.0233     0.1184
  870.0000   -31.3907     8.8520    10.5092     7.8250   113.0127     2.4752     0.0267     0.1182
  870.5000   -31.3745     8.8764    10.4479     7.8158   114.0054     2.4751     0.0303     0.1176
  871.0000   -31.3583     8.8922    10.4479     7.8067   116.3418     2.4774     0.0336     0.1135
  871.5000   -31.3423     8.9079    10.4479     7.7972   118.0818     2.4858     0.0335     0.1099
  872.0000   -31.3261     8.9237    10.4479     7.8048   118.4309     2.4937     0.0335     0.1082
  872.5000   -31.2941     8.9395    10.4479     7.8203   118.5669     2.4933     0.0335     0.1081
  873.0000   -31.1684     8.9553    10.4479     7.8345   118.5920     2.4919     0.0334     0.1082
  873.5000   -31.0426     8.9712    10.4479     7.8129   118.5113     2.4905     0.0334     0.1084
  874.0000   -30.9170     8.9871    10.4479     7.7898   118.4254     2.4891     0.0338     0.1084
  874.5000   -30.7915     9.0030    10.4479     7.7785   118.0564     2.4894     0.0410     0.1011
  875.0000   -30.6660     9.0190    11.1309     7.7868   117.1274     2.4942     0.0480     0.0944
  875.5000   -30.5405     9.0349    11.5648     7.7948   116.2529     2.5061     0.0552     0.0878
  876.0000   -30.4149     9.0509    11.5636     7.8029   116.0461     2.5184     0.0507     0.0804
  876.5000   -30.2895     9.0667    11.4420     7.8106   116.2365     2.5308     0.0453     0.0876
  877.0000   -30.1627     9.0830    11.3354     7.7990   116.4192     2.5366     0.0397     0.0979
