~VERSION INFORMATION
 VERS.                2.0:   CWLS LOG ASCII STANDARD - VERSION 2.0
 WRAP.                 NO:   ONE LINE PER DEPTH STEP
~WELL INFORMATION
#MNEM.UNIT      DATA TYPE    INFORMATION
#----------   ------------   ------------------------------
 STRT.F           31.0000:   START DEPTH
 STOP.F          600.0000:   STOP DEPTH
 STEP.F            0.5000:   STEP LENGTH
 NULL.          -999.2500:   NO VALUE
 COMP. FENIX & SCISSON INC:   COMPANY
 WELL.      NPR 3 #84 S-3:   WELL
 FLD .             TEAPOT:   FIELD
 LOC .       S3 T38N R78W:   LOCATION
 CNTY.            NATRONA:   COUNTY
 STAT.            WYOMING:   STATE
 CTRY. UNITED STATES OF AMERICA:   COUNTRY
 SRVC.              Welex:   SERVICE COMPANY
 DATE.        29-MAR-1977:   LOGDATE
 API .       490251032000:   API NUMBER
~CURVE INFORMATION
#MNEM.UNIT       API CODE    CURVE DESCRIPTION
#----------   ------------   ------------------------------
 DEPT.F                  :   
 CALD.IN     45 280 60 00:   CALIPER FROM DENSITY LOG
 GRD .GAPI   45 310 01 00:   GAMMA RAY FROM DENSITY LOG
 CORR.G/C3   45 356 01 00:   DENSITY CORRECTION
 DPHI.DEC    45 890 12 00:   DENSITY POROSITY SANDSTONE
 RHOB.G/C3   45 350 01 00:   BULK DENSITY
 SPR .MV     07 010 01 00:   SPONTANEOUS POTENTIAL
 ILD .OHMM   07 120 46 00:   INDUCTION LOG DEEP
 ILM .OHMM   07 120 44 00:   INDUCTION LOG MEDIUM
 SGRD.OHMM   07 221 05 00:   SHALLOW SHORT GUARD RESISTIVITY
~PARAMETER INFORMATION
#MNEM.UNIT          VALUE    DESCRIPTION
#----------   ------------   ------------------------------
 PD  .                 GL:   PERMANENT DATUM
 EPD .F              5146:   ELEVATION PERMANENT DATUM
 LMF .                 GL:   LOG MEASURED FROM
 DMF .                 GL:   DRILLING MEASURED FROM
 EGL .F              5146:   GROUND LEVEL
 DATE.        29-MAR-1977:   RUN DATE
 RUN .                  1:   RUN NUMBER
 DD  .F               610:   DEPTH DRILLER
 DL  .F               602:   DEPTH LOGGER
 BLI .F               600:   BOTTOM LOG INTERVAL
 TLI .F                30:   TOP LOG INTERVAL
 CS  .IN            8.625:   CASING SIZE
 BSD .F               610:   BIT SIZE AT DEPTH
 DFT .                KCL:   DRILLING FLUID TYPE
 DFD .                8.8:   DRILLING FLUID DENSITY
 BHT .F                63:   BOTTOM HOLE TEMPERATURE
 TCS .HRS            0500:   TIME CURCULATED STOPPED
 MRT .F                63:   MAXIMUM RECORDED TEMPERATURE
 ENGI.            C. DOAK:   RECORDING ENGINEER
 WITN.            R. LYON:   WITNESSED BY
 CLNT.            A2DTECH:   CLIENT CODE
 ORIG.           5" PRINT:   ORIGIN OF DATA
 UWI .       490251032000:   UNIQUE WELL ID
 DICO. A2D Technologies, Inc.:   DIGITIZING COMPANY
~OTHER INFORMATION
~A   DEPT     CALD        GRD       CORR       DPHI       RHOB        SPR        ILD        ILM       SGRD   
# ...
  286.5000     7.8782   121.2822     0.0310     0.0900     2.4956   -45.2735     7.7943     9.2062    11.3596
  287.0000     7.8649   121.5951     0.0281     0.0948     2.4896   -41.2468     7.7981     9.3422    11.3674
  287.5000     7.8669   121.4605     0.0237     0.0992     2.4821   -38.7061     7.8018     9.6100    11.5339
  288.0000     7.8683   120.5814     0.0194     0.0962     2.4765   -37.5026     7.8056     9.3835    11.7028
  288.5000     7.8699   119.2549     0.0150     0.0923     2.4863   -36.4477     7.8093     9.0319    11.8721
  289.0000     7.8867   117.0313     0.0137     0.0902     2.4909   -35.5414     7.7593     9.1715    11.4780
  289.5000     7.8815   115.2444     0.0154     0.0860     2.5067   -36.8639     7.7630     9.4228    11.7270
  290.0000     7.8897   113.4675     0.0186     0.0803     2.5180   -38.7808     7.7667     8.9817    12.1464
  290.5000     7.8916   112.6077     0.0217     0.0776     2.5166   -39.9548     7.7705     8.3846    11.5017
  291.0000     7.8930   112.9399     0.0234     0.0797     2.5122   -40.3858     7.7742     8.6235    11.2710
  291.5000     7.8948   114.0258     0.0251     0.0859     2.5077   -41.1140     7.7243     8.7464    11.2010
  292.0000     7.8963   114.7385     0.0268     0.0967     2.4996   -41.6939     7.6220     8.3950    11.0564
  292.5000     7.8981   113.7138     0.0284     0.1057     2.4846   -40.7873     7.4692     8.1692    10.9858
  293.0000     7.8844   113.1287     0.0286     0.1125     2.4637   -41.6640     7.2691     8.2865    10.8440
  293.5000     7.8864   114.6376     0.0273     0.1209     2.4496   -43.2838     7.0744     8.1196    10.7747
  294.0000     7.8728   115.2485     0.0259     0.1380     2.4346   -44.9054     6.8368     7.7388    10.6338
  294.5000     7.8748   114.3691     0.0229     0.1501     2.4130   -45.3345     6.6048     7.5830    10.4242
  295.0000     7.8764   113.3406     0.0170     0.1611     2.3898   -44.2596     6.2532     7.3281    10.0068
  295.5000     7.8781   113.9516     0.0095     0.1745     2.3681   -44.7519     5.9973     6.9845     9.5399
  296.0000     7.8797   114.5625     0.0010     0.1956     2.3547   -46.3303     5.5884     6.6111     8.8462
  296.5000     7.8813   114.7263    -0.0064     0.2064     2.3143   -44.7855     5.1476     6.2576     8.2600
  297.0000     7.8680   114.5921    -0.0138     0.2187     2.2873   -42.5854     4.7196     6.0056     7.8203
  297.5000     7.8697   114.1598    -0.0182     0.2210     2.2754   -43.9086     4.2844     5.6064     7.4039
  298.0000     7.8862   112.0881    -0.0226     0.2204     2.2726   -40.3240     3.9232     4.8838     6.8182
  298.5000     7.8878   111.5068    -0.0239     0.2135     2.2906   -39.2692     3.5140     4.4655     6.1924
  299.0000     7.8896   112.8629    -0.0237     0.1905     2.3185   -39.2544     3.1913     3.9441     5.3580
  299.5000     7.8911   115.5602    -0.0115     0.1695     2.3575   -39.3882     2.8983     3.4121     4.7333
  300.0000     7.8927   118.8473    -0.0033     0.1490     2.4003   -39.3735     2.7059     3.0885     4.1335
  300.5000     7.9098   122.4334    -0.0004     0.1303     2.4439   -40.5474     2.5612     2.7920     3.8496
  301.0000     7.9269   124.5395     0.0026     0.1155     2.4567   -42.3156     2.5273     2.6633     3.3757
  301.5000     7.9431   123.9554     0.0055     0.1119     2.4590   -43.6381     2.5291     2.7080     3.0469
  302.0000     7.9449   121.4338     0.0071     0.1104     2.4538   -42.8803     2.6395     2.9666     3.2599
  302.5000     7.9467   119.6573     0.0087     0.1107     2.4622   -38.4079     2.8094     3.3454     4.3317
  303.0000     7.9484   119.5142     0.0103     0.1100     2.4600   -35.2727     3.0156     3.5688     5.5732
  303.5000     7.9204   121.1715     0.0103     0.1081     2.4623   -35.1130     3.3223     4.0441     6.5482
  304.0000     7.9070   119.2461     0.0104     0.1045     2.4691   -36.5804     3.7529     4.7114     6.1147
  304.5000     7.8942   117.6187     0.0105     0.1022     2.4744   -40.1317     4.2665     5.0864     8.5540
  305.0000     7.8957   117.4814     0.0106     0.1016     2.4753   -46.2090     4.8061     5.5295     8.8480
  305.5000     7.8976   118.0896     0.0106     0.1000     2.4783   -44.2626     5.3611     6.1372     8.8463
  306.0000     7.8845   119.2938     0.0107     0.0964     2.4837   -40.9788     5.6238     6.3125     8.8533
  306.5000     7.8863   120.9451     0.0108     0.0979     2.4815   -37.1007     5.8245     6.5379     8.8600
  307.0000     7.8879   122.4474     0.0109     0.1022     2.4733   -35.9009     5.9495     6.7713     8.8053
  307.5000     7.9048   124.0987     0.0109     0.1094     2.4605   -36.9262     6.0693     6.8208     8.5729
  308.0000     7.9067   125.7499     0.0110     0.1212     2.4511   -35.2732     6.0718     6.4565     8.5794
  308.5000     7.9082   127.1032     0.0111     0.1257     2.4403   -33.9211     6.0318     6.5505     8.6456
  309.0000     7.9102   127.8603     0.0097     0.1266     2.4358   -33.0148     5.8704     6.7843     8.8338
  309.5000     7.9121   127.2761     0.0082     0.1242     2.4449   -33.5980     5.7128     6.6023     9.0888
  310.0000     7.9136   126.5425     0.0083     0.1160     2.4591   -34.0253     5.5593     6.0364     9.3511
  310.5000     7.9153   127.3000     0.0068     0.1067     2.4704   -34.7534     5.4100     6.6086     9.4233
  311.0000     7.9173   129.1003     0.0054     0.1028     2.4735   -34.5900     5.3007     6.2557     9.3636
  311.5000     7.9191   130.6025     0.0025     0.1043     2.4683   -33.8322     5.0881     6.0042     8.9910
  312.0000     7.9209   131.0616     0.0010     0.1073     2.4623   -33.5240     4.8164     5.7628     7.7800
  312.5000     7.9227   130.9245    -0.0034     0.1077     2.4676   -36.6258     4.6228     5.6081     5.3198
  313.0000     7.9243   129.4461    -0.0048     0.1030     2.4752   -36.9119     4.5293     5.3826     5.7852
  313.5000     7.9264   126.6265    -0.0032     0.1018     2.4737   -37.7849     4.5000     5.2382     7.4288
  314.0000     7.9279   124.5520    -0.0001     0.1075     2.4618   -41.0390     4.5966     5.2771     7.2816
  314.5000     7.9297   122.3284     0.0029     0.1060     2.4701   -42.5138     4.7274     5.3928     5.4104
  315.0000     7.9316   120.8501     0.0060     0.1000     2.4806   -41.3066     4.8956     5.5868     7.0444
  315.5000     7.9336   119.9678     0.0091     0.0943     2.4904   -39.9545     5.1049     5.7878     9.0458
  316.0000     7.9354   119.3807     0.0077     0.0909     2.4942   -39.6462     5.3232     5.9618     9.9724
  316.5000     7.9372   119.0975     0.0047     0.0948     2.4860   -40.0772     5.5508     6.2896     7.5668
  317.0000     7.9386   118.9604     0.0033     0.1005     2.4801   -40.6530     5.7483     6.5594     8.1719
  317.5000     7.9407   118.9724     0.0019     0.1050     2.4714   -41.5297     6.0356     6.8407     9.1998
  318.0000     7.9425   118.9843     0.0020     0.1070     2.4637   -42.1100     6.2937     7.1837     9.7989
  318.5000     7.9443   119.7414     0.0036     0.1073     2.4670   -41.5001     6.5628     7.4402    10.0818
  319.0000     7.9461   122.2869     0.0036     0.1007     2.4778   -40.2966     6.7495     7.7058    10.3728
  319.5000     7.9475   124.5343     0.0037     0.0992     2.4841   -39.3902     6.8463     7.8169    10.6723
  320.0000     7.9493   125.8875     0.0038     0.1045     2.4778   -38.6325     6.9444     7.7658    10.7546
  320.5000     7.9361   126.6446     0.0054     0.1063     2.4698   -38.3205     6.9473     7.7705    10.7628
  321.0000     7.9382   126.6566     0.0085     0.1057     2.4670   -39.3458     6.9502     7.8282    10.6208
  321.5000     7.9399   125.6253     0.0100     0.1048     2.4694   -41.1141     6.8569     7.8319    10.4123
  322.0000     7.9416   124.7430     0.0116     0.1045     2.4716   -42.8823     6.6734     7.7807    10.2060
  322.5000     7.9284   124.6030     0.0117     0.1050     2.4717   -44.6506     6.4495     7.6775     9.9347
