~VERSION INFORMATION
 VERS.                2.0:   CWLS LOG ASCII STANDARD - VERSION 2.0
 WRAP.                 NO:   ONE LINE PER DEPTH STEP
~WELL INFORMATION
#MNEM.UNIT      DATA TYPE    INFORMATION
#----------   ------------   ------------------------------
 STRT.F           39.0000:   START DEPTH
 STOP.F          590.0000:   STOP DEPTH
 STEP.F            0.5000:   STEP LENGTH
 NULL.          -999.2500:   NO VALUE
 COMP. FENIX & SCISSON INC:   COMPANY
 WELL.    NPR-3 SX #41-34:   WELL
 FLD .             TEAPOT:   FIELD
 LOC .      S34 T39N R78W:   LOCATION
 CNTY.            NATRONA:   COUNTY
 STAT.            WYOMING:   STATE
 CTRY. UNITED STATES OF AMERICA:   COUNTRY
 SRVC.           BIRDWELL:   SERVICE COMPANY
 DATE.        28-AUG-1978:   LOGDATE
 API .       490251069800:   API NUMBER
~CURVE INFORMATION
#MNEM.UNIT       API CODE    CURVE DESCRIPTION
#----------   ------------   ------------------------------
 DEPT.F                  :   
 SPR .MV     05 010 01 00:   SPONTANEOUS POTENTIAL FROM RES.
 SN  .OHMM   05 040 16 00:   SHORT NORMAL 16"
 ILD .OHMM   05 120 46 00:   INDUCTION LOG DEEP
 CALD.IN     45 280 60 00:   CALIPER
 GRD .GAPI   45 310 01 00:   GAMMA RAY FROM DENSITY LOG
 RHOB.G/C3   45 350 01 00:   BULK DENSITY
 DPHI.DEC    45 890 12 00:   DENSITY POROSITY SANDSTONE
 CORR.G/C3   45 356 01 00:   DENSITY CORRECTION
~PARAMETER INFORMATION
#MNEM.UNIT          VALUE    DESCRIPTION
#----------   ------------   ------------------------------
 PD  .                 GL:   PERMANENT DATUM
 EPD .F              5064:   ELEVATION PERMANENT DATUM
 LMF .                 KB:   LOG MEASURED FROM
 DAPD.F                 4:   FEET ABOVE PERMANENT DATUM
 DMF .                 KB:   DRILLING MEASURED FROM
 EKB .F              5068:   KELLING BUSHING
 EGL .F              5064:   GROUND LEVEL
 DATE.          8-28-1978:   RUN DATE
 RUN .                  1:   RUN NUMBER
 DD  .F               600:   DEPTH DRILLER
 DL  .F               596:   DEPTH LOGGER
 BLI .F               590:   BOTTOM LOG INTERVAL
 TLI .F                50:   TOP LOG INTERVAL
 CS  .IN            8.625:   CASING SIZE
 CBD .F                40:   CASING BOTTOM DRILLER
 BS  .IN            7.875:   BIT SIZE
 BSD .F               600:   BIT SIZE AT DEPTH
 DFT .                KCL:   DRILLING FLUID TYPE
 DFD .                8.7:   DRILLING FLUID DENSITY
 DFV .                 35:   DRILLING FLUID VISCOSITY
 DFPH.                  9:   DRILLING FLUID PH
 DFL .                 10:   DRILLING FLUID LOSS
 MSS .          FLOW LINE:   MUD SAMPLE SOURCE
 RMS .OHMM             .4:   RESISTIVITY MUD SAMPLE
 MST .F                76:   MUD SAMPLE TEMPERATURE
 RMF .OHMM             .3:   RESISTIVITY MUD FILTRATE SAMPLE
 MFST.F                80:   MUD FILTRATE SAMPLE TEMPERATURE
 RMC .OHMM             .4:   RESISTIVITY MUD CAKE
 MCST.F                80:   MUD CAKE SAMPLE TEMPERATURE
 MFSS.               MEAS:   MUD FILTRATE SAMPLE SOURCE
 MCSS.               MEAS:   MUD CAKE SAMPLE SOURCE
 TCS .HRS               3:   TIME CURCULATED STOPPED
 LUN .               2958:   LOGGING UNIT NUMBER
 LUL .               CASP:   LOGGING UNIT LOCATION
 ENGI.             MILLER:   RECORDING ENGINEER
 WITN.              AMEND:   WITNESSED BY
 CLNT.            A2DTECH:   CLIENT CODE
 ORIG.           5" PRINT:   ORIGIN OF DATA
 UWI .       490251069800:   UNIQUE WELL ID
 DICO. A2D Technologies, Inc.:   DIGITIZING COMPANY
~OTHER INFORMATION
~A   DEPT      SPR         SN        ILD       CALD        GRD         RHOB       DPHI      CORR  
# ...
  241.5000   -29.3819     7.8895     7.6128     7.1818    84.9839     2.4573     0.1364     0.0200
  242.0000   -29.3286     7.7974     7.5071     7.1791    83.4036     2.4548     0.1388     0.0196
  242.5000   -29.2767     7.7064     7.4029     7.1768    83.9084     2.4523     0.1412     0.0193
  243.0000   -29.2831     7.6164     7.3001     7.1743    88.0822     2.4499     0.1429     0.0190
  243.5000   -29.4067     7.5275     7.1988     7.1717    92.3512     2.4505     0.1386     0.0187
  244.0000   -29.5283     7.4396     7.0988     7.1692    93.0059     2.4544     0.1345     0.0183
  244.5000   -29.6504     7.3528     7.0003     7.1667    91.0587     2.4582     0.1337     0.0180
  245.0000   -29.7723     7.2670     6.9031     7.1642    89.7733     2.4610     0.1332     0.0185
  245.5000   -29.8946     7.1821     6.8073     7.1617    90.3773     2.4620     0.1327     0.0216
  246.0000   -30.0212     7.0983     6.7128     7.1592    92.3804     2.4642     0.1298     0.0247
  246.5000   -29.9364     7.0154     6.6193     7.1567    94.0874     2.4678     0.1264     0.0278
  247.0000   -29.8071     6.9335     6.5296     7.1542    91.7020     2.4682     0.1286     0.0286
  247.5000   -29.6770     6.8526     6.4019     7.1516    88.8517     2.4657     0.1308     0.0239
  248.0000   -29.5473     6.7677     6.4026     7.1491    86.3382     2.4631     0.1331     0.0215
  248.5000   -29.4179     6.8596     6.4049     7.1466    86.2837     2.4595     0.1353     0.0202
  249.0000   -29.2872     6.9293     6.5301     7.1441    87.0075     2.4557     0.1375     0.0190
  249.5000   -29.2467     6.9996     6.6228     7.1448    87.8146     2.4518     0.1397     0.0178
  250.0000   -29.2530     7.0707     6.7171     7.1465    84.4118     2.4468     0.1417     0.0165
  250.5000   -29.2604     7.1415     6.8148     7.1481    80.5271     2.4462     0.1417     0.0153
  251.0000   -29.2676     7.2867     6.9567     7.1498    78.0272     2.4469     0.1417     0.0140
  251.5000   -29.2748     7.2813     7.0209     7.1515    81.1560     2.4475     0.1417     0.0128
  252.0000   -29.2820     7.2444     6.9802     7.1532    84.1070     2.4446     0.1461     0.0115
  252.5000   -29.2892     7.2050     6.9306     7.1548    81.8809     2.4409     0.1505     0.0103
  253.0000   -29.2964     7.1661     6.8813     7.1565    78.4543     2.4271     0.1549     0.0090
  253.5000   -29.3035     7.1275     6.8301     7.1582    75.6077     2.4246     0.1618     0.0081
  254.0000   -29.3107     7.0891     6.8301     7.1599    78.1075     2.4131     0.1736     0.0089
  254.5000   -29.3179     7.0509     6.6894     7.1615    80.7174     2.3996     0.1789     0.0096
  255.0000   -29.3251     7.0129     6.5922     7.1633    83.9257     2.3893     0.1733     0.0170
  255.5000   -29.3323     6.9751     6.5236     7.1630    87.8916     2.3965     0.1638     0.0277
  256.0000   -29.3395     6.8509     6.2312     7.1619    91.8045     2.4115     0.1543     0.0258
  256.5000   -29.3466     6.6493     5.9751     7.1609    93.8600     2.4300     0.1448     0.0234
  257.0000   -29.3538     6.4536     5.7295     7.1599    92.9388     2.4485     0.1353     0.0236
  257.5000   -29.3610     6.2637     5.6039     7.1589    92.0153     2.4656     0.1259     0.0275
  258.0000   -29.3682     6.0794     5.5297     7.1579    91.7852     2.4818     0.1174     0.0313
  258.5000   -29.3754     5.9005     5.4364     7.1568    92.7242     2.4853     0.1178     0.0334
  259.0000   -29.3825     5.7268     5.3509     7.1558    95.8506     2.4848     0.1183     0.0294
  259.5000   -29.3897     5.5571     5.2667     7.1548    98.1600     2.4843     0.1186     0.0255
  260.0000   -29.3969     5.3767     5.1381     7.1538    96.4584     2.4838     0.1185     0.0226
  260.5000   -29.4041     5.3809     5.1380     7.1528    93.2536     2.4864     0.1151     0.0263
  261.0000   -29.4113     5.4291     5.1351     7.1518    90.0071     2.4941     0.1129     0.0297
  261.5000   -29.4184     5.6745     5.4393     7.1507    89.3967     2.4904     0.1174     0.0314
  262.0000   -29.4256     6.0775     5.7355     7.1497    89.0984     2.4831     0.1222     0.0298
  262.5000   -29.4330     6.5111     6.0457     7.1487    87.7279     2.4774     0.1218     0.0282
  263.0000   -29.4424     6.9569     6.3726     7.1477    86.4102     2.4792     0.1213     0.0266
  263.5000   -29.3605     7.0718     6.7172     7.1467    87.7598     2.4805     0.1210     0.0250
  264.0000   -29.2643     7.1848     6.9490     7.1457    92.2478     2.4803     0.1210     0.0240
  264.5000   -29.1678     7.2997     7.0644     7.1449    91.2438     2.4801     0.1214     0.0244
  265.0000   -29.0716     7.4163     7.1817     7.1422    90.0557     2.4799     0.1219     0.0247
  265.5000   -28.9754     7.5349     7.3009     7.1115    88.8800     2.4797     0.1223     0.0250
  266.0000   -28.8792     7.6553     7.4221     7.0815    89.1544     2.4819     0.1218     0.0253
  266.5000   -28.7830     7.7776     7.4870     7.0517    91.2288     2.4867     0.1173     0.0256
  267.0000   -28.6861     7.9019     7.5561     7.0245    92.3081     2.4906     0.1157     0.0264
  267.5000   -28.6452     7.9841     7.3031     7.0277    91.8802     2.4898     0.1150     0.0279
  268.0000   -28.7782     7.9726     7.0857     7.0317    91.6436     2.4917     0.1143     0.0280
  268.5000   -29.1435     7.9426     7.1269     7.0354    92.0449     2.4908     0.1155     0.0280
  269.0000   -29.5040     7.9126     7.1950     7.0392    91.4839     2.4870     0.1183     0.0258
  269.5000   -29.8669     7.8828     7.2836     7.0429    90.4194     2.4871     0.1160     0.0218
  270.0000   -29.9415     7.8531     7.2836     7.0467    90.4416     2.4968     0.1091     0.0177
  270.5000   -29.7623     7.8235     7.2114     7.0504    90.4924     2.5088     0.1026     0.0136
  271.0000   -29.5779     7.7940     7.1511     7.0542    90.5355     2.5108     0.1030     0.0101
  271.5000   -29.4497     7.7647     6.7412     7.0579    90.5917     2.4992     0.1101     0.0113
  272.0000   -29.7631     7.7354     6.4089     7.0617    89.6310     2.4912     0.1156     0.0126
  272.5000   -30.0764     7.7063     6.3412     7.0654    88.1352     2.4832     0.1211     0.0138
  273.0000   -30.3869     7.6774     6.5656     7.0692    88.3933     2.4752     0.1266     0.0151
  273.5000   -30.6456     7.6481     6.7677     7.0729    90.2345     2.4672     0.1317     0.0156
  274.0000   -30.6398     7.5969     6.5983     7.0767    90.6370     2.4593     0.1358     0.0141
  274.5000   -30.6229     7.4616     6.3927     7.0804    88.2590     2.4542     0.1400     0.0126
  275.0000   -30.6037     7.3297     6.1925     7.0838    87.7507     2.4497     0.1441     0.0111
  275.5000   -30.5845     7.2001     6.0006     7.0919    92.8204     2.4430     0.1550     0.0099
  276.0000   -30.5653     7.0729     5.8682     7.0992    93.5215     2.4359     0.1659     0.0094
  276.5000   -30.5462     6.9478     5.7889     7.1251    86.9730     2.4167     0.1771     0.0090
  277.0000   -30.5270     6.8301     5.7108     7.1252    86.7034     2.3979     0.1906     0.0085
  277.5000   -30.5079     6.7081     5.5277     7.1268    87.4601     2.3710     0.2041     0.0080
  278.0000   -30.4885     6.5931     5.3087     7.1281    87.8763     2.3380     0.2218     0.0117
  278.5000   -30.4690     6.4800     5.0983     7.1295    86.7887     2.3051     0.2456     0.0164
  279.0000   -30.4524     6.3713     4.8963     7.1309    88.3282     2.2722     0.2695     0.0211
  279.5000   -30.5698     5.9875     4.5449     7.1322    91.1584     2.2393     0.2932     0.0258
  280.0000   -30.8951     5.5647     3.9405     7.1336    93.3657     2.2051     0.3037     0.0304
  280.5000   -31.2148     5.1850     3.4164     7.1350    93.0402     2.1889     0.2711     0.0352
  281.0000   -31.4481     4.7332     2.9621     7.1363    92.7234     2.1996     0.2432     0.0337
  281.5000   -31.6511     4.3432     2.6776     7.1377    93.7593     2.2510     0.2154     0.0311
