~VERSION INFORMATION
 VERS.                2.0:   CWLS LOG ASCII STANDARD - VERSION 2.0
 WRAP.                 NO:   ONE LINE PER DEPTH STEP
~WELL INFORMATION
#MNEM.UNIT      DATA TYPE    INFORMATION
#----------   ------------   ------------------------------
 STRT.F           33.5000:   START DEPTH
 STOP.F          692.0000:   STOP DEPTH
 STEP.F            0.5000:   STEP LENGTH
 NULL.          -999.2500:   NO VALUE
 COMP. FENIX & SCISSON INC:   COMPANY
 WELL.       NPR-3 #65-34:   WELL
 FLD .  TEAPOT DOME NPR-3:   FIELD
 LOC .      S34 T39N R78W:   LOCATION
 CNTY.            NATRONA:   COUNTY
 STAT.            WYOMING:   STATE
 CTRY. UNITED STATES OF AMERICA:   COUNTRY
 SRVC.           BIRDWELL:   SERVICE COMPANY
 DATE.        14-AUG-1978:   LOGDATE
 API .       490251070400:   API NUMBER
~CURVE INFORMATION
#MNEM.UNIT       API CODE    CURVE DESCRIPTION
#----------   ------------   ------------------------------
 DEPT.F                  :   
 CALD.IN     45 280 60 00:   CALIPER
 GRD .GAPI   45 310 01 00:   GAMMA RAY FROM DENSITY LOG
 RHOB.G/C3   45 350 01 00:   BULK DENSITY
 CORR.G/C3   45 356 01 00:   DENSITY CORRECTION
 DPHI.DEC    45 890 12 00:   DENSITY POROSITY SANDSTONE
 SPR .MV     05 010 01 00:   SPONTANEOUS POTENTIAL
 SN  .OHMM   05 040 16 00:   SHORT NORMAL 16'
 ILD .OHMM   05 120 46 00:   INDUCTION LOG DEEP RESISTIVITY
~PARAMETER INFORMATION
#MNEM.UNIT          VALUE    DESCRIPTION
#----------   ------------   ------------------------------
 PD  .                 GL:   PERMANENT DATUM
 EPD .F              5083:   ELEVATION PERMANENT DATUM
 LMF .                 KB:   LOG MEASURED FROM
 DAPD.F                 4:   FEET ABOVE PERMANENT DATUM
 DMF .                 KB:   DRILLING MEASURED FROM
 EKB .F              5087:   KELLING BUSHING
 EGL .F              5083:   GROUND LEVEL
 DATE.            8-14-78:   RUN DATE
 RUN .                  1:   RUN NUMBER
 DD  .F               675:   DEPTH DRILLER
 DL  .F               682:   DEPTH LOGGER
 BLI .F               676:   BOTTOM LOG INTERVAL
 TLI .F                50:   TOP LOG INTERVAL
 CS  .IN            8.625:   CASING SIZE
 CBD .F                40:   CASING BOTTOM DRILLER
 BS  .IN            7.875:   BIT SIZE
 BSD .F               675:   BIT SIZE AT DEPTH
 DFT .                KCL:   DRILLING FLUID TYPE
 DFD .                8.7:   DRILLING FLUID DENSITY
 DFV .                 31:   DRILLING FLUID VISCOSITY
 DFPH.                  9:   DRILLING FLUID PH
 TCS .HRS               2:   TIME CURCULATED STOPPED
 LUN .               3006:   LOGGING UNIT NUMBER
 LUL .               CASP:   LOGGING UNIT LOCATION
 ENGI.             MILLER:   RECORDING ENGINEER
 WITN.           MCGINLEY:   WITNESSED BY
 CLNT.            A2DTECH:   CLIENT CODE
 ORIG.           5" PRINT:   ORIGIN OF DATA
 UWI .       490251070400:   UNIQUE WELL ID
 DICO. A2D Technologies, Inc.:   DIGITIZING COMPANY
~OTHER INFORMATION
~A   DEPT     CALD         GRD      RHOB       CORR       DPHI        SPR         SN        ILD   
# ...
  519.5000     7.5746    48.7211     2.4766     0.0357     0.1340    -4.7204    11.2626    18.4639
  520.0000     7.5818    48.5350     2.4328     0.0253     0.1681    -4.7347    11.2329    18.2843
  520.5000     7.5894    48.3661     2.3900     0.0240     0.1917    -4.6616    11.2032    18.1064
  521.0000     7.6338    48.2281     2.3473     0.0252     0.2152    -4.5883    11.1462    17.9302
  521.5000     7.7476    49.3801     2.3099     0.0264     0.2309    -4.5155    11.0635    17.7558
  522.0000     7.8583    52.1652     2.2888     0.0277     0.2344    -4.4428    10.9814    17.5853
  522.5000     7.9714    54.9329     2.2857     0.0289     0.2371    -4.3701    10.8999    17.4148
  523.0000     8.0288    57.4700     2.2826     0.0327     0.2363    -4.2971    10.8190    16.8195
  523.5000     8.0339    58.9337     2.2855     0.0479     0.2276    -4.2241    10.7388    16.2543
  524.0000     8.0122    59.7908     2.3184     0.0632     0.2164    -4.1408    10.6756    15.7102
  524.5000     7.9909    59.2614     2.3273     0.0694     0.2052    -4.5192    10.6057    15.1674
  525.0000     7.9699    58.3111     2.3415     0.0753     0.1940    -5.0391    10.5362    15.0090
  525.5000     7.9490    58.8711     2.3600     0.0797     0.1832    -5.5615    10.4671    14.8123
  526.0000     7.9280    60.0097     2.3716     0.0783     0.1828    -6.0836    10.3985    14.6163
  526.5000     7.9071    59.1425     2.3668     0.0733     0.1853    -6.4200    10.3304    14.4224
  527.0000     7.8859    58.0291     2.3540     0.0669     0.1950    -6.5612    10.2930    14.2194
  527.5000     7.8547    56.8889     2.3409     0.0626     0.2047    -6.7024    10.2840    13.9600
  528.0000     7.8080    59.2456     2.3304     0.0669     0.2104    -6.8434    10.2750    13.6887
  528.5000     7.7616    62.1951     2.3416     0.0808     0.1937    -6.9848    10.2660    13.3307
  529.0000     7.7135    62.1424     2.3656     0.0953     0.1737    -7.1261    10.2570    13.3743
  529.5000     7.6394    61.3029     2.3925     0.0962     0.1578    -7.2674    10.2480    13.4415
  530.0000     7.5630    59.6151     2.4126     0.0872     0.1652    -7.4088    10.2390    13.5091
  530.5000     7.5529    58.2605     2.4011     0.0764     0.1667    -7.5501    10.2300    13.5788
  531.0000     7.5529    59.3784     2.4009     0.0777     0.1637    -7.6917    10.2211    13.2804
  531.5000     7.5486    60.5550     2.4101     0.0799     0.1582    -7.8335    10.2121    12.9811
  532.0000     7.5364    60.2846     2.4193     0.0817     0.1524    -7.9629    10.2031    12.6885
  532.5000     7.5243    59.7231     2.4278     0.0785     0.1502    -7.9469    10.1942    12.2692
  533.0000     7.5121    58.5775     2.4219     0.0752     0.1561    -7.9262    10.1853    12.2760
  533.5000     7.5002    57.1882     2.4177     0.0778     0.1529    -7.9060    10.1763    12.2889
  534.0000     7.4965    56.9260     2.4217     0.0847     0.1513    -7.8859    10.1674    12.3017
  534.5000     7.5155    56.8749     2.4255     0.0918     0.1509    -7.8659    10.1585    12.3146
  535.0000     7.5338    58.8737     2.4247     0.0886     0.1517    -7.8458    10.1496    12.3276
  535.5000     7.5537    60.9186     2.4227     0.0814     0.1533    -7.8258    10.1407    12.3405
  536.0000     7.6148    61.7685     2.4204     0.0739     0.1525    -7.8057    10.1318    12.3534
  536.5000     7.6791    62.6500     2.4095     0.0665     0.1633    -7.7853    10.1229    12.3664
  537.0000     7.7432    63.5218     2.3983     0.0599     0.1716    -7.7611    10.1140    12.3793
  537.5000     7.8072    63.2508     2.3871     0.0607     0.1747    -7.9173    10.1052    12.3923
  538.0000     7.8713    61.1891     2.3858     0.0617     0.1740    -8.1070    10.0963    12.4053
  538.5000     7.9353    60.6121     2.3850     0.0626     0.1743    -8.2967    10.0875    12.4183
  539.0000     7.9994    60.1011     2.3842     0.0634     0.1757    -8.4871    10.0786    12.4313
  539.5000     8.0635    59.2001     2.3841     0.0720     0.1752    -8.5710    10.0698    12.4443
  540.0000     8.1274    58.1651     2.3851     0.0841     0.1744    -8.5830    10.0609    12.4574
  540.5000     8.1916    57.5174     2.3852     0.0956     0.1773    -8.5932    10.0521    12.4704
  541.0000     8.2190    58.7099     2.3825     0.0968     0.1792    -8.6034    10.0433    12.4832
  541.5000     8.2345    60.5135     2.3809     0.0979     0.1700    -8.6137    10.0345    12.4971
  542.0000     8.2337    60.8316     2.3962     0.1116     0.1548    -8.6240    10.0258    12.4976
  542.5000     8.1859    60.0176     2.4108     0.1124     0.1614    -8.6343    10.0164    12.3445
  543.0000     8.1351    59.1748     2.4012     0.1036     0.1721    -8.6446     9.9912    12.2319
  543.5000     8.0845    58.3359     2.3906     0.0943     0.1726    -8.6550     9.9652    12.1203
  544.0000     8.0341    57.4937     2.3890     0.0914     0.1725    -8.6653     9.9394    12.0097
  544.5000     7.9823    57.1346     2.3897     0.0884     0.1701    -8.6756     9.9137    11.9001
  545.0000     7.8799    57.1359     2.3903     0.0855     0.1693    -8.6859     9.8880    11.7915
  545.5000     7.7022    57.1100     2.3809     0.0771     0.1808    -8.6962     9.8624    11.6839
  546.0000     7.5271    62.7398     2.3710     0.0685     0.1844    -8.7066     9.8368    11.5773
  546.5000     7.3978    66.4341     2.3683     0.0600     0.1860    -8.7169     9.8114    11.4717
  547.0000     7.3604    66.4812     2.3671     0.0514     0.1932    -8.7272     9.7859    11.3969
  547.5000     7.3214    66.0615     2.3505     0.0429     0.2032    -8.7375     9.7606    11.3969
  548.0000     7.2818    64.4802     2.3406     0.0428     0.2034    -8.7478     9.7353    11.3968
  548.5000     7.2931    62.7871     2.3391     0.0439     0.2035    -8.7577     9.7101    11.3969
  549.0000     7.3506    61.0939     2.3389     0.0476     0.2012    -8.7637     9.6849    11.3968
  549.5000     7.3373    59.4042     2.3470     0.0514     0.1916    -8.9415     9.6599    11.3964
  550.0000     7.3212    57.7031     2.3591     0.0553     0.1928    -9.1469     9.6348    11.4337
  550.5000     7.3054    55.9853     2.3575     0.0591     0.1880    -9.3528     9.6099    11.4758
  551.0000     7.2918    55.5558     2.3620     0.0629     0.1872    -9.5582     9.5849    11.5183
  551.5000     7.2922    56.4954     2.3646     0.0679     0.1835    -9.7635     9.5510    11.5609
  552.0000     7.3723    57.4952     2.3706     0.0777     0.1704    -9.9689     9.4820    11.6036
  552.5000     7.5095    58.4747     2.3974     0.0874     0.1671   -10.1742     9.4140    11.6466
  553.0000     7.5731    59.1920     2.3950     0.0898     0.1689   -10.3798     9.3459    11.6899
  553.5000     7.5782    59.3190     2.3937     0.0918     0.1704   -10.5864     9.3041    11.7164
  554.0000     7.5817    59.4566     2.3937     0.0944     0.1722   -10.7804     9.3044    11.7161
  554.5000     7.5851    59.5931     2.3939     0.1088     0.1693   -10.7483     9.3045    11.7667
  555.0000     7.5887    59.7138     2.3978     0.1231     0.1647   -10.7081     9.3043    11.8262
  555.5000     7.5914    60.9875     2.4087     0.1374     0.1572   -10.6690     9.2717    11.8861
  556.0000     7.6365    62.1917     2.4213     0.1516     0.1493   -10.6297     9.2365    11.9345
  556.5000     7.6927    61.1037     2.4339     0.1658     0.1436   -10.5858     9.2013    11.9345
  557.0000     7.7490    60.6376     2.4456     0.1800     0.1381   -10.7645     9.1662    11.8373
  557.5000     7.8052    60.8479     2.4507     0.1926     0.1357   -10.9830     9.1312    11.6914
  558.0000     7.8615    61.0346     2.4519     0.1965     0.1361   -11.2021     9.0964    11.5474
  558.5000     7.9177    61.4891     2.4522     0.2005     0.1361   -11.4205     9.0617    11.4052
  559.0000     7.9733    62.6727     2.4537     0.2046     0.1337   -11.6389     9.0271    11.2649
  559.5000     8.0196    66.3002     2.4625     0.2087     0.1209   -11.8574     8.9927    11.0844
