~VERSION INFORMATION
 VERS.                2.0:   CWLS LOG ASCII STANDARD - VERSION 2.0
 WRAP.                 NO:   ONE LINE PER DEPTH STEP
~WELL INFORMATION
#MNEM.UNIT      DATA TYPE    INFORMATION
#----------   ------------   ------------------------------
 STRT.F            0.0000:   START DEPTH
 STOP.F          790.0000:   STOP DEPTH
 STEP.F            0.1000:   STEP LENGTH
 NULL.          -999.2500:   NO VALUE
 COMP.   FLUOR DANIEL INC:   COMPANY
 WELL.   72-2 X-34 #72-34:   WELL
 FLD .          N.P.R. #3:   FIELD
 LOC .      S34 T39N R78W:   LOCATION
 CNTY.            NATRONA:   COUNTY
 STAT.            WYOMING:   STATE
 CTRY. UNITED STATES OF AMERICA:   COUNTRY
 SRVC.      Western Atlas:   SERVICE COMPANY
 DATE.        25-MAR-1995:   LOGDATE
 API .       490252269300:   API NUMBER
~CURVE INFORMATION
#MNEM.UNIT       API CODE    CURVE DESCRIPTION
#----------   ------------   ------------------------------
 DEPT.F                  :   
 GRR .GAPI   07 310 01 00:   GAMMA RAY
 RILD.OHMM   07 120 46 00:   INDUCTION LOG DEEP RESISTIVITY
 RILM.OHMM   07 120 44 00:   INDUCTION LOG MEDIUM RESISTIVITY
~PARAMETER INFORMATION
#MNEM.UNIT          VALUE    DESCRIPTION
#----------   ------------   ------------------------------
 PD  .                 GL:   PERMANENT DATUM
 EPD .F              5058:   ELEVATION PERMANENT DATUM
 LMF .                 KB:   LOG MEASURED FROM
 DAPD.F                10:   FEET ABOVE PERMANENT DATUM
 DMF .                 KB:   DRILLING MEASURED FROM
 EKB .F              5068:   KELLING BUSHING
 EDF .F              5067:   DRILLING FLOOR
 EGL .F              5058:   GROUND LEVEL
 DATE.        25-MAR-1995:   RUN DATE
 RUN .                  1:   RUN NUMBER
 DD  .F               796:   DEPTH DRILLER
 DL  .F               798:   DEPTH LOGGER
 BLI .F               790:   BOTTOM LOG INTERVAL
 TLI .F                96:   TOP LOG INTERVAL
 CS  .IN            9.625:   CASING SIZE
 CBD .F                95:   CASING BOTTOM DRILLER
 CBL .F                96:   CASING BOTTOM LOGGER
 BS  .IN             8.75:   BIT SIZE
 BSD .F               796:   BIT SIZE AT DEPTH
 DFT .                AIR:   DRILLING FLUID TYPE
 MRT .F                97:   MAXIMUM RECORDED TEMPERATURE
 LUN .            HL 6530:   LOGGING UNIT NUMBER
 LUL .             CASPER:   LOGGING UNIT LOCATION
 ENGI.             RAUTIO:   RECORDING ENGINEER
 WITN.             STRONG:   WITNESSED BY
 CLNT.            A2DTECH:   CLIENT CODE
 ORIG.       2", 5" PRINT:   ORIGIN OF DATA
 UWI .       490252269300:   UNIQUE WELL ID
 DICO. A2D Technologies, Inc.:   DIGITIZING COMPANY
~OTHER INFORMATION
~A    DEPT      GRR      RILD       RILM   
# ...
   91.0000    70.7496  -999.2500  -999.2500
   91.1000    70.8245  -999.2500  -999.2500
   91.2000    71.0818  -999.2500  -999.2500
   91.3000    71.3776  -999.2500  -999.2500
   91.4000    71.5965  -999.2500  -999.2500
   91.5000    71.8539  -999.2500  -999.2500
   91.6000    72.1112  -999.2500  -999.2500
   91.7000    72.3179  -999.2500  -999.2500
   91.8000    72.3198  -999.2500  -999.2500
   91.9000    72.3216  -999.2500  -999.2500
   92.0000    72.3235  -999.2500  -999.2500
   92.1000    72.3253  -999.2500  -999.2500
   92.2000    72.0759  -999.2500  -999.2500
   92.3000    71.3397  -999.2500  -999.2500
   92.4000    70.7759  -999.2500  -999.2500
   92.5000    70.7776  -999.2500  -999.2500
   92.6000    70.7795  -999.2500  -999.2500
   92.7000    71.0153  -999.2500  -999.2500
   92.8000    71.5279  -999.2500  -999.2500
   92.9000    72.0410  -999.2500  -999.2500
   93.0000    72.6535  -999.2500  -999.2500
   93.1000    73.0665  -999.2500  -999.2500
   93.2000    73.4292  -999.2500  -999.2500
   93.3000    73.7810  -999.2500  -999.2500
   93.4000    74.2940  -999.2500  -999.2500
   93.5000    74.8399  -999.2500  -999.2500
   93.6000    75.5579  -999.2500  -999.2500
   93.7000    75.9599  -999.2500  -999.2500
   93.8000    76.2172  -999.2500  -999.2500
   93.9000    76.4746  -999.2500  -999.2500
   94.0000    76.7154  -999.2500  -999.2500
   94.1000    76.7176  -999.2500  -999.2500
   94.2000    76.5027  -999.2500  -999.2500
   94.3000    76.0882  -999.2500  -999.2500
   94.4000    75.5792  -999.2500  -999.2500
   94.5000    75.0202  -999.2500  -999.2500
   94.6000    74.2383  -999.2500  -999.2500
   94.7000    73.7407  -999.2500  -999.2500
   94.8000    73.4258  -999.2500  -999.2500
   94.9000    73.1722  -999.2500  -999.2500
   95.0000    73.0846  -999.2500  -999.2500
   95.1000    73.3145  -999.2500  -999.2500
   95.2000    73.3165  -999.2500  -999.2500
   95.3000    73.5455  -999.2500  -999.2500
   95.4000    74.1464  -999.2500  -999.2500
   95.5000    74.9146  -999.2500  -999.2500
   95.6000    75.6826  -999.2500  -999.2500
   95.7000    76.4653  -999.2500  -999.2500
   95.8000    78.3046  -999.2500  -999.2500
   95.9000    79.7397  -999.2500  -999.2500
   96.0000    81.3808 10026.0283  9950.9053
   96.1000    83.4780 10025.7559  9950.9053
   96.2000    86.6590 10025.6123  9950.9053
   96.3000    90.7553 10025.4678  9950.9053
   96.4000    94.0892 10020.1484  9950.9053
   96.5000    97.3034  9953.6201  9950.9053
   96.6000   100.6248  9953.4941  9950.9053
   96.7000   103.8462  9953.3506  9950.9053
   96.8000   106.1323  9953.2080  9950.9053
   96.9000   108.4961  9953.0664  9950.9053
   97.0000   109.7919  9948.6709  5706.9253
   97.1000   110.8461  9881.7363  1384.3046
   97.2000   111.7189  1824.1953    35.2313
   97.3000   112.7430   180.0149     7.6761
   97.4000   113.7929    13.1492     4.9820
   97.5000   114.2922     5.1679     3.5213
   97.6000   114.4187     4.0558     3.1897
   97.7000   114.4205     2.9989     2.7710
   97.8000   114.2583     2.3351     2.4892
   97.9000   113.7491     2.0368     2.3901
   98.0000   113.1822     1.8664     2.2580
   98.1000   112.7310     1.8032     2.1789
   98.2000   112.2220     1.7762     2.2214
   98.3000   111.9434     1.7716     2.3221
   98.4000   111.8855     1.7868     2.3920
   98.5000   111.6320     1.8160     2.4562
   98.6000   111.3783     1.8711     2.5179
   98.7000   111.3288     1.9508     2.5896
   98.8000   111.4792     2.0201     2.6682
   98.9000   111.6436     2.1389     2.7688
   99.0000   111.6827     2.3019     2.9132
   99.1000   111.9585     2.4868     3.0734
   99.2000   111.9602     2.6390     3.2336
   99.3000   112.1437     2.8718     3.3937
   99.4000   112.4011     3.0314     3.5539
   99.5000   112.7289     3.3642     3.7240
   99.6000   113.2266     3.7414     3.8241
   99.7000   113.5250     4.0927     3.9975
   99.8000   113.9561     4.5766     4.2166
   99.9000   114.4690     5.2033     4.4787
  100.0000   114.8782     5.5417     4.8154
  100.1000   115.1711     5.7726     4.9309
  100.2000   115.6177     5.8625     5.0464
  100.3000   116.0644     5.9257     5.1619
  100.4000   116.2360     5.9613     5.2774
  100.5000   115.8334     5.8915     5.3929
  100.6000   114.7857     5.7946     5.4922
  100.7000   114.0227     5.6146     5.6066
  100.8000   113.8563     5.2383     5.7129
  100.9000   113.8582     4.7152     5.7791
  101.0000   113.9575     4.5732     5.8492
  101.1000   114.2179     4.5204     5.8492
  101.2000   114.4859     4.4465     5.8492
  101.3000   114.4878     4.3824     5.8492
  101.4000   114.6882     4.3305     5.8268
  101.5000   114.8025     4.2791     5.7558
  101.6000   114.8981     4.2264     5.6495
  101.7000   115.1587     4.1545     5.4730
  101.8000   115.4303     4.0810     5.2237
  101.9000   115.6795     4.0351     4.9739
  102.0000   115.9399     4.0027     4.7738
  102.1000   116.3428     3.9553     4.6483
  102.2000   116.7718     3.9059     4.6188
  102.3000   117.0322     3.8621     4.5951
  102.4000   117.3077     3.8163     4.5868
  102.5000   117.7966     3.7832     4.5868
  102.6000   118.1245     3.7532     4.5941
  102.7000   118.5237     3.7116     4.6226
  102.8000   119.0430     3.6880     4.6834
  102.9000   119.5281     3.6880     4.7304
  103.0000   119.8073     3.6720     4.7852
  103.1000   120.5289     3.6616     4.8280
  103.2000   120.9314     3.6615     4.8489
  103.3000   121.4618     3.6615     4.8466
  103.4000   122.0744     3.6614     4.7820
  103.5000   122.3048     3.6613     4.6467
  103.6000   122.3068     3.6613     4.4890
  103.7000   122.0725     3.6613     4.3467
  103.8000   121.9994     3.6612     4.2231
  103.9000   121.7386     3.6612     4.1023
  104.0000   121.3022     3.6611     3.9096
  104.1000   121.0455     3.6610     3.8028
  104.2000   120.7629     3.6610     3.6862
  104.3000   120.2996     3.6502     3.5895
  104.4000   119.9643     3.6284     3.5038
  104.5000   119.4527     3.6068     3.4025
  104.6000   118.6789     3.5830     3.3452
  104.7000   117.8826     3.5640     3.2734
  104.8000   116.7305     3.5284     3.2093
  104.9000   116.0458     3.4866     3.1543
  105.0000   115.0956     3.4452     3.0973
  105.1000   114.1871     3.3982     3.0236
  105.2000   113.5561     3.2641     2.9418
  105.3000   113.2805     3.1642     2.7869
  105.4000   112.6982     3.0654     2.6396
  105.5000   112.6999     2.9593     2.5300
  105.6000   112.8741     2.8425     2.4493
  105.7000   113.1345     2.7444     2.4042
  105.8000   113.5301     2.6708     2.3787
  105.9000   114.2930     2.6302     2.3612
  106.0000   114.8867     2.6038     2.3476
  106.1000   115.5523     2.5883     2.3383
  106.2000   115.9922     2.5767     2.3397
  106.3000   116.3689     2.5767     2.3546
  106.4000   116.8879     2.5766     2.3668
  106.5000   117.3956     2.5766     2.3805
  106.6000   117.6973     2.5865     2.4078
  106.7000   118.1338     2.5951     2.4457
  106.8000   118.6528     2.5950     2.4751
  106.9000   119.1719     2.5950     2.5240
  107.0000   119.6912     2.5949     2.5494
  107.1000   120.2103     2.5949     2.5889
  107.2000   120.8190     2.6046     2.6270
  107.3000   120.8205     2.6135     2.6613
  107.4000   120.8224     2.6169     2.7069
  107.5000   120.6066     2.6322     2.7434
  107.6000   120.0913     2.6321     2.7835
  107.7000   119.5761     2.6449     2.8217
  107.8000   118.9640     2.6607     2.8544
  107.9000   118.5452     2.6700     2.9182
  108.0000   117.7144     2.6700     3.0881
  108.1000   116.7873     2.6699     3.1522
  108.2000   116.0135     2.6891     3.1818
  108.3000   115.2396     2.7019     3.2301
  108.4000   114.4659     2.7180     3.2863
  108.5000   113.6921     2.7342     3.3398
  108.6000   113.0721     2.7537     3.3790
  108.7000   112.5568     2.7869     3.4372
  108.8000   112.0416     2.8200     3.4972
  108.9000   111.5192     2.8403     3.5463
  109.0000   111.5210     2.8774     3.5951
  109.1000   111.5228     2.9224     3.6576
