~VERSION INFORMATION
 VERS.                2.0:   CWLS LOG ASCII STANDARD - VERSION 2.0
 WRAP.                 NO:   ONE LINE PER DEPTH STEP
~WELL INFORMATION
#MNEM.UNIT      DATA TYPE    INFORMATION
#----------   ------------   ------------------------------
 STRT.F            1.0000:   START DEPTH
 STOP.F          755.5000:   STOP DEPTH
 STEP.F            0.5000:   STEP LENGTH
 NULL.          -999.2500:   NO VALUE
 COMP. FENIX & SCISSON INC:   COMPANY
 WELL.       25-SX #25-14:   WELL
 FLD .        TEAPOT DOME:   FIELD
 LOC .      S14 T38N R78W:   LOCATION
 CNTY.            NATRONA:   COUNTY
 STAT.            WYOMING:   STATE
 CTRY. UNITED STATES OF AMERICA:   COUNTRY
 SRVC.           BIRDWELL:   SERVICE COMPANY
 DATE.        29-DEC-1978:   LOGDATE
 API .       490251076000:   API NUMBER
~CURVE INFORMATION
#MNEM.UNIT       API CODE    CURVE DESCRIPTION
#----------   ------------   ------------------------------
 DEPT.F                  :   
 SPR .MV     05 010 01 00:   SPONTANEOUS POTENTIAL FROM RES.
 SN  .OHMM   05 040 16 00:   SHORT NORMAL 16"
 IL  .OHMM   05 120 00 00:   INDUCTION LOG
 CALD.IN     45 280 60 00:   CALIPER
 GRD .GAPI   45 310 01 00:   GAMMA RAY FROM DENSITY LOG
 CORR.G/C3   45 356 01 00:   DENSITY CORRECTION
 DPHI.DEC    45 890 12 00:   DENSITY POROSITY SANDSTONE
 RHOB.G/C3   45 350 01 00:   BULK DENSITY
~PARAMETER INFORMATION
#MNEM.UNIT          VALUE    DESCRIPTION
#----------   ------------   ------------------------------
 PD  .                 GL:   PERMANENT DATUM
 EPD .F              5214:   ELEVATION PERMANENT DATUM
 LMF .                 KB:   LOG MEASURED FROM
 DAPD.F                 4:   FEET ABOVE PERMANENT DATUM
 DMF .                 KB:   DRILLING MEASURED FROM
 EKB .F              5218:   KELLING BUSHING
 EGL .F              5214:   GROUND LEVEL
 DATE.           12-29-79:   RUN DATE
 RUN .                  1:   RUN NUMBER
 DD  .F               765:   DEPTH DRILLER
 DL  .F               747:   DEPTH LOGGER
 BLI .F               740:   BOTTOM LOG INTERVAL
 TLI .F                40:   TOP LOG INTERVAL
 CS  .IN            8.625:   CASING SIZE
 CBD .F                40:   CASING BOTTOM DRILLER
 CBL .F                40:   CASING BOTTOM LOGGER
 BS  .IN            7.875:   BIT SIZE
 BSD .F               765:   BIT SIZE AT DEPTH
 DFT .                KCL:   DRILLING FLUID TYPE
 DFD .                8.8:   DRILLING FLUID DENSITY
 DFV .                 48:   DRILLING FLUID VISCOSITY
 DFPH.                9.2:   DRILLING FLUID PH
 MSS .           FLOWLINE:   MUD SAMPLE SOURCE
 RMS .OHMM            .17:   RESISTIVITY MUD SAMPLE
 MST .F                56:   MUD SAMPLE TEMPERATURE
 RMF .OHMM            .15:   RESISTIVITY MUD FILTRATE SAMPLE
 MFST.F                56:   MUD FILTRATE SAMPLE TEMPERATURE
 RMC .OHMM            .23:   RESISTIVITY MUD CAKE
 MCST.F                64:   MUD CAKE SAMPLE TEMPERATURE
 MFSS.           MEASURED:   MUD FILTRATE SAMPLE SOURCE
 MCSS.           MEASURED:   MUD CAKE SAMPLE SOURCE
 RMB .OHMM            .16:   RESISTIVITY MUD AT BHT
 BHT .F                59:   BOTTOM HOLE TEMPERATURE
 TCS .HRS              12:   TIME CURCULATED STOPPED
 MRT .F                59:   MAXIMUM RECORDED TEMPERATURE
 LUN .               2958:   LOGGING UNIT NUMBER
 LUL .             CASPER:   LOGGING UNIT LOCATION
 ENGI.            ROLLINS:   RECORDING ENGINEER
 WITN.         RICHARDSON:   WITNESSED BY
 CLNT.            A2DTECH:   CLIENT CODE
 ORIG.           5" PRINT:   ORIGIN OF DATA
 UWI .       490251076000:   UNIQUE WELL ID
 DICO. A2D Technologies, Inc.:   DIGITIZING COMPANY
~OTHER INFORMATION
~A    DEPT     SPR         SN         IL       CALD         GRD      CORR       DPHI       RHOB   
# ...
  730.0000   -87.9620     7.8640     6.3970  -999.2500   105.0250     0.1290     0.1350     2.4510
  730.5000   -87.9410     8.0590     6.4860  -999.2500   103.7630     0.1130     0.1340     2.4530
  731.0000   -87.9190     8.2530     6.5760  -999.2500   105.2200     0.1070     0.1390     2.4510
  731.5000   -87.8980     8.4470     6.6650  -999.2500   106.4070     0.1080     0.1460     2.4460
  732.0000   -87.8750     8.6410     6.7540  -999.2500   103.2780     0.1090     0.1400     2.4420
  732.5000   -87.8250     8.8360     6.8440  -999.2500   105.0320     0.1100     0.1320     2.4380
  733.0000   -87.7720     8.9490     6.9330  -999.2500   108.5920     0.1110     0.1260     2.4400
  733.5000   -87.7200     9.0360     7.0230  -999.2500   109.5890     0.1130     0.1210     2.4570
  734.0000   -87.6750     9.1240     7.1150  -999.2500   106.4180     0.1170     0.1160     2.4750
  734.5000   -87.6630     9.2110     7.1100  -999.2500   105.6290     0.1130     0.1120     2.4930
  735.0000   -87.2470     9.2990     7.1050  -999.2500   106.0820     0.1170     0.1120     2.5060
  735.5000   -86.8060     9.3860     7.1000  -999.2500   105.7790     0.1300     0.1170     2.5060
  736.0000   -86.3610     9.5100     7.0950  -999.2500   105.1690     0.1300     0.1220     2.4930
  736.5000   -86.2760     9.4920     7.0900  -999.2500   104.7000     0.1210     0.1270     2.4790
  737.0000   -86.2730     9.4620     7.0850  -999.2500   104.8200     0.1130     0.1290     2.4700
  737.5000   -86.2720     9.4320     7.0800  -999.2500   106.1980     0.1040     0.1290     2.4680
  738.0000   -86.2460     9.4010     7.0760  -999.2500   107.5550     0.0980     0.1300     2.4660
  738.5000   -86.1100     9.3710     7.0710  -999.2500   105.4150     0.0940     0.1310     2.4640
  739.0000   -85.9690     9.3410     7.0660  -999.2500   103.6700     0.0930     0.1320     2.4610
  739.5000   -85.6350     9.3110     7.0610  -999.2500   105.4500     0.0950     0.1330     2.4590
  740.0000   -84.6440     9.2810     7.0560  -999.2500   106.5680     0.0980     0.1410     2.4560
  740.5000  -999.2500  -999.2500     7.0540  -999.2500   103.2610     0.1070     0.1470     2.4510
  741.0000  -999.2500  -999.2500  -999.2500  -999.2500   103.2920     0.1050     0.1500     2.4470
  741.5000  -999.2500  -999.2500  -999.2500  -999.2500   102.4020     0.1030     0.1490     2.4350
  742.0000  -999.2500  -999.2500  -999.2500  -999.2500   101.5820     0.1020     0.1470     2.4250
  742.5000  -999.2500  -999.2500  -999.2500  -999.2500   100.8760     0.1060     0.1420     2.4280
  743.0000  -999.2500  -999.2500  -999.2500  -999.2500   101.8140     0.1090     0.1360     2.4350
  743.5000  -999.2500  -999.2500  -999.2500  -999.2500   102.6980     0.1090     0.1320     2.4410
  744.0000  -999.2500  -999.2500  -999.2500  -999.2500   108.5250     0.1050     0.1280     2.4480
  744.5000  -999.2500  -999.2500  -999.2500  -999.2500  -999.2500     0.1010     0.1250     2.4550
  745.0000  -999.2500  -999.2500  -999.2500  -999.2500  -999.2500     0.0980     0.1210     2.4590
  745.5000  -999.2500  -999.2500  -999.2500  -999.2500  -999.2500     0.0940     0.1180     2.4640
  746.0000  -999.2500  -999.2500  -999.2500  -999.2500  -999.2500     0.0900     0.1150     2.4760
  746.5000  -999.2500  -999.2500  -999.2500  -999.2500  -999.2500     0.0870     0.1110     2.4880
  747.0000  -999.2500  -999.2500  -999.2500  -999.2500  -999.2500     0.0870     0.1090     2.4970
  747.5000  -999.2500  -999.2500  -999.2500  -999.2500  -999.2500     0.0890     0.1260     2.4580
  748.0000  -999.2500  -999.2500  -999.2500  -999.2500  -999.2500     0.0980     0.1260     2.4620
  748.5000  -999.2500  -999.2500  -999.2500  -999.2500  -999.2500     0.0990     0.1230     2.4680
  749.0000  -999.2500  -999.2500  -999.2500  -999.2500  -999.2500     0.0920     0.1210     2.4740
  749.5000  -999.2500  -999.2500  -999.2500  -999.2500  -999.2500     0.0850     0.1180     2.4790
  750.0000  -999.2500  -999.2500  -999.2500  -999.2500  -999.2500     0.0880     0.1150     2.4790
  750.5000  -999.2500  -999.2500  -999.2500  -999.2500  -999.2500     0.0960     0.1160     2.4790
  751.0000  -999.2500  -999.2500  -999.2500  -999.2500  -999.2500     0.1010     0.1180     2.4720
  751.5000  -999.2500  -999.2500  -999.2500  -999.2500  -999.2500     0.1040     0.1220     2.4660
  752.0000  -999.2500  -999.2500  -999.2500  -999.2500  -999.2500     0.1050     0.1270     2.4680
  752.5000  -999.2500  -999.2500  -999.2500  -999.2500  -999.2500     0.1050     0.1310     2.4720
  753.0000  -999.2500  -999.2500  -999.2500  -999.2500  -999.2500     0.1050     0.1260     2.4730
  753.5000  -999.2500  -999.2500  -999.2500  -999.2500  -999.2500     0.1050     0.1240     2.4680
  754.0000  -999.2500  -999.2500  -999.2500  -999.2500  -999.2500     0.1050     0.1240     2.4680
  754.5000  -999.2500  -999.2500  -999.2500  -999.2500  -999.2500     0.1070     0.1240     2.4710
  755.0000  -999.2500  -999.2500  -999.2500  -999.2500  -999.2500     0.1090     0.1240     2.4670
  755.5000  -999.2500  -999.2500  -999.2500  -999.2500  -999.2500  -999.2500  -999.2500     2.4630
