~VERSION INFORMATION
 VERS.                2.0:   CWLS LOG ASCII STANDARD - VERSION 2.0
 WRAP.                 NO:   ONE LINE PER DEPTH STEP
~WELL INFORMATION
#MNEM.UNIT      DATA TYPE    INFORMATION
#----------   ------------   ------------------------------
 STRT.F           19.0000:   START DEPTH
 STOP.F         1200.0000:   STOP DEPTH
 STEP.F            0.5000:   STEP LENGTH
 NULL.          -999.2500:   NO VALUE
 COMP.       INTEX OIL CO:   COMPANY
 WELL.     NPR 3 #73 S-14:   WELL
 FLD .             TEAPOT:   FIELD
 LOC .      S14 T38N R78W:   LOCATION
 CNTY.            NATRONA:   COUNTY
 STAT.            WYOMING:   STATE
 CTRY. UNITED STATES OF AMERICA:   COUNTRY
 SRVC.       Schlumberger:   SERVICE COMPANY
 DATE.        24-AUG-1966:   LOGDATE
 API .       490250970900:   API NUMBER
~CURVE INFORMATION
#MNEM.UNIT       API CODE    CURVE DESCRIPTION
#----------   ------------   ------------------------------
 DEPT.F                  :   
 SPR .MV     05 010 01 00:   SPONTANEOUS POTENTIAL FROM RES.
 ILD .OHMM   05 120 46 00:   INDUCTION LOG DEEP
 ASN .OHMM   05 041 16 00:   AMPLIFIED SHORT NORMAL 16"
 CILD.MMHO   05 110 46 00:   CONDUCTIVITY INDUCTION LOG DEEP
 CALD.IN     45 280 60 00:   CALIPER
 GRD .GAPI   45 310 01 00:   GAMMA RAY FROM DENSITY LOG
 CORR.G/C3   45 356 01 00:   DENSITY CORRECTION
 RHOB.G/C3   45 350 01 00:   BULK DENSITY
 DPHI.DEC    45 890 12 00:   DENSITY POROSITY SANDSTONE
~PARAMETER INFORMATION
#MNEM.UNIT          VALUE    DESCRIPTION
#----------   ------------   ------------------------------
 PD  .                 GL:   PERMANENT DATUM
 EPD .F              5274:   ELEVATION PERMANENT DATUM
 LMF .                 KB:   LOG MEASURED FROM
 DAPD.F                 5:   FEET ABOVE PERMANENT DATUM
 DMF .                 KB:   DRILLING MEASURED FROM
 EKB .F              5279:   KELLING BUSHING
 EGL .F              5274:   GROUND LEVEL
 DATE.            8-24-66:   RUN DATE
 RUN .                  1:   RUN NUMBER
 DD  .F              1200:   DEPTH DRILLER
 DL  .F              1200:   DEPTH LOGGER
 BLI .F              1199:   BOTTOM LOG INTERVAL
 TLI .F                86:   TOP LOG INTERVAL
 CS  .IN            8.625:   CASING SIZE
 CBD .F                10:   CASING BOTTOM DRILLER
 BS  .IN             6.75:   BIT SIZE
 BSD .F              1200:   BIT SIZE AT DEPTH
 DFT .                GEL:   DRILLING FLUID TYPE
 DFD .               10.1:   DRILLING FLUID DENSITY
 DFV .                 60:   DRILLING FLUID VISCOSITY
 MSS .          FLOW LINE:   MUD SAMPLE SOURCE
 RMS .OHMM            1.8:   RESISTIVITY MUD SAMPLE
 MST .F                67:   MUD SAMPLE TEMPERATURE
 RMF .OHMM            1.4:   RESISTIVITY MUD FILTRATE SAMPLE
 MFST.F                77:   MUD FILTRATE SAMPLE TEMPERATURE
 MFSS.                  M:   MUD FILTRATE SAMPLE SOURCE
 RMB .OHMM            1.1:   RESISTIVITY MUD AT BHT
 BHT .F               112:   BOTTOM HOLE TEMPERATURE
 TCS .HRS               1:   TIME CURCULATED STOPPED
 MRT .F               112:   MAXIMUM RECORDED TEMPERATURE
 LUN .               4507:   LOGGING UNIT NUMBER
 LUL .               CSPR:   LOGGING UNIT LOCATION
 ENGI.            MANGOLD:   RECORDING ENGINEER
 WITN.                MAY:   WITNESSED BY
 CLNT.            A2DTECH:   CLIENT CODE
 ORIG.           5" PRINT:   ORIGIN OF DATA
 UWI .       490250970900:   UNIQUE WELL ID
 DICO. A2D Technologies, Inc.:   DIGITIZING COMPANY
~OTHER INFORMATION
~A   DEPT      SPR        ILD        ASN       CILD       CALD         GRD        CORR     RHOB       DPHI   
# ...
  639.5000   -56.0980     7.2070     9.0110   138.3620     7.4490   105.2730     0.0220     2.4680     0.1090
  640.0000   -55.5890     6.6750     8.1440   144.4380     7.5150   107.7410     0.0300     2.4750     0.1060
  640.5000   -55.2050     6.2670     7.5600   151.1480     7.5670   110.2050     0.0420     2.4820     0.1040
  641.0000   -54.6550     6.1150     7.1240   157.8570     7.6020   110.2660     0.0450     2.4810     0.1030
  641.5000   -54.1600     6.0540     6.9400   161.3390     7.5760   108.4620     0.0500     2.4910     0.0980
  642.0000   -53.5080     6.0580     6.9030   158.7570     7.3220   106.8510     0.0550     2.5010     0.0870
  642.5000   -52.7750     6.0960     6.9410   156.6830     7.2620   106.1160     0.0610     2.4890     0.0940
  643.0000   -52.0700     6.1140     6.9750   154.6090     7.2430   107.9300     0.0660     2.4910     0.0930
  643.5000   -51.3620     6.1360     7.0100   153.7150     7.2290   108.7610     0.0620     2.5070     0.0890
  644.0000   -50.9140     6.1560     7.0970   154.6580     7.2100   107.9840     0.0570     2.5010     0.0870
  644.5000   -50.6910     6.1660     7.1830   155.6010     7.2020   109.6010     0.0520     2.4920     0.0990
  645.0000   -50.4930     6.1830     7.0880   156.5430     7.2240   108.9700     0.0500     2.4880     0.0980
  645.5000   -50.4350     6.1980     6.9520   157.3430     7.2450   105.9290     0.0580     2.4870     0.0960
  646.0000   -50.5270     6.2120     6.8150   155.7280     7.2660   102.7170     0.0650     2.4950     0.0950
  646.5000   -50.6010     6.2270     6.6830   154.3270     7.2900   102.1600     0.0750     2.5100     0.0860
  647.0000   -50.6980     6.2430     6.6630   152.9250     7.2890   103.7520     0.0700     2.5190     0.0770
  647.5000   -50.7900     6.2720     6.7140   151.5240     7.2570   103.3950     0.0520     2.5060     0.0870
  648.0000   -50.7500     6.3280     6.8180   150.1230     7.2290   103.1240     0.0350     2.4890     0.0970
  648.5000   -50.6610     6.3900     6.9300   148.7220     7.2020   103.6200     0.0200     2.4790     0.1050
  649.0000   -50.5900     6.4410     7.0350   147.3530     7.2170   102.8160     0.0180     2.4720     0.1070
  649.5000   -50.5140     6.5080     7.0860   148.8350     7.2340   101.8540     0.0210     2.4640     0.1090
  650.0000   -50.4300     6.5380     7.1310   150.2840     7.2560   100.2980     0.0290     2.4570     0.1120
  650.5000   -50.2590     6.4820     7.1290   151.7340     7.2360   101.3040     0.0340     2.4490     0.1160
  651.0000   -49.9680     6.4190     7.0540   153.1830     7.1920   102.4810     0.0370     2.4500     0.1170
  651.5000   -49.6980     6.3750     6.9840   154.6320     7.1650   101.5440     0.0410     2.4560     0.1130
  652.0000   -49.5950     6.3170     6.9160   156.0810     7.1950    99.0800     0.0220     2.4530     0.1170
  652.5000   -49.5980     6.2680     6.8390   157.5300     7.2340    99.1200     0.0120     2.4500     0.1150
  653.0000   -49.5970     6.2130     6.7780   158.9790     7.2400   101.4320     0.0280     2.4640     0.1110
  653.5000   -49.6400     6.1630     6.6960   160.4290     7.2390   102.0010     0.0380     2.4800     0.1020
  654.0000   -49.7470     6.1690     6.6290   162.3380     7.2390   101.1990     0.0290     2.4990     0.0890
  654.5000   -49.8550     6.2130     6.6410   161.0890     7.2390   100.3970     0.0150     2.4960     0.0920
  655.0000   -49.9600     6.2550     6.6800   159.2610     7.2390   101.4650     0.0180     2.4860     0.1030
  655.5000   -50.0690     6.2960     6.7020   157.4320     7.2390   105.2260     0.0450     2.4890     0.0950
  656.0000   -50.1750     6.3410     6.7320   155.6030     7.2390   103.5480     0.0390     2.5010     0.0860
  656.5000   -50.2830     6.3810     6.8060   153.7750     7.2390    98.6450     0.0210     2.5100     0.0870
  657.0000   -50.3910     6.4250     6.9300   151.9460     7.2390    95.6290     0.0250     2.4910     0.0940
  657.5000   -50.4970     6.4970     7.0660   150.1170     7.2390    94.5100     0.0350     2.4800     0.1030
  658.0000   -50.6020     6.5920     7.1900   148.3520     7.2390    93.8470     0.0450     2.4870     0.0970
  658.5000   -50.7060     6.6870     7.2580   146.4810     7.2390    93.7550     0.0430     2.4840     0.0980
  659.0000   -50.8120     6.7830     7.2390   144.6720     7.2390    96.6640     0.0370     2.4770     0.1010
  659.5000   -50.9120     6.8590     7.2250   142.8640     7.2390   100.2390     0.0380     2.4790     0.1040
  660.0000   -51.0150     6.9050     7.3050   141.0550     7.2380   101.4750     0.0420     2.4870     0.0980
  660.5000   -51.1200     6.9480     7.4220   139.2470     7.2410   100.7430     0.0480     2.4950     0.0910
  661.0000   -51.2150     6.9950     7.5200   137.4380     7.2230    98.8320     0.0590     2.5080     0.0870
  661.5000   -51.3310     7.0370     7.6400   135.6290     7.2130    95.1800     0.0700     2.5280     0.0610
  662.0000   -51.3960     7.0830     7.7580   133.8210     7.2110    95.0640     0.0580     2.5400     0.0670
  662.5000   -51.3360     7.1270     7.8010   132.0120     7.2060    95.7120     0.0410     2.5120     0.0850
  663.0000   -51.2570     7.1710     7.8320   130.3700     7.2020    93.9420     0.0250     2.4870     0.1010
  663.5000   -51.2010     7.2170     7.8820   132.3740     7.1970    92.0940     0.0180     2.4750     0.1050
  664.0000   -51.1340     7.2090     7.9120   134.2100     7.1930    91.7740     0.0240     2.4700     0.1090
  664.5000   -51.0690     7.1200     7.9650   136.0450     7.1890    93.1450     0.0280     2.4780     0.1040
  665.0000   -51.0060     7.0250     7.9950   137.8810     7.1850    96.5330     0.0470     2.4860     0.0980
  665.5000   -50.9430     6.9370     7.9090   139.7170     7.1800    97.7440     0.0800     2.5000     0.0790
  666.0000   -50.8760     6.8400     7.7760   141.5530     7.1870    95.2770     0.0740     2.5410     0.0660
  666.5000   -50.8030     6.7570     7.6710   143.3570     7.2080    93.6760     0.0610     2.5280     0.0720
  667.0000   -50.7040     6.6530     7.5490   144.0750     7.2250    91.7080     0.0570     2.5220     0.0790
  667.5000   -50.5750     6.5510     7.4200   144.7810     7.2450    93.2340     0.0630     2.5320     0.0710
  668.0000   -50.4700     6.5250     7.3620   145.4870     7.2520    89.7910     0.0670     2.5510     0.0570
  668.5000   -50.3250     6.5230     7.2870   146.1930     7.2040    90.8540     0.0760     2.5640     0.0530
  669.0000   -50.2170     6.5010     7.2210   146.8990     7.1510    89.3110     0.0710     2.5440     0.0660
  669.5000   -50.4200     6.4880     7.3790   147.6050     7.1680    86.3410     0.0410     2.5140     0.0830
  670.0000   -50.7490     6.4770     7.5120   148.3520     7.2350    89.9770     0.0290     2.4730     0.1000
  670.5000   -50.9760     6.4550     7.4280   147.7720     7.2340    94.0110     0.0270     2.4760     0.1070
  671.0000   -51.3220     6.4470     7.4620   147.1580     7.2230    96.8280     0.0320     2.4820     0.1000
  671.5000   -51.5730     6.4920     7.4990   146.5430     7.2110    99.3880     0.0370     2.4940     0.0940
  672.0000   -51.3750     6.5610     7.2850   145.9280     7.2000   102.8750     0.0450     2.5080     0.0890
  672.5000   -51.0370     6.6230     7.1410   145.3140     7.1890   101.9030     0.0420     2.5210     0.0830
  673.0000   -50.7740     6.6860     7.1930   144.6990     7.1800    99.0260     0.0320     2.5080     0.0900
  673.5000   -50.5630     6.7510     7.2700   144.0840     7.1880    97.2730     0.0260     2.4950     0.0960
  674.0000   -50.4710     6.8130     7.3890   143.4690     7.1970    98.5050     0.0270     2.4780     0.1020
  674.5000   -50.3940     6.8510     7.4960   142.8550     7.2060   100.3730     0.0290     2.4840     0.1010
  675.0000   -50.2960     6.8640     7.4590   142.2400     7.2150   103.3860     0.0320     2.4930     0.1000
  675.5000   -50.2180     6.8760     7.3840   141.6250     7.2240    99.8960     0.0320     2.4910     0.0980
