~VERSION INFORMATION
 VERS.                2.0:   CWLS LOG ASCII STANDARD - VERSION 2.0
 WRAP.                 NO:   ONE LINE PER DEPTH STEP
~WELL INFORMATION
#MNEM.UNIT      DATA TYPE    INFORMATION
#----------   ------------   ------------------------------
 STRT.F           34.0000:   START DEPTH
 STOP.F          616.0000:   STOP DEPTH
 STEP.F            0.5000:   STEP LENGTH
 NULL.          -999.2500:   NO VALUE
 COMP. FENIX & SCISSON INC:   COMPANY
 WELL. NAVAL PETROLEUM RESERVE 3 S-10 #86-10:   WELL
 FLD .             TEAPOT:   FIELD
 LOC .      S10 T38N R78W:   LOCATION
 CNTY.            NATRONA:   COUNTY
 STAT.            WYOMING:   STATE
 CTRY. UNITED STATES OF AMERICA:   COUNTRY
 SRVC.              Welex:   SERVICE COMPANY
 DATE.        12-APR-1977:   LOGDATE
 API .       490251033800:   API NUMBER
~CURVE INFORMATION
#MNEM.UNIT       API CODE    CURVE DESCRIPTION
#----------   ------------   ------------------------------
 DEPT.F                  :   
 CALD.IN     45 280 60 00:   CALIPER FROM DENSITY LOG
 GRD .GAPI   45 310 01 00:   GAMMA RAY FROM DENSITY LOG
 CORR.G/C3   45 356 01 00:   DENSITY CORRECTION
 DPHI.DEC    45 890 12 00:   DENSITY POROSITY SANDSTONE
 RHOB.G/C3   45 350 01 00:   BULK DENSITY
 SPR .MV     07 010 01 00:   SPONTANEOUS POTENTIAL
 ILD .OHMM   07 120 46 00:   INDUCTION LOG DEEP
 ILM .OHMM   07 120 44 00:   INDUCTION LOG MEDIUM
 SGRD.OHMM   07 221 05 00:   SHALLOW SHORT GUARD RESISTIVITY
~PARAMETER INFORMATION
#MNEM.UNIT          VALUE    DESCRIPTION
#----------   ------------   ------------------------------
 PD  .                 GL:   PERMANENT DATUM
 EPD .F              5240:   ELEVATION PERMANENT DATUM
 LMF .                 KB:   LOG MEASURED FROM
 DAPD.F                 5:   FEET ABOVE PERMANENT DATUM
 DMF .                 KB:   DRILLING MEASURED FROM
 EKB .F              5245:   KELLING BUSHING
 EGL .F              5240:   GROUND LEVEL
 DATE.        12-APR-1977:   RUN DATE
 RUN .                  1:   RUN NUMBER
 DD  .F               625:   DEPTH DRILLER
 DL  .F               617:   DEPTH LOGGER
 BLI .F               615:   BOTTOM LOG INTERVAL
 TLI .F                35:   TOP LOG INTERVAL
 CS  .IN            8.625:   CASING SIZE
 BS  .IN            7.875:   BIT SIZE
 BSD .F               625:   BIT SIZE AT DEPTH
 DFT .           KCL- GEL:   DRILLING FLUID TYPE
 DFD .                8.8:   DRILLING FLUID DENSITY
 BHT .F                68:   BOTTOM HOLE TEMPERATURE
 TCS .HRS            0100:   TIME CURCULATED STOPPED
 MRT .F                68:   MAXIMUM RECORDED TEMPERATURE
 ENGI.        E. CALLAHAN:   RECORDING ENGINEER
 WITN.            R. LYON:   WITNESSED BY
 CLNT.            A2DTECH:   CLIENT CODE
 ORIG.           5" PRINT:   ORIGIN OF DATA
 UWI .       490251033800:   UNIQUE WELL ID
 DICO. A2D Technologies, Inc.:   DIGITIZING COMPANY
~OTHER INFORMATION
~A   DEPT     CALD        GRD       CORR       DPHI         RHOB      SPR        ILD        ILM       SGRD   
# ...
   70.5000     8.1644   148.1405     0.0217     0.1215     2.4519  -999.2500     6.2731     6.6301  2000.0000
   71.0000     8.1655   148.1493     0.0172     0.1251     2.4445  -999.2500     6.2277     6.5821  2000.0000
   71.5000     8.1665   148.1582     0.0143     0.1328     2.4280  -999.2500     6.2256     6.6261  2000.0000
   72.0000     8.1676   148.0165     0.0114     0.1382     2.4244  -999.2500     6.2672     6.7628  2000.0000
   72.5000     8.1686   147.8770     0.0086     0.1382     2.4244  -999.2500     6.3524     6.8541  2000.0000
   73.0000     8.1545   147.5914     0.0117     0.1376     2.4275  -999.2500     6.4381     6.9472  2000.0000
   73.5000     8.1558   147.0068     0.0149     0.1358     2.4365  -999.2500     6.5709     6.9448  2000.0000
   74.0000     8.1569   146.2738     0.0208     0.1198     2.4485  -999.2500     6.6148     7.1373  2000.0000
   74.5000     8.1579   144.5023     0.0239     0.1189     2.4546  -999.2500     6.7508     7.3860  2000.0000
   75.0000     8.1589   142.5823     0.0238     0.1201     2.4494  -999.2500     6.8899     7.7499  2000.0000
   75.5000     8.1600   140.3657     0.0193     0.1207     2.4532  -999.2500     6.9355     7.9654  2000.0000
   76.0000     8.1610   138.7425     0.0152     0.1251     2.4510  -999.2500     6.9812     8.0729  2000.0000
   76.5000     8.1620   137.5645     0.0108     0.1308     2.4391  -999.2500     7.1251     8.1826  2000.0000
   77.0000     8.1631   136.2380     0.0094     0.1332     2.4316  -999.2500     7.1227     8.2366  2000.0000
   77.5000     8.1641   134.7632     0.0110     0.1344     2.4294  -999.2500     7.1202     8.2337  2000.0000
   78.0000     8.1651   131.6564     0.0141     0.1343     2.4302  -999.2500     7.0687     8.2309  2000.0000
   78.5000     8.1511   129.4397     0.0187     0.1310     2.4355  -999.2500     6.9211     8.1713  2000.0000
   79.0000     8.1524   125.5910     0.0248     0.1241     2.4446   -99.5247     6.7298     8.1122  2000.0000
   79.5000     8.1534   121.8907     0.0309     0.1193     2.4529   -98.1083     6.5438     7.9979  2000.0000
   80.0000     8.1544   119.2289     0.0355     0.1186     2.4552   -80.1502     6.3630     7.8853  2000.0000
   80.5000     8.1555   118.4960     0.0370     0.1219     2.4515   -63.2400     6.1833     7.7206  2000.0000
   81.0000     8.1565   118.5048     0.0356     0.1279     2.4424   -53.2160     6.0114     7.4555  2000.0000
   81.5000     8.1575   118.5137     0.0312     0.1333     2.4335   -50.2280     5.8498     6.9546  2000.0000
   82.0000     8.1586   118.5226     0.0313     0.1359     2.4276   -48.7369     5.7214     6.7624  1520.9691
   82.5000     8.1596   118.5314     0.0344     0.1296     2.4363   -47.0962     5.6862     7.1449   990.0901
   83.0000     8.1607   118.5403     0.0375     0.1230     2.4496   -45.9045     5.6839     7.8148    62.1515
   83.5000     8.1617   118.1041     0.0391     0.1188     2.4572   -45.7593     5.7219     8.0875     7.6338
   84.0000     8.1627   117.6679     0.0362     0.1161     2.4633   -46.3656     5.8394     8.1404  1168.0785
   84.5000     8.1638   117.0833     0.0317     0.1167     2.4669   -46.9703     5.8784     8.0232  1508.4020
   85.0000     8.1648   116.9436     0.0258     0.1208     2.4550   -47.1260     5.9997     7.9677  1304.0284
   85.5000     8.1658   117.3977     0.0199     0.1205     2.4512   -46.0841     6.1234     8.0250  1604.4464
   86.0000     8.1669   118.2968     0.0200     0.1187     2.4551   -44.1439     6.2492     8.0791  1933.5153
   86.5000     8.1679   119.3443     0.0231     0.1153     2.4641   -43.9826     6.3780     8.1829   560.1271
   87.0000     8.1538   119.9466     0.0292     0.1113     2.4732   -45.5031     6.5102     8.3024    16.8852
   87.5000     8.1551   120.1039     0.0323     0.1072     2.4822   -48.9522     6.6439     8.3488     0.2000
   88.0000     8.1562   121.1553     0.0339     0.1032     2.4920   -51.3534     6.6883     8.2882    22.5677
   88.5000     8.1572   122.6598     0.0370     0.0993     2.5018   -51.6588     6.7324     8.1146     6.2718
   89.0000     8.1582   124.5994     0.0371     0.0981     2.5071   -51.2156     6.8239     7.8903     0.2000
   89.5000     8.1593   125.9337     0.0372     0.1014     2.5064   -50.3234     6.8209     7.7792     0.2000
   90.0000     8.1603   126.0829     0.0327     0.1071     2.4907   -50.1796     6.8186     7.7229  1876.7203
   90.5000     8.1613   125.3383     0.0283     0.1124     2.4675   -50.3404     6.8162     7.8285   215.0819
   91.0000     8.1624   125.2105     0.0209     0.1169     2.4563   -52.0083     6.8139     7.8801     0.2000
   91.5000     8.1634   125.0554     0.0165     0.1190     2.4504   -54.2544     6.8116     8.0420     0.2000
   92.0000     8.1644   122.8249     0.0286     0.1130     2.4602   -55.3034     6.7623     8.0957   800.3395
   92.5000     8.1506   121.6763     0.0347     0.1097     2.4715   -55.6113     6.7133     8.0922   327.6772
   93.0000     8.1220   123.7844     0.0333     0.1120     2.4760   -56.2035     6.6647     8.0337    98.2679
   93.5000     8.1082   122.9110     0.0379     0.1090     2.4716   -56.6761     6.6624     7.8659   205.9941
   94.0000     8.0944   120.6133     0.0455     0.1039     2.4769   -57.9222     6.6142     7.7016    46.1954
   94.5000     8.0954   120.0797     0.0516     0.0973     2.4889   -59.8818     6.5211     7.4372     2.3562
   95.0000     8.0965   120.5359     0.0577     0.0924     2.5002   -62.3152     6.4739     7.2316     7.7447
   95.5000     8.0975   121.1382     0.0578     0.0891     2.5070   -65.0532     6.4270     7.1793     5.2552
   96.0000     8.0985   122.0351     0.0593     0.0861     2.5093   -68.9653     6.3365     7.0782     3.7689
   96.5000     8.0996   121.1560     0.0579     0.0870     2.5079   -72.5640     6.3343     7.0758     4.8673
   97.0000     8.1006   119.9779     0.0535     0.0884     2.5057   -76.9113     6.2885     7.2217     5.3605
   97.5000     8.1016   120.1352     0.0491     0.0899     2.5035   -83.0550     6.2863     7.3198     4.9667
   98.0000     8.1027   121.3310     0.0462     0.0914     2.5020   -92.6418     6.2842     7.5749     3.4172
   98.5000     8.0889   121.4860     0.0388     0.0962     2.4946   -99.6837     6.3256     7.6255     5.6224
   99.0000     8.0899   120.7552     0.0314     0.1099     2.4722  -100.0000     6.3234     7.2618     5.5821
   99.5000     8.0761   120.3168     0.0254     0.1153     2.4580  -100.0000     6.3213     7.3104     4.2021
  100.0000     8.0697   120.4500     0.0240     0.1191     2.4498  -100.0000     6.3630     7.3586     5.9375
  100.5000     8.0782   120.3845     0.0275     0.1204     2.4595  -100.0000     6.3354     7.5054     5.1682
  101.0000     8.0792   120.3434     0.0310     0.1149     2.4693  -100.0000     6.3162     7.6122     4.5930
  101.5000     8.0803   120.2039     0.0348     0.1095     2.4853  -100.0000     6.3149     7.6624     5.9312
  102.0000     8.0813   119.6215     0.0348     0.1023     2.4980  -100.0000     6.3136     7.7122     8.6753
  102.5000     8.0823   118.5918     0.0274     0.1014     2.4945  -100.0000     6.4006     7.8170     9.4886
  103.0000     8.0834   119.0458     0.0272     0.1043     2.4903  -100.0000     6.4437     7.8143     9.6851
  103.5000     8.0844   119.9449     0.0230     0.1112     2.4736  -100.0000     6.4871     7.8665     9.4166
  104.0000     8.0855   120.8440     0.0261     0.1121     2.4718  -100.0000     6.5305     8.0281     9.2840
  104.5000     8.0865   121.4463     0.0292     0.1106     2.4766  -100.0000     6.5748     8.0817     9.2168
  105.0000     8.0875   121.6013     0.0323     0.1066     2.4861  -100.0000     6.6191     8.0782     9.1501
  105.5000     8.0886   120.8684     0.0339     0.1033     2.4922  -100.0000     6.6636     8.0197     9.4036
  106.0000     8.0896   121.1762     0.0354     0.1018     2.4937  -100.0000     6.7551     7.9068    10.0044
  106.5000     8.0907   121.6302     0.0355     0.1047     2.4907  -100.0000     6.8006     7.9040    10.4249
