~VERSION INFORMATION
 VERS.                2.0:   CWLS LOG ASCII STANDARD - VERSION 2.0
 WRAP.                 NO:   ONE LINE PER DEPTH STEP
~WELL INFORMATION
#MNEM.UNIT      DATA TYPE    INFORMATION
#----------   ------------   ------------------------------
 STRT.F           23.0000:   START DEPTH
 STOP.F         2536.0000:   STOP DEPTH
 STEP.F            0.5000:   STEP LENGTH
 NULL.          -999.2500:   NO VALUE
 COMP. FENIX & SCISSON INC:   COMPANY
 WELL.     14 SHX 3 #14-3:   WELL
 FLD .             TEAPOT:   FIELD
 LOC .       S3 T38N R78W:   LOCATION
 CNTY.            NATRONA:   COUNTY
 STAT.            WYOMING:   STATE
 CTRY. UNITED STATES OF AMERICA:   COUNTRY
 SRVC.           BIRDWELL:   SERVICE COMPANY
 DATE.        20-MAR-1979:   LOGDATE
 API .       490251073900:   API NUMBER
~CURVE INFORMATION
#MNEM.UNIT       API CODE    CURVE DESCRIPTION
#----------   ------------   ------------------------------
 DEPT.F                  :   
 SPR .MV     07 010 01 00:   SPONTANEOUS POTENTIAL
 SN  .OHMM   07 040 16 00:   SHORT NORMAL 16'
 IL  .OHMM   07 120 00 00:   INDUCTION LOG
 GRD .GAPI   45 310 01 00:   GAMMA RAY FROM DENSITY LOG
 CALD.IN     45 280 60 00:   CALIPER
 CORR.G/C3   45 356 01 00:   DENSITY CORRECTION
 DEN .G/C3   45 350 01 00:   
 DPHI.DEC    45 890 12 00:   DENSITY POROSITY SANDSTONE
~PARAMETER INFORMATION
#MNEM.UNIT          VALUE    DESCRIPTION
#----------   ------------   ------------------------------
 PD  .                 GL:   PERMANENT DATUM
 EPD .F              5208:   ELEVATION PERMANENT DATUM
 LMF .                 KB:   LOG MEASURED FROM
 DAPD.F                10:   FEET ABOVE PERMANENT DATUM
 DMF .                 KB:   DRILLING MEASURED FROM
 EKB .F              5218:   KELLING BUSHING
 EGL .F              5208:   GROUND LEVEL
 DATE.            3-20-79:   RUN DATE
 RUN .                  1:   RUN NUMBER
 DD  .F              2580:   DEPTH DRILLER
 DL  .F              2536:   DEPTH LOGGER
 BLI .F              2536:   BOTTOM LOG INTERVAL
 TLI .F               400:   TOP LOG INTERVAL
 CS  .IN            9.625:   CASING SIZE
 CBL .F               680:   CASING BOTTOM LOGGER
 BS  .IN             8.75:   BIT SIZE
 BSD .F              2580:   BIT SIZE AT DEPTH
 DFT .                AIR:   DRILLING FLUID TYPE
 TCS .HRS               6:   TIME CURCULATED STOPPED
 LUN .               2959:   LOGGING UNIT NUMBER
 LUL .             CASPER:   LOGGING UNIT LOCATION
 ENGI.            ROLLINS:   RECORDING ENGINEER
 WITN.           DINSMORE:   WITNESSED BY
 CLNT.            A2DTECH:   CLIENT CODE
 ORIG. 1", 2", 2.5", 5" PRINT:   ORIGIN OF DATA
 UWI .       490251073900:   UNIQUE WELL ID
 DICO. A2D Technologies, Inc.:   DIGITIZING COMPANY
~OTHER INFORMATION
~A   DEPT      SPR         SN         IL        GRD       CALD       CORR        DEN       DPHI   
# ...
 1359.5000  -999.2500  -999.2500  -999.2500   139.6198     9.7218     0.0898     2.5570    -0.0026
 1360.0000  -999.2500  -999.2500  -999.2500   137.0234     9.7117     0.0956     2.5661    -0.0067
 1360.5000  -999.2500  -999.2500  -999.2500   141.5161     9.7016     0.1016     2.5634    -0.0057
 1361.0000  -999.2500  -999.2500  -999.2500   147.7669     9.6915     0.1022     2.5589    -0.0026
 1361.5000  -999.2500  -999.2500  -999.2500   150.7626     9.6814     0.0999     2.5575    -0.0032
 1362.0000  -999.2500  -999.2500  -999.2500   149.5784     9.6713     0.0865     2.5630    -0.0050
 1362.5000  -999.2500  -999.2500  -999.2500   147.0426     9.6613     0.0641     2.5556     0.0011
 1363.0000  -999.2500  -999.2500  -999.2500   144.5450     9.6511     0.0428     2.5362     0.0088
 1363.5000  -999.2500  -999.2500  -999.2500   142.1307     9.6411     0.0220     2.5189     0.0164
 1364.0000  -999.2500  -999.2500  -999.2500   140.4076     9.6312     0.0067     2.4955     0.0257
 1364.5000  -999.2500  -999.2500  -999.2500   144.3979     9.6202     0.0233     2.5044     0.0178
 1365.0000  -999.2500  -999.2500  -999.2500   149.5228     9.6220     0.0365     2.5261     0.0080
 1365.5000  -999.2500  -999.2500  -999.2500   152.4189     9.6331     0.0525     2.5482    -0.0018
 1366.0000  -999.2500  -999.2500  -999.2500   150.3613     9.6432     0.0545     2.5573    -0.0018
 1366.5000  -999.2500  -999.2500  -999.2500   148.8006     9.6531     0.0427     2.5472     0.0074
 1367.0000  -999.2500  -999.2500  -999.2500   147.5599     9.6633     0.0255     2.5357     0.0152
 1367.5000  -999.2500  -999.2500  -999.2500   149.3018     9.6734     0.0096     2.5021     0.0229
 1368.0000  -999.2500  -999.2500  -999.2500   151.0170     9.6835    -0.0095     2.4843     0.0321
 1368.5000  -999.2500  -999.2500  -999.2500   150.8797     9.6936    -0.0103     2.4909     0.0273
 1369.0000  -999.2500  -999.2500  -999.2500   147.7760     9.7037     0.0014     2.5017     0.0212
 1369.5000  -999.2500  -999.2500  -999.2500   145.2128     9.7137     0.0141     2.5134     0.0152
 1370.0000  -999.2500  -999.2500  -999.2500   142.3300     9.7237     0.0268     2.5244     0.0091
 1370.5000  -999.2500  -999.2500  -999.2500   143.7280     9.7341     0.0394     2.5356     0.0030
 1371.0000  -999.2500  -999.2500  -999.2500   146.3187     9.7389     0.0518     2.5471     0.0004
 1371.5000  -999.2500  -999.2500  -999.2500   148.1325     9.7398     0.0654     2.5580    -0.0059
 1372.0000  -999.2500  -999.2500  -999.2500   145.6938     9.7410     0.0655     2.5642    -0.0015
 1372.5000  -999.2500  -999.2500  -999.2500   141.6155     9.7422     0.0561     2.5421     0.0057
 1373.0000  -999.2500  -999.2500  -999.2500   137.8664     9.7434     0.0500     2.5231     0.0143
 1373.5000  -999.2500  -999.2500  -999.2500   134.3657     9.7446     0.0547     2.5221     0.0131
 1374.0000  -999.2500  -999.2500  -999.2500   134.8300     9.7457     0.0572     2.5213     0.0120
 1374.5000  -999.2500  -999.2500  -999.2500   137.8619     9.7469     0.0551     2.5078     0.0215
 1375.0000  -999.2500  -999.2500  -999.2500   140.2360     9.7481     0.0535     2.5047     0.0196
 1375.5000  -999.2500  -999.2500  -999.2500   141.1207     9.7493     0.0578     2.5067     0.0161
 1376.0000  -999.2500  -999.2500  -999.2500   145.3213     9.7505     0.0727     2.5204     0.0125
 1376.5000  -999.2500  -999.2500  -999.2500   149.6166     9.7517     0.0709     2.5346     0.0089
 1377.0000  -999.2500  -999.2500  -999.2500   154.3170     9.7528     0.0676     2.5436     0.0054
 1377.5000  -999.2500  -999.2500  -999.2500   156.3477     9.7540     0.0665     2.5482     0.0018
 1378.0000  -999.2500  -999.2500  -999.2500   151.9265     9.7552     0.0696     2.5498    -0.0010
 1378.5000  -999.2500  -999.2500  -999.2500   147.8771     9.7564     0.0731     2.5509    -0.0010
 1379.0000  -999.2500  -999.2500  -999.2500   143.6066     9.7576     0.0690     2.5521     0.0002
 1379.5000  -999.2500  -999.2500  -999.2500   139.3116     9.7588     0.0599     2.5406     0.0066
 1380.0000  -999.2500  -999.2500  -999.2500   137.7837     9.7600     0.0504     2.5253     0.0141
 1380.5000  -999.2500  -999.2500  -999.2500   140.8400     9.7612     0.0506     2.5099     0.0216
 1381.0000  -999.2500  -999.2500  -999.2500   141.6642     9.7623     0.0684     2.5047     0.0224
 1381.5000  -999.2500  -999.2500  -999.2500   138.6170     9.7635     0.0869     2.5216     0.0139
 1382.0000  -999.2500  -999.2500  -999.2500   141.3181     9.7647     0.1039     2.5274     0.0107
 1382.5000  -999.2500  -999.2500  -999.2500   147.8889     9.7659     0.1063     2.5350     0.0047
 1383.0000  -999.2500  -999.2500  -999.2500   151.3189     9.7671     0.1041     2.5481    -0.0010
 1383.5000  -999.2500  -999.2500  -999.2500   153.2864     9.7683     0.0953     2.5542    -0.0010
 1384.0000  -999.2500  -999.2500  -999.2500   152.2979     9.7695     0.0865     2.5501     0.0033
 1384.5000  -999.2500  -999.2500  -999.2500   149.8059     9.7706     0.0588     2.5406     0.0077
 1385.0000  -999.2500  -999.2500  -999.2500   149.6772     9.7718     0.0426     2.5238     0.0111
 1385.5000  -999.2500  -999.2500  -999.2500   151.2289     9.7730     0.0400     2.5282     0.0079
 1386.0000  -999.2500  -999.2500  -999.2500   147.9043     9.7743     0.0370     2.5361     0.0059
 1386.5000  -999.2500  -999.2500  -999.2500   144.7421     9.7754     0.0232     2.5346     0.0079
 1387.0000  -999.2500  -999.2500  -999.2500   140.7821     9.7765     0.0099     2.5359     0.0061
 1387.5000  -999.2500  -999.2500  -999.2500   139.0549     9.7782     0.0175     2.5381     0.0044
 1388.0000  -999.2500  -999.2500  -999.2500   137.1447     9.7739     0.0253     2.5407     0.0030
 1388.5000  -999.2500  -999.2500  -999.2500   135.3262     9.7651     0.0637     2.5534    -0.0028
 1389.0000  -999.2500  -999.2500  -999.2500   136.3629     9.7570     0.0983     2.5739    -0.0067
 1389.5000  -999.2500  -999.2500  -999.2500   138.5187     9.7489     0.0877     2.5406     0.0040
 1390.0000  -999.2500  -999.2500  -999.2500   140.2054     9.7406     0.0767     2.5276     0.0111
 1390.5000  -999.2500  -999.2500  -999.2500   141.4938     9.7325     0.1038     2.5446     0.0021
 1391.0000  -999.2500  -999.2500  -999.2500   142.6619     9.7243     0.1211     2.5773    -0.0123
 1391.5000  -999.2500  -999.2500  -999.2500   144.2004     9.7161     0.1109     2.5717    -0.0097
 1392.0000  -999.2500  -999.2500  -999.2500   147.1149     9.7079     0.0967     2.5579    -0.0031
 1392.5000  -999.2500  -999.2500  -999.2500   149.8616     9.6997     0.0820     2.5440     0.0034
 1393.0000  -999.2500  -999.2500  -999.2500   153.1723     9.6916     0.0679     2.5307     0.0100
 1393.5000  -999.2500  -999.2500  -999.2500   153.3166     9.6834     0.0540     2.5168     0.0166
 1394.0000  -999.2500  -999.2500  -999.2500   152.2845     9.6750     0.0504     2.5056     0.0200
 1394.5000  -999.2500  -999.2500  -999.2500   151.1468     9.6674     0.0574     2.5069     0.0177
 1395.0000  -999.2500  -999.2500  -999.2500   153.2445     9.6581     0.0649     2.5145     0.0143
 1395.5000  -999.2500  -999.2500  -999.2500   153.8881     9.6655     0.0608     2.5214     0.0135
 1396.0000  -999.2500  -999.2500  -999.2500   153.6109     9.6756     0.0556     2.5124     0.0184
 1396.5000  -999.2500  -999.2500  -999.2500   154.3499     9.6863     0.0504     2.5101     0.0184
 1397.0000  -999.2500  -999.2500  -999.2500   152.9192     9.6965     0.0645     2.5165     0.0156
 1397.5000  -999.2500  -999.2500  -999.2500   150.2429     9.7069     0.0787     2.5262     0.0127
 1398.0000  -999.2500  -999.2500  -999.2500   147.8782     9.7172     0.0936     2.5417     0.0063
 1398.5000  -999.2500  -999.2500  -999.2500   145.3823     9.7275     0.1084     2.5562    -0.0002
 1399.0000  -999.2500  -999.2500  -999.2500   146.2448     9.7379     0.1163     2.5736    -0.0067
 1399.5000  -999.2500  -999.2500  -999.2500   147.7643     9.7482     0.1198     2.5788    -0.0131
