~VERSION INFORMATION
 VERS.                2.0:   CWLS LOG ASCII STANDARD - VERSION 2.0
 WRAP.                 NO:   ONE LINE PER DEPTH STEP
~WELL INFORMATION
#MNEM.UNIT      DATA TYPE    INFORMATION
#----------   ------------   ------------------------------
 STRT.F            2.0000:   START DEPTH
 STOP.F          500.0000:   STOP DEPTH
 STEP.F            0.1000:   STEP LENGTH
 NULL.          -999.2500:   NO VALUE
 COMP.   FLUOR DANIEL INC:   COMPANY
 WELL.   73-5 X 10 #73-10:   WELL
 FLD .             TEAPOT:   FIELD
 LOC .      S10 T38N R78W:   LOCATION
 CNTY.            NATRONA:   COUNTY
 STAT.            WYOMING:   STATE
 CTRY. UNITED STATES OF AMERICA:   COUNTRY
 SRVC.      Western Atlas:   SERVICE COMPANY
 DATE.        07-JUN-1995:   LOGDATE
 API .       490252271400:   API NUMBER
~CURVE INFORMATION
#MNEM.UNIT       API CODE    CURVE DESCRIPTION
#----------   ------------   ------------------------------
 DEPT.F                  :   
 GRR .GAPI   07 310 01 00:   GAMMA RAY
 RILD.OHMM   07 120 46 00:   INDUCTION LOG DEEP RESISTIVITY
 RILM.OHMM   07 120 44 00:   RESITIVITY LONG MEDIUM
~PARAMETER INFORMATION
#MNEM.UNIT          VALUE    DESCRIPTION
#----------   ------------   ------------------------------
 PD  .                 GL:   PERMANENT DATUM
 EPD .F              5175:   ELEVATION PERMANENT DATUM
 LMF .                 KB:   LOG MEASURED FROM
 DAPD.F                10:   FEET ABOVE PERMANENT DATUM
 DMF .                 KB:   DRILLING MEASURED FROM
 EKB .F              5185:   KELLING BUSHING
 EDF .F              5184:   DRILLING FLOOR
 EGL .F              5175:   GROUND LEVEL
 DATE.        07-JUN-1995:   RUN DATE
 RUN .                  1:   RUN NUMBER
 DD  .F               511:   DEPTH DRILLER
 DL  .F               508:   DEPTH LOGGER
 BLI .F               500:   BOTTOM LOG INTERVAL
 TLI .F                96:   TOP LOG INTERVAL
 CS  .IN            9.625:   CASING SIZE
 CBD .F                96:   CASING BOTTOM DRILLER
 CBL .F                96:   CASING BOTTOM LOGGER
 BS  .IN             8.75:   BIT SIZE
 BSD .F               511:   BIT SIZE AT DEPTH
 DFT .                AIR:   DRILLING FLUID TYPE
 MRT .F               116:   MAXIMUM RECORDED TEMPERATURE
 LUN .            HL 6530:   LOGGING UNIT NUMBER
 LUL .             CASPER:   LOGGING UNIT LOCATION
 ENGI.        VERN RAUTIO:   RECORDING ENGINEER
 WITN.        GARY STRONG:   WITNESSED BY
 CLNT.            A2DTECH:   CLIENT CODE
 ORIG.           5" PRINT:   ORIGIN OF DATA
 UWI .       490252271400:   UNIQUE WELL ID
 DICO. A2D Technologies, Inc.:   DIGITIZING COMPANY
~OTHER INFORMATION
~A    DEPT       GRR     RILD       RILM   
# ...
  275.0000   130.3625     6.4935     6.6728
  275.1000   130.4091     6.3485     6.4572
  275.2000   130.6684     6.2003     6.2779
  275.3000   130.6701     6.0688     6.1034
  275.4000   130.6719     5.9337     5.9174
  275.5000   130.6737     5.8014     5.7990
  275.6000   130.7424     5.6551     5.6913
  275.7000   130.9794     5.4676     5.6238
  275.8000   130.9816     5.2881     5.5923
  275.9000   131.3851     5.1450     5.5605
  276.0000   131.7341     5.0230     5.5605
  276.1000   132.0710     4.9388     5.5371
  276.2000   132.5651     4.8632     5.5223
  276.3000   133.1053     4.8335     5.5224
  276.4000   133.9997     4.8337     5.5225
  276.5000   134.9859     4.8339     5.5226
  276.6000   136.3058     4.8341     5.4968
  276.7000   138.5280     4.8466     5.5034
  276.8000   142.4798     4.9020     5.5228
  276.9000   147.6325     4.9298     5.5229
  277.0000   150.3421     4.9796     5.5230
  277.1000   151.3798     5.0364     5.5517
  277.2000   151.5504     5.0938     5.5831
  277.3000   151.5523     5.1518     5.6293
  277.4000   151.5543     5.2188     5.6931
  277.5000   151.5559     5.2700     5.7575
  277.6000   151.4022     5.3300     5.8568
  277.7000   150.8595     5.3784     5.9562
  277.8000   149.7900     5.4145     6.0759
  277.9000   148.2400     5.4793     6.2031
  278.0000   146.8399     5.5387     6.3087
  278.1000   144.8321     5.6018     6.4321
  278.2000   142.3754     5.6657     6.5258
  278.3000   139.8667     5.7215     6.6370
  278.4000   137.9091     5.7554     6.7501
  278.5000   135.8644     5.8334     6.8714
  278.6000   133.6682     5.9147     7.0381
  278.7000   130.6748     6.0160     7.2264
  278.8000   128.0040     6.1190     7.4032
  278.9000   126.4422     6.2236     7.5719
  279.0000   125.9035     6.3406     7.7442
  279.1000   125.9051     6.4718     7.9209
  279.2000   125.9070     6.6200     8.1477
  279.3000   125.9088     6.7889     8.3434
  279.4000   125.9106     6.9832     8.5608
  279.5000   125.9124     7.1845     8.8049
  279.6000   126.1583     7.3895     9.0505
  279.7000   126.4062     7.6351     9.2839
  279.8000   127.0505     7.9232     9.4216
  279.9000   128.7224     8.2275     9.5822
  280.0000   131.7019     8.5063     9.7455
  280.1000   132.2679     8.7860     9.9012
  280.2000   132.2695     8.9582    10.0188
  280.3000   132.4256     9.1305    10.1815
  280.4000   132.5752     9.2868    10.3129
  280.5000   132.5770     9.4457    10.4008
  280.6000   132.5789     9.6162    10.4441
  280.7000   132.5807     9.7199    10.4462
  280.8000   132.4061     9.8307    10.5170
  280.9000   132.0413     9.9152    10.5171
  281.0000   131.2286     9.9717    10.5172
  281.1000   129.5498    10.0266    10.5174
  281.2000   128.9647    10.0271    10.5175
  281.3000   128.7676    10.0733    10.5177
  281.4000   128.6659    10.0976    10.4656
  281.5000   128.8409    10.0980    10.4454
  281.6000   129.3350    10.0984    10.4456
  281.7000   129.8799    10.0989    10.4457
  281.8000   130.5437    10.0993    10.4459
  281.9000   131.4487    10.1380    10.4460
  282.0000   132.3263    10.1703    10.4462
  282.1000   133.1193    10.1708    10.4463
  282.2000   134.1185    10.1712    10.4629
  282.3000   134.8491    10.2285    10.5191
  282.4000   135.2153    10.2868    10.5193
  282.5000   135.0705    10.3455    10.5194
  282.6000   134.7299    10.3866    10.5196
  282.7000   134.6938    10.3915    10.5411
  282.8000   134.1296    10.4598    10.5929
  282.9000   133.9221    10.5105    10.5931
  283.0000   133.5246    10.5704    10.6471
  283.1000   132.9371    10.6307    10.7074
  283.2000   132.1594    10.6812    10.7411
  283.3000   131.1173    10.6817    10.7542
  283.4000   130.1944    10.7390    10.8160
  283.5000   129.7372    10.8002    10.8162
  283.6000   129.4928    10.8618    10.8624
  283.7000   129.3118    10.9238    10.9238
  283.8000   129.3136    10.9879    10.9856
  283.9000   129.3158    11.1381    11.0477
  284.0000   129.1198    11.1890    11.1205
  284.1000   128.8755    11.2896    11.1732
  284.2000   128.7166    11.3957    11.2750
  284.3000   128.6890    11.4685    11.4273
  284.4000   128.4183    11.6133    11.6120
  284.5000   128.2004    11.7315    11.7543
  284.6000   127.9561    11.8653    12.0008
  284.7000   127.6042    12.0305    12.2745
  284.8000   127.0622    12.2363    12.5540
  284.9000   126.3124    12.4493    12.8227
  285.0000   125.3476    12.6590    13.0408
  285.1000   124.1790    12.9315    13.2635
  285.2000   123.2096    13.1876    13.3727
  285.3000   122.3258    13.4132    13.4896
  285.4000   121.0971    13.6369    13.6183
  285.5000   119.6770    13.8166    13.6953
  285.6000   118.2236    13.9497    13.7843
  285.7000   115.4396    14.1088    13.8508
  285.8000   112.0914    14.2066    13.9292
  285.9000   109.0131    14.2203    14.0080
  286.0000   106.3929    14.3067    14.0872
  286.1000   104.3245    14.3830    14.1721
  286.2000   101.4152    14.4650    14.2471
  286.3000    98.6893    14.5475    14.3850
  286.4000    96.4140    14.6515    14.5088
  286.5000    93.9190    14.8204    14.6318
  286.6000    89.9825    15.0745    14.8793
  286.7000    87.8117    15.3330    15.0481
  286.8000    84.9690    15.5956    15.2188
  286.9000    82.0368    15.8625    15.3913
  287.0000    80.7029    16.1232    15.6242
  287.1000    80.4310    16.3277    15.9613
  287.2000    80.4326    16.5761    16.1659
  287.3000    80.4344    16.7970    16.3254
  287.4000    80.4362    16.9468    16.5705
  287.5000    80.3877    17.0434    16.8135
  287.6000    80.1378    17.1428    17.0214
  287.7000    79.8991    17.3339    17.3254
  287.8000    79.4702    17.5316    17.6067
  287.9000    78.9798    17.6790    17.7614
  288.0000    78.4170    17.8096    17.8619
  288.1000    77.6639    18.0123    17.9629
  288.2000    76.5236    18.2507    18.0645
  288.3000    75.6985    18.3382    18.1868
  288.4000    74.8664    18.4428    18.2695
  288.5000    74.2246    18.5480    18.3729
  288.6000    73.8112    18.6537    18.4768
  288.7000    73.8134    18.7675    18.5814
  288.8000    73.8151    18.7683    18.6985
  288.9000    73.8169    18.8437    18.7923
  289.0000    73.8187    18.9004    18.8986
  289.1000    73.8205    18.9276    19.0055
  289.2000    73.8175    19.0334    19.1130
  289.3000    73.5732    19.0342    19.2246
  289.4000    73.3289    19.1204    19.2249
  289.5000    73.2236    19.2295    19.3053
  289.6000    73.0594    19.3022    19.3589
  289.7000    72.5149    19.3031    19.3897
  289.8000    71.4165    19.3039    19.4993
  289.9000    69.8984    19.4012    19.6296
  290.0000    68.6606    19.4397    19.6298
  290.1000    68.0985    19.4405    19.6301
  290.2000    68.1003    19.4195    19.5906
  290.3000    68.1022    19.3079    19.4809
  290.4000    68.1039    19.3087    19.3611
  290.5000    68.2890    19.3095    19.2634
  290.6000    68.5370    19.2541    19.1556
  290.7000    68.7849    19.1777    19.0483
  290.8000    69.0328    19.1718    18.9417
  290.9000    69.3218    19.0470    18.8338
  291.0000    69.5287    18.9582    18.8341
  291.1000    69.9261    18.9169    18.7547
  291.2000    70.6071    18.9177    18.7047
  291.3000    71.5558    18.9184    18.7050
  291.4000    72.3518    18.9193    18.6983
  291.5000    73.2639    18.8216    18.5765
  291.6000    74.4216    18.7901    18.5768
  291.7000    75.8851    18.7909    18.5770
  291.8000    77.6099    18.7661    18.5773
  291.9000    79.3347    18.6627    18.5775
  292.0000    81.0595    18.6635    18.5778
  292.1000    82.3965    18.6642    18.5780
  292.2000    83.3535    18.6650    18.5783
  292.3000    83.9302    18.6658    18.5786
  292.4000    84.1780    18.6666    18.5788
  292.5000    84.4564    18.6674    18.5791
  292.6000    84.2421    18.6681    18.6843
  292.7000    84.1577    18.6689    18.7086
  292.8000    84.1595    18.7143    18.7089
  292.9000    84.1134    18.8003    18.7091
  293.0000    83.8611    18.8011    18.7180
  293.1000    83.8628    18.9049    18.8396
