~VERSION INFORMATION
 VERS.                2.0:   CWLS LOG ASCII STANDARD - VERSION 2.0
 WRAP.                 NO:   ONE LINE PER DEPTH STEP
~WELL INFORMATION
#MNEM.UNIT      DATA TYPE    INFORMATION
#----------   ------------   ------------------------------
 STRT.F           64.0000:   START DEPTH
 STOP.F          532.0000:   STOP DEPTH
 STEP.F            0.5000:   STEP LENGTH
 NULL.          -999.2500:   NO VALUE
 COMP.       F D SERV INC:   COMPANY
 WELL.  81-3 SX 10 #81-10:   WELL
 FLD .             TEAPOT:   FIELD
 LOC .      S10 T38N R78W:   LOCATION
 CNTY.            NATRONA:   COUNTY
 STAT.            WYOMING:   STATE
 CTRY. UNITED STATES OF AMERICA:   COUNTRY
 SRVC.     Atlas Wireline:   SERVICE COMPANY
 DATE.        29-JAN-1993:   LOGDATE
 API .       490252258400:   API NUMBER
~CURVE INFORMATION
#MNEM.UNIT       API CODE    CURVE DESCRIPTION
#----------   ------------   ------------------------------
 DEPT.F                  :   
 C13 .IN     45 280 13 00:   
 ZCOR.G/C3   45 356 01 00:   DENSITY CORRECTION
 ZDEN.G/C3   45 350 01 00:   BULK DENSITY
 GRD .GAPI   45 310 01 00:   GAMMA RAY FROM DENSITY LOG
 PORS.DEC    42 890 00 00:   
 PORZ.DEC    45 890 00 00:   DENSITY POROSITY
 RILD.OHMM   07 120 46 00:   INDUCTION LOG DEEP RESISTIVITY
 RILM.OHMM   07 120 44 00:   INDUCTION LOG MEDIUM RESISTIVITY
~PARAMETER INFORMATION
#MNEM.UNIT          VALUE    DESCRIPTION
#----------   ------------   ------------------------------
 PD  .                 GL:   PERMANENT DATUM
 EPD .F              5161:   ELEVATION PERMANENT DATUM
 LMF .                 KB:   LOG MEASURED FROM
 DAPD.F                10:   FEET ABOVE PERMANENT DATUM
 DMF .                 KB:   DRILLING MEASURED FROM
 EKB .F              5171:   KELLING BUSHING
 EDF .F              5170:   DRILLING FLOOR
 EGL .F              5161:   GROUND LEVEL
 DATE.        29-JAN-1993:   RUN DATE
 RUN .                  1:   RUN NUMBER
 DD  .F               536:   DEPTH DRILLER
 DL  .F               536:   DEPTH LOGGER
 BLI .F               527:   BOTTOM LOG INTERVAL
 TLI .F                96:   TOP LOG INTERVAL
 CS  .IN            8.625:   CASING SIZE
 CBD .F                96:   CASING BOTTOM DRILLER
 CBL .F                96:   CASING BOTTOM LOGGER
 BS  .IN            7.875:   BIT SIZE
 BSD .F               536:   BIT SIZE AT DEPTH
 DFT .                AIR:   DRILLING FLUID TYPE
 MRT .F                65:   MAXIMUM RECORDED TEMPERATURE
 LUN .            HL-6274:   LOGGING UNIT NUMBER
 LUL .             CASPER:   LOGGING UNIT LOCATION
 ENGI.        P.RASMUSSEN:   RECORDING ENGINEER
 WITN.           G.STRONG:   WITNESSED BY
 CLNT.            A2DTECH:   CLIENT CODE
 ORIG.           5" PRINT:   ORIGIN OF DATA
 UWI .       490252258400:   UNIQUE WELL ID
 DICO. A2D Technologies, Inc.:   DIGITIZING COMPANY
~OTHER INFORMATION
~A   DEPT      C13       ZCOR       ZDEN        GRD       PORS       PORZ       RILD       RILM   
# ...
  226.0000     8.2952     0.0007     2.4910   160.8306     0.2921     0.0959     8.5331     8.5814
  226.5000     8.3035    -0.0037     2.4911   158.4153     0.2912     0.0974     8.5331     8.5814
  227.0000     8.3029    -0.0067     2.4888   155.0602     0.2900     0.0992     8.5331     8.5814
  227.5000     8.3025    -0.0037     2.4866   151.7761     0.2891     0.1010     8.4742     8.6412
  228.0000     8.3021     0.0022     2.4814   150.5656     0.2883     0.1037     8.4742     8.6324
  228.5000     8.3017    -0.0007     2.4731   152.0660     0.2889     0.1085     8.4157     8.5814
  229.0000     8.3012    -0.0068     2.4671   157.6023     0.2907     0.1112     8.2999     8.5814
  229.5000     8.3007    -0.0142     2.4702   163.8003     0.2922     0.1091     8.1858     8.5814
  230.0000     8.3003    -0.0112     2.4747   165.0009     0.2940     0.1061     8.0732     8.5814
  230.5000     8.2999    -0.0082     2.4747   161.0781     0.2934     0.1070     7.9621     8.5814
  231.0000     8.2993    -0.0082     2.4747   159.5663     0.2922     0.1079     7.8526     8.4632
  231.5000     8.2989    -0.0082     2.4770   158.6557     0.2925     0.1058     7.7446     8.2317
  232.0000     8.2985    -0.0097     2.4808   158.0477     0.2928     0.1025     7.6912     8.0064
  232.5000     8.2980    -0.0112     2.4838   158.0420     0.2934     0.1010     7.6381     7.6801
  233.0000     8.2975    -0.0128     2.4823   159.5410     0.2985     0.1037     7.4779     7.4700
  233.5000     8.2971    -0.0157     2.4771   162.5474     0.3030     0.1068     7.1270     7.2154
  234.0000     8.3117    -0.0127     2.4689   165.8550     0.3078     0.1124     6.7898     6.8633
  234.5000     8.3113    -0.0067     2.4591   166.1868     0.3117     0.1157     6.2484     6.2808
  235.0000     8.3161    -0.0036     2.4524   160.7218     0.3161     0.1193     5.5506     5.7393
  235.5000     8.3254     0.0022     2.4464   158.6077     0.3198     0.1238     4.8360     5.1365
  236.0000     8.3249    -0.0022     2.4411   157.6984     0.3241     0.1286     4.4504     4.6201
  236.5000     8.3244    -0.0067     2.4314   158.5964     0.3280     0.1379     4.0392     3.9465
  237.0000     8.3240    -0.0128     2.4164   160.6977     0.3346     0.1549     3.6908     3.4353
  237.5000     8.3235    -0.0187     2.3856   161.5957     0.3484     0.1718     3.0832     3.0322
  238.0000     8.3231    -0.0232     2.3578   161.8926     0.3608     0.1914     2.7408     2.8048
  238.5000     8.3227    -0.0247     2.3158   162.7892     0.3711     0.2247     2.4875     2.6031
  239.0000     8.3222    -0.0215     2.2760   160.3725     0.3749     0.2542     2.4196     2.4970
  239.5000     8.3217    -0.0142     2.2264   157.3548     0.3719     0.2680     2.4533     2.5851
  240.0000     8.3213     0.0022     2.2069   155.2407     0.3568     0.2641     2.5752     2.7516
  240.5000     8.3208     0.0172     2.2212   154.9337     0.3277     0.2246     2.7598     3.0112
  241.0000     8.3204     0.0308     2.2408   158.5412     0.3195     0.1943     2.8187     3.3880
  241.5000     8.3199     0.0232     2.3039   163.0536     0.3165     0.1465     3.5658     3.7445
  242.0000     8.3195     0.0127     2.3776   166.9636     0.3147     0.1336     4.0392     4.3188
  242.5000     8.3190     0.0007     2.4347   168.7652     0.3105     0.1243     4.3892     4.9614
  243.0000     8.3186    -0.0101     2.4467   166.6497     0.3072     0.1174     5.0412     5.4296
  243.5000     8.3181    -0.0187     2.4558   166.6440     0.3066     0.1141     5.7501     5.8756
  244.0000     8.3177    -0.0157     2.4633   169.0480     0.3078     0.1119     6.1199     6.2374
  244.5000     8.3172    -0.0067     2.4686   170.8916     0.3102     0.1113     6.2918     6.4129
  245.0000     8.3019    -0.0007     2.4671   170.5413     0.3135     0.1125     6.2918     6.5477
  245.5000     8.3164    -0.0127     2.4634   169.0296     0.3160     0.1143     6.3355     6.5985
  246.0000     8.3159    -0.0157     2.4581   168.4216     0.3171     0.1174     6.4685     6.6392
  246.5000     8.3004    -0.0097     2.4559   168.1147     0.3150     0.1182     6.4685     6.5933
  247.0000     8.2999    -0.0035     2.4604   169.6151     0.3135     0.1149     6.3795     6.5477
  247.5000     8.2995    -0.0067     2.4680   170.2104     0.3135     0.1119     6.1953     6.3642
  248.0000     8.2991    -0.0127     2.4717   172.6144     0.3135     0.1089     5.8303     6.0248
  248.5000     8.2986    -0.0217     2.4612   176.8242     0.3171     0.1125     5.5544     5.7393
  249.0000     8.2981    -0.0262     2.4357   179.8306     0.3253     0.1221     5.2916     5.4296
  249.5000     8.2977    -0.0157     2.4039   181.6322     0.3382     0.1506     5.0381     5.1304
  250.0000     8.3123    -0.0097     2.3877   182.2289     0.3466     0.1591     4.8605     4.7592
  250.5000     8.2970    -0.0022     2.4027   179.2077     0.3385     0.1527     4.7695     4.6618
  251.0000     8.2966     0.0008     2.4110   173.1731     0.3351     0.1446     4.7039     4.5982
  251.5000     8.2964     0.0053     2.4117   169.5502     0.3301     0.1440     4.6714     4.5990
  252.0000     8.2961     0.0053     2.4163   167.1321     0.3247     0.1428     4.9035     4.7015
  252.5000     8.3108     0.0068     2.4208   165.9187     0.3214     0.1373     5.2563     4.9995
  253.0000     8.3105     0.0067     2.4330   167.7155     0.3205     0.1253     5.5930     5.2127
  253.5000     8.2952     0.0053     2.4508   169.2131     0.3250     0.1178     5.7901     5.4727
  254.0000     8.2949     0.0039     2.4636   169.8072     0.3235     0.1118     6.0357     5.7459
  254.5000     8.2795     0.0009     2.4711   169.4953     0.3200     0.1077     6.3852     6.0325
  255.0000     8.2793    -0.0006     2.4787   170.0914     0.3135     0.1024     6.7429     6.3334
  255.5000     8.2790    -0.0140     2.4832   172.1892     0.3099     0.1015     7.0290     6.6034
  256.0000     8.2936    -0.0230     2.4839   174.6064     0.3072     0.1012     7.2767     6.8851
  256.5000     8.2934    -0.0245     2.4839   173.9775     0.3057     0.1000     7.5854     7.1289
  257.0000     8.3082    -0.0200     2.4862   171.5594     0.3051     0.0994     7.7446     7.3814
  257.5000     8.3228    -0.0140     2.4870   170.0449     0.3048     0.1006     7.8526     7.6988
  258.0000     8.3075    -0.0079     2.4817   169.1307     0.3048     0.1054     7.9072     7.8049
  258.5000     8.3072    -0.0035     2.4720   169.1223     0.3060     0.1093     7.9621     7.7518
  259.0000     8.3069    -0.0065     2.4690   170.0175     0.3075     0.1111     7.7984     7.6993
  259.5000     8.3066    -0.0124     2.4660   171.5150     0.3087     0.1107     7.6912     7.6403
  260.0000     8.3063    -0.0214     2.4660   173.6129     0.3099     0.1098     7.5784     7.4391
  260.5000     8.3060    -0.0229     2.4675   172.7009     0.3108     0.1113     7.3272     7.1865
  261.0000     8.2907    -0.0184     2.4652   172.3912     0.3096     0.1131     7.1270     7.0394
  261.5000     8.3054    -0.0137     2.4630   172.3825     0.3093     0.1137     6.8845     6.8006
  262.0000     8.3051    -0.0109     2.4607   172.0710     0.3093     0.1143     6.5135     6.4792
  262.5000     8.3048    -0.0198     2.4600   170.8577     0.3129     0.1149     6.1199     6.1729
  263.0000     8.3045    -0.0243     2.4592   169.9457     0.3144     0.1155     5.6319     5.7986
  263.5000     8.2892    -0.0213     2.4577   172.9472     0.3171     0.1161     5.2500     5.3009
  264.0000     8.3039    -0.0153     2.4487   176.5532     0.3220     0.1193     4.8696     5.0155
  264.5000     8.3035    -0.0108     2.4382   176.2435     0.3301     0.1274     4.6392     4.8117
  265.0000     8.3033    -0.0106     2.4300   172.8214     0.3370     0.1343     4.4813     4.6806
  265.5000     8.3030    -0.0048     2.4150   166.2848     0.3382     0.1430     4.5213     4.6814
  266.0000     8.2974    -0.0048     2.4082   164.1700     0.3250     0.1466     4.7366     4.7474
