~VERSION INFORMATION
 VERS.                2.0:   CWLS LOG ASCII STANDARD - VERSION 2.0
 WRAP.                 NO:   ONE LINE PER DEPTH STEP
~WELL INFORMATION
#MNEM.UNIT      DATA TYPE    INFORMATION
#----------   ------------   ------------------------------
 STRT.F           20.0000:   START DEPTH
 STOP.F          626.0000:   STOP DEPTH
 STEP.F            0.5000:   STEP LENGTH
 NULL.          -999.2500:   NO VALUE
 COMP. FENIX & SCISSON INC:   COMPANY
 WELL. NPR-3  38-S-34 #38-34:   WELL
 FLD .             TEAPOT:   FIELD
 LOC .      S34 T39N R78W:   LOCATION
 CNTY.            NATRONA:   COUNTY
 STAT.            WYOMING:   STATE
 CTRY. UNITED STATES OF AMERICA:   COUNTRY
 SRVC.           BIRDWELL:   SERVICE COMPANY
 DATE.        08-AUG-1978:   LOGDATE
 API .       490251068300:   API NUMBER
~CURVE INFORMATION
#MNEM.UNIT       API CODE    CURVE DESCRIPTION
#----------   ------------   ------------------------------
 DEPT.F                  :   
 SPR .MV     05 010 01 00:   SPONTANEOUS POTENTIAL FROM RES.
 SN  .OHMM   05 040 16 00:   SHORT NORMAL 16"
 IL  .OHMM   05 120 00 00:   INDUCTION LOG
 RHOB.G/C3   45 350 01 00:   BULK DENSITY
 DPHI.DEC    45 890 12 00:   DENSITY POROSITY SANDSTONE
 CORR.G/C3   45 356 01 00:   DENSITY CORRECTION
 GRD .GAPI   45 310 01 00:   GAMMA RAY FROM DENSITY LOG
 CALD.IN     45 280 60 00:   CALIPER
~PARAMETER INFORMATION
#MNEM.UNIT          VALUE    DESCRIPTION
#----------   ------------   ------------------------------
 PD  .                 GL:   PERMANENT DATUM
 EPD .F              5213:   ELEVATION PERMANENT DATUM
 LMF .                 KB:   LOG MEASURED FROM
 DAPD.F                 4:   FEET ABOVE PERMANENT DATUM
 DMF .                 KB:   DRILLING MEASURED FROM
 EKB .F              5217:   KELLING BUSHING
 EGL .F              5213:   GROUND LEVEL
 DATE.             8-8-78:   RUN DATE
 RUN .                  1:   RUN NUMBER
 DD  .F               620:   DEPTH DRILLER
 DL  .F               632:   DEPTH LOGGER
 BLI .F               626:   BOTTOM LOG INTERVAL
 TLI .F                35:   TOP LOG INTERVAL
 CS  .IN            8.625:   CASING SIZE
 CBL .F                35:   CASING BOTTOM LOGGER
 BS  .IN            7.875:   BIT SIZE
 BSD .F               620:   BIT SIZE AT DEPTH
 DFT .                KCL:   DRILLING FLUID TYPE
 DFD .                8.7:   DRILLING FLUID DENSITY
 DFV .                 33:   DRILLING FLUID VISCOSITY
 DFPH.                  9:   DRILLING FLUID PH
 DFL .                  5:   DRILLING FLUID LOSS
 MSS .          FLOW LINE:   MUD SAMPLE SOURCE
 RMS .OHMM            .12:   RESISTIVITY MUD SAMPLE
 MST .F                80:   MUD SAMPLE TEMPERATURE
 RMF .OHMM            .13:   RESISTIVITY MUD FILTRATE SAMPLE
 MFST.F                83:   MUD FILTRATE SAMPLE TEMPERATURE
 RMC .OHMM            .16:   RESISTIVITY MUD CAKE
 MCST.F                84:   MUD CAKE SAMPLE TEMPERATURE
 MFSS.               MEAS:   MUD FILTRATE SAMPLE SOURCE
 TCS .HRS               1:   TIME CURCULATED STOPPED
 LUN .               3006:   LOGGING UNIT NUMBER
 LUL .               CASP:   LOGGING UNIT LOCATION
 ENGI.             MILLER:   RECORDING ENGINEER
 WITN.           MCGINLEY:   WITNESSED BY
 CLNT.            A2DTECH:   CLIENT CODE
 ORIG.           5" PRINT:   ORIGIN OF DATA
 UWI .       490251068300:   UNIQUE WELL ID
 DICO. A2D Technologies, Inc.:   DIGITIZING COMPANY
~OTHER INFORMATION
~A   DEPT      SPR         SN         IL       RHOB       DPHI       CORR         GRD      CALD   
# ...
  384.5000   -33.1139     5.1328     4.7344     2.4118     0.1587     0.0161   113.4004     7.5944
  385.0000   -33.0589     5.3504     4.8069     2.4093     0.1556     0.0260   113.7329     7.5944
  385.5000   -33.0037     5.6297     4.9736     2.4177     0.1474     0.0335   114.0208     7.5944
  386.0000   -32.9484     5.9236     5.2312     2.4319     0.1392     0.0294   114.2528     7.5944
  386.5000   -32.9061     5.9890     5.5023     2.4506     0.1310     0.0254   112.2588     7.5944
  387.0000   -32.9768     6.0100     5.7563     2.4686     0.1228     0.0216   106.3990     7.5944
  387.5000   -33.0467     6.0310     5.7603     2.4714     0.1230     0.0205   102.4520     7.5944
  388.0000   -33.0981     6.0521     5.7645     2.4709     0.1232     0.0196   101.2072     7.5944
  388.5000   -33.0812     6.0732     5.7683     2.4685     0.1235     0.0186   105.5945     7.5944
  389.0000   -33.0657     6.0945     5.7723     2.4670     0.1238     0.0176   111.4964     7.5944
  389.5000   -33.0504     6.1159     5.7762     2.4678     0.1240     0.0206   116.7108     7.5944
  390.0000   -33.0350     6.1383     5.7802     2.4716     0.1200     0.0255   115.0014     7.5944
  390.5000   -33.0196     6.1323     5.7842     2.4772     0.1136     0.0306   112.8420     7.5933
  391.0000   -33.0043     6.1255     5.7882     2.4870     0.1118     0.0351   112.7597     7.5903
  391.5000   -32.9889     6.1189     5.7922     2.4954     0.1143     0.0261   113.1329     7.5873
  392.0000   -32.9736     6.1122     5.7962     2.4878     0.1169     0.0176   113.5180     7.5843
  392.5000   -32.9582     6.1056     5.8003     2.4815     0.1161     0.0196   113.9138     7.5812
  393.0000   -32.9429     6.0990     5.8042     2.4843     0.1140     0.0217   114.1238     7.5782
  393.5000   -32.9273     6.0923     5.8097     2.4873     0.1128     0.0237   110.5735     7.5752
  394.0000   -32.9120     6.0858     5.7873     2.4903     0.1129     0.0254   109.6863     7.5722
  394.5000   -32.9128     6.0662     5.7531     2.4908     0.1131     0.0180   112.9079     7.5692
  395.0000   -32.9858     6.0326     5.7192     2.4906     0.1132     0.0097   113.8248     7.5661
  395.5000   -33.0571     5.9987     5.7029     2.4902     0.1136     0.0013   109.8646     7.5631
  396.0000   -33.1283     5.9651     5.6860     2.4856     0.1185    -0.0040   107.0105     7.5600
  396.5000   -33.1995     5.9319     5.6561     2.4688     0.1228     0.0084   104.0868     7.5570
  397.0000   -33.2706     5.8987     5.6264     2.4707     0.1204     0.0204   103.4940     7.5619
  397.5000   -33.3419     5.8627     5.5743     2.4723     0.1174     0.0297   105.2541     7.6028
  398.0000   -33.4131     5.7052     5.3440     2.4820     0.1161     0.0298   107.9629     7.6452
  398.5000   -33.4864     5.5376     5.1232     2.4850     0.1191     0.0300   110.3454     7.6224
  399.0000   -33.4854     5.3749     4.9114     2.4725     0.1216     0.0302   110.3812     7.5786
  399.5000   -33.4666     5.2170     4.7085     2.4720     0.1216     0.0305   110.4424     7.5340
  400.0000   -33.4474     5.1002     4.5323     2.4720     0.1255     0.0308   111.6453     7.4983
  400.5000   -33.4285     5.0745     4.5271     2.4632     0.1337     0.0310   113.0033     7.5598
  401.0000   -33.4096     5.0490     4.5224     2.4464     0.1419     0.0313   113.1243     7.6188
  401.5000   -33.3906     5.0146     4.5177     2.4294     0.1567     0.0320   113.1609     7.6208
  402.0000   -33.3717     5.0726     4.5130     2.4026     0.1731     0.0342   113.7122     7.5372
  402.5000   -33.3528     5.1645     4.5083     2.3759     0.1877     0.0737   119.7995     7.5638
  403.0000   -33.3344     5.2989     4.5036     2.3563     0.1842     0.1068   123.4394     7.5645
  403.5000   -33.3153     5.2791     4.4989     2.4445     0.1660     0.0535   120.0531     7.3593
  404.0000   -33.2589     5.2423     4.4943     2.4039     0.1480     0.0163   115.5812     8.9540
  404.5000   -33.0378     5.2066     4.4908     2.4502     0.1320     0.0154   111.0823     7.5127
  405.0000   -32.8206     5.1710     4.4908     2.4583     0.1334     0.0137   112.1593     7.5878
  405.5000   -32.6044     5.1358     4.4908     2.4564     0.1430     0.0121   113.6185     7.5977
  406.0000   -32.3859     5.1076     4.4907     2.4330     0.1526     0.0137   115.0445     7.6070
  406.5000   -32.3439     5.1076     4.4908     2.4217     0.1596     0.0171   116.5194     7.6163
  407.0000   -32.4127     5.2380     4.4908     2.4034     0.1689     0.0202   115.5334     7.6226
  407.5000   -32.4839     5.4260     4.6165     2.3804     0.1787     0.0492   113.3484     7.6289
  408.0000   -32.5550     5.6276     4.8737     2.3746     0.1692     0.0658   114.2194     7.6352
  408.5000   -32.6259     5.9164     5.1464     2.4450     0.1535     0.0255   115.2548     7.6415
  409.0000   -32.6968     5.8741     5.3786     2.4355     0.1368     0.0137   114.0955     7.6479
  409.5000   -32.7682     5.8021     5.6510     2.4540     0.1287     0.0210   111.6062     7.6536
  410.0000   -32.8411     5.7390     5.5016     2.4769     0.1201     0.0287   109.8300     7.6450
  410.5000   -32.8961     5.6147     5.2243     2.4862     0.1119     0.0297   111.4188     7.6359
  411.0000   -32.5247     5.4931     4.9609     2.4859     0.1142     0.0272   113.9183     7.6268
  411.5000   -32.1254     5.3742     4.7109     2.4818     0.1171     0.0264   116.5367     7.6177
  412.0000   -31.9298     5.2577     4.4734     2.4810     0.1168     0.0327   114.0750     7.6087
  412.5000   -32.0000     5.1438     4.4036     2.4810     0.1168     0.0378   110.0700     7.5996
  413.0000   -32.0719     5.0316     4.3961     2.4803     0.1168     0.0275   107.2681     7.5906
  413.5000   -31.6616     4.9690     4.3886     2.4670     0.1309     0.0180   107.0971     7.5815
  414.0000   -30.8857     5.0530     4.3811     2.4488     0.1439     0.0241   107.4405     7.5724
  414.5000   -30.1051     5.1145     4.3736     2.4304     0.1551     0.0336   107.8968     7.5634
  415.0000   -29.6295     5.2516     4.3687     2.4120     0.1615     0.0486   115.1598     7.5543
  415.5000   -29.4856     5.5423     4.7688     2.4035     0.1546     0.0594   122.0858     7.5453
  416.0000   -29.3412     5.8491     5.0897     2.4395     0.1444     0.0393   121.8822     7.5362
  416.5000   -29.1972     6.1131     5.4323     2.4446     0.1348     0.0250   114.0493     7.5272
  417.0000   -29.0526     6.2267     5.7979     2.4549     0.1274     0.0330   110.3319     7.5181
  417.5000   -28.9085     6.3683     6.0163     2.4818     0.1200     0.0300   108.3191     7.5090
  418.0000   -28.7633     6.3641     6.0823     2.4880     0.1126     0.0272   105.2118     7.5001
  418.5000   -28.7288     6.3588     6.0695     2.4931     0.1073     0.0257   101.8267     7.5045
  419.0000   -28.7768     6.3535     6.0590     2.4982     0.1056     0.0272    99.8924     7.5208
  419.5000   -28.8265     6.3481     6.0484     2.5043     0.1040     0.0286   101.6786     7.5406
  420.0000   -28.8762     6.3428     6.0379     2.5112     0.1039     0.0301   103.0260     7.5600
  420.5000   -28.9257     6.3375     6.0274     2.5069     0.1062     0.0315   102.4774     7.5699
  421.0000   -28.9756     6.3321     6.0169     2.4995     0.1077     0.0329   102.0011     7.5462
  421.5000   -29.0253     6.3268     6.0064     2.4982     0.1063     0.0313   103.8879     7.5235
  422.0000   -29.0716     6.3215     5.9960     2.5008     0.1048     0.0266   110.1137     7.5006
  422.5000   -28.9529     6.3162     5.9855     2.5023     0.1055     0.0257   108.0256     7.4770
  423.0000   -28.6458     6.3106     5.9710     2.4976     0.1056     0.0323   105.3575     7.5110
  423.5000   -28.3411     6.3210     5.9828     2.4975     0.1077     0.0276   104.1664     7.5531
  424.0000   -28.0897     6.3343     6.0077     2.5092     0.1098     0.0142   103.7096     7.5930
  424.5000   -28.0727     6.3474     6.0328     2.5005     0.1119     0.0216   103.1887     7.5837
