~VERSION INFORMATION
 VERS.                2.0:   CWLS LOG ASCII STANDARD - VERSION 2.0
 WRAP.                 NO:   ONE LINE PER DEPTH STEP
~WELL INFORMATION
#MNEM.UNIT      DATA TYPE    INFORMATION
#----------   ------------   ------------------------------
 STRT.F          276.0000:   START DEPTH
 STOP.F         2768.0000:   STOP DEPTH
 STEP.F            0.5000:   STEP LENGTH
 NULL.          -999.2500:   NO VALUE
 COMP.       TESORD PETRO:   COMPANY
 WELL. AX-20 NPR #3 #83-20:   WELL
 FLD .            WILDCAT:   FIELD
 LOC .      S20 T39N R78W:   LOCATION
 CNTY.            NATRONA:   COUNTY
 STAT.            WYOMING:   STATE
 CTRY. UNITED STATES OF AMERICA:   COUNTRY
 SRVC.       Schlumberger:   SERVICE COMPANY
 DATE.        20-JUL-1971:   LOGDATE
 API .       490251022000:   API NUMBER
~CURVE INFORMATION
#MNEM.UNIT       API CODE    CURVE DESCRIPTION
#----------   ------------   ------------------------------
 DEPT.F                  :   
 SPR .MV     05 010 01 00:   SPONTANEOUS POTENTIAL FROM RES.
 ASN .OHMM   05 041 16 00:   AMPLIFIED SHORT NORMAL 16"
 ILD .OHMM   05 120 46 00:   INDUCTION LOG DEEP
 CALD.IN     45 280 60 00:   CALIPER FROM DENSITY
 CORR.G/C3   45 356 01 00:   DENSITY CORRECTION
 DPHI.DEC    45 890 12 00:   DENSITY POROSITY SANDSTONE
 GRD .GAPI   45 310 01 00:   GAMMA RAY FROM DENSITY LOG
 RHOB.G/C3   45 350 01 00:   BULK DENSITY
 CILD.MMHO   05 110 46 00:   CONDUCTIVITY INDUCTION LOG DEEP
~PARAMETER INFORMATION
#MNEM.UNIT          VALUE    DESCRIPTION
#----------   ------------   ------------------------------
 PD  .                 GL:   PERMANENT DATUM
 EPD .F              4994:   ELEVATION PERMANENT DATUM
 LMF .                 KB:   LOG MEASURED FROM
 DAPD.F                11:   FEET ABOVE PERMANENT DATUM
 DMF .                 KB:   DRILLING MEASURED FROM
 EKB .F              5005:   KELLING BUSHING
 EGL .F              4994:   GROUND LEVEL
 DATE.        20-JUL-1971:   RUN DATE
 RUN .                  1:   RUN NUMBER
 DD  .F              2770:   DEPTH DRILLER
 DL  .F              2769:   DEPTH LOGGER
 BLI .F              2768:   BOTTOM LOG INTERVAL
 TLI .F               276:   TOP LOG INTERVAL
 CS  .IN            10.75:   CASING SIZE
 CBD .F               274:   CASING BOTTOM DRILLER
 CBL .F               276:   CASING BOTTOM LOGGER
 BS  .IN                9:   BIT SIZE
 BSD .F              2770:   BIT SIZE AT DEPTH
 DFT .      FRESH GEL MUD:   DRILLING FLUID TYPE
 DFD .                 10:   DRILLING FLUID DENSITY
 DFV .                 82:   DRILLING FLUID VISCOSITY
 DFPH.                  8:   DRILLING FLUID PH
 DFL .                4.8:   DRILLING FLUID LOSS
 MSS .           FLOWLINE:   MUD SAMPLE SOURCE
 RMS .OHMM            1.8:   RESISTIVITY MUD SAMPLE
 MST .F                73:   MUD SAMPLE TEMPERATURE
 RMF .OHMM            1.4:   RESISTIVITY MUD FILTRATE SAMPLE
 MFST.F                73:   MUD FILTRATE SAMPLE TEMPERATURE
 MFSS.               MEAS:   MUD FILTRATE SAMPLE SOURCE
 RMB .OHMM           1.15:   RESISTIVITY MUD AT BHT
 BHT .F               116:   BOTTOM HOLE TEMPERATURE
 TCS .HRS               2:   TIME CURCULATED STOPPED
 MRT .F               116:   MAXIMUM RECORDED TEMPERATURE
 LUN .               7037:   LOGGING UNIT NUMBER
 LUL .               CSPR:   LOGGING UNIT LOCATION
 ENGI.             JENSEN:   RECORDING ENGINEER
 WITN.                MAY:   WITNESSED BY
 CLNT.            A2DTECH:   CLIENT CODE
 ORIG.     1", 2.5" PRINT:   ORIGIN OF DATA
 UWI .       490251022000:   UNIQUE WELL ID
 DICO. A2D Technologies, Inc.:   DIGITIZING COMPANY
~OTHER INFORMATION
~A   DEPT      SPR          ASN        ILD     CALD       CORR       DPHI        GRD       RHOB       CILD   
# ...
 2429.5000   -25.1295     6.5373     4.4952     9.1167     0.0597     0.0915   126.3200     2.4994  -999.2500
 2430.0000   -25.4339     6.4776     4.4926     9.1164     0.0660     0.0897   125.4178     2.5043  -999.2500
 2430.5000   -25.4399     6.4776     4.6396     9.1161     0.0704     0.0855   122.7246     2.5103  -999.2500
 2431.0000   -25.4458     6.4478     4.7865     9.1158     0.0943     0.0785   120.4614     2.5222  -999.2500
 2431.5000   -25.4518     6.4776     4.9963     9.1155     0.1122     0.0626   116.8479     2.5417  -999.2500
 2432.0000   -25.7563     6.7463     5.2935     9.1152     0.1172     0.0575   115.5403     2.5566  -999.2500
 2432.5000   -26.0607     7.4925     5.6555     8.9955     0.0988     0.0579   115.5336     2.5700  -999.2500
 2433.0000   -26.0667     8.2687     6.2523     8.9654     0.0704     0.0691   114.8625     2.5745  -999.2500
 2433.5000   -26.3711     8.9254     6.9157     8.9352     0.0973     0.0725   109.4340     2.5595  -999.2500
 2434.0000   -26.3771     9.5224     7.5950     9.0251     0.0868     0.0677   106.0477     2.5401  -999.2500
 2434.5000   -26.3830    10.4804     8.3411     9.0839     0.0719     0.0725   104.6880     2.5266  -999.2500
 2435.0000   -26.6875    10.6293     8.9378     9.0836     0.0644     0.0849   104.3066     2.5132  -999.2500
 2435.5000   -26.9920    10.9276     9.3852     9.0814     0.0599     0.0891   105.7344     2.5027  -999.2500
 2436.0000   -26.9979    11.1940     9.7612     9.0233     0.0554     0.0940   107.1822     2.4967  -999.2500
 2436.5000   -27.0039    11.3433     9.8366     8.9931     0.0509     0.0995   109.4338     2.4922  -999.2500
 2437.0000   -26.7104    11.3747     9.7608     8.9630     0.0480     0.1049   111.9273     2.4847  -999.2500
 2437.5000   -26.4188    11.4925     9.6828     8.9329     0.0465     0.1087   115.4108     2.4757  -999.2500
 2438.0000   -26.1262    11.4925     9.6050     8.9027     0.0479     0.1103   114.3098     2.4742  -999.2500
 2438.5000   -25.8337    11.5231     9.4525     8.9024     0.0584     0.1079   109.7769     2.4742  -999.2500
 2439.0000   -25.2426    11.6418     9.3000     8.9021     0.0763     0.1031   104.9243     2.4801  -999.2500
 2439.5000   -25.2486    11.4925     8.9982     8.9018     0.0793     0.0972   103.7990     2.4936  -999.2500
 2440.0000   -25.2545    11.4627     8.8459     8.9015     0.0763     0.0812   110.5963     2.5280  -999.2500
 2440.5000   -25.2605    11.3137     8.4632     8.9012     0.0613     0.0854   115.3558     2.5533  -999.2500
 2441.0000   -24.9672    11.1647     8.0115     8.9009     0.0300     0.1013   115.2209     2.5010  -999.2500
 2441.5000   -24.9739    10.8664     7.5595     8.9006     0.0524     0.0855   115.7977     2.4979  -999.2500
 2442.0000   -24.9798    10.3966     6.8745     8.9003     0.0807     0.0651   121.2030     2.5443  -999.2500
 2442.5000   -25.2843     9.8109     6.2923     8.9000     0.0747     0.0455   123.9142     2.5742  -999.2500
 2443.0000   -25.2903     9.2253     5.7558     8.8997     0.0620     0.0481   123.8730     2.5921  -999.2500
 2443.5000   -25.2262     8.5970     5.2410     8.8994     0.0807     0.0671   121.3610     2.5647  -999.2500
 2444.0000   -25.6007     8.1200     4.9393     8.8991     0.0523     0.0664   124.8523     2.5323  -999.2500
 2444.5000   -26.2036     7.8209     4.7261     8.8988     0.0359     0.0724   127.0142     2.5502  -999.2500
 2445.0000   -26.5081     7.2239     4.5742     8.8985     0.0329     0.0798   126.1107     2.5046  -999.2500
 2445.5000   -26.8126     7.1045     4.5719     8.8982     0.0463     0.0788   123.8652     2.4904  -999.2500
 2446.0000   -26.8185     7.1045     4.5697     8.8979     0.0717     0.0780   122.5153     2.5223  -999.2500
 2446.5000   -26.8245     7.1045     4.8660     8.9275     0.0748     0.0841   127.8818     2.5278  -999.2500
 2447.0000   -26.8304     7.2836     5.1623     8.9570     0.0627     0.0905   129.6672     2.5094  -999.2500
 2447.5000   -26.8364     7.6418     5.6078     8.9694     0.0508     0.0890   124.2864     2.5021  -999.2500
 2448.0000   -26.5438     8.2090     6.2026     8.9863     0.0418     0.0886   111.7424     2.5008  -999.2500
 2448.5000   -26.5498     9.0448     6.6481     8.9860     0.0194     0.0913   104.1239     2.5091  -999.2500
 2449.0000   -26.2572     9.4925     7.3922     8.9857     0.0299     0.0931   102.7739     2.5047  -999.2500
 2449.5000   -26.2632    10.3442     7.9869     9.0152     0.0418     0.0919   100.9762     2.4978  -999.2500
 2450.0000   -25.9706    11.1940     8.4325     9.0299     0.0493     0.0850    93.8054     2.5140  -999.2500
 2450.5000   -25.9766    11.1694     8.7287     9.0743     0.0476     0.0721    86.1868     2.5289  -999.2500
 2451.0000   -25.6836    10.8712     8.5773     9.0899     0.0222     0.0661    86.1253     2.5426  -999.2500
 2451.5000   -25.6900    10.2695     8.2765     9.1036     0.0089     0.0859    91.5467     2.5237  -999.2500
 2452.0000   -25.6960     9.9116     7.9758     9.1033     0.0183     0.0904    95.1221     2.5037  -999.2500
 2452.5000   -26.0004     9.5537     7.6750     9.1030     0.0345     0.0757    95.1155     2.5361  -999.2500
 2453.0000   -26.3049     9.1958     7.3743     9.0851     0.0405     0.0701    96.8999     2.5410  -999.2500
 2453.5000   -26.3108     8.9254     7.2228     9.0426     0.0463     0.0726   102.7141     2.5298  -999.2500
 2454.0000   -26.3168     8.8060     6.9221     9.0125     0.0477     0.0828   104.0508     2.5031  -999.2500
 2454.5000   -26.6213     8.8060     6.9198     8.9823     0.0462     0.0938   101.3576     2.4976  -999.2500
 2455.0000   -26.9257     8.8657     6.9176     8.9820     0.0444     0.0896   102.2464     2.5104  -999.2500
 2455.5000   -27.2302     9.0448     6.9154     8.8623     0.0397     0.0866   100.0010     2.5069  -999.2500
 2456.0000   -27.5346     9.1940     7.0624     8.8322     0.0197     0.0932   101.4621     2.4911  -999.2500
 2456.5000   -26.9436     9.2836     7.0602     8.7423     0.0148     0.0962   104.6189     2.4940  -999.2500
 2457.0000   -26.3525     9.2836     7.0579     8.7719     0.0336     0.0956   106.2497     2.5090  -999.2500
 2457.5000   -26.0600     9.2537     6.9065     8.8612     0.0394     0.0873   103.7914     2.5315  -999.2500
 2458.0000   -26.0659     9.1940     6.9042     8.9803     0.0491     0.0835   104.3188     2.5364  -999.2500
 2458.5000   -26.0719     8.9851     6.7527     9.0098     0.0698     0.0891   107.2148     2.5154  -999.2500
 2459.0000   -26.3763     8.5672     6.6013     9.0095     0.0820     0.0789   106.2231     2.5291  -999.2500
 2459.5000   -26.3823     8.2388     6.5990     8.9794     0.0677     0.0720   111.9084     2.5334  -999.2500
 2460.0000   -26.3883     8.2388     6.4475     8.9791     0.0464     0.0921   116.6268     2.5007  -999.2500
 2460.5000   -26.0955     8.3284     6.4453     8.9489     0.0401     0.0963   115.9845     2.4870  -999.2500
 2461.0000   -25.8032     8.5075     6.5923     8.9188     0.0560     0.0813   110.1493     2.4938  -999.2500
 2461.5000   -25.8091     8.7761     6.5901     8.9185     0.0808     0.0568   106.7873     2.5263  -999.2500
 2462.0000   -25.5164     8.8060     6.7371     8.8883     0.0749     0.0556   107.5523     2.6005  -999.2500
 2462.5000   -25.5225     8.7463     6.8841     8.8582     0.0595     0.0754   109.3110     2.5254  -999.2500
 2463.0000   -25.5285     8.7164     7.0312     8.8579     0.0644     0.0766   108.5004     2.5294  -999.2500
 2463.5000   -25.5344     8.8358     7.1782     8.8277     0.0704     0.0724   106.4960     2.5244  -999.2500
 2464.0000   -25.5404     9.0149     7.4745     8.8872     0.0744     0.0796   105.0088     2.5056  -999.2500
 2464.5000   -25.8448     9.1940     7.6217     8.9764     0.0479     0.0904   105.9074     2.5033  -999.2500
 2465.0000   -26.4478     9.2836     7.7686     9.0060     0.0287     0.0892   105.9254     2.5191  -999.2500
 2465.5000   -26.7523     9.3731     7.6170     9.0654     0.0251     0.0742   105.0135     2.5394  -999.2500
