~VERSION INFORMATION
 VERS.                2.0:   CWLS LOG ASCII STANDARD - VERSION 2.0
 WRAP.                 NO:   ONE LINE PER DEPTH STEP
~WELL INFORMATION
#MNEM.UNIT      DATA TYPE    INFORMATION
#----------   ------------   ------------------------------
 STRT.F          250.0000:   START DEPTH
 STOP.F         2527.0000:   STOP DEPTH
 STEP.F            0.5000:   STEP LENGTH
 NULL.          -999.2500:   NO VALUE
 COMP. FENIX & SCISSON INC:   COMPANY
 WELL.       NPR 3 #18-28:   WELL
 FLD .            WILDCAT:   FIELD
 LOC .      S28 T39N R78W:   LOCATION
 CNTY.            NATRONA:   COUNTY
 STAT.            WYOMING:   STATE
 CTRY. UNITED STATES OF AMERICA:   COUNTRY
 SRVC.            Unknown:   SERVICE COMPANY
 DATE.        01-MAY-1979:   LOGDATE
 API .       490251078000:   API NUMBER
~CURVE INFORMATION
#MNEM.UNIT       API CODE    CURVE DESCRIPTION
#----------   ------------   ------------------------------
 DEPT.F                  :   
 CORR.G/C3   45 356 01 00:   DENSITY CORRECTION
 DPHI.DEC    45 890 12 00:   DENSITY POROSITY SANDSTONE
 RHOB.G/C3   45 350 01 00:   BULK DENSITY
 CALD.IN     45 280 60 00:   CALIPER FROM DENSITY LOG
 GRD .GAPI   45 310 01 00:   GAMMA RAY FROM DENSITY LOG
~PARAMETER INFORMATION
#MNEM.UNIT          VALUE    DESCRIPTION
#----------   ------------   ------------------------------
 PD  .                 GL:   PERMANENT DATUM
 EPD .F              5079:   ELEVATION PERMANENT DATUM
 LMF .                 KB:   LOG MEASURED FROM
 DAPD.F                10:   FEET ABOVE PERMANENT DATUM
 DMF .                 KB:   DRILLING MEASURED FROM
 EKB .F              5089:   KELLING BUSHING
 EGL .F              5079:   GROUND LEVEL
 DATE.             5-1-79:   RUN DATE
 RUN .                  1:   RUN NUMBER
 DL  .F              2527:   DEPTH LOGGER
 BLI .F              2527:   BOTTOM LOG INTERVAL
 TLI .F               250:   TOP LOG INTERVAL
 CS  .IN            9.625:   CASING SIZE
 CBD .F               500:   CASING BOTTOM DRILLER
 CBL .F               495:   CASING BOTTOM LOGGER
 BS  .IN             8.75:   BIT SIZE
 DFT .                AIR:   DRILLING FLUID TYPE
 TCS .HRS              12:   TIME CURCULATED STOPPED
 LUL .             CASPER:   LOGGING UNIT LOCATION
 ENGI.         B. ROLLINS:   RECORDING ENGINEER
 WITN.           DINSMORE:   WITNESSED BY
 CLNT.            A2DTECH:   CLIENT CODE
 ORIG.           5" PRINT:   ORIGIN OF DATA
 UWI .       490251078000:   UNIQUE WELL ID
 DICO. A2D Technologies, Inc.:   DIGITIZING COMPANY
~OTHER INFORMATION
~A   DEPT     CORR       DPHI       RHOB       CALD         GRD  
# ...
 2446.0000     0.0569     0.0355     2.4933     8.8981   137.6742
 2446.5000     0.0584     0.0342     2.4968     8.8945   133.6092
 2447.0000     0.0554     0.0300     2.5117     8.8909   129.4811
 2447.5000     0.0516     0.0190     2.5278     8.8873   128.0946
 2448.0000     0.0477     0.0072     2.5441     8.8837   131.4969
 2448.5000     0.0438     0.0144     2.5505     8.8801   140.5444
 2449.0000     0.0393     0.0258     2.5319     8.8765   138.1765
 2449.5000     0.0320     0.0371     2.5121     8.8729   134.4660
 2450.0000     0.0246     0.0391     2.4945     8.8693   130.7290
 2450.5000     0.0173     0.0353     2.4945     8.8657   126.8894
 2451.0000     0.0188     0.0274     2.5057     8.8621   125.8147
 2451.5000     0.0300     0.0196     2.5260     8.8584   127.8180
 2452.0000     0.0410     0.0153     2.5373     8.8548   130.3012
 2452.5000     0.0488     0.0165     2.5309     8.8563   132.8939
 2453.0000     0.0443     0.0181     2.5221     8.8645   133.4815
 2453.5000     0.0313     0.0254     2.5131     8.8724   130.5661
 2454.0000     0.0184     0.0354     2.5041     8.8802   127.3155
 2454.5000     0.0089     0.0395     2.4954     8.8881   129.3327
 2455.0000     0.0105     0.0388     2.4933     8.8960   131.8791
 2455.5000     0.0216     0.0352     2.5038     8.9038   134.4366
 2456.0000     0.0327     0.0281     2.5223     8.9117   136.9564
 2456.5000     0.0388     0.0220     2.5247     8.9196   136.9192
 2457.0000     0.0388     0.0189     2.5222     8.9275   135.6592
 2457.5000     0.0389     0.0163     2.5286     8.9353   134.2230
 2458.0000     0.0382     0.0114     2.5477     8.9432   123.7192
 2458.5000     0.0205     0.0113     2.5502     8.9511   124.6159
 2459.0000     0.0057     0.0244     2.5177     8.9589   127.3330
 2459.5000     0.0090     0.0292     2.5069     8.9668   129.0568
 2460.0000     0.0217     0.0241     2.5163     8.9719   127.8443
 2460.5000     0.0344     0.0151     2.5325     8.9740   126.1880
 2461.0000     0.0387     0.0060     2.5490     8.9761   125.0347
 2461.5000     0.0388     0.0024     2.5512     8.9782   128.1546
 2462.0000     0.0393     0.0055     2.5455     8.9803   132.5452
 2462.5000     0.0443     0.0087     2.5440     8.9824   134.7744
 2463.0000     0.0504     0.0098     2.5494     8.9845   131.0942
 2463.5000     0.0542     0.0079     2.5513     8.9866   129.1900
 2464.0000     0.0435     0.0091     2.5352     8.9887   129.4261
 2464.5000     0.0332     0.0158     2.5192     8.9893   130.0867
 2465.0000     0.0328     0.0225     2.5151     8.9841   130.1768
 2465.5000     0.0327     0.0240     2.5183     8.9791   128.9592
 2466.0000     0.0347     0.0211     2.5234     8.9741   126.0522
 2466.5000     0.0314     0.0182     2.5283     8.9692   123.0927
 2467.0000     0.0328     0.0161     2.5331     8.9642   120.1305
 2467.5000     0.0346     0.0161     2.5319     8.9593   117.4549
 2468.0000     0.0295     0.0265     2.5168     8.9543   117.9439
 2468.5000     0.0249     0.0365     2.5018     8.9493   125.1333
 2469.0000     0.0301     0.0399     2.4891     8.9444   126.8566
 2469.5000     0.0452     0.0360     2.4942     8.9394   126.8598
 2470.0000     0.0600     0.0312     2.5039     8.9344   127.1296
 2470.5000     0.0685     0.0280     2.5046     8.9330   129.9261
 2471.0000     0.0478     0.0402     2.4838     8.9346   133.4320
 2471.5000     0.0271     0.0526     2.4691     8.9363   138.3263
 2472.0000     0.0065     0.0548     2.4625     8.9381   133.5165
 2472.5000    -0.0029     0.0534     2.4698     8.9398   127.9641
 2473.0000     0.0055     0.0395     2.4810     8.9415   129.9221
 2473.5000     0.0137     0.0400     2.4919     8.9432   131.3022
 2474.0000     0.0152     0.0417     2.4874     8.9449   122.9803
 2474.5000     0.0105     0.0430     2.4865     8.9466   116.9024
 2475.0000     0.0098     0.0413     2.4884     8.9483   117.5762
 2475.5000     0.0226     0.0295     2.5068     8.9500   121.2386
 2476.0000     0.0351     0.0156     2.5272     8.9515   124.5925
 2476.5000     0.0465     0.0106     2.5433     8.9515   124.5950
 2477.0000     0.0411     0.0127     2.5391     8.9531   116.4754
 2477.5000     0.0346     0.0149     2.5349     8.9570   121.1497
 2478.0000     0.0425     0.0073     2.5407     8.9608   123.5360
 2478.5000     0.0528     0.0002     2.5497     8.9646   119.3100
 2479.0000     0.0547     0.0020     2.5533     8.9684   115.0055
 2479.5000     0.0457     0.0099     2.5427     8.9722   114.6140
 2480.0000     0.0367     0.0180     2.5305     8.9760   123.0509
 2480.5000     0.0333     0.0181     2.5254     8.9798   126.2371
 2481.0000     0.0359     0.0181     2.5297     8.9836   123.9183
 2481.5000     0.0386     0.0185     2.5291     8.9874   121.7635
 2482.0000     0.0306     0.0328     2.5096     8.9899   124.3705
 2482.5000     0.0189     0.0301     2.5100     8.9877   127.0577
 2483.0000     0.0326     0.0252     2.5188     8.9857   123.5142
 2483.5000     0.0505     0.0248     2.5175     8.9836   121.5531
 2484.0000     0.0682     0.0216     2.5189     8.9815   126.3745
 2484.5000     0.0827     0.0187     2.5398     8.9795   127.8887
 2485.0000     0.0797     0.0159     2.5421     8.9774   123.8564
 2485.5000     0.0629     0.0154     2.5365     8.9754   119.4078
 2486.0000     0.0462     0.0198     2.5312     8.9733   117.4575
 2486.5000     0.0289     0.0241     2.5187     8.9712   115.6108
 2487.0000     0.0264     0.0285     2.5059     8.9739   113.7155
 2487.5000     0.0308     0.0320     2.5041     8.9786   112.7507
 2488.0000     0.0353     0.0323     2.5071     8.9833   119.4518
 2488.5000     0.0358     0.0272     2.5153     8.9881   125.4254
 2489.0000     0.0338     0.0281     2.5155     8.9928   128.1579
 2489.5000     0.0317     0.0300     2.5141     8.9975   123.8047
 2490.0000     0.0308     0.0282     2.5133     9.0023   120.4929
 2490.5000     0.0360     0.0240     2.5138     9.0070   122.5279
 2491.0000     0.0440     0.0198     2.5217     9.0117   125.2798
 2491.5000     0.0522     0.0156     2.5303     9.0165   127.6997
 2492.0000     0.0602     0.0114     2.5388     9.0213   127.1009
 2492.5000     0.0560     0.0082     2.5473     9.0260   125.8862
 2493.0000     0.0432     0.0146     2.5372     9.0270   126.0509
 2493.5000     0.0306     0.0268     2.5210     9.0098   128.8715
 2494.0000     0.0263     0.0276     2.5069     8.9927   130.6445
 2494.5000     0.0348     0.0280     2.5082     8.9756   128.0263
 2495.0000     0.0428     0.0268     2.5151     8.9585   124.5899
 2495.5000     0.0376     0.0235     2.5169     8.9414   122.2937
 2496.0000     0.0314     0.0201     2.5165     8.9243   120.2534
 2496.5000     0.0253     0.0203     2.5162     8.9072   117.5251
 2497.0000     0.0228     0.0216     2.5172     8.8901   111.7015
 2497.5000     0.0238     0.0185     2.5210     8.8730   106.5043
 2498.0000     0.0418     0.0068     2.5423     8.8559   107.0535
 2498.5000     0.0586    -0.0048     2.5562     8.8389   109.9828
 2499.0000     0.0543    -0.0093     2.5516     8.8216   112.4453
 2499.5000     0.0469     0.0035     2.5332     8.8157   114.8982
 2500.0000     0.0395     0.0181     2.5151     8.8093   117.4397
 2500.5000     0.0321     0.0283     2.5052     8.8002   118.8542
 2501.0000     0.0290     0.0295     2.5043     8.7961   119.4508
 2501.5000     0.0312     0.0306     2.5039     8.8036   120.0881
 2502.0000     0.0425     0.0314     2.5201     8.8163   122.9546
 2502.5000     0.0541     0.0171     2.5405     8.8292   125.9471
 2503.0000     0.0535     0.0105     2.5413     8.8420   126.8861
 2503.5000     0.0486     0.0109     2.5344     8.8548   121.4284
 2504.0000     0.0468     0.0142     2.5289     8.8676   111.4268
 2504.5000     0.0468     0.0179     2.5356     8.8804   109.2794
 2505.0000     0.0386     0.0177     2.5421     8.8932   110.7523
 2505.5000     0.0270     0.0167     2.5358     8.9059   112.6190
 2506.0000     0.0248     0.0157     2.5291     8.9075   113.6627
 2506.5000     0.0285     0.0196     2.5234     8.8969   114.9607
