~VERSION INFORMATION
 VERS.                2.0:   CWLS LOG ASCII STANDARD - VERSION 2.0
 WRAP.                 NO:   ONE LINE PER DEPTH STEP
~WELL INFORMATION
#MNEM.UNIT      DATA TYPE    INFORMATION
#----------   ------------   ------------------------------
 STRT.F           34.0000:   START DEPTH
 STOP.F          460.0000:   STOP DEPTH
 STEP.F            0.5000:   STEP LENGTH
 NULL.          -999.2500:   NO VALUE
 COMP. FENIX & SCISSON INC:   COMPANY
 WELL.     SX 3 FO #46--3:   WELL
 FLD .              NPR 3:   FIELD
 LOC .       S3 T38N R78W:   LOCATION
 CNTY.            NATRONA:   COUNTY
 STAT.            WYOMING:   STATE
 CTRY. UNITED STATES OF AMERICA:   COUNTRY
 SRVC.              Welex:   SERVICE COMPANY
 DATE.        10-JUL-1981:   LOGDATE
 API .       490251086000:   API NUMBER
~CURVE INFORMATION
#MNEM.UNIT       API CODE    CURVE DESCRIPTION
#----------   ------------   ------------------------------
 DEPT.F                  :   
 GRD .GAPI   45 310 01 00:   GAMMA RAY FROM DENSITY LOG
 CALD.IN     45 280 60 00:   CALIPER
 RHOB.G/C3   45 350 01 00:   BULK DENSITY
 DPHI.DEC    45 890 12 00:   DENSITY POROSITY SANDSTONE
 CORR.G/C3   45 356 01 00:   DENSITY CORRECTION
~PARAMETER INFORMATION
#MNEM.UNIT          VALUE    DESCRIPTION
#----------   ------------   ------------------------------
 PD  .                 GL:   PERMANENT DATUM
 EPD .F              5168:   ELEVATION PERMANENT DATUM
 LMF .                 KB:   LOG MEASURED FROM
 DAPD.F                 5:   FEET ABOVE PERMANENT DATUM
 DMF .                 KB:   DRILLING MEASURED FROM
 EKB .F              5173:   KELLING BUSHING
 EGL .F              5168:   GROUND LEVEL
 DATE.            7-10-80:   RUN DATE
 RUN .                  1:   RUN NUMBER
 DD  .F               470:   DEPTH DRILLER
 DL  .F               468:   DEPTH LOGGER
 BLI .F               460:   BOTTOM LOG INTERVAL
 TLI .F                46:   TOP LOG INTERVAL
 CS  .IN                7:   CASING SIZE
 CBD .F                46:   CASING BOTTOM DRILLER
 BS  .IN             6.25:   BIT SIZE
 BSD .F               470:   BIT SIZE AT DEPTH
 DFT .        AIR DRILLED:   DRILLING FLUID TYPE
 BHT .F                75:   BOTTOM HOLE TEMPERATURE
 TCS .HRS               2:   TIME CURCULATED STOPPED
 MRT .F                75:   MAXIMUM RECORDED TEMPERATURE
 ENGI.    JOYNER/PFRIMMER:   RECORDING ENGINEER
 WITN.              AMEND:   WITNESSED BY
 CLNT.            A2DTECH:   CLIENT CODE
 ORIG.           5" PRINT:   ORIGIN OF DATA
 UWI .       490251086000:   UNIQUE WELL ID
 DICO. A2D Technologies, Inc.:   DIGITIZING COMPANY
~OTHER INFORMATION
~A   DEPT       GRD      CALD       RHOB       DPHI       CORR   
# ...
  156.0000   104.0336     6.3247     2.4813     0.1204     0.0660
  156.5000   103.4210     6.3247     2.4735     0.1226     0.0642
  157.0000   101.6386     6.3247     2.4771     0.1189     0.0704
  157.5000   101.3224     6.3247     2.4875     0.1130     0.0763
  158.0000   101.6410     6.3247     2.4975     0.1072     0.0786
  158.5000   101.3370     6.3247     2.5036     0.1050     0.0698
  159.0000   100.9532     6.3247     2.4980     0.1073     0.0615
  159.5000   102.1320     6.3247     2.4919     0.1105     0.0530
  160.0000   103.3429     6.3247     2.4879     0.1127     0.0526
  160.5000   102.1665     6.3247     2.4964     0.1086     0.0549
  161.0000   100.6444     6.3247     2.4989     0.1054     0.0554
  161.5000    99.1255     6.3247     2.4925     0.1120     0.0505
  162.0000    99.2874     6.3247     2.4885     0.1166     0.0457
  162.5000   101.0737     6.3247     2.4948     0.1110     0.0452
  163.0000   102.8205     6.3247     2.4951     0.1119     0.0459
  163.5000   104.4669     6.3247     2.4944     0.1126     0.0486
  164.0000   102.8645     6.3247     2.4960     0.1090     0.0580
  164.5000   100.9732     6.3254     2.5038     0.1036     0.0658
  165.0000    99.9006     6.3264     2.5115     0.0982     0.0736
  165.5000   100.3329     6.3274     2.5191     0.0934     0.0814
  166.0000   101.3293     6.3285     2.5267     0.0906     0.0891
  166.5000   102.2529     6.3295     2.5343     0.0878     0.0950
  167.0000   102.4510     6.3305     2.5343     0.0903     0.0856
  167.5000   103.6246     6.3316     2.5232     0.0945     0.0756
  168.0000   105.0858     6.3326     2.5118     0.0986     0.0655
  168.5000   105.9589     6.3337     2.5013     0.1028     0.0555
  169.0000   104.3869     6.3347     2.4993     0.1074     0.0461
  169.5000   102.8184     6.3357     2.5010     0.1078     0.0532
  170.0000   104.4921     6.3368     2.5093     0.1003     0.0608
  170.5000   104.7426     6.3378     2.5086     0.0978     0.0646
  171.0000   103.5418     6.3388     2.5009     0.1057     0.0603
  171.5000   102.3395     6.3399     2.4932     0.1118     0.0540
  172.0000   101.1292     6.3409     2.4854     0.1181     0.0551
  172.5000    99.8991     6.3419     2.4782     0.1201     0.0586
  173.0000    99.7593     6.3430     2.4778     0.1186     0.0620
  173.5000   101.4942     6.3440     2.4869     0.1142     0.0645
  174.0000   103.3047     6.3442     2.4947     0.1146     0.0606
  174.5000   105.1184     6.3430     2.4846     0.1190     0.0527
  175.0000   105.8637     6.3418     2.4756     0.1231     0.0448
  175.5000   105.8036     6.3406     2.4696     0.1272     0.0366
  176.0000   107.9212     6.3395     2.4636     0.1313     0.0346
  176.5000   108.3528     6.3383     2.4579     0.1352     0.0343
  177.0000   105.0188     6.3371     2.4517     0.1383     0.0341
  177.5000   105.8603     6.3360     2.4406     0.1417     0.0338
  178.0000   105.1761     6.3348     2.4295     0.1501     0.0336
  178.5000   104.5965     6.3336     2.4155     0.1593     0.0333
  179.0000   106.5162     6.3324     2.4018     0.1685     0.0331
  179.5000   108.4165     6.3313     2.3882     0.1777     0.0329
  180.0000   109.5827     6.3301     2.3747     0.1878     0.0326
  180.5000   108.1345     6.3289     2.3611     0.1910     0.0343
  181.0000   106.6257     6.3278     2.3568     0.1955     0.0368
  181.5000   105.1156     6.3266     2.3438     0.2000     0.0411
  182.0000   103.5836     6.3255     2.3314     0.2078     0.0516
  182.5000   102.7917     6.3310     2.3223     0.2116     0.0616
  183.0000   101.9930     6.3488     2.3270     0.2126     0.0715
  183.5000   100.2561     6.3664     2.3300     0.2090     0.0729
  184.0000    99.6255     6.3836     2.3263     0.2098     0.0580
  184.5000   100.0380     6.3775     2.3496     0.2036     0.0434
  185.0000    97.1524     6.3700     2.3790     0.1802     0.0444
  185.5000    94.4898     6.3626     2.4088     0.1571     0.0485
  186.0000    94.7659     6.3553     2.4402     0.1458     0.0525
  186.5000    98.8375     6.3479     2.4475     0.1376     0.0506
  187.0000   101.8570     6.3456     2.4565     0.1299     0.0425
  187.5000   104.8654     6.3518     2.4783     0.1202     0.0421
  188.0000   107.4987     6.3580     2.4949     0.1130     0.0483
  188.5000   107.0146     6.3643     2.4983     0.1080     0.0543
  189.0000   106.2106     6.3646     2.5016     0.1077     0.0579
  189.5000   107.3582     6.3646     2.4982     0.1087     0.0551
  190.0000   109.4456     6.3645     2.4849     0.1167     0.0430
  190.5000   108.7203     6.3646     2.4731     0.1239     0.0366
  191.0000   108.1610     6.3646     2.4725     0.1249     0.0386
  191.5000   109.3453     6.3605     2.4728     0.1259     0.0415
  192.0000   109.0323     6.3549     2.4638     0.1309     0.0416
  192.5000   108.3700     6.3494     2.4541     0.1362     0.0379
  193.0000   109.8316     6.3448     2.4443     0.1414     0.0343
  193.5000   111.7644     6.3475     2.4395     0.1440     0.0327
  194.0000   113.7066     6.3500     2.4434     0.1440     0.0399
  194.5000   115.6440     6.3526     2.4476     0.1412     0.0468
  195.0000   117.5865     6.3551     2.4516     0.1387     0.0485
  195.5000   118.3187     6.3577     2.4523     0.1380     0.0487
  196.0000   115.6981     6.3602     2.4555     0.1335     0.0473
  196.5000   113.0388     6.3628     2.4680     0.1256     0.0552
  197.0000   110.1914     6.3646     2.4799     0.1178     0.0626
  197.5000   107.5501     6.3645     2.4919     0.1106     0.0700
  198.0000   109.1702     6.3645     2.5039     0.1038     0.0769
  198.5000   111.4443     6.3645     2.5145     0.0950     0.0784
  199.0000   113.7161     6.3645     2.5076     0.1006     0.0740
  199.5000   115.4507     6.3645     2.5009     0.1079     0.0684
  200.0000   113.9499     6.3645     2.4979     0.1119     0.0631
  200.5000   111.3444     6.3645     2.4920     0.1157     0.0576
  201.0000   111.4073     6.3645     2.4829     0.1195     0.0523
  201.5000   112.2022     6.3645     2.4787     0.1206     0.0503
  202.0000   111.8798     6.3646     2.4836     0.1164     0.0598
  202.5000   111.5885     6.3646     2.4882     0.1134     0.0704
  203.0000   112.8656     6.3639     2.4851     0.1161     0.0656
  203.5000   112.9900     6.3580     2.4824     0.1186     0.0564
  204.0000   111.1178     6.3521     2.4829     0.1177     0.0487
  204.5000   109.2502     6.3463     2.4834     0.1170     0.0564
  205.0000   107.3825     6.3404     2.4821     0.1174     0.0642
  205.5000   107.2001     6.3345     2.4796     0.1196     0.0653
  206.0000   110.1715     6.3287     2.4769     0.1206     0.0683
  206.5000   113.1987     6.3247     2.4809     0.1182     0.0792
  207.0000   114.3648     6.3298     2.4863     0.1150     0.0834
  207.5000   115.3080     6.3354     2.4845     0.1159     0.0765
  208.0000   115.4115     6.3409     2.4791     0.1202     0.0688
  208.5000   115.0163     6.3465     2.4738     0.1252     0.0622
  209.0000   114.6236     6.3520     2.4707     0.1262     0.0650
  209.5000   114.3559     6.3576     2.4780     0.1202     0.0749
  210.0000   114.4904     6.3633     2.4823     0.1202     0.0854
  210.5000   114.4097     6.3645     2.4814     0.1198     0.0959
  211.0000   113.4001     6.3633     2.4890     0.1166     0.1065
  211.5000   114.1984     6.3596     2.5008     0.1101     0.1171
  212.0000   114.6635     6.3559     2.5126     0.1035     0.1190
  212.5000   112.5444     6.3522     2.5220     0.0970     0.1121
  213.0000   110.4356     6.3484     2.5234     0.0947     0.1057
  213.5000   108.2628     6.3449     2.5239     0.0975     0.0994
  214.0000   107.7104     6.3493     2.5216     0.0977     0.0995
  214.5000   111.4046     6.3544     2.5285     0.0917     0.1113
  215.0000   115.4119     6.3595     2.5413     0.0860     0.1237
  215.5000   118.7374     6.3639     2.5500     0.0826     0.1332
  216.0000   118.3232     6.3454     2.5472     0.0834     0.1345
  216.5000   119.3928     6.3253     2.5580     0.0812     0.1359
