~VERSION INFORMATION
 VERS.                2.0:   CWLS LOG ASCII STANDARD - VERSION 2.0
 WRAP.                 NO:   ONE LINE PER DEPTH STEP
~WELL INFORMATION
#MNEM.UNIT      DATA TYPE    INFORMATION
#----------   ------------   ------------------------------
 STRT.F         1596.0000:   START DEPTH
 STOP.F         3210.0000:   STOP DEPTH
 STEP.F            0.5000:   STEP LENGTH
 NULL.          -999.2500:   NO VALUE
 COMP.   FLUOR DANIEL INC:   COMPANY
 WELL. NAVAL PETROLEUM RESERVE 3 X-23 #73-23:   WELL
 FLD .             TEAPOT:   FIELD
 LOC .      S23 T38N R78W:   LOCATION
 CNTY.            NATRONA:   COUNTY
 STAT.            WYOMING:   STATE
 CTRY. UNITED STATES OF AMERICA:   COUNTRY
 SRVC.            Unknown:   SERVICE COMPANY
 DATE.        29-JAN-1995:   LOGDATE
 API .       490252265000:   API NUMBER
~CURVE INFORMATION
#MNEM.UNIT       API CODE    CURVE DESCRIPTION
#----------   ------------   ------------------------------
 DEPT.F                  :   
 TGAS.TC/CC  91 830 01 00:   TOTAL GAS UNIT
 ROP .FT/HR  91 810 01 00:   RAT OF DRILLING PENETRATION
~PARAMETER INFORMATION
#MNEM.UNIT          VALUE    DESCRIPTION
#----------   ------------   ------------------------------
 EKB .F              5433:   KELLING BUSHING
 EGL .F              5423:   GROUND LEVEL
 DATE.        29-JAN-1995:   RUN DATE
 RUN .                  1:   RUN NUMBER
 BLI .F              3210:   BOTTOM LOG INTERVAL
 TLI .F              1600:   TOP LOG INTERVAL
 WITN.     C.TOWER/R.HUSK:   WITNESSED BY
 CLNT.            A2DTECH:   CLIENT CODE
 ORIG.           5" PRINT:   ORIGIN OF DATA
 UWI .       490252265000:   UNIQUE WELL ID
 DICO. A2D Technologies, Inc.:   DIGITIZING COMPANY
~OTHER INFORMATION
~A  DEPT        TGAS        ROP 
# ...
 2932.5000    23.7487     0.7748
 2933.0000    26.8981     0.7646
 2933.5000    45.3994     0.7634
 2934.0000    62.1914     0.7623
 2934.5000    68.0923     0.7611
 2935.0000    86.9318     0.7599
 2935.5000    90.0000     0.7589
 2936.0000    39.5109     0.5131
 2936.5000    25.1001     0.5127
 2937.0000    23.5802     0.5122
 2937.5000    23.0118     0.5118
 2938.0000    23.0141     0.5113
 2938.5000    23.0164     0.5204
 2939.0000    23.2090     0.5387
 2939.5000    23.2444     0.5476
 2940.0000    23.4714     0.5472
 2940.5000    23.6984     0.5467
 2941.0000    23.7894     0.5557
 2941.5000    23.7918     0.5457
 2942.0000    23.7941     0.5452
 2942.5000    23.7964     0.5447
 2943.0000    23.7988     0.5443
 2943.5000    23.6103     0.5439
 2944.0000    23.5987     0.5433
 2944.5000    23.5941     0.5429
 2945.0000    23.5941     0.5425
 2945.5000    23.5941     0.5420
 2946.0000    23.4038     0.5415
 2946.5000    23.4038     0.5410
 2947.0000    23.4038     0.5406
 2947.5000    23.4038     0.5401
 2948.0000    23.4038     0.5396
 2948.5000    23.4038     0.5392
 2949.0000    23.4038     0.5386
 2949.5000    23.4038     0.5412
 2950.0000    23.2135     0.5472
 2950.5000    23.2135     0.5467
 2951.0000    23.2135     0.5462
 2951.5000    23.2135     0.5457
 2952.0000    23.2135     0.5371
 2952.5000    23.2135     0.5397
 2953.0000    23.2135     0.5424
 2953.5000    23.4038     0.5450
 2954.0000    23.4038     0.5477
 2954.5000    23.4038     0.5503
 2955.0000    23.4038     0.5530
 2955.5000    23.4038     0.5545
 2956.0000    23.2135     0.5547
 2956.5000    23.0233     0.5550
 2957.0000    22.9107     0.5552
 2957.5000    22.6427     0.5649
 2958.0000    22.2622     0.5651
 2958.5000    21.8816     0.5559
 2959.0000    21.6913     0.5656
 2959.5000    21.6913     0.5564
 2960.0000    21.6913     0.7548
 2960.5000    21.5011     0.7644
 2961.0000    21.5011     0.7647
 2961.5000    21.3108     0.7649
 2962.0000    20.9302     0.7651
 2962.5000    20.3594     0.7748
 2963.0000    19.5983     0.7750
 2963.5000    18.8372     0.7753
 2964.0000    18.0761     0.7849
 2964.5000    17.5053     0.9832
 2965.0000    17.1247     0.9741
 2965.5000    16.9345     0.9743
 2966.0000    16.5539     0.9840
 2966.5000    16.1734     0.9842
 2967.0000    15.7928     0.9942
 2967.5000    15.6025     1.0130
 2968.0000    15.4123     0.5697
 2968.5000    15.2220     0.4137
 2969.0000    15.0317     0.4142
 2969.5000    14.8414     0.4053
 2970.0000    14.8414     0.3962
 2970.5000    14.6512     0.3872
 2971.0000    14.6512     0.3972
 2971.5000    14.6512     0.3881
 2972.0000    14.6512     0.3887
 2972.5000    14.6512     0.3892
 2973.0000    14.6512     0.3896
 2973.5000    14.4609     0.3901
 2974.0000    14.2706     0.4001
 2974.5000    14.2706     0.3910
 2975.0000    14.0803     0.4010
 2975.5000    14.0803     0.4015
 2976.0000    13.8901     0.4019
 2976.5000    13.6842     0.4024
 2977.0000    13.4780     0.4029
 2977.5000    13.3192     0.4033
 2978.0000    13.1131     0.4132
 2978.5000    12.9387     0.4137
 2979.0000    12.7484     0.4196
 2979.5000    12.5581     0.4241
 2980.0000    12.5581     0.4246
 2980.5000    12.3679     0.4251
 2981.0000    12.3679     0.4255
 2981.5000    12.3679     0.4164
 2982.0000    12.3679     0.4170
 2982.5000    12.3679     0.4175
 2983.0000    12.3679     0.4085
 2983.5000    12.5581     0.3995
 2984.0000    12.3679     0.4000
 2984.5000    12.3679     0.4005
 2985.0000    12.3679     0.3633
 2985.5000    12.3679     0.3542
 2986.0000    12.3679     0.3548
 2986.5000    12.3679     0.3552
 2987.0000    12.1776     0.3557
 2987.5000    11.9873     0.3561
 2988.0000    11.7970     0.3566
 2988.5000    11.7970     0.3571
 2989.0000    11.7970     0.3575
 2989.5000    11.6068     0.3580
 2990.0000    11.6068     0.3601
 2990.5000    11.6068     0.3968
 2991.0000    11.4165     0.3972
 2991.5000    11.4165     0.3977
 2992.0000    11.4165     0.3982
 2992.5000    11.2262     0.3986
 2993.0000    11.2262     0.3991
 2993.5000    11.0359     0.3868
 2994.0000    11.0359     0.3868
 2994.5000    10.8457     0.3868
 2995.0000    10.8457     0.3868
 2995.5000    10.6554     0.3868
 2996.0000    10.6554     0.3962
 2996.5000    10.4651     0.3868
 2997.0000    10.4651     0.3962
 2997.5000    10.2748     0.4057
 2998.0000    10.2748     0.4057
 2998.5000    10.0846     0.7642
 2999.0000    10.0846     0.7547
 2999.5000    10.2457     0.7547
 3000.0000    10.4712     0.7453
 3000.5000    10.6554     0.7447
 3001.0000    10.8457     0.7358
 3001.5000    10.8023     0.7547
 3002.0000    10.7098     0.7547
 3002.5000    10.6173     0.7547
 3003.0000    10.5248     0.7547
 3003.5000    10.4323     0.7547
 3004.0000    10.3890     0.7547
 3004.5000    10.3782     0.7642
 3005.0000    10.1785     0.7642
 3005.5000    10.1691     0.7642
 3006.0000    10.1597     0.7642
 3006.5000    10.1503     0.7642
 3007.0000    10.1416     0.7642
 3007.5000    10.1321     0.7783
 3008.0000    10.1222     0.7925
 3008.5000    10.1131     0.7925
 3009.0000    10.1034     0.7925
 3009.5000    10.0940     0.7925
 3010.0000    10.0846     0.7925
 3010.5000    10.0751     0.7925
 3011.0000     9.9657     0.7925
 3011.5000     9.8658     0.7925
 3012.0000     9.8544     0.7717
 3012.5000     9.8465     0.7712
 3013.0000     9.8356     0.7707
 3013.5000     9.8277     0.7703
 3014.0000     9.8168     0.7698
 3014.5000     9.8074     0.7788
 3015.0000     9.7980     0.7783
 3015.5000     9.8419     0.7778
 3016.0000     9.9718     0.7868
 3016.5000     9.9609     0.7862
 3017.0000    10.1409     0.7858
 3017.5000    10.1315     0.7854
 3018.0000    10.3148     0.7848
 3018.5000    10.3030     0.7749
 3019.0000    10.4841     0.7745
 3019.5000    10.4746     0.7740
 3020.0000    10.3700     0.7641
 3020.5000    10.2653     0.7636
 3021.0000    10.2558     0.7632
 3021.5000    10.4369     0.7533
 3022.0000    10.0465     0.7528
 3022.5000     9.8450     0.7524
 3023.0000     9.8356     0.7519
 3023.5000     9.6359     0.7514
 3024.0000     9.6279     0.7509
 3024.5000     9.6171     0.7599
 3025.0000     9.6089     0.7689
 3025.5000     9.5983     0.7683
 3026.0000     9.5889     0.7774
 3026.5000     9.5795     0.7768
 3027.0000     9.5701     0.7736
 3027.5000     9.5607     0.7665
 3028.0000     9.5518     0.7756
 3028.5000     9.5419     0.7750
 3029.0000     9.5325     0.7745
 3029.5000     9.5233     0.6703
 3030.0000     9.7040     0.6321
 3030.5000     9.6945     0.6410
 3031.0000     9.7849     0.6311
 3031.5000     9.8661     0.6306
 3032.0000    10.0446     0.6302
 3032.5000    10.0352     0.6313
 3033.0000    10.0258     0.6387
 3033.5000    10.2091     0.6477
 3034.0000    10.0070     0.6481
 3034.5000     9.9977     0.6491
 3035.0000     9.9883     0.6502
 3035.5000     9.9789     0.6604
 3036.0000     9.7792     0.6698
 3036.5000     9.7706     0.6698
 3037.0000     9.5708     0.6698
 3037.5000     9.5613     0.6706
 3038.0000     9.5513     0.6792
 3038.5000    10.2891     0.6698
 3039.0000    10.2844     0.6792
 3039.5000    10.2796     0.6792
 3040.0000    10.2748     0.6792
 3040.5000    10.2701     0.6698
 3041.0000    10.2653     0.6698
 3041.5000    10.2606     0.6653
 3042.0000    10.2526     0.6582
 3042.5000    10.0608     0.6415
 3043.0000    10.0560     0.6415
 3043.5000    10.0513     0.6415
 3044.0000    10.0465     0.6509
 3044.5000     9.9395     0.6604
 3045.0000     9.8467     0.6604
 3045.5000     9.9546     0.6698
 3046.0000    10.0277     0.6698
 3046.5000    10.0846     0.6698
 3047.0000    10.0846     0.6698
 3047.5000    10.0846     0.6698
 3048.0000    10.0846     0.6698
 3048.5000    10.0846     0.6698
 3049.0000    10.0846     0.6604
 3049.5000    10.0846     0.6604
 3050.0000    10.0846     0.6604
 3050.5000    10.0846     0.6604
 3051.0000    10.0846     0.6604
 3051.5000     9.8943     0.6698
 3052.0000    10.0846     0.6698
 3052.5000    10.0846     0.6698
 3053.0000    10.0846     0.6698
 3053.5000    10.0846     0.6792
