~VERSION INFORMATION
 VERS.                2.0:   CWLS LOG ASCII STANDARD - VERSION 2.0
 WRAP.                 NO:   ONE LINE PER DEPTH STEP
~WELL INFORMATION
#MNEM.UNIT      DATA TYPE    INFORMATION
#----------   ------------   ------------------------------
 STRT.F           28.0000:   START DEPTH
 STOP.F          563.0000:   STOP DEPTH
 STEP.F            0.1000:   STEP LENGTH
 NULL.          -999.2500:   NO VALUE
 COMP.       F D SERV INC:   COMPANY
 WELL.    SX-3 62-4 #62-3:   WELL
 FLD .          N.P.R. #3:   FIELD
 LOC .       S3 T38N R78W:   LOCATION
 CNTY.            NATRONA:   COUNTY
 STAT.            WYOMING:   STATE
 CTRY. UNITED STATES OF AMERICA:   COUNTRY
 SRVC.     Atlas Wireline:   SERVICE COMPANY
 DATE.        03-MAY-1992:   LOGDATE
 API .       490252252100:   API NUMBER
~CURVE INFORMATION
#MNEM.UNIT       API CODE    CURVE DESCRIPTION
#----------   ------------   ------------------------------
 DEPT.F                  :   
 RILD.OHMM   07 120 46 00:   INDUCTION LOG DEEP RESISTIVITY
 RILM.OHMM   07 120 44 00:   INDUCTION LOG MEDIUM RESISTIVITY
 CALD.IN     45 280 60 00:   CALIPER FROM DENSITY LOG
 CORR.G/C3   45 356 01 00:   DENSITY CORRECTION
 DEN .G/C3   45 350 01 00:   COMPENSATED BULK DENSTIY
 GRD .GAPI   45 310 01 00:   GAMMA RAY FROM DENSITY LOG
 PORD.DEC    45 890 12 00:   POROSITY DENSITY SANDSTONE
~PARAMETER INFORMATION
#MNEM.UNIT          VALUE    DESCRIPTION
#----------   ------------   ------------------------------
 PD  .                 GL:   PERMANENT DATUM
 EPD .F              5156:   ELEVATION PERMANENT DATUM
 LMF .                 KB:   LOG MEASURED FROM
 DAPD.F                 5:   FEET ABOVE PERMANENT DATUM
 DMF .                 KB:   DRILLING MEASURED FROM
 EKB .F              5161:   KELLING BUSHING
 EGL .F              5156:   GROUND LEVEL
 DATE.        03-MAY-1992:   RUN DATE
 RUN .                  1:   RUN NUMBER
 DD  .F               565:   DEPTH DRILLER
 DL  .F               566:   DEPTH LOGGER
 BLI .F               564:   BOTTOM LOG INTERVAL
 TLI .F                50:   TOP LOG INTERVAL
 CS  .IN            8.625:   CASING SIZE
 CBD .F                49:   CASING BOTTOM DRILLER
 CBL .F                50:   CASING BOTTOM LOGGER
 BS  .IN            7.875:   BIT SIZE
 BSD .F               565:   BIT SIZE AT DEPTH
 DFT .        AIR DRILLED:   DRILLING FLUID TYPE
 LUN .             HL 632:   LOGGING UNIT NUMBER
 LUL .           RK. SPGS:   LOGGING UNIT LOCATION
 ENGI.               RALL:   RECORDING ENGINEER
 WITN.             STRONG:   WITNESSED BY
 CLNT.            A2DTECH:   CLIENT CODE
 ORIG.           5" PRINT:   ORIGIN OF DATA
 UWI .       490252252100:   UNIQUE WELL ID
 DICO. A2D Technologies, Inc.:   DIGITIZING COMPANY
~OTHER INFORMATION
~A   DEPT     RILD       RILM       CALD       CORR        DEN        GRD       PORD   
# ...
  282.8000     6.6479     7.0363     8.2463     0.0015     2.4745   161.2873     0.1056
  282.9000     6.6866     7.0406     8.2461     0.0028     2.4745   161.8201     0.1058
  283.0000     6.6863     7.0844     8.2460     0.0040     2.4745   162.2896     0.1058
  283.1000     6.7154     7.0841     8.2459     0.0050     2.4745   162.9756     0.1058
  283.2000     6.7536     7.1117     8.2458     0.0050     2.4745   163.7278     0.1058
  283.3000     6.7921     7.1326     8.2457     0.0080     2.4745   164.4801     0.1058
  283.4000     6.8308     7.1322     8.2455     0.0080     2.4748   165.1991     0.1057
  283.5000     6.8729     7.1318     8.2454     0.0080     2.4752   165.7345     0.1055
  283.6000     6.8727     7.1313     8.2453     0.0080     2.4753   166.4357     0.1055
  283.7000     6.8724     7.1651     8.2452     0.0080     2.4760   166.8207     0.1052
  283.8000     6.8914     7.1802     8.2451     0.0080     2.4760   166.9376     0.1050
  283.9000     6.9197     7.1798     8.2449     0.0080     2.4764   166.7711     0.1045
  284.0000     6.9194     7.1794     8.2448     0.0080     2.4770   166.2676     0.1042
  284.1000     6.9190     7.1790     8.2447     0.0080     2.4777   165.7272     0.1038
  284.2000     6.9526     7.2190     8.2446     0.0085     2.4783   165.4932     0.1034
  284.3000     6.9666     7.2282     8.2445     0.0095     2.4790   165.0584     0.1031
  284.4000     6.9664     7.2278     8.2443     0.0095     2.4801   164.6868     0.1026
  284.5000     6.9661     7.2274     8.2442     0.0095     2.4814   164.4344     0.1021
  284.6000     6.9658     7.2270     8.2441     0.0095     2.4826   164.1511     0.1016
  284.7000     7.0055     7.2266     8.2440     0.0095     2.4836   163.6084     0.1011
  284.8000     7.0137     7.2262     8.2438     0.0095     2.4843   163.3756     0.1006
  284.9000     7.0134     7.2258     8.2437     0.0095     2.4857   162.9420     0.0998
  285.0000     7.0131     7.2254     8.2436     0.0095     2.4863   162.4384     0.0996
  285.1000     7.0128     7.2250     8.2435     0.0095     2.4873   162.0151     0.0990
  285.2000     7.0125     7.2246     8.2434     0.0095     2.4886   161.7329     0.0982
  285.3000     7.0122     7.2241     8.2432     0.0095     2.4896   161.1878     0.0975
  285.4000     7.0119     7.2238     8.2431     0.0095     2.4902   160.9562     0.0967
  285.5000     7.0116     7.2234     8.2430     0.0095     2.4909   160.7038     0.0959
  285.6000     7.0113     7.2230     8.2429     0.0095     2.4915   160.4514     0.0952
  285.7000     7.0110     7.2226     8.2428     0.0095     2.4921   160.1991     0.0948
  285.8000     7.0107     7.2222     8.2426     0.0095     2.4924   159.9753     0.0947
  285.9000     7.0105     7.2218     8.2425     0.0088     2.4924   159.9740     0.0947
  286.0000     6.9837     7.2214     8.2424     0.0075     2.4924   159.7436     0.0947
  286.1000     6.9614     7.2210     8.2423     0.0063     2.4924   159.6700     0.0944
  286.2000     6.9611     7.2206     8.2422     0.0049     2.4924   159.6688     0.0944
  286.3000     6.9599     7.2146     8.2382     0.0049     2.4919   159.5897     0.0946
  286.4000     6.9124     7.1698     8.2269     0.0049     2.4916   159.3373     0.0950
  286.5000     6.9122     7.1695     8.2268     0.0056     2.4914   159.0617     0.0954
  286.6000     6.8883     7.1691     8.2266     0.0068     2.4908   159.0606     0.0956
  286.7000     6.8638     7.1687     8.2265     0.0081     2.4901   158.8818     0.0959
  286.8000     6.8635     7.1568     8.2264     0.0094     2.4901   158.6294     0.0961
  286.9000     6.8632     7.1184     8.2263     0.0094     2.4896   158.4537     0.0964
  287.0000     6.8253     7.1179     8.2262     0.0085     2.4893   158.4525     0.0968
  287.1000     6.8153     7.0829     8.2260     0.0073     2.4891   158.4512     0.0971
  287.2000     6.7941     7.0680     8.2259     0.0060     2.4885   158.4501     0.0971
  287.3000     6.7676     7.0676     8.2258     0.0048     2.4885   158.4489     0.0971
  287.4000     6.7630     7.0586     8.2257     0.0034     2.4879   158.4476     0.0971
  287.5000     6.7202     7.0180     8.2256     0.0034     2.4878   158.5219     0.0971
  287.6000     6.7200     7.0176     8.2254     0.0025     2.4874   158.7719     0.0971
  287.7000     6.6934     7.0172     8.2253     0.0013     2.4870   159.0472     0.0970
  287.8000     6.6730     7.0168     8.2252     0.0004     2.4870   159.2718     0.0968
  287.9000     6.6628     7.0020     8.2338     0.0004     2.4870   159.5218     0.0965
  288.0000     6.6263     6.9675     8.2400     0.0004     2.4870   160.0211     0.0963
  288.1000     6.6260     6.9671     8.2399     0.0004     2.4874   160.7736     0.0960
  288.2000     6.5942     6.9298     8.2398     0.0012     2.4877   161.5021     0.0958
  288.3000     6.5563     6.8899     8.2396     0.0031     2.4879   162.0566     0.0955
  288.4000     6.5186     6.8700     8.2395     0.0056     2.4885   162.7288     0.0953
  288.5000     6.4885     6.8582     8.2394     0.0080     2.4892   163.3072     0.0950
  288.6000     6.4882     6.8218     8.2393     0.0094     2.4892   163.4379     0.0950
  288.7000     6.4515     6.8213     8.2392     0.0105     2.4896   163.2585     0.0948
  288.8000     6.4145     6.8210     8.2390     0.0126     2.4899   163.2122     0.0947
  288.9000     6.3776     6.7954     8.2389     0.0145     2.4901   162.6527     0.0948
  289.0000     6.3410     6.7563     8.2388     0.0154     2.4907   162.4283     0.0948
  289.1000     6.3045     6.7259     8.2387     0.0154     2.4906   162.1760     0.0948
  289.2000     6.2655     6.7252     8.2386     0.0154     2.4906   162.0459     0.0948
  289.3000     6.1996     6.6865     8.2384     0.0154     2.4906   162.0446     0.0948
  289.4000     6.1537     6.6481     8.2383     0.0154     2.4909   162.0221     0.0948
  289.5000     6.1184     6.6098     8.2382     0.0148     2.4914   161.7404     0.0948
  289.6000     6.0931     6.5580     8.2381     0.0136     2.4914   161.7394     0.0948
  289.7000     6.0903     6.4831     8.2380     0.0123     2.4914   161.7382     0.0945
  289.8000     6.0504     6.4047     8.2378     0.0108     2.4913   161.6159     0.0945
  289.9000     5.9912     6.3700     8.2377     0.0108     2.4913   161.4341     0.0940
  290.0000     5.9666     6.3072     8.2386     0.0100     2.4913   161.4329     0.0944
  290.1000     5.9516     6.2170     8.2525     0.0088     2.4912   161.4315     0.0939
  290.2000     5.9100     6.1213     8.2524     0.0075     2.4906   161.2096     0.0939
  290.3000     5.8427     6.0484     8.2523     0.0063     2.4906   161.1276     0.0942
  290.4000     5.8092     5.9323     8.2522     0.0048     2.4900   161.1264     0.0944
  290.5000     5.7497     5.8731     8.2520     0.0048     2.4898   161.1252     0.0947
  290.6000     5.6841     5.8061     8.2519     0.0048     2.4895   161.1240     0.0951
  290.7000     5.6310     5.7253     8.2518     0.0048     2.4890   161.1226     0.0955
  290.8000     5.5936     5.6350     8.2626     0.0048     2.4890   161.1216     0.0957
  290.9000     5.5263     5.5706     8.2666     0.0048     2.4883   161.1204     0.0960
  291.0000     5.4667     5.4947     8.2665     0.0063     2.4877   161.1192     0.0962
  291.1000     5.4043     5.4692     8.2663     0.0073     2.4875   161.1180     0.0965
  291.2000     5.3585     5.4195     8.2662     0.0086     2.4872   161.0991     0.0967
  291.3000     5.3184     5.3461     8.2661     0.0098     2.4865   160.8137     0.0970
  291.4000     5.2576     5.2548     8.2660     0.0108     2.4859   160.8127     0.0973
  291.5000     5.1906     5.1608     8.2659     0.0108     2.4852   160.8114     0.0981
  291.6000     5.1383     5.1325     8.2657     0.0123     2.4841   160.6928     0.0983
  291.7000     5.0797     5.0816     8.2656     0.0143     2.4833   160.4404     0.0990
  291.8000     5.0348     5.0386     8.2647     0.0161     2.4820   160.2045     0.0998
