~VERSION INFORMATION
 VERS.                2.0:   CWLS LOG ASCII STANDARD - VERSION 2.0
 WRAP.                 NO:   ONE LINE PER DEPTH STEP
~WELL INFORMATION
#MNEM.UNIT      DATA TYPE    INFORMATION
#----------   ------------   ------------------------------
 STRT.F           27.0000:   START DEPTH
 STOP.F          992.0000:   STOP DEPTH
 STEP.F            0.5000:   STEP LENGTH
 NULL.          -999.2500:   NO VALUE
 COMP. FENIX & SCISSON INC:   COMPANY
 WELL. NPR 3  77- S -27 #77-27:   WELL
 FLD .             TEAPOT:   FIELD
 LOC .      S27 T39N R78W:   LOCATION
 CNTY.            NATRONA:   COUNTY
 STAT.            WYOMING:   STATE
 CTRY. UNITED STATES OF AMERICA:   COUNTRY
 SRVC.            Unknown:   SERVICE COMPANY
 DATE.        09-SEP-1978:   LOGDATE
 API .       490251069700:   API NUMBER
~CURVE INFORMATION
#MNEM.UNIT       API CODE    CURVE DESCRIPTION
#----------   ------------   ------------------------------
 DEPT.F                  :   
 SPR .MV     05 010 01 00:   SPONTANEOUS POTENTIAL FROM RES.
 SN  .OHMM   05 040 16 00:   SHORT NORMAL 16"
 ILD .OHMM   05 120 46 00:   INDUCTION LOG DEEP
 CALD.IN     45 280 60 00:   CALIPER
 GRD .GAPI   45 310 01 00:   GAMMA RAY FROM DENSITY LOG
 RHOB.G/C3   45 350 01 00:   BULK DENSITY
 CORR.G/C3   45 356 01 00:   DENSITY CORRECTION
 DPHI.DEC    45 890 12 00:   DENSITY POROSITY SANDSTONE
~PARAMETER INFORMATION
#MNEM.UNIT          VALUE    DESCRIPTION
#----------   ------------   ------------------------------
 PD  .                 GL:   PERMANENT DATUM
 EPD .F              5069:   ELEVATION PERMANENT DATUM
 LMF .                 KB:   LOG MEASURED FROM
 DAPD.F                 4:   FEET ABOVE PERMANENT DATUM
 DMF .                 KB:   DRILLING MEASURED FROM
 EKB .F              5073:   KELLING BUSHING
 EGL .F              5069:   GROUND LEVEL
 DATE.           9-9-1978:   RUN DATE
 RUN .                  1:   RUN NUMBER
 DD  .F               990:   DEPTH DRILLER
 DL  .F               998:   DEPTH LOGGER
 BLI .F               992:   BOTTOM LOG INTERVAL
 TLI .F                50:   TOP LOG INTERVAL
 CS  .IN            8.625:   CASING SIZE
 CBD .F                40:   CASING BOTTOM DRILLER
 BS  .IN            7.875:   BIT SIZE
 BSD .F               990:   BIT SIZE AT DEPTH
 DFT .                KCL:   DRILLING FLUID TYPE
 DFD .                8.7:   DRILLING FLUID DENSITY
 DFV .                 34:   DRILLING FLUID VISCOSITY
 DFPH.                  9:   DRILLING FLUID PH
 DFL .                  8:   DRILLING FLUID LOSS
 MSS .          FLOW LINE:   MUD SAMPLE SOURCE
 RMS .OHMM             .4:   RESISTIVITY MUD SAMPLE
 MST .F                79:   MUD SAMPLE TEMPERATURE
 RMF .OHMM            .12:   RESISTIVITY MUD FILTRATE SAMPLE
 MFST.F                84:   MUD FILTRATE SAMPLE TEMPERATURE
 RMC .OHMM            .34:   RESISTIVITY MUD CAKE
 MCST.F                84:   MUD CAKE SAMPLE TEMPERATURE
 MFSS.               MEAS:   MUD FILTRATE SAMPLE SOURCE
 MCSS.               MEAS:   MUD CAKE SAMPLE SOURCE
 TCS .HRS               3:   TIME CURCULATED STOPPED
 LUN .               2958:   LOGGING UNIT NUMBER
 LUL .               CASP:   LOGGING UNIT LOCATION
 ENGI.             MILLER:   RECORDING ENGINEER
 WITN.              AMEND:   WITNESSED BY
 CLNT.            A2DTECH:   CLIENT CODE
 ORIG.           5" PRINT:   ORIGIN OF DATA
 UWI .       490251069700:   UNIQUE WELL ID
 DICO. A2D Technologies, Inc.:   DIGITIZING COMPANY
~OTHER INFORMATION
~A   DEPT      SPR         SN        ILD       CALD        GRD       RHOB       CORR       DPHI   
# ...
  756.0000   -50.2425     5.1446     4.7060     7.7755   136.9051     2.4935     0.0153     0.1088
  756.5000   -50.2121     5.0645     4.6455     7.7755   135.9878     2.4897     0.0124     0.1184
  757.0000   -50.1450     5.0470     4.6455     7.7755   134.6787     2.4766     0.0095     0.1293
  757.5000   -50.0530     5.0460     4.6885     7.7755   136.4655     2.4629     0.0066     0.1324
  758.0000   -49.9607     5.0458     4.7318     7.7755   139.4777     2.4528     0.0037     0.1273
  758.5000   -49.8683     5.2298     4.8424     7.7755   142.2475     2.4545     0.0035     0.1216
  759.0000   -49.7760     5.3879     5.0136     7.7755   142.8120     2.4645     0.0041     0.1159
  759.5000   -49.6837     5.5508     5.1909     7.7755   143.2697     2.4741     0.0066     0.1102
  760.0000   -49.5914     5.7186     5.3744     7.7755   143.2668     2.4836     0.0090     0.1040
  760.5000   -49.4991     5.8914     5.5644     7.7755   141.3863     2.4936     0.0114     0.1018
  761.0000   -49.4068     5.9570     5.7416     7.7755   139.4499     2.4980     0.0135     0.1000
  761.5000   -49.3144     6.0121     5.8483     7.7755   137.4972     2.4990     0.0130     0.0996
  762.0000   -49.2221     6.0678     5.8483     7.7755   136.5786     2.4983     0.0108     0.1016
  762.5000   -49.1298     6.0691     5.9024     7.7758   139.5996     2.4975     0.0087     0.1034
  763.0000   -49.0365     6.0509     5.8973     7.7773   142.3980     2.4967     0.0066     0.1052
  763.5000   -49.0063     6.0392     5.8773     7.7786   142.8438     2.4960     0.0061     0.1068
  764.0000   -49.0058     6.0275     5.8573     7.7800   143.2587     2.4952     0.0072     0.1068
  764.5000   -49.0059     6.0159     5.8373     7.7814   143.7039     2.4944     0.0083     0.1066
  765.0000   -49.0060     6.0043     5.8175     7.7828   143.7443     2.4940     0.0094     0.1064
  765.5000   -49.0060     5.9927     5.7977     7.7842   142.2423     2.4940     0.0106     0.1058
  766.0000   -49.0060     5.9812     5.7780     7.7855   140.3614     2.4944     0.0117     0.1049
  766.5000   -49.0060     5.9696     5.7583     7.7869   139.7076     2.4971     0.0128     0.1033
  767.0000   -49.0060     5.9581     5.7388     7.7883   139.2828     2.4995     0.0140     0.1020
  767.5000   -49.0060     5.9466     5.7193     7.7897   138.8582     2.5019     0.0151     0.1020
  768.0000   -49.0060     5.9352     5.6998     7.7910   138.4688     2.5041     0.0162     0.1028
  768.5000   -49.0059     5.9238     5.6804     7.7924   138.8777     2.5040     0.0174     0.1036
  769.0000   -49.0059     5.9124     5.6611     7.7938   141.0401     2.5039     0.0175     0.1030
  769.5000   -49.0063     5.8913     5.6418     7.7952   142.6273     2.5070     0.0172     0.1010
  770.0000   -49.0321     5.8064     5.6368     7.7965   142.8673     2.5103     0.0166     0.0990
  770.5000   -49.1130     5.7229     5.5851     7.7979   142.8786     2.5115     0.0160     0.0980
  771.0000   -49.1930     5.6368     5.5339     7.7993   142.5524     2.5095     0.0154     0.0984
  771.5000   -49.2731     5.5224     5.3831     7.8007   139.7151     2.5076     0.0147     0.1074
  772.0000   -49.3522     5.4050     5.1636     7.8020   136.7741     2.5013     0.0141     0.1156
  772.5000   -49.3955     5.2899     4.9442     7.8034   135.6632     2.4881     0.0135     0.1238
  773.0000   -49.3697     5.1774     4.7340     7.8048   137.4738     2.4751     0.0129     0.1320
  773.5000   -49.3452     5.0672     4.6885     7.8062   139.2924     2.4598     0.0123     0.1402
  774.0000   -49.3204     5.0007     4.6885     7.8075   141.1137     2.4443     0.0117     0.1463
  774.5000   -49.2957     5.0007     4.6885     7.8089   142.0060     2.4329     0.0111     0.1384
  775.0000   -49.2710     5.0470     4.6885     7.8103   143.3095     2.4423     0.0105     0.1312
  775.5000   -49.2463     5.0605     4.7763     7.8117   146.5761     2.4564     0.0099     0.1239
  776.0000   -49.2217     5.0941     4.8886     7.8130   145.7529     2.4713     0.0093     0.1160
  776.5000   -49.1970     5.1279     5.0030     7.8144   144.1870     2.4770     0.0087     0.1151
  777.0000   -49.1723     5.1408     5.0482     7.8158   143.5333     2.4780     0.0080     0.1160
  777.5000   -49.1476     5.1104     4.7928     7.8172   143.8336     2.4781     0.0075     0.1169
  778.0000   -49.1229     4.9728     4.5306     7.8186   143.3435     2.4771     0.0074     0.1259
  778.5000   -49.0982     4.8403     4.2828     7.8199   142.6782     2.4699     0.0097     0.1385
  779.0000   -49.0737     4.7113     4.1979     7.8213   142.2588     2.4463     0.0127     0.1510
  779.5000   -49.0501     4.5856     4.2026     7.8227   142.5557     2.4235     0.0158     0.1647
  780.0000   -49.0235     4.5189     4.2211     7.8241   144.3122     2.3997     0.0189     0.1647
  780.5000   -48.9002     4.5707     4.2398     7.8254   144.8814     2.3940     0.0219     0.1335
  781.0000   -48.4227     4.7722     4.2586     7.8268   145.1809     2.4290     0.0209     0.1146
  781.5000   -47.9585     4.9825     4.2759     7.8282   147.0731     2.4599     0.0104     0.1160
  782.0000   -47.7149     5.2021     4.5564     7.8296   148.3184     2.4825     0.0011     0.1178
  782.5000   -47.4533     5.4318     4.8331     7.8309   146.6869     2.4781     0.0021     0.1184
  783.0000   -46.7926     5.6713     5.1267     7.8323   144.2760     2.4756     0.0137     0.1080
  783.5000   -46.1999     5.7952     5.4381     7.8337   141.8492     2.4843     0.0250     0.0985
  784.0000   -46.1652     5.7947     5.6368     7.8351   139.3712     2.5010     0.0366     0.0898
  784.5000   -46.1185     5.7795     5.6007     7.8349   138.3284     2.5180     0.0409     0.0900
  785.0000   -46.0689     5.7581     5.5684     7.8336   137.6311     2.5192     0.0300     0.0958
  785.5000   -45.9559     5.7368     5.5362     7.8322   137.0877     2.5131     0.0193     0.1011
  786.0000   -45.4210     5.7155     5.5043     7.8309   137.4320     2.5050     0.0088     0.1063
  786.5000   -44.8784     5.6939     5.4832     7.8295   137.5261     2.4967     0.0037     0.1116
  787.0000   -44.6380     5.6889     5.5065     7.8282   137.1232     2.4884     0.0065     0.1142
  787.5000   -44.6325     5.7628     5.5242     7.8269   137.0943     2.4802     0.0125     0.1152
  788.0000   -44.5298     5.8185     5.5419     7.8255   139.3473     2.4794     0.0185     0.1118
  788.5000   -43.8643     5.8747     5.5596     7.8242   140.5977     2.4846     0.0214     0.1088
  789.0000   -43.8017     5.9315     5.5774     7.8228   138.1216     2.4897     0.0185     0.1057
  789.5000   -43.7727     5.9888     5.6368     7.8215   136.0535     2.4948     0.0127     0.1026
  790.0000   -43.7414     6.0466     5.6340     7.8201   137.8865     2.5000     0.0073     0.0996
  790.5000   -43.7092     6.1050     5.8915     7.8188   140.8729     2.5051     0.0102     0.0965
  791.0000   -43.6777     6.1640     6.1168     7.8175   143.8512     2.5102     0.0132     0.0935
  791.5000   -43.6512     6.2236     6.3505     7.8161   145.7611     2.5153     0.0162     0.0904
  792.0000   -43.3560     6.2837     6.5922     7.8148   141.8199     2.5204     0.0193     0.0873
  792.5000   -43.0037     6.3022     6.6048     7.8134   136.3302     2.5256     0.0185     0.0864
  793.0000   -42.6516     6.3106     6.6174     7.8121   135.5537     2.5260     0.0164     0.0877
  793.5000   -42.4210     6.3189     6.6300     7.8108   135.4565     2.5254     0.0144     0.0903
  794.0000   -42.3692     6.3273     6.6426     7.8094   135.2426     2.5248     0.0123     0.0928
  794.5000   -42.3150     6.3357     6.6553     7.8081   135.7871     2.5241     0.0103     0.0954
  795.0000   -42.2614     6.3441     6.6680     7.8067   136.3728     2.5215     0.0082     0.0979
  795.5000   -42.2076     6.3524     6.6807     7.8054   136.6477     2.5165     0.0062     0.1005
  796.0000   -42.1538     6.3577     6.6934     7.8040   136.6463     2.5115     0.0041     0.1028
