~VERSION INFORMATION
 VERS.                2.0:   CWLS LOG ASCII STANDARD - VERSION 2.0
 WRAP.                 NO:   ONE LINE PER DEPTH STEP
~WELL INFORMATION
#MNEM.UNIT      DATA TYPE    INFORMATION
#----------   ------------   ------------------------------
 STRT.F          390.0000:   START DEPTH
 STOP.F         2628.0000:   STOP DEPTH
 STEP.F            0.5000:   STEP LENGTH
 NULL.          -999.2500:   NO VALUE
 COMP. FENIX & SCISSON INC:   COMPANY
 WELL.    25 SHX 11 #3-11:   WELL
 FLD .             TEAPOT:   FIELD
 LOC .      S11 T38N R78W:   LOCATION
 CNTY.            NATRONA:   COUNTY
 STAT.            WYOMING:   STATE
 CTRY. UNITED STATES OF AMERICA:   COUNTRY
 SRVC.              Welex:   SERVICE COMPANY
 DATE.        15-MAY-1980:   LOGDATE
 API .       490251081900:   API NUMBER
~CURVE INFORMATION
#MNEM.UNIT       API CODE    CURVE DESCRIPTION
#----------   ------------   ------------------------------
 DEPT.F                  :   
 CALD.IN     45 280 60 00:   CALIPER
 GRD .GAPI   45 310 01 00:   GAMMA RAY FROM DENSITY LOG
 RHOB.G/C3   45 350 01 00:   BULK DENSITY
 DPHI.DEC    45 890 12 00:   DENSITY POROSITY SANDSTONE
 CORR.G/C3   45 356 01 00:   DENSITY CORRECTION
~PARAMETER INFORMATION
#MNEM.UNIT          VALUE    DESCRIPTION
#----------   ------------   ------------------------------
 PD  .                 GL:   PERMANENT DATUM
 EPD .F              5163:   ELEVATION PERMANENT DATUM
 LMF .                 KB:   LOG MEASURED FROM
 DAPD.F                10:   FEET ABOVE PERMANENT DATUM
 DMF .                 KB:   DRILLING MEASURED FROM
 EKB .F              5173:   KELLING BUSHING
 EGL .F              5163:   GROUND LEVEL
 DATE.            5-15-80:   RUN DATE
 RUN .                  1:   RUN NUMBER
 DD  .F              2625:   DEPTH DRILLER
 DL  .F              2630:   DEPTH LOGGER
 BLI .F              2628:   BOTTOM LOG INTERVAL
 TLI .F               400:   TOP LOG INTERVAL
 CS  .IN            9.625:   CASING SIZE
 CBD .F               645:   CASING BOTTOM DRILLER
 BS  .IN             8.75:   BIT SIZE
 BSD .F              2625:   BIT SIZE AT DEPTH
 DFT .        AIR DRILLED:   DRILLING FLUID TYPE
 TCS .HRS               2:   TIME CURCULATED STOPPED
 MRT .F               116:   MAXIMUM RECORDED TEMPERATURE
 ENGI.            BENTSEN:   RECORDING ENGINEER
 WITN.           DINSMORE:   WITNESSED BY
 CLNT.            A2DTECH:   CLIENT CODE
 ORIG.           5" PRINT:   ORIGIN OF DATA
 UWI .       490251081900:   UNIQUE WELL ID
 DICO. A2D Technologies, Inc.:   DIGITIZING COMPANY
~OTHER INFORMATION
~A   DEPT     CALD         GRD      RHOB       DPHI       CORR   
# ...
 1305.0000     8.9339    85.4958     2.4315     0.0738     0.0196
 1305.5000     8.9327    84.9620     2.4402     0.0694     0.0232
 1306.0000     8.9315    84.4243     2.4515     0.0635     0.0378
 1306.5000     8.9303    83.8760     2.4376     0.0608     0.0331
 1307.0000     8.9291    84.1020     2.4184     0.0830     0.0196
 1307.5000     8.9279    84.3609     2.4278     0.0766     0.0135
 1308.0000     8.9267    83.3028     2.4450     0.0600     0.0329
 1308.5000     8.9255    82.2729     2.4526     0.0652     0.0457
 1309.0000     8.9243    83.0924     2.4283     0.0766     0.0215
 1309.5000     8.9230    84.0874     2.4368     0.0721     0.0217
 1310.0000     8.9218    85.0837     2.4377     0.0697     0.0253
 1310.5000     8.9234    85.9377     2.4320     0.0746     0.0270
 1311.0000     8.9255    85.6019     2.4543     0.0576     0.0429
 1311.5000     8.9275    85.1446     2.4400     0.0693     0.0277
 1312.0000     8.9295    84.6857     2.4623     0.0614     0.0339
 1312.5000     8.9315    84.2074     2.4736     0.0479     0.0560
 1313.0000     8.9335    84.1006     2.4589     0.0568     0.0471
 1313.5000     8.9356    83.6661     2.4532     0.0605     0.0368
 1314.0000     8.9376    83.0747     2.4513     0.0604     0.0291
 1314.5000     8.9399    82.4776     2.4639     0.0555     0.0363
 1315.0000     8.9410    81.9452     2.4769     0.0489     0.0484
 1315.5000     8.8986    81.6430     2.4720     0.0459     0.0546
 1316.0000     8.8512    81.6607     2.4694     0.0508     0.0409
 1316.5000     8.8441    81.7341     2.4887     0.0380     0.0527
 1317.0000     8.8519    82.1830     2.4989     0.0310     0.0711
 1317.5000     8.8597    82.2655     2.4930     0.0351     0.0670
 1318.0000     8.8864    82.3033     2.4838     0.0391     0.0605
 1318.5000     8.9283    83.3675     2.4699     0.0482     0.0485
 1319.0000     8.9624    84.5079     2.4737     0.0469     0.0560
 1319.5000     8.9530    84.4244     2.4463     0.0632     0.0377
 1320.0000     8.9440    84.0866     2.4315     0.0720     0.0190
 1320.5000     8.9350    83.7430     2.4244     0.0753     0.0126
 1321.0000     8.9261    83.5003     2.4275     0.0750     0.0131
 1321.5000     8.9171    83.7632     2.4421     0.0676     0.0259
 1322.0000     8.9083    83.2102     2.4470     0.0629     0.0391
 1322.5000     8.9043    82.6511     2.4592     0.0661     0.0278
 1323.0000     8.9175    82.5670     2.4618     0.0540     0.0443
 1323.5000     8.9302    82.2153     2.4363     0.0637     0.0311
 1324.0000     8.9418    81.4343     2.4186     0.0789     0.0117
 1324.5000     8.9333    82.2670     2.4010     0.0966    -0.0187
 1325.0000     8.9213    83.2753     2.3931     0.0980    -0.0283
 1325.5000     8.9092    83.4696     2.4124     0.0885    -0.0174
 1326.0000     8.8970    82.7308     2.4269     0.0801     0.0053
 1326.5000     8.8843    81.8705     2.4272     0.0782     0.0033
 1327.0000     8.8818    82.1463     2.4234     0.0805     0.0012
 1327.5000     8.9003    83.4242     2.4453     0.0689     0.0150
 1328.0000     8.9208    83.4833     2.4619     0.0534     0.0357
 1328.5000     8.9410    84.1253     2.4622     0.0563     0.0469
 1329.0000     8.9419    85.2639     2.4486     0.0620     0.0384
 1329.5000     8.9418    86.2406     2.4336     0.0709     0.0224
 1330.0000     8.9418    86.2018     2.4084     0.0863     0.0048
 1330.5000     8.9418    85.6542     2.3758     0.1026    -0.0194
 1331.0000     8.9418    85.0778     2.3725     0.1133    -0.0360
 1331.5000     8.9418    84.4978     2.3862     0.1033    -0.0298
 1332.0000     8.9418    84.2584     2.4149     0.0843    -0.0010
 1332.5000     8.9418    84.1116     2.4434     0.0707     0.0254
 1333.0000     8.9418    83.4126     2.4408     0.0680     0.0281
 1333.5000     8.9418    82.5959     2.4382     0.0683     0.0207
 1334.0000     8.9413    82.0136     2.4498     0.0584     0.0309
 1334.5000     8.9390    82.3135     2.4526     0.0650     0.0325
 1335.0000     8.9368    82.5798     2.4326     0.0766     0.0153
 1335.5000     8.9346    83.0277     2.4176     0.0807     0.0039
 1336.0000     8.9324    84.0027     2.4167     0.0830     0.0039
 1336.5000     8.9302    84.6997     2.4313     0.0754     0.0144
 1337.0000     8.9280    85.0120     2.4288     0.0770     0.0165
 1337.5000     8.9258    84.5062     2.4311     0.0727     0.0214
 1338.0000     8.9236    83.5071     2.4474     0.0649     0.0358
 1338.5000     8.9224    82.5133     2.4676     0.0496     0.0505
 1339.0000     8.9292    81.5071     2.4716     0.0511     0.0452
 1339.5000     8.9360    80.5078     2.4813     0.0424     0.0485
 1340.0000     8.9417    80.8073     2.4845     0.0392     0.0534
 1340.5000     8.9400    81.3854     2.4773     0.0451     0.0414
 1341.0000     8.9383    81.3674     2.4580     0.0575     0.0274
 1341.5000     8.9367    81.3671     2.4560     0.0596     0.0169
 1342.0000     8.9351    81.6385     2.4743     0.0484     0.0297
 1342.5000     8.9335    82.4096     2.4895     0.0405     0.0515
 1343.0000     8.9319    83.1744     2.4983     0.0338     0.0633
 1343.5000     8.9303    83.9536     2.4931     0.0411     0.0528
 1344.0000     8.9287    84.1006     2.4650     0.0526     0.0343
 1344.5000     8.9271    83.6321     2.4433     0.0640     0.0155
 1345.0000     8.9255    83.2633     2.4300     0.0770    -0.0036
 1345.5000     8.9239    83.7421     2.4374     0.0698    -0.0002
 1346.0000     8.9223    84.0565     2.4494     0.0590     0.0133
 1346.5000     8.9173    83.2239     2.4615     0.0512     0.0272
 1347.0000     8.9106    83.6103     2.4734     0.0568     0.0410
 1347.5000     8.9038    84.0241     2.4777     0.0423     0.0492
 1348.0000     8.9051    83.6728     2.4711     0.0502     0.0455
 1348.5000     8.9102    83.3656     2.4801     0.0430     0.0527
 1349.0000     8.9154    84.1141     2.4651     0.0521     0.0434
 1349.5000     8.9206    83.1066     2.4433     0.0641     0.0206
 1350.0000     8.9258    81.9727     2.3982     0.0846    -0.0077
 1350.5000     8.9310    80.8222     2.4083     0.0842    -0.0003
 1351.0000     8.9362    81.5456     2.4264     0.0794     0.0105
 1351.5000     8.9415    82.4451     2.4357     0.0721     0.0211
 1352.0000     8.9390    82.8736     2.4451     0.0648     0.0318
 1352.5000     8.9359    82.7477     2.4517     0.0608     0.0365
 1353.0000     8.9329    82.5665     2.4504     0.0641     0.0347
 1353.5000     8.9298    82.3828     2.4597     0.0573     0.0408
 1354.0000     8.9268    82.1996     2.4687     0.0508     0.0376
 1354.5000     8.9237    82.0061     2.4778     0.0450     0.0453
 1355.0000     8.9206    82.1951     2.4820     0.0435     0.0531
 1355.5000     8.9176    82.5064     2.4725     0.0475     0.0485
 1356.0000     8.9145    82.5707     2.4770     0.0451     0.0428
 1356.5000     8.9115    82.5945     2.4741     0.0489     0.0430
 1357.0000     8.9084    83.4693     2.4581     0.0552     0.0316
 1357.5000     8.9054    84.0946     2.4355     0.0718     0.0123
 1358.0000     8.9021    83.8821     2.4454     0.0664     0.0164
 1358.5000     8.9076    83.7874     2.4555     0.0589     0.0302
 1359.0000     8.9153    83.9707     2.4451     0.0649     0.0164
 1359.5000     8.9219    83.3420     2.4569     0.0579     0.0192
 1360.0000     8.9227    82.0523     2.4680     0.0512     0.0329
 1360.5000     8.9236    80.8224     2.4495     0.0661     0.0245
 1361.0000     8.9246    81.5509     2.4415     0.0592     0.0358
 1361.5000     8.9255    82.3747     2.4801     0.0482     0.0557
 1362.0000     8.9265    82.8834     2.4855     0.0395     0.0677
 1362.5000     8.9275    82.8711     2.4540     0.0600     0.0494
 1363.0000     8.9284    82.9140     2.4620     0.0552     0.0512
 1363.5000     8.9294    83.9540     2.4546     0.0588     0.0537
 1364.0000     8.9304    84.9392     2.4633     0.0532     0.0520
 1364.5000     8.9314    84.0127     2.4716     0.0488     0.0374
 1365.0000     8.9323    83.0116     2.4427     0.0628     0.0060
 1365.5000     8.9333    82.0152     2.4543     0.0660     0.0058
