~VERSION INFORMATION
 VERS.                2.0:   CWLS LOG ASCII STANDARD - VERSION 2.0
 WRAP.                 NO:   ONE LINE PER DEPTH STEP
~WELL INFORMATION
#MNEM.UNIT      DATA TYPE    INFORMATION
#----------   ------------   ------------------------------
 STRT.F            7.0000:   START DEPTH
 STOP.F          480.0000:   STOP DEPTH
 STEP.F            0.1000:   STEP LENGTH
 NULL.          -999.2500:   NO VALUE
 COMP.       F D SERV INC:   COMPANY
 WELL.    67-2 SX-3 #67-3:   WELL
 FLD .          N.P.R. #3:   FIELD
 LOC .       S3 T38N R78W:   LOCATION
 CNTY.            NATRONA:   COUNTY
 STAT.            WYOMING:   STATE
 CTRY. UNITED STATES OF AMERICA:   COUNTRY
 SRVC.     Atlas Wireline:   SERVICE COMPANY
 DATE.        12-FEB-1992:   LOGDATE
 API .       490252250400:   API NUMBER
~CURVE INFORMATION
#MNEM.UNIT       API CODE    CURVE DESCRIPTION
#----------   ------------   ------------------------------
 DEPT.F                  :   
 SPR .MV     07 010 01 00:   SPONTANEOUS POTENTIAL
 GRR .GAPI   07 310 01 00:   GAMMA RAY
 RILD.OHMM   07 120 46 00:   INDUCTION LOG DEEP RESISTIVITY
 RILM.OHMM   07 120 44 00:   INDUCTION LOG MEDIUM RESISTIVITY
 RFOC.OHMM   07 220 04 00:   RESISTIVITY FOCUSED LOG
~PARAMETER INFORMATION
#MNEM.UNIT          VALUE    DESCRIPTION
#----------   ------------   ------------------------------
 PD  .                 GL:   PERMANENT DATUM
 EPD .F              5165:   ELEVATION PERMANENT DATUM
 LMF .                 KB:   LOG MEASURED FROM
 DAPD.F                10:   FEET ABOVE PERMANENT DATUM
 DMF .                 KB:   DRILLING MEASURED FROM
 EKB .F              5175:   KELLING BUSHING
 EDF .F              5174:   DRILLING FLOOR
 EGL .F              5165:   GROUND LEVEL
 DATE.        12-FEB-1992:   RUN DATE
 RUN .                  1:   RUN NUMBER
 DD  .F               487:   DEPTH DRILLER
 DL  .F               485:   DEPTH LOGGER
 BLI .F               482:   BOTTOM LOG INTERVAL
 CS  .IN            8.625:   CASING SIZE
 CBD .F               183:   CASING BOTTOM DRILLER
 CBL .F               186:   CASING BOTTOM LOGGER
 BS  .IN            7.875:   BIT SIZE
 BSD .F               487:   BIT SIZE AT DEPTH
 DFT .           CHEM GEL:   DRILLING FLUID TYPE
 DFD .               16.1:   DRILLING FLUID DENSITY
 DFV .                 43:   DRILLING FLUID VISCOSITY
 DFPH.                9.5:   DRILLING FLUID PH
 DFL .               11.8:   DRILLING FLUID LOSS
 MSS .           MUD TANK:   MUD SAMPLE SOURCE
 RMS .OHMM           2.36:   RESISTIVITY MUD SAMPLE
 MST .F                65:   MUD SAMPLE TEMPERATURE
 RMF .OHMM           1.17:   RESISTIVITY MUD FILTRATE SAMPLE
 MFST.F                65:   MUD FILTRATE SAMPLE TEMPERATURE
 RMC .OHMM           5.18:   RESISTIVITY MUD CAKE
 MCST.F                65:   MUD CAKE SAMPLE TEMPERATURE
 MFSS.               MEAS:   MUD FILTRATE SAMPLE SOURCE
 MCSS.               CALC:   MUD CAKE SAMPLE SOURCE
 RMB .OHMM           1.67:   RESISTIVITY MUD AT BHT
 BHT .F                92:   BOTTOM HOLE TEMPERATURE
 TCS .HRS               2:   TIME CURCULATED STOPPED
 MRT .F                92:   MAXIMUM RECORDED TEMPERATURE
 LUN .           HL- 6224:   LOGGING UNIT NUMBER
 LUL .             CASPER:   LOGGING UNIT LOCATION
 ENGI.        VERN RAUTIO:   RECORDING ENGINEER
 WITN.        GARY STRONG:   WITNESSED BY
 CLNT.            A2DTECH:   CLIENT CODE
 ORIG.           5" PRINT:   ORIGIN OF DATA
 UWI .       490252250400:   UNIQUE WELL ID
 DICO. A2D Technologies, Inc.:   DIGITIZING COMPANY
~OTHER INFORMATION
~A    DEPT     SPR        GRR       RILD       RILM       RFOC   
# ...
  190.0000   -32.2822    74.0030     2.9084     3.3989     4.3289
  190.1000   -32.4926    74.9187     2.9435     3.4762     4.3775
  190.2000   -32.6128    76.9113     2.9986     3.5247     4.4265
  190.3000   -32.7570    79.7643     3.0624     3.5749     4.4890
  190.4000   -32.8532    82.3724     3.1014     3.6297     4.5442
  190.5000   -32.9735    84.0873     3.1457     3.6713     4.5434
  190.6000   -33.0938    85.4992     3.1875     3.7460     4.5177
  190.7000   -33.2139    87.2054     3.2360     3.7798     4.4921
  190.8000   -33.3487    88.6452     3.3085     3.8346     4.4405
  190.9000   -33.5616    89.6210     3.3924     3.9068     4.3592
  191.0000   -33.7247    90.6928     3.5106     3.9972     4.2660
  191.1000   -33.8959    90.9139     3.5987     4.1290     4.3923
  191.2000   -34.1153    91.3223     3.6353     4.3953     4.5789
  191.3000   -34.2408    91.7044     3.6346     4.6145     4.8038
  191.4000   -34.4724    91.9496     3.6337     4.8133     5.0696
  191.5000   -34.6261    92.2009     3.7067     5.0753     5.3832
  191.6000   -34.8068    92.2027     3.7624     5.2693     5.6752
  191.7000   -35.0491    92.2045     3.8040     5.4571     5.7537
  191.8000   -35.2911    92.2063     3.8426     5.6345     5.9278
  191.9000   -35.5810    92.1397     3.8652     5.7546     6.1292
  192.0000   -35.7757    91.9100     3.8843     5.8248     6.2643
  192.1000   -36.0180    91.9122     3.9201     5.9309     6.3872
  192.2000   -36.2603    91.9137     3.9729     5.9615     6.4472
  192.3000   -36.5024    91.9155     4.0393     5.9947     6.5194
  192.4000   -36.7734    91.9173     4.1114     6.0130     6.6054
  192.5000   -36.9869    91.9190     4.1539     6.0126     6.7127
  192.6000   -37.2292    91.9210     4.2163     6.0121     6.7985
  192.7000   -37.5228    91.9226     4.3087     6.0446     6.8639
  192.8000   -37.8870    92.0852     4.4558     6.0783     6.9168
  192.9000   -38.2660    92.3304     4.7222     6.1122     6.9408
  193.0000   -38.6155    92.6237     4.9289     6.1462     6.9403
  193.1000   -39.0689    93.1293     5.1968     6.1805     6.9398
  193.2000   -39.5552    93.6012     5.4804     6.2149     6.9393
  193.3000   -40.0087    94.0900     5.7767     6.2496     6.9388
  193.4000   -40.3684    94.5787     6.1496     6.2844     6.9384
  193.5000   -40.6573    95.1993     6.4963     6.3298     6.9379
  193.6000   -41.0499    96.1656     6.7286     6.3991     6.9373
  193.7000   -41.4658    97.0384     6.8993     6.4416     6.9021
  193.8000   -41.7878    97.8267     7.0443     6.4707     6.8882
  193.9000   -42.0301    98.6620     7.1624     6.5068     6.8878
  194.0000   -42.3001    99.3942     7.3230     6.5430     6.8809
  194.1000   -42.6226   100.1541     7.4245     6.5795     6.8389
  194.2000   -42.9069   101.2452     7.5282     6.6216     6.8385
  194.3000   -43.2009   101.6762     7.6315     6.6212     6.8122
  194.4000   -43.5416   102.0066     7.6727     6.6436     6.7900
  194.5000   -43.7927   102.1499     7.7142     6.6667     6.7895
  194.6000   -44.0261   102.1973     7.7225     6.6712     6.7890
  194.7000   -44.3577   102.4535     7.7209     6.7124     6.7886
  194.8000   -44.6607   102.4552     7.6950     6.7119     6.7617
  194.9000   -44.9362   102.4570     7.6060     6.7115     6.7405
  195.0000   -45.2953   102.4588     7.4777     6.7110     6.7322
  195.1000   -45.5834   102.4606     7.4169     6.7105     6.6927
  195.2000   -45.8786   102.4624     7.3291     6.7100     6.6922
  195.3000   -46.2429   102.4642     7.2174     6.7096     6.6918
  195.4000   -46.6497   102.4660     7.1354     6.6830     6.6913
  195.5000   -47.1071   102.4678     7.0393     6.6620     6.6908
  195.6000   -47.3764   103.3691     6.9744     6.6535     6.6904
  195.7000   -47.7000   103.3961     6.8952     6.6148     6.7269
  195.8000   -48.0642   103.6728     6.8169     6.5781     6.7642
  195.9000   -48.3763   103.8867     6.7364     6.5408     6.8017
  196.0000   -48.6426   104.1319     6.6039     6.5036     6.8394
  196.1000   -49.0192   104.3772     6.4810     6.4666     6.8774
  196.2000   -49.3712   104.6225     6.3568     6.4299     6.9155
  196.3000   -49.6456   104.8811     6.2376     6.3934     6.9539
  196.4000   -49.8262   104.8828     6.1009     6.3294     6.9925
  196.5000   -49.7117   104.8846     5.9831     6.2770     7.0312
  196.6000   -48.9941   104.8864     5.8690     6.2413     7.0702
  196.7000   -48.5576   104.8882     5.7377     6.2058     7.1095
  196.8000   -48.2583   104.8900     5.6092     6.1641     7.1177
  196.9000   -47.8904   104.8918     5.4871     6.1355     7.1386
  197.0000   -47.6517   104.7017     5.3829     6.1006     7.1665
  197.1000   -47.6499   104.4600     5.3035     6.0545     7.1660
  197.2000   -47.6479   104.2183     5.2140     5.9797     7.1654
  197.3000   -47.7551   103.9766     5.1151     5.8275     7.1650
  197.4000   -47.9560   103.7016     5.0121     5.7434     7.1645
  197.5000   -48.1457   103.2834     4.9800     5.6469     7.1640
  197.6000   -48.2658   102.9517     4.9542     5.5519     7.1609
  197.7000   -48.3897   102.6129     4.9434     5.4585     7.1131
  197.8000   -48.5063   102.1277     4.9424     5.3576     7.0801
  197.9000   -48.5363   101.6115     4.9413     5.3033     7.0401
  198.0000   -48.5345   101.3853     4.9403     5.2242     6.9874
  198.1000   -48.5327   100.9721     4.9393     5.1606     6.9090
  198.2000   -48.5309   100.6021     4.9383     5.1209     6.8193
  198.3000   -48.5288   100.2429     4.9491     5.0297     6.7551
  198.4000   -48.5273    99.5167     4.9710     4.9764     6.6353
  198.5000   -48.4539    99.0315     4.9697     4.9398     6.4877
  198.6000   -48.3736    98.3568     5.0213     4.9117     6.3432
  198.7000   -48.3565    97.7613     5.0571     4.8838     6.1830
  198.8000   -48.2196    97.2762     5.0844     4.8556     6.0358
  198.9000   -48.1088    96.8316     5.1119     4.8285     5.8489
  199.0000   -47.9038    96.8339     5.1407     4.8212     5.6782
  199.1000   -47.6580    97.0429     5.1953     4.7937     5.5517
  199.2000   -47.4123    97.2882     5.2318     4.7537     5.4140
  199.3000   -47.1597    97.6282     5.2601     4.7527     5.3079
  199.4000   -46.8019    98.1554     5.2952     4.7257     5.1901
  199.5000   -46.5245    98.9417     5.3549     4.7196     5.0857
  199.6000   -46.1538   100.0708     5.3833     4.7049     5.0005
  199.7000   -45.6640   101.6282     5.4125     4.6862     4.9088
  199.8000   -45.1491   103.2216     5.4268     4.6858     4.8104
  199.9000   -43.9955   104.6279     5.4407     4.6855     4.7381
  200.0000   -42.8929   105.8471     5.5008     4.6879     4.6975
  200.1000   -41.3330   106.9241     5.5174     4.6908     4.6749
  200.2000   -39.5353   108.0011     5.5340     4.6938     4.6523
  200.3000   -37.6278   109.0781     5.5505     4.6967     4.6297
  200.4000   -35.8785   110.1551     5.5671     4.6997     4.6072
  200.5000   -34.7807   111.2321     5.5837     4.7026     4.5846
  200.6000   -33.8847   111.5694     5.6003     4.7055     4.5949
  200.7000   -33.2575   111.5736     5.6168     4.7085     4.6093
  200.8000   -32.8179   111.5778     5.6334     4.7114     4.6208
  200.9000   -32.5663   111.5820     5.6500     4.7144     4.6740
  201.0000   -32.4455   111.0904     5.6666     4.7173     4.7004
  201.1000   -32.3216   110.0271     5.6831     4.7596     4.7477
  201.2000   -32.1978   108.9455     5.7023     4.8141     4.8019
  201.3000   -32.0739   107.9710     5.7370     4.8691     4.8567
  201.4000   -31.9568   106.9965     5.7679     4.9272     4.9143
  201.5000   -31.9546   105.9105     5.8247     5.0238     5.0115
  201.6000   -31.8527   104.8308     5.8750     5.0733     5.0847
  201.7000   -31.7288   103.9347     5.9177     5.1313     5.1720
  201.8000   -31.6493   103.3112     5.9841     5.2021     5.2490
  201.9000   -31.6313   102.8259     6.0247     5.2860     5.3139
  202.0000   -31.4953   102.3329     6.0812     5.3494     5.4110
  202.1000   -31.4937   101.8556     6.1302     5.4370     5.4980
