~VERSION INFORMATION
 VERS.                2.0:   CWLS LOG ASCII STANDARD - VERSION 2.0
 WRAP.                 NO:   ONE LINE PER DEPTH STEP
~WELL INFORMATION
#MNEM.UNIT      DATA TYPE    INFORMATION
#----------   ------------   ------------------------------
 STRT.F           20.0000:   START DEPTH
 STOP.F          626.0000:   STOP DEPTH
 STEP.F            0.5000:   STEP LENGTH
 NULL.          -999.2500:   NO VALUE
 COMP. FENIX & SCISSON INC:   COMPANY
 WELL. NPR-3  38-S-34 #38-34:   WELL
 FLD .             TEAPOT:   FIELD
 LOC .      S34 T39N R78W:   LOCATION
 CNTY.            NATRONA:   COUNTY
 STAT.            WYOMING:   STATE
 CTRY. UNITED STATES OF AMERICA:   COUNTRY
 SRVC.           BIRDWELL:   SERVICE COMPANY
 DATE.        08-AUG-1978:   LOGDATE
 API .       490251068300:   API NUMBER
~CURVE INFORMATION
#MNEM.UNIT       API CODE    CURVE DESCRIPTION
#----------   ------------   ------------------------------
 DEPT.F                  :   
 SPR .MV     05 010 01 00:   SPONTANEOUS POTENTIAL FROM RES.
 SN  .OHMM   05 040 16 00:   SHORT NORMAL 16"
 IL  .OHMM   05 120 00 00:   INDUCTION LOG
 RHOB.G/C3   45 350 01 00:   BULK DENSITY
 DPHI.DEC    45 890 12 00:   DENSITY POROSITY SANDSTONE
 CORR.G/C3   45 356 01 00:   DENSITY CORRECTION
 GRD .GAPI   45 310 01 00:   GAMMA RAY FROM DENSITY LOG
 CALD.IN     45 280 60 00:   CALIPER
~PARAMETER INFORMATION
#MNEM.UNIT          VALUE    DESCRIPTION
#----------   ------------   ------------------------------
 PD  .                 GL:   PERMANENT DATUM
 EPD .F              5213:   ELEVATION PERMANENT DATUM
 LMF .                 KB:   LOG MEASURED FROM
 DAPD.F                 4:   FEET ABOVE PERMANENT DATUM
 DMF .                 KB:   DRILLING MEASURED FROM
 EKB .F              5217:   KELLING BUSHING
 EGL .F              5213:   GROUND LEVEL
 DATE.             8-8-78:   RUN DATE
 RUN .                  1:   RUN NUMBER
 DD  .F               620:   DEPTH DRILLER
 DL  .F               632:   DEPTH LOGGER
 BLI .F               626:   BOTTOM LOG INTERVAL
 TLI .F                35:   TOP LOG INTERVAL
 CS  .IN            8.625:   CASING SIZE
 CBL .F                35:   CASING BOTTOM LOGGER
 BS  .IN            7.875:   BIT SIZE
 BSD .F               620:   BIT SIZE AT DEPTH
 DFT .                KCL:   DRILLING FLUID TYPE
 DFD .                8.7:   DRILLING FLUID DENSITY
 DFV .                 33:   DRILLING FLUID VISCOSITY
 DFPH.                  9:   DRILLING FLUID PH
 DFL .                  5:   DRILLING FLUID LOSS
 MSS .          FLOW LINE:   MUD SAMPLE SOURCE
 RMS .OHMM            .12:   RESISTIVITY MUD SAMPLE
 MST .F                80:   MUD SAMPLE TEMPERATURE
 RMF .OHMM            .13:   RESISTIVITY MUD FILTRATE SAMPLE
 MFST.F                83:   MUD FILTRATE SAMPLE TEMPERATURE
 RMC .OHMM            .16:   RESISTIVITY MUD CAKE
 MCST.F                84:   MUD CAKE SAMPLE TEMPERATURE
 MFSS.               MEAS:   MUD FILTRATE SAMPLE SOURCE
 TCS .HRS               1:   TIME CURCULATED STOPPED
 LUN .               3006:   LOGGING UNIT NUMBER
 LUL .               CASP:   LOGGING UNIT LOCATION
 ENGI.             MILLER:   RECORDING ENGINEER
 WITN.           MCGINLEY:   WITNESSED BY
 CLNT.            A2DTECH:   CLIENT CODE
 ORIG.           5" PRINT:   ORIGIN OF DATA
 UWI .       490251068300:   UNIQUE WELL ID
 DICO. A2D Technologies, Inc.:   DIGITIZING COMPANY
~OTHER INFORMATION
~A   DEPT      SPR         SN         IL       RHOB       DPHI       CORR         GRD      CALD   
# ...
   60.5000   -19.7011     6.7994     8.1594     2.3718     0.1824     0.0388    82.5514     7.6239
   61.0000   -21.5802     6.6797     8.1011     2.3705     0.1832     0.0351    82.2209     7.7088
   61.5000   -23.5207     6.4788     7.7233     2.3692     0.1840     0.0314    81.6772     7.7747
   62.0000   -25.4348     6.2839     7.2729     2.3692     0.1843     0.0277    81.1358     7.7687
   62.5000   -26.4864     6.0949     6.8488     2.3698     0.1822     0.0240    81.1412     7.7639
   63.0000   -27.5940     5.9116     6.4494     2.3712     0.1797     0.0239    82.3868     7.7591
   63.5000   -29.1346     5.7337     6.0733     2.3760     0.1772     0.0244    82.6623     7.7532
   64.0000   -30.0884     5.6497     5.8627     2.3805     0.1725     0.0249    81.9071     7.8030
   64.5000   -29.9454     5.6471     5.8090     2.3855     0.1639     0.0254    80.9208     7.8667
   65.0000   -29.8179     5.6445     5.8126     2.4028     0.1553     0.0236    80.2602     7.9324
   65.5000   -29.6886     5.6420     5.8158     2.4207     0.1503     0.0213    84.3131     7.8905
   66.0000   -29.5568     5.6394     5.8187     2.4271     0.1479     0.0189    88.7478     7.8153
   66.5000   -30.0595     5.6368     5.8218     2.4260     0.1506     0.0166    93.2506     7.8528
   67.0000   -31.0892     5.6343     5.8248     2.4247     0.1528     0.0142    94.6345     7.8888
   67.5000   -32.1343     5.6317     5.8279     2.4234     0.1528     0.0118    95.2773     7.9244
   68.0000   -32.3025     5.6291     5.8310     2.4222     0.1528     0.0126    97.5161     7.9610
   68.5000   -32.3021     5.6266     5.8340     2.4211     0.1499     0.0139    99.4701     7.9355
   69.0000   -32.2934     5.6240     5.8371     2.4242     0.1473     0.0152    98.4428     7.8819
   69.5000   -32.6756     5.6215     5.8402     2.4302     0.1448     0.0165    97.9452     7.8282
   70.0000   -33.1337     5.6189     5.8432     2.4360     0.1451     0.0178    98.6065     7.8077
   70.5000   -33.2729     5.6164     5.8463     2.4340     0.1469     0.0191    94.5012     7.8496
   71.0000   -33.4251     5.6138     5.8494     2.4308     0.1486     0.0204    94.8044     7.8899
   71.5000   -33.7789     5.6112     5.8525     2.4275     0.1487     0.0211    97.6981     7.8908
   72.0000   -34.3832     5.6087     5.8556     2.4276     0.1484     0.0174    99.7695     7.8427
   72.5000   -34.9172     5.6061     5.8586     2.4300     0.1507     0.0137   101.9020     7.7957
   73.0000   -34.9204     5.6036     5.8624     2.4292     0.1547     0.0099   102.1571     7.8232
   73.5000   -34.9356     5.6011     5.8519     2.4225     0.1587     0.0143    99.2256     7.8563
   74.0000   -34.9522     5.5993     5.8360     2.4096     0.1589     0.0200    95.7589     7.8886
   74.5000   -34.9688     5.5993     5.8202     2.4116     0.1525     0.0256    93.3005     7.8996
   75.0000   -34.9855     5.5993     5.8045     2.4225     0.1471     0.0314    94.1673     7.8365
   75.5000   -35.0021     5.5993     5.7888     2.4332     0.1420     0.0283    94.9670     7.7765
   76.0000   -35.0188     5.5993     5.7731     2.4392     0.1437     0.0199    95.7029     7.8205
   76.5000   -35.0354     5.5993     5.7560     2.4355     0.1453     0.0209    93.9310     7.8726
   77.0000   -35.0521     5.6019     5.7763     2.4313     0.1468     0.0258    93.2696     7.9249
   77.5000   -35.0687     5.6107     5.7990     2.4351     0.1422     0.0307    93.4206     7.9204
   78.0000   -35.0853     5.6194     5.8219     2.4464     0.1352     0.0355    90.9698     7.9057
   78.5000   -35.1051     5.6282     5.8450     2.4492     0.1342     0.0323    89.1340     7.8909
   79.0000   -35.1435     5.6369     5.8685     2.4505     0.1331     0.0284    91.8126     7.8762
   79.5000   -35.1825     5.6457     5.8934     2.4519     0.1319     0.0246    99.0987     7.8616
   80.0000   -35.2215     5.6544     5.9184     2.4532     0.1308     0.0224   102.1581     7.8469
   80.5000   -35.2604     5.6632     5.9436     2.4541     0.1296     0.0286   102.6423     7.8323
   81.0000   -35.2994     5.6720     5.9688     2.4653     0.1269     0.0347   104.1050     7.8176
   81.5000   -35.3383     5.6808     5.9942     2.4797     0.1177     0.0322   105.6492     7.8031
   82.0000   -35.3773     5.6896     6.0196     2.4947     0.1080     0.0274   100.4372     7.7924
   82.5000   -35.4162     5.6986     6.0452     2.5005     0.1136     0.0221    93.3875     7.7905
   83.0000   -35.4553     5.7102     6.0709     2.4896     0.1241     0.0282    91.0848     7.7883
   83.5000   -35.4945     5.7252     6.0967     2.4704     0.1344     0.0321    95.3051     7.7863
   84.0000   -35.5001     5.7403     6.1226     2.4512     0.1357     0.0353    98.9069     7.7842
   84.5000   -35.5001     5.7554     6.1486     2.4499     0.1355     0.0309   100.7412     7.7821
   85.0000   -35.5000     5.7706     6.1747     2.4510     0.1352     0.0266   100.7350     7.7800
   85.5000   -35.5000     5.7859     6.1951     2.4510     0.1349     0.0222   100.6340     7.7779
   86.0000   -35.5000     5.8014     6.1661     2.4516     0.1340     0.0218    98.0258     7.7757
   86.5000   -35.5000     5.8088     6.1381     2.4547     0.1321     0.0268    94.6881     7.7729
   87.0000   -35.5000     5.7587     6.1103     2.4577     0.1302     0.0309    95.1278     7.7988
   87.5000   -35.5000     5.7245     6.0825     2.4607     0.1283     0.0349    95.5727     7.8292
   88.0000   -35.5000     5.6908     6.0549     2.4627     0.1264     0.0370    95.9511     7.8598
   88.5000   -35.5000     5.6572     6.0274     2.4639     0.1264     0.0338    94.1269     7.8901
   89.0000   -35.5002     5.6238     6.0000     2.4650     0.1287     0.0307    92.1585     7.9209
   89.5000   -35.5000     5.5993     5.9728     2.4635     0.1311     0.0276    91.2960     7.9179
   90.0000   -35.4875     5.6029     5.9455     2.4568     0.1335     0.0253    92.9346     7.8950
   90.5000   -35.4282     5.6058     5.9170     2.4528     0.1360     0.0288    94.3613     7.8716
   91.0000   -35.3708     5.6086     5.9209     2.4504     0.1356     0.0319    94.2727     7.8485
   91.5000   -35.3117     5.6115     5.9254     2.4490     0.1332     0.0351    94.8681     7.8328
   92.0000   -35.3074     5.6143     5.9298     2.4546     0.1297     0.0368    96.6150     7.8330
   92.5000   -35.3170     5.6172     5.9342     2.4629     0.1281     0.0337    96.9258     7.8330
   93.0000   -35.3269     5.6201     5.9387     2.4641     0.1283     0.0307    97.2584     7.8330
   93.5000   -35.3367     5.6229     5.9431     2.4607     0.1324     0.0277    99.0484     7.8331
   94.0000   -35.3464     5.6258     5.9476     2.4551     0.1352     0.0260   100.9887     7.8331
   94.5000   -35.3562     5.6287     5.9520     2.4510     0.1364     0.0290   102.0864     7.8284
   95.0000   -35.3659     5.6315     5.9565     2.4500     0.1356     0.0319    99.3811     7.7940
   95.5000   -35.3757     5.6344     5.9609     2.4520     0.1329     0.0350    97.1889     7.7597
   96.0000   -35.3854     5.6372     5.9654     2.4578     0.1301     0.0321    95.1814     7.7255
   96.5000   -35.3952     5.6401     5.9699     2.4600     0.1291     0.0278    95.0830     7.6915
   97.0000   -35.4049     5.6430     5.9743     2.4601     0.1291     0.0234    95.8243     7.6817
   97.5000   -35.4146     5.6459     5.9788     2.4601     0.1290     0.0191    96.5897     7.6975
   98.0000   -35.4244     5.6487     5.9833     2.4605     0.1290     0.0147    97.3592     7.7133
   98.5000   -35.4341     5.6512     5.9877     2.4618     0.1289     0.0102    98.1106     7.7291
   99.0000   -35.4439     5.6566     5.9922     2.4630     0.1288     0.0124    97.9882     7.7447
   99.5000   -35.4536     5.6621     5.9967     2.4622     0.1288     0.0160    95.1013     7.7442
  100.0000   -35.4634     5.6676     6.0012     2.4579     0.1340     0.0197    92.2872     7.7234
  100.5000   -35.4731     5.6732     6.0057     2.4538     0.1353     0.0234    89.4662     7.7030
