~VERSION INFORMATION
 VERS.                2.0:   CWLS LOG ASCII STANDARD - VERSION 2.0
 WRAP.                 NO:   ONE LINE PER DEPTH STEP
~WELL INFORMATION
#MNEM.UNIT      DATA TYPE    INFORMATION
#----------   ------------   ------------------------------
 STRT.F            0.0000:   START DEPTH
 STOP.F          551.0000:   STOP DEPTH
 STEP.F            0.1000:   STEP LENGTH
 NULL.          -999.2500:   NO VALUE
 COMP.       F D SERV INC:   COMPANY
 WELL.    62-2 SX-3 #62-3:   WELL
 FLD .          N.P.R. #3:   FIELD
 LOC .       S3 T38N R78W:   LOCATION
 CNTY.            NATRONA:   COUNTY
 STAT.            WYOMING:   STATE
 CTRY. UNITED STATES OF AMERICA:   COUNTRY
 SRVC.     Atlas Wireline:   SERVICE COMPANY
 DATE.        17-APR-1992:   LOGDATE
 API .       490252250700:   API NUMBER
~CURVE INFORMATION
#MNEM.UNIT       API CODE    CURVE DESCRIPTION
#----------   ------------   ------------------------------
 DEPT.F                  :   
 GRR .GAPI   07 310 01 00:   GAMMA RAY
 RILD.OHMM   07 120 46 00:   INDUCTION LOG DEEP RESISTIVITY
 RILM.OHMM   07 120 44 00:   INDUCTION LOG MEDIUM RESISTIVITY
~PARAMETER INFORMATION
#MNEM.UNIT          VALUE    DESCRIPTION
#----------   ------------   ------------------------------
 PD  .                 GL:   PERMANENT DATUM
 EPD .F              5130:   ELEVATION PERMANENT DATUM
 LMF .                 KB:   LOG MEASURED FROM
 DAPD.F                 5:   FEET ABOVE PERMANENT DATUM
 DMF .                 KB:   DRILLING MEASURED FROM
 EKB .F              5135:   KELLING BUSHING
 EDF .F              5134:   DRILLING FLOOR
 EGL .F              5130:   GROUND LEVEL
 DATE.        17-APR-1992:   RUN DATE
 RUN .                  1:   RUN NUMBER
 DD  .F               560:   DEPTH DRILLER
 DL  .F               560:   DEPTH LOGGER
 BLI .F               558:   BOTTOM LOG INTERVAL
 CS  .IN            8.625:   CASING SIZE
 CBD .F                47:   CASING BOTTOM DRILLER
 CBL .F                50:   CASING BOTTOM LOGGER
 BS  .IN            7.875:   BIT SIZE
 BSD .F               560:   BIT SIZE AT DEPTH
 DFT .                AIR:   DRILLING FLUID TYPE
 TCS .HRS               2:   TIME CURCULATED STOPPED
 MRT .F                83:   MAXIMUM RECORDED TEMPERATURE
 LUN .           HL- 6274:   LOGGING UNIT NUMBER
 LUL .             CASPER:   LOGGING UNIT LOCATION
 ENGI.            LEBSOCK:   RECORDING ENGINEER
 WITN.        GARY STRONG:   WITNESSED BY
 CLNT.            A2DTECH:   CLIENT CODE
 ORIG.           5" PRINT:   ORIGIN OF DATA
 UWI .       490252250700:   UNIQUE WELL ID
 DICO. A2D Technologies, Inc.:   DIGITIZING COMPANY
~OTHER INFORMATION
~A    DEPT      GRR      RILD       RILM   
# ...
  163.8000   120.7578    12.0222    11.3774
  163.9000   120.5308    12.0223    11.3775
  164.0000   120.2864    11.9823    11.3396
  164.1000   120.1598    11.9389    11.2986
  164.2000   120.1000    11.9390    11.2987
  164.3000   119.8620    11.9392    11.2989
  164.4000   119.8649    11.9393    11.2990
  164.5000   119.6692    11.9395    11.2992
  164.6000   119.4247    11.9397    11.2994
  164.7000   119.2666    11.9398    11.2995
  164.8000   119.2384    11.9400    11.2997
  164.9000   118.9691    11.9402    11.2999
  165.0000   118.7494    11.9403    11.3000
  165.1000   118.5049    11.9405    11.3002
  165.2000   118.2604    11.9408    11.3004
  165.3000   118.0160    11.9409    11.3005
  165.4000   117.7707    11.9411    11.3007
  165.5000   117.2810    11.9412    11.3008
  165.6000   116.9799    11.9414    11.3009
  165.7000   116.6007    11.9132    11.3011
  165.8000   116.1884    11.8584    11.3012
  165.9000   115.9205    11.8586    11.3014
  166.0000   115.3649    11.8588    11.3016
  166.1000   115.1524    11.8589    11.2543
  166.2000   114.7490    11.8591    11.2232
  166.3000   114.2576    11.8592    11.2233
  166.4000   113.8138    11.8554    11.2235
  166.5000   113.5613    11.7769    11.2237
  166.6000   113.8026    11.7770    11.2238
  166.7000   114.0518    11.7772    11.2240
  166.8000   114.4286    11.7774    11.2242
  166.9000   114.9304    11.7769    11.2243
  167.0000   115.4456    11.7730    11.2245
  167.1000   115.9608    11.7690    11.2247
  167.2000   116.4759    11.7651    11.2248
  167.3000   116.9911    11.7611    11.1947
  167.4000   117.5165    11.7572    11.1469
  167.5000   117.7610    11.7533    11.1471
  167.6000   117.8239    11.7493    11.1473
  167.7000   117.6956    11.7454    11.1474
  167.8000   117.4511    11.7415    11.1116
  167.9000   117.1874    11.7375    11.0701
  168.0000   116.6236    11.7336    11.0702
  168.1000   115.7836    11.7296    11.0704
  168.2000   114.6434    11.7257    11.0705
  168.3000   113.4113    11.7218    11.0291
  168.4000   112.2666    11.7178    10.9938
  168.5000   111.4918    11.7139    10.9809
  168.6000   111.4941    11.7099    10.9175
  168.7000   111.6757    11.7060    10.9177
  168.8000   112.1717    11.7021    10.8709
  168.9000   112.9147    11.6906    10.8419
  169.0000   113.6460    11.6173    10.8234
  169.1000   114.2298    11.6174    10.7667
  169.2000   114.8419    11.6176    10.7669
  169.3000   115.4373    11.6178    10.7670
  169.4000   115.8415    11.6179    10.7291
  169.5000   116.0907    11.6181    10.6924
  169.6000   116.3596    11.5530    10.6822
  169.7000   116.3619    11.5373    10.6182
  169.8000   116.1924    11.5024    10.6184
  169.9000   115.9479    11.4573    10.5752
  170.0000   115.7035    11.4521    10.5447
  170.1000   115.4589    11.3776    10.5290
  170.2000   115.2145    11.3777    10.4715
  170.3000   114.5777    11.3373    10.4717
  170.4000   114.1203    11.2988    10.4718
  170.5000   113.9606    11.2989    10.4720
  170.6000   113.9631    11.2991    10.4508
  170.7000   113.9658    11.2993    10.3993
  170.8000   113.9679    11.2529    10.3995
  170.9000   113.9703    11.1890    10.3996
  171.0000   113.8638    11.1426    10.3597
  171.1000   113.5660    11.1401    10.3275
  171.2000   113.0699    11.0652    10.3144
  171.3000   112.8278    11.0653    10.2559
  171.4000   112.7722    11.0284    10.2560
  171.5000   112.7746    10.9885    10.2561
  171.6000   112.7770    10.9801    10.2245
  171.7000   112.8012    10.9122    10.1850
  171.8000   113.0847    10.9123    10.1851
  171.9000   113.2998    10.8701    10.1853
  172.0000   113.7065    10.8084    10.1854
  172.1000   114.2027    10.7611    10.1856
  172.2000   114.6989    10.7613    10.1618
  172.3000   115.2146    10.7000    10.1149
  172.4000   115.9285    10.6865    10.1151
  172.5000   116.6717    10.6531    10.0600
  172.6000   117.2890    10.6123    10.0449
  172.7000   117.8552    10.6064    10.0161
  172.8000   118.5841    10.5386     9.9752
  172.9000   119.1629    10.5387     9.9754
  173.0000   119.7822    10.5001     9.9756
  173.1000   120.5252    10.4655     9.9288
  173.2000   121.1738    10.4541     9.9063
  173.3000   121.6703    10.3928     9.9065
  173.4000   122.2005    10.3930     9.9066
  173.5000   122.4327    10.3931     9.9068
  173.6000   122.6819    10.3629     9.8550
  173.7000   122.8127    10.3208     9.8380
  173.8000   122.8151    10.3174     9.8382
  173.9000   122.8176    10.2492     9.8248
  174.0000   122.8204    10.2493     9.7699
  174.1000   122.6239    10.2141     9.7701
  174.2000   122.3794    10.1782     9.7702
  174.3000   122.1349    10.1783     9.7703
  174.4000   121.8905    10.1784     9.7518
  174.5000   121.6220    10.1248     9.7026
  174.6000   121.6242    10.1077     9.7027
  174.7000   121.6267    10.1079     9.7028
  174.8000   121.5177    10.1080     9.7030
  174.9000   121.3289    10.1081     9.6794
  175.0000   121.3313    10.1083     9.6357
  175.1000   120.8397    10.1084     9.6358
  175.2000   120.3485    10.1086     9.6360
  175.3000   119.8571    10.1087     9.6361
  175.4000   119.2857    10.1088     9.6362
  175.5000   118.5477    10.1090     9.6363
  175.6000   117.7153    10.1091     9.6365
  175.7000   117.0711    10.1093     9.6367
  175.8000   116.1729    10.1094     9.6368
  175.9000   115.2918    10.0975     9.6369
  176.0000   114.6022    10.0392     9.6370
  176.1000   114.0963    10.0394     9.6281
  176.2000   113.3798    10.0395     9.5702
  176.3000   113.0093    10.0396     9.5704
  176.4000   113.2781    10.0224     9.5705
  176.5000   114.0212     9.9699     9.5706
  176.6000   114.7987     9.9700     9.5707
  176.7000   116.2291     9.9701     9.5709
  176.8000   117.2723     9.9348     9.5710
  176.9000   118.2040     9.9009     9.5711
  177.0000   118.7534     9.9010     9.5713
  177.1000   119.0440     9.9012     9.5522
  177.2000   119.5693     9.9013     9.5049
  177.3000   119.8040     9.8610     9.5050
  177.4000   119.8766     9.8325     9.5051
  177.5000   119.8790     9.8326     9.5053
  177.6000   119.8159     9.8328     9.5054
  177.7000   119.5620     9.8330     9.5055
  177.8000   118.9790     9.8331     9.5057
  177.9000   118.5792     9.8332     9.5058
  178.0000   118.0877     9.8334     9.5059
  178.1000   117.5067     9.8261     9.5061
  178.2000   116.8364     9.7651     9.5062
  178.3000   116.5703     9.7652     9.5063
  178.4000   116.5725     9.7653     9.5065
  178.5000   116.5749     9.7655     9.5066
  178.6000   116.5773     9.7656     9.5068
  178.7000   116.5798     9.7657     9.5069
  178.8000   116.5821     9.7659     9.5070
  178.9000   116.5846     9.7660     9.5071
  179.0000   116.5870     9.7661     9.5073
  179.1000   116.7274     9.7663     9.5074
  179.2000   116.8944     9.7611     9.5075
  179.3000   116.8969     9.6985     9.5076
  179.4000   116.8995     9.6986     9.5051
  179.5000   116.9017     9.6987     9.4417
  179.6000   116.9041     9.7219     9.4418
  179.7000   116.9065     9.7671     9.4420
  179.8000   116.9089     9.7672     9.4222
  179.9000   116.9114     9.7674     9.3765
  180.0000   116.9138     9.7675     9.3766
  180.1000   116.9162     9.7676     9.3767
  180.2000   116.5262     9.7677     9.3769
  180.3000   115.6383     9.7679     9.3770
  180.4000   114.4258     9.7681     9.3644
  180.5000   113.2954     9.7682     9.3120
  180.6000   112.6659     9.7683     9.3121
  180.7000   112.0824     9.7685     9.2707
  180.8000   111.6902     9.7686     9.2475
  180.9000   111.4023     9.7688     9.2302
  181.0000   110.8867     9.7689     9.1834
  181.1000   110.8890     9.7690     9.1835
  181.2000   111.0705     9.7692     9.1377
  181.3000   111.4434     9.7693     9.1198
  181.4000   111.9397     9.7694     9.1199
  181.5000   112.4478     9.7696     9.1200
  181.6000   113.3221     9.7697     9.1202
  181.7000   113.9341     9.7698     9.1204
  181.8000   114.5296     9.7700     9.1205
  181.9000   115.0259     9.7639     9.1206
