~VERSION INFORMATION
 VERS.                2.0:   CWLS LOG ASCII STANDARD - VERSION 2.0
 WRAP.                 NO:   ONE LINE PER DEPTH STEP
~WELL INFORMATION
#MNEM.UNIT      DATA TYPE    INFORMATION
#----------   ------------   ------------------------------
 STRT.F            0.0000:   START DEPTH
 STOP.F          652.0000:   STOP DEPTH
 STEP.F            0.5000:   STEP LENGTH
 NULL.          -999.2500:   NO VALUE
 COMP.   FLUOR DANIEL INC:   COMPANY
 WELL.   68-1 X 34 #68-34:   WELL
 FLD .             TEAPOT:   FIELD
 LOC .      S34 T39N R78W:   LOCATION
 CNTY.            NATRONA:   COUNTY
 STAT.            WYOMING:   STATE
 CTRY. UNITED STATES OF AMERICA:   COUNTRY
 SRVC.      Western Atlas:   SERVICE COMPANY
 DATE.        08-APR-1995:   LOGDATE
 API .       490252269900:   API NUMBER
~CURVE INFORMATION
#MNEM.UNIT       API CODE    CURVE DESCRIPTION
#----------   ------------   ------------------------------
 DEPT.F                  :   
 GRR .GAPI   07 310 01 00:   GAMMA RAY
 RILD.OHMM   07 120 46 00:   INDUCTION LOG DEEP RESISTIVITY
 RILM.OHMM   07 120 44 00:   RESITIVITY LONG MEDIUM
~PARAMETER INFORMATION
#MNEM.UNIT          VALUE    DESCRIPTION
#----------   ------------   ------------------------------
 PD  .                 GL:   PERMANENT DATUM
 EPD .F              5106:   ELEVATION PERMANENT DATUM
 LMF .                 KB:   LOG MEASURED FROM
 DAPD.F                10:   FEET ABOVE PERMANENT DATUM
 DMF .                 KB:   DRILLING MEASURED FROM
 EKB .F              5116:   KELLING BUSHING
 EDF .F              5115:   DRILLING FLOOR
 EGL .F              5106:   GROUND LEVEL
 DATE.        08-APR-1995:   RUN DATE
 RUN .                  1:   RUN NUMBER
 DD  .F               660:   DEPTH DRILLER
 DL  .F               660:   DEPTH LOGGER
 BLI .F               652:   BOTTOM LOG INTERVAL
 TLI .F                54:   TOP LOG INTERVAL
 CS  .IN            9.625:   CASING SIZE
 CBD .F                53:   CASING BOTTOM DRILLER
 CBL .F                54:   CASING BOTTOM LOGGER
 BS  .IN             8.75:   BIT SIZE
 BSD .F               660:   BIT SIZE AT DEPTH
 DFT .                AIR:   DRILLING FLUID TYPE
 MRT .F                90:   MAXIMUM RECORDED TEMPERATURE
 LUN .            HL 6530:   LOGGING UNIT NUMBER
 LUL .             CASPER:   LOGGING UNIT LOCATION
 ENGI.      PAT RASMUSSEN:   RECORDING ENGINEER
 WITN.        GARY STRONG:   WITNESSED BY
 CLNT.            A2DTECH:   CLIENT CODE
 ORIG.           5" PRINT:   ORIGIN OF DATA
 UWI .       490252269900:   UNIQUE WELL ID
 DICO. A2D Technologies, Inc.:   DIGITIZING COMPANY
~OTHER INFORMATION
~A    DEPT      GRR      RILD       RILM   
    0.0000    11.1278  -999.2500  -999.2500
    0.5000    10.2395  -999.2500  -999.2500
    1.0000    16.8735  -999.2500  -999.2500
    1.5000    18.3936  -999.2500  -999.2500
    2.0000    17.8060  -999.2500  -999.2500
    2.5000    13.0080  -999.2500  -999.2500
    3.0000     8.2099  -999.2500  -999.2500
    3.5000     7.9231  -999.2500  -999.2500
    4.0000     8.5421  -999.2500  -999.2500
    4.5000     8.5564  -999.2500  -999.2500
    5.0000     7.3705  -999.2500  -999.2500
    5.5000     7.0802  -999.2500  -999.2500
    6.0000     8.0040  -999.2500  -999.2500
    6.5000    10.4234  -999.2500  -999.2500
    7.0000    12.5427  -999.2500  -999.2500
    7.5000    14.9626  -999.2500  -999.2500
    8.0000    19.1906  -999.2500  -999.2500
    8.5000    24.6181  -999.2500  -999.2500
    9.0000    30.0456  -999.2500  -999.2500
    9.5000    30.0631  -999.2500  -999.2500
   10.0000    32.1823  -999.2500  -999.2500
   10.5000    40.3166  -999.2500  -999.2500
   11.0000    51.4707  -999.2500  -999.2500
   11.5000    66.8142  -999.2500  -999.2500
   12.0000    77.0537  -999.2500  -999.2500
   12.5000    78.2707  -999.2500  -999.2500
   13.0000    77.6831  -999.2500  -999.2500
   13.5000    76.7983  -999.2500  -999.2500
   14.0000    72.9025  -999.2500  -999.2500
   14.5000    62.9952  -999.2500  -999.2500
   15.0000    59.0994  -999.2500  -999.2500
   15.5000    57.3053  -999.2500  -999.2500
   16.0000    57.9278  -999.2500  -999.2500
   16.5000    60.0470  -999.2500  -999.2500
   17.0000    59.7602  -999.2500  -999.2500
   17.5000    59.1727  -999.2500  -999.2500
   18.0000    60.3932  -999.2500  -999.2500
   18.5000    64.3169  -999.2500  -999.2500
   19.0000    64.9324  -999.2500  -999.2500
   19.5000    65.5513  -999.2500  -999.2500
   20.0000    65.5653  -999.2500  -999.2500
   20.5000    64.6770  -999.2500  -999.2500
   21.0000    60.4805  -999.2500  -999.2500
   21.5000    61.0994  -999.2500  -999.2500
   22.0000    65.6247  -999.2500  -999.2500
   22.5000    70.6115  -999.2500  -999.2500
   23.0000    74.3779  -999.2500  -999.2500
   23.5000    75.5949  -999.2500  -999.2500
   24.0000    78.6326  -999.2500  -999.2500
   24.5000    79.5361  -999.2500  -999.2500
   25.0000    79.8508  -999.2500  -999.2500
   25.5000    80.1655  -999.2500  -999.2500
   26.0000    79.8787  -999.2500  -999.2500
   26.5000    77.1894  -999.2500  -999.2500
   27.0000    70.5868  -999.2500  -999.2500
   27.5000    64.8900  -999.2500  -999.2500
   28.0000    59.7912  -999.2500  -999.2500
   28.5000    58.3014  -999.2500  -999.2500
   29.0000    57.7139  -999.2500  -999.2500
   29.5000    56.5283  -999.2500  -999.2500
   30.0000    56.5423  -999.2500  -999.2500
   30.5000    57.4707  -999.2500  -999.2500
   31.0000    59.8820  -999.2500  -999.2500
   31.5000    63.2042  -999.2500  -999.2500
   32.0000    63.8197  -999.2500  -999.2500
   32.5000    64.7394  -999.2500  -999.2500
   33.0000    66.2571  -999.2500  -999.2500
   33.5000    69.5794  -999.2500  -999.2500
   34.0000    79.5216  -999.2500  -999.2500
   34.5000    80.1371  -999.2500  -999.2500
   35.0000    79.2488  -999.2500  -999.2500
   35.5000    74.5273  -999.2500  -999.2500
   36.0000    61.8366  -999.2500  -999.2500
   36.5000    59.7418  -999.2500  -999.2500
   37.0000    60.6697  -999.2500  -999.2500
   37.5000    62.7843  -999.2500  -999.2500
   38.0000    65.5050  -999.2500  -999.2500
   38.5000    66.4212  -999.2500  -999.2500
   39.0000    66.4387  -999.2500  -999.2500
   39.5000    65.8512  -999.2500  -999.2500
   40.0000    64.6621  -999.2500  -999.2500
   40.5000    62.8751  -999.2500  -999.2500
   41.0000    60.4830  -999.2500  -999.2500
   41.5000    58.6925  -999.2500  -999.2500
   42.0000    59.3363  -999.2500  -999.2500
   42.5000    61.7314  -999.2500  -999.2500
   43.0000    62.3469  -999.2500  -999.2500
   43.5000    61.4306  -999.2500  -999.2500
   44.0000    59.3673  -999.2500  -999.2500
   44.5000    61.1893  -999.2500  -999.2500
   45.0000    62.7070  -999.2500  -999.2500
   45.5000    62.4202  -999.2500  -999.2500
   46.0000    63.0392  -999.2500  -999.2500
   46.5000    63.9554  -999.2500  -999.2500
   47.0000    65.7774  -999.2500  -999.2500
   47.5000    68.4981  -999.2500  -999.2500
   48.0000    72.7226  -999.2500  -999.2500
   48.5000    73.9398  -999.2500  -999.2500
   49.0000    73.6563  -999.2500  -999.2500
   49.5000    73.6702  -999.2500  -999.2500
   50.0000    73.3835  -999.2500  -999.2500
   50.5000    72.0575  -999.2500  -999.2500
   51.0000    69.7678  -999.2500  -999.2500
   51.5000    65.8552  -999.2500  -999.2500
   52.0000    64.9509  -999.2500  -999.2500
   52.5000    66.7519  -999.2500  -999.2500
   53.0000    72.1619  -999.2500  -999.2500
   53.5000    77.2718  -999.2500  -999.2500
   54.0000    82.0810  -999.2500  1961.7466
   54.5000    92.3238   859.4304    15.5596
   55.0000   101.6235     8.2312     4.3119
   55.5000   102.5237     2.5921     3.3600
   56.0000   101.9186     2.3857     3.3893
   56.5000   100.4120     3.3628     4.7853
   57.0000   103.4161     5.9492     6.9096
   57.5000   104.0154    15.2486     9.8396
   58.0000   103.7112    52.6293    16.6632
   58.5000    99.5117    23.3081    22.6056
   59.0000    95.2838    14.6346    25.0833
   59.5000    95.5817    14.5351    17.9867
   60.0000    95.8797    14.2388    17.7402
   60.5000    94.9744    13.3461    20.0988
   61.0000    95.5725    12.3166    29.4264
   61.5000    97.0734    14.1466    31.3626
   62.0000    97.6722    17.7780    21.3969
   62.5000    99.7738    21.1390    18.2454
   63.0000   107.8913    21.2878    17.2625
   63.5000   108.1900    18.4116    16.6757
   64.0000   107.2842    16.1454    16.4472
   64.5000   104.5739    14.8608    16.3347
   65.0000   103.3680    15.2803    16.1109
   65.5000   103.3652    15.3884    15.8838
   66.0000   104.5654    15.2843    15.4572
   66.5000   106.9686    15.0762    14.9317
   67.0000   106.6643    14.6670    14.6252
   67.5000   106.9622    14.1701    14.3156
   68.0000   108.1704    13.4968    13.8387
   68.5000   109.9634    12.1726    13.3682
   69.0000   112.0658    11.5185    12.7360
   69.5000   114.1683    10.6757    11.5149
   70.0000   115.0677     9.5406     9.8568
   70.5000   115.6657     8.1530     8.8842
   71.0000   119.8734     7.2994     8.1193
   71.5000   123.7803     7.0035     7.2677
   72.0000   130.2857     6.8555     6.9240
   72.5000   133.6995     6.7204     6.6424
   73.0000   133.3952     6.6289     6.4612
   73.5000   132.1894     6.5388     6.3288
   74.0000   129.1348     6.4053     6.3292
   74.5000   128.8748     6.3620     6.3736
   75.0000   123.4584     6.3630     6.5080
   75.5000   123.1548     6.3639     6.6914
   76.0000   126.7603     6.3649     6.6457
   76.5000   130.9680     6.3657     6.5545
   77.0000   130.9652     6.3665     6.5551
   77.5000   128.2556     6.4116     6.5102
   78.0000   125.8468     6.4572     6.5560
   78.5000   127.0463     6.5028     6.5565
   79.0000   128.8479     6.5489     6.5569
   79.5000   131.2571     6.5955     6.6029
   80.0000   135.1581     6.7346     6.6494
   80.5000   134.2523     6.7355     6.6961
   81.0000   132.4450     6.7829     6.6965
   81.5000   129.9519     6.7351     6.7435
   82.0000   126.4243     6.6455     6.7440
   82.5000   127.6238     6.6005     6.6978
   83.0000   129.1254     6.5559     6.6061
   83.5000   128.5203     6.4668     6.5609
   84.0000   129.7198     6.3788     6.4711
   84.5000   132.7245     6.3798     6.3824
   85.0000   133.0226     6.3366     6.3388
   85.5000   132.3799     6.3871     6.3393
   86.0000   130.0086     6.5164     6.3838
   86.5000   122.7877     6.5625     6.4734
   87.0000   117.9729     6.6089     6.5641
   87.5000   119.1723     6.7021     6.7026
   88.0000   121.5755     6.7495     6.7966
   88.5000   120.3697     6.7504     6.8919
   89.0000   118.8631     6.7981     6.8923
   89.5000   119.1603     6.8465     7.0377
   90.0000   121.5635     6.8949     7.1364
   90.5000   126.0720     6.9437     7.2365
