~VERSION INFORMATION
 VERS.                2.0:   CWLS LOG ASCII STANDARD - VERSION 2.0
 WRAP.                 NO:   ONE LINE PER DEPTH STEP
~WELL INFORMATION
#MNEM.UNIT      DATA TYPE    INFORMATION
#----------   ------------   ------------------------------
 STRT.F          250.0000:   START DEPTH
 STOP.F         2527.0000:   STOP DEPTH
 STEP.F            0.5000:   STEP LENGTH
 NULL.          -999.2500:   NO VALUE
 COMP. FENIX & SCISSON INC:   COMPANY
 WELL.       NPR 3 #18-28:   WELL
 FLD .            WILDCAT:   FIELD
 LOC .      S28 T39N R78W:   LOCATION
 CNTY.            NATRONA:   COUNTY
 STAT.            WYOMING:   STATE
 CTRY. UNITED STATES OF AMERICA:   COUNTRY
 SRVC.            Unknown:   SERVICE COMPANY
 DATE.        01-MAY-1979:   LOGDATE
 API .       490251078000:   API NUMBER
~CURVE INFORMATION
#MNEM.UNIT       API CODE    CURVE DESCRIPTION
#----------   ------------   ------------------------------
 DEPT.F                  :   
 CORR.G/C3   45 356 01 00:   DENSITY CORRECTION
 DPHI.DEC    45 890 12 00:   DENSITY POROSITY SANDSTONE
 RHOB.G/C3   45 350 01 00:   BULK DENSITY
 CALD.IN     45 280 60 00:   CALIPER FROM DENSITY LOG
 GRD .GAPI   45 310 01 00:   GAMMA RAY FROM DENSITY LOG
~PARAMETER INFORMATION
#MNEM.UNIT          VALUE    DESCRIPTION
#----------   ------------   ------------------------------
 PD  .                 GL:   PERMANENT DATUM
 EPD .F              5079:   ELEVATION PERMANENT DATUM
 LMF .                 KB:   LOG MEASURED FROM
 DAPD.F                10:   FEET ABOVE PERMANENT DATUM
 DMF .                 KB:   DRILLING MEASURED FROM
 EKB .F              5089:   KELLING BUSHING
 EGL .F              5079:   GROUND LEVEL
 DATE.             5-1-79:   RUN DATE
 RUN .                  1:   RUN NUMBER
 DL  .F              2527:   DEPTH LOGGER
 BLI .F              2527:   BOTTOM LOG INTERVAL
 TLI .F               250:   TOP LOG INTERVAL
 CS  .IN            9.625:   CASING SIZE
 CBD .F               500:   CASING BOTTOM DRILLER
 CBL .F               495:   CASING BOTTOM LOGGER
 BS  .IN             8.75:   BIT SIZE
 DFT .                AIR:   DRILLING FLUID TYPE
 TCS .HRS              12:   TIME CURCULATED STOPPED
 LUL .             CASPER:   LOGGING UNIT LOCATION
 ENGI.         B. ROLLINS:   RECORDING ENGINEER
 WITN.           DINSMORE:   WITNESSED BY
 CLNT.            A2DTECH:   CLIENT CODE
 ORIG.           5" PRINT:   ORIGIN OF DATA
 UWI .       490251078000:   UNIQUE WELL ID
 DICO. A2D Technologies, Inc.:   DIGITIZING COMPANY
~OTHER INFORMATION
~A   DEPT     CORR       DPHI       RHOB       CALD         GRD  
# ...
 1775.0000     0.0278     0.0714     2.4418     9.1065   124.5653
 1775.5000     0.0270     0.0716     2.4357     9.1262   125.3205
 1776.0000     0.0363     0.0668     2.4353     9.1184   123.4983
 1776.5000     0.0464     0.0506     2.4671     9.1119   102.7990
 1777.0000     0.0558     0.0344     2.5020     9.1055    99.8242
 1777.5000     0.0382     0.0279     2.5158     9.0990    87.9274
 1778.0000     0.0252     0.0329     2.5107     9.0926    88.4303
 1778.5000     0.0409     0.0394     2.4830     9.0899    96.9419
 1779.0000     0.0618     0.0575     2.4560     9.1069   111.1929
 1779.5000     0.0719     0.0773     2.4290     9.1235   119.3129
 1780.0000     0.0495     0.0907     2.4052     9.1401   123.7107
 1780.5000     0.0452     0.0565     2.4055     9.1567   127.2222
 1781.0000     0.0602     0.0588     2.4503     9.1623   132.2708
 1781.5000     0.0595     0.0600     2.4704     9.1568   137.4713
 1782.0000     0.0224     0.0518     2.4619     9.1512   138.5962
 1782.5000     0.0004     0.0575     2.4548     9.1456   138.3465
 1783.0000     0.0215     0.0583     2.4543     9.1388   134.6587
 1783.5000     0.0475     0.0593     2.4863     9.1320   129.6963
 1784.0000     0.0747     0.0201     2.5303     9.1251   127.8031
 1784.5000     0.0711     0.0288     2.5208     9.1182   129.0417
 1785.0000     0.0587     0.0399     2.5032     9.1114   130.4630
 1785.5000     0.0488     0.0410     2.4900     9.1045   131.9068
 1786.0000     0.0622     0.0327     2.5022     9.0976   130.6785
 1786.5000     0.0760     0.0197     2.5223     9.0907   128.9895
 1787.0000     0.0872     0.0272     2.5259     9.0839   127.3001
 1787.5000     0.0640     0.0346     2.4944     9.0770   125.6096
 1788.0000     0.0575     0.0318     2.5045     9.0700   123.9291
 1788.5000     0.0666     0.0270     2.5214     9.0730   123.6919
 1789.0000     0.0682     0.0240     2.5234     9.0801   125.3299
 1789.5000     0.0572     0.0280     2.5115     9.0874   127.5799
 1790.0000     0.0455     0.0351     2.4931     9.0947   129.8472
 1790.5000     0.0403     0.0403     2.4909     9.1019   132.1376
 1791.0000     0.0480     0.0375     2.4975     9.1091   132.6632
 1791.5000     0.0548     0.0339     2.5028     9.1164   130.7356
 1792.0000     0.0424     0.0473     2.4781     9.1236   128.7979
 1792.5000     0.0248     0.0620     2.4557     9.1309   127.4186
 1793.0000     0.0190     0.0553     2.4707     9.1382   127.3891
 1793.5000     0.0370     0.0386     2.4911     9.1453   126.2283
 1794.0000     0.0557     0.0219     2.5117     9.1430   124.4112
 1794.5000     0.0669     0.0185     2.5306     9.1355   122.4915
 1795.0000     0.0557     0.0242     2.5304     9.1281   121.3212
 1795.5000     0.0427     0.0309     2.5078     9.1207   121.4883
 1796.0000     0.0320     0.0382     2.4912     9.1133   130.3663
 1796.5000     0.0309     0.0384     2.4906     9.1060   139.5897
 1797.0000     0.0309     0.0375     2.4912     9.0986   140.9348
 1797.5000     0.0250     0.0409     2.4833     9.0912   138.0931
 1798.0000     0.0172     0.0482     2.4744     9.0838   140.6376
 1798.5000     0.0271     0.0444     2.4789     9.0764   144.8465
 1799.0000     0.0334     0.0397     2.4857     9.0690   141.7456
 1799.5000     0.0259     0.0391     2.4869     9.0679   136.9024
 1800.0000     0.0236     0.0462     2.4760     9.0679   138.3130
 1800.5000     0.0314     0.0519     2.4654     9.0680   140.4560
 1801.0000     0.0348     0.0549     2.4620     9.0680   141.9195
 1801.5000     0.0314     0.0521     2.4745     9.0680   141.3871
 1802.0000     0.0343     0.0468     2.4841     9.0680   138.3289
 1802.5000     0.0523     0.0414     2.4866     9.0680   135.3017
 1803.0000     0.0524     0.0361     2.4936     9.0678   132.2733
 1803.5000     0.0542     0.0308     2.5066     9.0728   129.2953
 1804.0000     0.0660     0.0252     2.5196     9.0782   127.4065
 1804.5000     0.0639     0.0252     2.5219     9.0837   133.0586
 1805.0000     0.0529     0.0356     2.5045     9.0891   131.5210
 1805.5000     0.0467     0.0426     2.4878     9.0946   129.6750
 1806.0000     0.0558     0.0379     2.4881     9.1000   132.7059
 1806.5000     0.0713     0.0323     2.5079     9.1055   136.5020
 1807.0000     0.0751     0.0303     2.4998     9.1110   137.6492
 1807.5000     0.0524     0.0428     2.4832     9.1164   134.2715
 1808.0000     0.0294     0.0520     2.4664     9.1218   131.0088
 1808.5000     0.0242     0.0569     2.4607     9.1304   127.6165
 1809.0000     0.0314     0.0505     2.4674     9.1534   126.4456
 1809.5000     0.0387     0.0453     2.4781     9.1760   123.7989
 1810.0000     0.0460     0.0451     2.4778     9.1986   121.0887
 1810.5000     0.0575     0.0572     2.4647     9.2213   121.7250
 1811.0000     0.0767     0.0495     2.4586     9.2439   125.7974
 1811.5000     0.0959     0.0358     2.4967     9.2543   131.7723
 1812.0000     0.1047     0.0231     2.5164     9.2031   137.7950
 1812.5000     0.0696     0.0412     2.4680     9.1530   139.1358
 1813.0000     0.0347     0.0544     2.4632     9.1025   140.4741
 1813.5000     0.0000     0.0714     2.4354     9.0507   141.7653
 1814.0000    -0.0043     0.0815     2.4223     9.0226   143.0716
 1814.5000     0.0175     0.0630     2.4436     9.0135   144.3621
 1815.0000     0.0402     0.0444     2.4713     9.0238   145.4629
 1815.5000     0.0606     0.0407     2.4963     9.0343   142.4649
 1816.0000     0.0484     0.0483     2.4972     9.0448   137.8753
 1816.5000     0.0277     0.0591     2.4491     9.0553   135.2032
 1817.0000     0.0172     0.0620     2.4495     9.0657   135.9191
 1817.5000     0.0225     0.0602     2.4629     9.0761   139.5978
 1818.0000     0.0283     0.0572     2.4661     9.0866   144.5052
 1818.5000     0.0340     0.0542     2.4657     9.0970   149.3963
 1819.0000     0.0397     0.0512     2.4704     9.1075   154.2758
 1819.5000     0.0454     0.0506     2.4733     9.1179   156.7431
 1820.0000     0.0508     0.0533     2.4715     9.1283   153.8897
 1820.5000     0.0507     0.0505     2.4697     9.1393   150.8449
 1821.0000     0.0481     0.0470     2.4743     9.1602   154.6284
 1821.5000     0.0352     0.0488     2.4779     9.1504   156.3200
 1822.0000     0.0219     0.0506     2.4642     9.1341   153.3677
 1822.5000     0.0213     0.0511     2.4518     9.1183   147.3324
 1823.0000     0.0305     0.0463     2.4673     9.1065   141.3403
 1823.5000     0.0409     0.0416     2.4951     9.1081   135.8243
 1824.0000     0.0447     0.0407     2.4817     9.1097   135.7997
 1824.5000     0.0474     0.0576     2.4588     9.1113   142.0125
 1825.0000     0.0605     0.0593     2.4459     9.1129   147.4710
 1825.5000     0.0812     0.0410     2.4655     9.1144   153.7109
 1826.0000     0.1015     0.0392     2.5023     9.1160   150.3525
 1826.5000     0.0990     0.0367     2.4830     9.1175   145.0714
 1827.0000     0.0984     0.0246     2.5029     9.1191   139.7036
 1827.5000     0.1138     0.0145     2.5387     9.1207   137.0279
 1828.0000     0.1213     0.0145     2.5417     9.1222   137.3891
 1828.5000     0.0751     0.0203     2.5053     9.1238   140.3425
 1829.0000     0.0687     0.0241     2.5115     9.1254   143.6985
 1829.5000     0.0596     0.0301     2.5133     9.1262   146.7183
 1830.0000     0.0507     0.0361     2.5043     9.1262   146.7223
 1830.5000     0.0590     0.0421     2.4918     9.1278   141.6240
 1831.0000     0.0667     0.0483     2.4794     9.1411   138.0878
 1831.5000     0.0619     0.0544     2.4669     9.1550   136.1623
 1832.0000     0.0606     0.0606     2.4546     9.1772   134.2147
 1832.5000     0.0811     0.0655     2.4449     9.2230   129.1183
 1833.0000     0.0940     0.0686     2.4414     9.2543   123.5693
 1833.5000     0.0845     0.0717     2.4382     9.2825   118.0072
 1834.0000     0.0747     0.0765     2.4194     9.3097   112.4526
 1834.5000     0.0652     0.0861     2.4006     9.3368   106.9265
 1835.0000     0.0583     0.0957     2.3817     9.3639   102.7729
 1835.5000     0.0974     0.1037     2.3735     9.3911    99.6498
