~VERSION INFORMATION
 VERS.                2.0:   CWLS LOG ASCII STANDARD - VERSION 2.0
 WRAP.                 NO:   ONE LINE PER DEPTH STEP
~WELL INFORMATION
#MNEM.UNIT      DATA TYPE    INFORMATION
#----------   ------------   ------------------------------
 STRT.F           20.0000:   START DEPTH
 STOP.F          632.0000:   STOP DEPTH
 STEP.F            0.5000:   STEP LENGTH
 NULL.          -999.2500:   NO VALUE
 COMP. FENIX & SCISSON INC:   COMPANY
 WELL.    58 SX 34 #34-34:   WELL
 FLD .             TEAPOT:   FIELD
 LOC .      S34 T39N R78W:   LOCATION
 CNTY.            NATRONA:   COUNTY
 STAT.            WYOMING:   STATE
 CTRY. UNITED STATES OF AMERICA:   COUNTRY
 SRVC.            Unknown:   SERVICE COMPANY
 DATE.        30-JAN-1979:   LOGDATE
 API .       490251077300:   API NUMBER
~CURVE INFORMATION
#MNEM.UNIT       API CODE    CURVE DESCRIPTION
#----------   ------------   ------------------------------
 DEPT.F                  :   
 SPR .MV     05 010 01 00:   SPONTANEOUS POTENTIAL FROM RES.
 SN  .OHMM   05 040 16 00:   SHORT NORMAL 16"
 ILD .OHMM   05 120 46 00:   INDUCTION LOG DEEP
 CALD.IN     45 280 60 00:   CALIPER
 CORR.G/C3   45 356 01 00:   DENSITY CORRECTION
 RHOB.G/C3   45 350 01 00:   BULK DENSITY
 GRD .GAPI   45 310 01 00:   GAMMA RAY FROM DENSITY LOG
 DPHI.DEC    45 890 12 00:   DENSITY POROSITY SANDSTONE
~PARAMETER INFORMATION
#MNEM.UNIT          VALUE    DESCRIPTION
#----------   ------------   ------------------------------
 PD  .                 GL:   PERMANENT DATUM
 LMF .                 KB:   LOG MEASURED FROM
 DAPD.F                 4:   FEET ABOVE PERMANENT DATUM
 DMF .                 KB:   DRILLING MEASURED FROM
 DATE.            1-30-79:   RUN DATE
 RUN .                  1:   RUN NUMBER
 DD  .F               635:   DEPTH DRILLER
 DL  .F               632:   DEPTH LOGGER
 BLI .F               626:   BOTTOM LOG INTERVAL
 TLI .F                35:   TOP LOG INTERVAL
 CS  .IN            8.625:   CASING SIZE
 CBD .F                40:   CASING BOTTOM DRILLER
 CBL .F                35:   CASING BOTTOM LOGGER
 BS  .IN            7.875:   BIT SIZE
 BSD .F               635:   BIT SIZE AT DEPTH
 DFT .                KCL:   DRILLING FLUID TYPE
 DFD .                8.9:   DRILLING FLUID DENSITY
 DFV .                230:   DRILLING FLUID VISCOSITY
 DFPH.                  8:   DRILLING FLUID PH
 DFL .                 30:   DRILLING FLUID LOSS
 MSS .           FLOWLINE:   MUD SAMPLE SOURCE
 RMS .OHMM            .18:   RESISTIVITY MUD SAMPLE
 MST .F                62:   MUD SAMPLE TEMPERATURE
 RMF .OHMM            .14:   RESISTIVITY MUD FILTRATE SAMPLE
 MFST.F                59:   MUD FILTRATE SAMPLE TEMPERATURE
 RMC .OHMM            .24:   RESISTIVITY MUD CAKE
 MCST.F                60:   MUD CAKE SAMPLE TEMPERATURE
 MFSS.           MEASURED:   MUD FILTRATE SAMPLE SOURCE
 MCSS.           MEASURED:   MUD CAKE SAMPLE SOURCE
 RMB .OHMM            .17:   RESISTIVITY MUD AT BHT
 BHT .F                70:   BOTTOM HOLE TEMPERATURE
 TCS .HRS               4:   TIME CURCULATED STOPPED
 MRT .F                70:   MAXIMUM RECORDED TEMPERATURE
 LUN .               3006:   LOGGING UNIT NUMBER
 LUL .             CASPER:   LOGGING UNIT LOCATION
 ENGI.            ROLLINS:   RECORDING ENGINEER
 WITN.              AMEND:   WITNESSED BY
 CLNT.            A2DTECH:   CLIENT CODE
 ORIG.         2.5" PRINT:   ORIGIN OF DATA
 UWI .       490251077300:   UNIQUE WELL ID
 DICO. A2D Technologies, Inc.:   DIGITIZING COMPANY
~OTHER INFORMATION
~A   DEPT      SPR         SN        ILD       CALD       CORR       RHOB         GRD      DPHI   
# ...
  182.0000   -43.8345     8.0758    10.4374     8.0759     0.0403     2.4483   113.3489     0.1430
  182.5000   -43.8404     8.0590    10.3985     8.0702     0.0435     2.4554   111.7240     0.1412
  183.0000   -43.8462     8.0423    10.3597     8.0637     0.0427     2.4623   111.7272     0.1390
  183.5000   -43.8521     8.0256    10.3211     8.0567     0.0398     2.4692   111.7861     0.1326
  184.0000   -43.8579     8.0089    10.2826     8.0511     0.0372     2.4748   111.9434     0.1257
  184.5000   -43.8638     7.9923    10.2443     8.0445     0.0352     2.4800   110.6357     0.1188
  185.0000   -43.8696     7.9757    10.2061     8.0670     0.0334     2.4853   109.0864     0.1141
  185.5000   -43.8755     7.9592    10.1680     8.1061     0.0317     2.4886   107.4673     0.1125
  186.0000   -43.8814     7.9427    10.1301     8.1376     0.0300     2.4874   105.9221     0.1125
  186.5000   -43.8872     7.9261    10.0923     8.1036     0.0282     2.4860   104.7447     0.1128
  187.0000   -43.8931     7.9097    10.0548     7.8576     0.0271     2.4846   104.5875     0.1133
  187.5000   -43.8989     7.8935    10.0173     7.9602     0.0260     2.4788   106.0650     0.1141
  188.0000   -43.9048     7.8540     9.9799     8.0344     0.0250     2.4747   108.6082     0.1179
  188.5000   -43.9106     7.8057     9.9427     8.0046     0.0239     2.4731   111.0301     0.1217
  189.0000   -43.9165     7.7577     9.9055     7.9687     0.0228     2.4716   113.5302     0.1256
  189.5000   -43.9223     7.7099     9.8617     7.9726     0.0217     2.4697   114.9850     0.1294
  190.0000   -43.9282     7.6625     9.8616     7.9840     0.0207     2.4651   115.0217     0.1333
  190.5000   -43.9341     7.6154     9.7704     7.9968     0.0196     2.4599   115.1824     0.1371
  191.0000   -43.9399     7.5685     9.6832     8.0081     0.0185     2.4528   115.3704     0.1409
  191.5000   -43.9458     7.5220     9.5968     8.0201     0.0174     2.4408   115.5431     0.1453
  192.0000   -43.9516     7.4757     9.5111     8.0306     0.0164     2.4353   115.4025     0.1461
  192.5000   -43.9575     7.4298     9.4262     8.0427     0.0160     2.4329   115.2407     0.1469
  193.0000   -43.9633     7.3840     9.3421     8.0169     0.0160     2.4301   115.4827     0.1461
  193.5000   -43.9692     7.3386     9.2587     7.9864     0.0161     2.4286   115.5283     0.1452
  194.0000   -43.9750     7.2932     9.1761     7.9539     0.0161     2.4289   115.1998     0.1443
  194.5000   -43.9809     7.2478     9.0941     7.9227     0.0181     2.4328   114.8917     0.1434
  195.0000   -43.9868     7.2028     9.0130     7.8868     0.0208     2.4383   114.9876     0.1426
  195.5000   -43.9926     7.1581     8.9325     7.8895     0.0234     2.4394   115.8534     0.1417
  196.0000   -43.9985     7.1135     8.8528     7.9982     0.0287     2.4404   116.2783     0.1408
  196.5000   -44.0043     7.0692     8.7321     8.0965     0.0352     2.4413   115.7328     0.1400
  197.0000   -44.0102     7.0253     8.5842     8.1998     0.0420     2.4420   116.8509     0.1391
  197.5000   -44.0160     6.9816     8.4388     8.1838     0.0443     2.4445   118.4630     0.1382
  198.0000   -44.0219     6.9382     8.2959     8.1656     0.0439     2.4492   119.9991     0.1374
  198.5000   -44.0277     6.9251     8.1555     8.1432     0.0384     2.4544   119.5440     0.1365
  199.0000   -44.0336     6.9688     8.0366     8.1257     0.0336     2.4587   119.1066     0.1357
  199.5000   -44.0395     7.0166     7.8884     8.1256     0.0245     2.4589   116.5678     0.1341
  200.0000   -44.0453     7.0649     7.9598     8.1249     0.0134     2.4581   114.3467     0.1333
  200.5000   -44.0512     7.1137     8.0835     8.1250     0.0080     2.4565   111.9754     0.1349
  201.0000   -44.0570     7.1633     8.2092     8.1250     0.0099     2.4551   110.8000     0.1360
  201.5000   -44.0629     7.2136     8.3368     8.1250     0.0111     2.4537   110.8270     0.1371
  202.0000   -44.0688     7.2644     8.4664     8.1250     0.0123     2.4522   111.7475     0.1381
  202.5000   -44.0747     7.3154     8.5980     8.1251     0.0136     2.4507   112.7373     0.1390
  203.0000   -44.0805     7.3276     8.7317     8.1252     0.0149     2.4494   112.8781     0.1390
  203.5000   -44.0869     7.4654     8.8675     8.1222     0.0162     2.4489   112.7432     0.1389
  204.0000   -44.0923     7.4453     9.0053     8.1105     0.0174     2.4544   111.2260     0.1386
  204.5000   -44.0976     7.4432     9.1453     8.0990     0.0187     2.4608   109.4744     0.1381
  205.0000   -44.1075     7.4371     9.2875     8.0873     0.0200     2.4673   107.9646     0.1381
  205.5000   -44.0732     7.4306     9.3457     8.0758     0.0213     2.4701   108.1730     0.1382
  206.0000   -44.0153     7.4249     9.3724     8.0640     0.0225     2.4715   108.7412     0.1340
  206.5000   -43.9614     7.4190     9.3988     8.0521     0.0238     2.4730   109.4207     0.1299
  207.0000   -43.9087     7.4129     9.4251     8.0462     0.0251     2.4745   108.9128     0.1257
  207.5000   -43.8545     7.4067     9.4515     8.0540     0.0263     2.4760   107.7982     0.1237
  208.0000   -43.8010     7.4006     9.4780     8.0612     0.0276     2.4775   106.7374     0.1221
  208.5000   -43.7474     7.3944     9.5010     8.0684     0.0282     2.4790   107.2009     0.1213
  209.0000   -43.6937     7.3882     9.4412     8.0768     0.0281     2.4804   107.9668     0.1205
  209.5000   -43.6406     7.3821     9.3892     8.0856     0.0281     2.4810   109.6896     0.1205
  210.0000   -43.5872     7.3759     9.3378     8.1379     0.0281     2.4810   113.4627     0.1205
  210.5000   -43.5333     7.3697     9.2862     8.1975     0.0281     2.4800   117.1038     0.1205
  211.0000   -43.4816     7.3636     9.2349     8.2453     0.0281     2.4770   119.5860     0.1205
  211.5000   -43.4262     7.3574     9.1839     8.2455     0.0281     2.4742   118.6517     0.1209
  212.0000   -43.3722     7.3513     9.1332     8.2465     0.0281     2.4711   115.8410     0.1218
  212.5000   -43.3307     7.3452     9.0828     8.2462     0.0282     2.4715   112.8318     0.1228
  213.0000   -43.1530     7.3390     9.0326     8.2462     0.0281     2.4720   111.9326     0.1237
  213.5000   -42.8415     7.3329     8.9858     8.2462     0.0280     2.4728   112.1072     0.1247
  214.0000   -42.5423     7.3268     9.0027     8.2460     0.0256     2.4714   113.4220     0.1256
  214.5000   -42.2519     7.3207     9.0170     8.2469     0.0236     2.4694   114.6565     0.1266
  215.0000   -41.9393     7.3146     9.0318     8.2371     0.0215     2.4677   115.0045     0.1276
  215.5000   -41.6422     7.3085     9.0472     8.2153     0.0194     2.4643   115.1001     0.1285
  216.0000   -41.0028     7.3024     9.0626     8.1945     0.0174     2.4598   114.8620     0.1293
  216.5000   -40.4159     7.2963     9.0779     8.1742     0.0153     2.4557   110.8032     0.1311
  217.0000   -39.7974     7.2902     9.0933     8.1552     0.0132     2.4511   106.6421     0.1326
  217.5000   -39.1428     7.2841     9.1086     8.1374     0.0111     2.4484   105.1990     0.1342
  218.0000   -38.8663     7.2780     9.1240     8.1198     0.0089     2.4454   103.4817     0.1357
  218.5000   -39.1165     7.2719     9.1394     8.1028     0.0080     2.4425   104.0534     0.1373
  219.0000   -39.3204     7.2659     9.1548     8.0852     0.0077     2.4396   105.2272     0.1388
  219.5000   -39.5291     7.2598     9.1702     8.0788     0.0112     2.4367   106.4200     0.1403
  220.0000   -39.6805     7.2537     9.1857     8.0723     0.0176     2.4336   107.3174     0.1419
  220.5000   -39.7555     7.2477     9.2011     8.0662     0.0236     2.4329   110.4029     0.1434
  221.0000   -39.8383     7.2417     9.2166     8.0604     0.0298     2.4334   114.8569     0.1450
  221.5000   -39.9224     7.2356     9.2321     8.0542     0.0365     2.4339   117.3577     0.1454
  222.0000   -40.0035     7.2293     9.2476     8.0473     0.0520     2.4344   119.0943     0.1443
