~VERSION INFORMATION
 VERS.                2.0:   CWLS LOG ASCII STANDARD - VERSION 2.0
 WRAP.                 NO:   ONE LINE PER DEPTH STEP
~WELL INFORMATION
#MNEM.UNIT      DATA TYPE    INFORMATION
#----------   ------------   ------------------------------
 STRT.F           30.0000:   START DEPTH
 STOP.F          515.0000:   STOP DEPTH
 STEP.F            0.5000:   STEP LENGTH
 NULL.          -999.2500:   NO VALUE
 COMP. FENIX & SCISSON INC:   COMPANY
 WELL.      FP SX-3 #63-3:   WELL
 FLD .              NPR 3:   FIELD
 LOC .       S3 T38N R78W:   LOCATION
 CNTY.            NATRONA:   COUNTY
 STAT.            WYOMING:   STATE
 CTRY. UNITED STATES OF AMERICA:   COUNTRY
 SRVC.              Welex:   SERVICE COMPANY
 DATE.        21-JUN-1980:   LOGDATE
 API .       490251082100:   API NUMBER
~CURVE INFORMATION
#MNEM.UNIT       API CODE    CURVE DESCRIPTION
#----------   ------------   ------------------------------
 DEPT.F                  :   
 SPR .MV     07 010 01 00:   SPONTANEOUS POTENTIAL
 SGRD.OHMM   07 220 05 00:   SHALLOW GUARD RESISTIVITY
 ILD .OHMM   07 120 46 00:   INDUCTION LOG DEEP RESISTIVITY
 ILM .OHMM   07 120 44 00:   INDUCTION LOG MEDIUM
 CALD.IN     45 280 60 00:   CALIPER
 GRD .GAPI   45 310 01 00:   GAMMA RAY FROM DENSITY LOG
 CORR.G/C3   45 356 01 00:   DENSITY CORRECTION
 RHOB.G/C3   45 350 01 00:   BULK DENSITY
 DPHI.DEC    45 890 12 00:   DENSITY POROSITY SANDSTONE
 NPHI.DEC    42 890 03 00:   NEUTRON POROSITY SANDSTONE
~PARAMETER INFORMATION
#MNEM.UNIT          VALUE    DESCRIPTION
#----------   ------------   ------------------------------
 PD  .                 GL:   PERMANENT DATUM
 EPD .F              5160:   ELEVATION PERMANENT DATUM
 LMF .                 KB:   LOG MEASURED FROM
 DAPD.F                 5:   FEET ABOVE PERMANENT DATUM
 DMF .                 KB:   DRILLING MEASURED FROM
 EKB .F              5165:   KELLING BUSHING
 EGL .F              5160:   GROUND LEVEL
 DATE.            6-21-80:   RUN DATE
 RUN .                  1:   RUN NUMBER
 DD  .F               508:   DEPTH DRILLER
 DL  .F               517:   DEPTH LOGGER
 BLI .F               515:   BOTTOM LOG INTERVAL
 TLI .F                35:   TOP LOG INTERVAL
 BS  .IN            9.875:   BIT SIZE
 BSD .F               508:   BIT SIZE AT DEPTH
 DFT .            KCL MUD:   DRILLING FLUID TYPE
 DFD .                9.2:   DRILLING FLUID DENSITY
 DFV .                 50:   DRILLING FLUID VISCOSITY
 DFPH.                8.5:   DRILLING FLUID PH
 DFL .                  8:   DRILLING FLUID LOSS
 MSS .           FLOWLINE:   MUD SAMPLE SOURCE
 RMS .OHMM            .42:   RESISTIVITY MUD SAMPLE
 MST .F                63:   MUD SAMPLE TEMPERATURE
 RMF .OHMM            .34:   RESISTIVITY MUD FILTRATE SAMPLE
 MFST.F                63:   MUD FILTRATE SAMPLE TEMPERATURE
 RMC .OHMM             .5:   RESISTIVITY MUD CAKE
 MCST.F                63:   MUD CAKE SAMPLE TEMPERATURE
 MFSS.           MEASURED:   MUD FILTRATE SAMPLE SOURCE
 MCSS.           MEASURED:   MUD CAKE SAMPLE SOURCE
 RMB .OHMM            .35:   RESISTIVITY MUD AT BHT
 BHT .F                75:   BOTTOM HOLE TEMPERATURE
 TCS .HRS             1.5:   TIME CURCULATED STOPPED
 MRT .F                75:   MAXIMUM RECORDED TEMPERATURE
 LUN .               9685:   LOGGING UNIT NUMBER
 LUL .             CASPER:   LOGGING UNIT LOCATION
 ENGI.            TOTHILL:   RECORDING ENGINEER
 WITN.           DINSMORE:   WITNESSED BY
 CLNT.            A2DTECH:   CLIENT CODE
 ORIG.           5" PRINT:   ORIGIN OF DATA
 UWI .       490251082100:   UNIQUE WELL ID
 DICO. A2D Technologies, Inc.:   DIGITIZING COMPANY
~OTHER INFORMATION
~A   DEPT      SPR       SGRD        ILD        ILM        CALD       GRD         CORR       RHOB       DPHI       NPHI 
# ...
  398.5000   -18.5884    14.4781    12.9458    10.1275    10.0942    77.4487     0.0879     2.4039     0.1560     0.2535
  399.0000   -19.2519    14.4369    12.6460     8.9777    10.1046    77.2821     0.0960     2.4156     0.1499     0.2552
  399.5000   -19.5587    14.1566    12.3531     9.5787    10.1152    77.2759     0.1041     2.4260     0.1474     0.2564
  400.0000   -18.7758    13.9038    12.0670    10.1340    10.1182    77.2755     0.0998     2.4257     0.1439     0.2567
  400.5000   -18.0996    13.3222    11.6501     9.8385    10.1182    77.2772     0.0981     2.4313     0.1323     0.2566
  401.0000   -18.3061    12.5547    11.6554     9.4945    10.1182    77.3624     0.1161     2.4534     0.1249     0.2565
  401.5000   -18.9471    12.8078    11.6540     9.4945    10.1182    77.6522     0.1326     2.4658     0.1274     0.2564
  402.0000   -19.5943    13.3092    11.4376    10.0084    10.1182    77.9385     0.1285     2.4618     0.1302     0.2555
  402.5000   -19.5510    13.6523    11.2979    10.1340    10.1182    78.2249     0.1264     2.4559     0.1313     0.2532
  403.0000   -18.9948    12.8650    11.1598     9.8668    10.1207    78.5114     0.1284     2.4532     0.1296     0.2524
  403.5000   -18.4161    12.2113    11.0235     9.6379    10.1386    78.7968     0.1304     2.4544     0.1287     0.2483
  404.0000   -18.9296    11.5908    10.8888     9.4149    10.1565    79.0779     0.1316     2.4609     0.1297     0.2464
  404.5000   -19.7104    11.3322    10.7558     9.2307    10.1743    79.3178     0.1278     2.4589     0.1297     0.2453
  405.0000   -20.3626    11.6533    10.6244     9.2311    10.1922    79.4509     0.1240     2.4570     0.1278     0.2434
  405.5000   -20.1231    12.3071    10.4760     9.2308    10.2100    79.2205     0.1202     2.4597     0.1220     0.2384
  406.0000   -19.7560    13.0137    10.2502     9.5967    10.2275    78.9669     0.1259     2.4698     0.1130     0.2360
  406.5000   -19.3750    13.9231    10.0292     9.9795    10.2271    78.7194     0.1361     2.4798     0.1078     0.2353
  407.0000   -19.8556    13.3752     9.8129    10.1340    10.1976    78.4947     0.1377     2.4899     0.1020     0.2321
  407.5000   -20.4845    12.1329     9.6013    10.0200    10.1685    78.4552     0.1367     2.4998     0.0990     0.2290
  408.0000   -20.9408    11.0060     9.3944     9.8816    10.1392    80.0663     0.1331     2.5056     0.1053     0.2273
  408.5000   -20.4562    10.4212     9.2743     9.7452    10.1101    82.2750     0.1252     2.4990     0.1128     0.2290
  409.0000   -19.9758    10.5863     9.2035     9.6106    10.0809    84.5008     0.1201     2.4890     0.1201     0.2327
  409.5000   -19.7069    10.8167     9.1333     9.4778    10.0517    85.0092     0.1158     2.4773     0.1273     0.2361
  410.0000   -20.7466    10.6514     9.0635     9.4065    10.0226    84.0969     0.1032     2.4583     0.1303     0.2363
  410.5000   -21.9041    10.4608     8.9944     9.4586     9.9928    83.1895     0.0909     2.4534     0.1245     0.2360
  411.0000   -21.8835    10.3245     8.9257     9.5080     9.9628    82.2983     0.0920     2.4602     0.1283     0.2358
  411.5000   -21.1119    10.3575     8.8575     9.5578     9.9610    81.6184     0.0990     2.4646     0.1357     0.2369
  412.0000   -20.7325    10.4212     8.7899     9.5833     9.9761    82.6494     0.0815     2.4512     0.1430     0.2407
  412.5000   -21.4003    10.2913     8.7228     9.4614     9.9905    84.0754     0.0663     2.4386     0.1473     0.2413
  413.0000   -22.0259    10.1072     8.6502     9.3510    10.0028    85.5526     0.0554     2.4288     0.1476     0.2414
  413.5000   -22.5878     9.9470     8.6003     9.2329    10.0174    85.5801     0.0528     2.4279     0.1414     0.2440
  414.0000   -22.1247     9.9470     8.5457     9.1843    10.0182    85.0724     0.0572     2.4341     0.1349     0.2456
  414.5000   -21.3767     9.9470     8.4915     9.0346    10.0181    84.5672     0.0679     2.4448     0.1297     0.2411
  415.0000   -21.7463     9.8234     8.4377     8.8874    10.0180    84.0621     0.0784     2.4555     0.1245     0.2369
  415.5000   -22.4035     9.7635     8.3841     8.7426    10.0180    83.4926     0.0893     2.4651     0.1338     0.2375
  416.0000   -23.0757    10.0053     8.3309     8.6502    10.0180    83.2383     0.0744     2.4518     0.1361     0.2404
  416.5000   -22.7988    10.2289     8.2781     8.6274    10.0180    83.3321     0.0660     2.4471     0.1240     0.2404
  417.0000   -22.2002    10.1272     8.2256     8.6036    10.0180    83.4798     0.0767     2.4608     0.1193     0.2404
  417.5000   -21.6027     9.9470     8.1734     8.5799    10.0180    84.0099     0.0885     2.4753     0.1199     0.2404
  418.0000   -21.3394     9.9470     8.1215     8.5562    10.0180    84.6900     0.0942     2.4738     0.1260     0.2456
  418.5000   -22.2548    10.1505     8.0700     8.5326    10.0180    85.3599     0.0879     2.4659     0.1264     0.2512
  419.0000   -23.1365    10.3245     8.0253     8.5091    10.0180    86.0256     0.0824     2.4598     0.1196     0.2564
  419.5000   -23.5518    10.1437     8.0065     8.4856    10.0180    86.6873     0.0822     2.4671     0.1147     0.2612
  420.0000   -22.9041     9.9667     7.9878     8.4622    10.0180    86.8011     0.0904     2.4827     0.1032     0.2657
  420.5000   -22.2639     9.7635     7.9690     8.4389    10.0180    86.7263     0.1054     2.5009     0.0974     0.2683
  421.0000   -21.9798     9.7828     7.9504     8.4158    10.0180    86.6454     0.1187     2.5136     0.1073     0.2683
  421.5000   -22.9085     9.8134     7.9317     8.3981    10.0180    86.6212     0.1100     2.5001     0.1182     0.2663
  422.0000   -23.9433     9.8442     7.9131     8.3817    10.0180    86.7996     0.0969     2.4817     0.1297     0.2624
  422.5000   -23.5735     9.8548     7.8946     8.3653    10.0181    87.5698     0.0837     2.4630     0.1349     0.2564
  423.0000   -22.8011     9.6903     7.8761     8.3490    10.0180    88.2884     0.0705     2.4525     0.1339     0.2547
  423.5000   -22.1614     9.5026     7.8576     8.3327    10.0180    89.0072     0.0606     2.4452     0.1325     0.2535
  424.0000   -22.7050     9.3139     7.8392     8.3164    10.0132    89.7034     0.0636     2.4513     0.1343     0.2533
  424.5000   -23.2647     9.3239     7.8208     8.3001    10.0031    90.3860     0.0660     2.4489     0.1341     0.2529
  425.0000   -23.6071     9.1462     7.8025     8.2839     9.9930    89.7447     0.0644     2.4487     0.1292     0.2518
  425.5000   -23.1356     9.1473     7.7842     8.2677     9.9829    89.1925     0.0659     2.4541     0.1252     0.2502
  426.0000   -22.5777     9.2135     7.7660     8.2569     9.9728    89.5193     0.0747     2.4644     0.1234     0.2524
  426.5000   -22.5485     9.4065     7.7476     8.2566     9.9627    90.5909     0.0784     2.4644     0.1206     0.2520
  427.0000   -22.9693     9.3401     7.7357     8.2566     9.9580    91.6435     0.0768     2.4682     0.1249     0.2456
  427.5000   -23.3903     9.2329     7.7356     8.2566     9.9591    92.6966     0.0693     2.4698     0.1241     0.2441
  428.0000   -23.7835     9.2329     7.7356     8.2566     9.9612    92.7826     0.0624     2.4646     0.1184     0.2444
  428.5000   -23.5409     9.4174     7.7356     8.2566     9.9634    91.6687     0.0629     2.4728     0.1129     0.2446
  429.0000   -23.1773     9.6730     7.7356     8.2566     9.9655    90.4527     0.0771     2.4813     0.1155     0.2458
  429.5000   -22.8211     9.5457     7.7356     8.2566     9.9677    89.1924     0.0844     2.4862     0.1194     0.2495
  430.0000   -23.1254     9.3821     7.7362     8.2568     9.9698    89.7508     0.0798     2.4774     0.1225     0.2528
  430.5000   -23.8468     9.2212     7.7083     8.2563     9.9720    91.0375     0.0732     2.4688     0.1161     0.2535
  431.0000   -24.1167     9.0625     7.6736     8.2575     9.9741    92.3714     0.0756     2.4734     0.1161     0.2543
  431.5000   -23.5646     9.0172     7.6391     8.1754     9.9763    91.7385     0.0826     2.4784     0.1169     0.2567
