~VERSION INFORMATION
 VERS.                2.0:   CWLS LOG ASCII STANDARD - VERSION 2.0
 WRAP.                 NO:   ONE LINE PER DEPTH STEP
~WELL INFORMATION
#MNEM.UNIT      DATA TYPE    INFORMATION
#----------   ------------   ------------------------------
 STRT.F            0.0000:   START DEPTH
 STOP.F          530.0000:   STOP DEPTH
 STEP.F            0.5000:   STEP LENGTH
 NULL.          -999.2500:   NO VALUE
 COMP. FENIX & SCISSON INC:   COMPANY
 WELL.      74 SX 3 #74-3:   WELL
 FLD .             TEAPOT:   FIELD
 LOC .       S3 T38N R78W:   LOCATION
 CNTY.            NATRONA:   COUNTY
 STAT.            WYOMING:   STATE
 CTRY. UNITED STATES OF AMERICA:   COUNTRY
 SRVC.            Unknown:   SERVICE COMPANY
 DATE.        20-SEP-1978:   LOGDATE
 API .       490251072200:   API NUMBER
~CURVE INFORMATION
#MNEM.UNIT       API CODE    CURVE DESCRIPTION
#----------   ------------   ------------------------------
 DEPT.F                  :   
 CALD.IN     45 280 60 00:   CALIPER
 GRD .GAPI   45 310 01 00:   GAMMA RAY FROM DENSITY LOG
 RHOB.G/C3   45 350 01 00:   BULK DENSITY
 DPHI.DEC    45 890 12 00:   DENSITY POROSITY SANDSTONE
 CORR.G/C3   45 356 01 00:   DENSITY CORRECTION
 SPR .MV     05 010 01 00:   SPONTANEOUS POTENTIAL FROM RES.
 SN  .OHMM   05 040 16 00:   SHORT NORMAL 16"
 ILD .OHMM   05 120 46 00:   INDUCTION LOG DEEP
~PARAMETER INFORMATION
#MNEM.UNIT          VALUE    DESCRIPTION
#----------   ------------   ------------------------------
 PD  .                 GL:   PERMANENT DATUM
 EPD .F              5139:   ELEVATION PERMANENT DATUM
 LMF .                 KB:   LOG MEASURED FROM
 DAPD.F                 4:   FEET ABOVE PERMANENT DATUM
 DMF .                 KB:   DRILLING MEASURED FROM
 EKB .F              5143:   KELLING BUSHING
 EGL .F              5139:   GROUND LEVEL
 DATE.            9-20-78:   RUN DATE
 RUN .                  1:   RUN NUMBER
 DD  .F               532:   DEPTH DRILLER
 DL  .F               530:   DEPTH LOGGER
 BLI .F               524:   BOTTOM LOG INTERVAL
 TLI .F                40:   TOP LOG INTERVAL
 CS  .IN            8.625:   CASING SIZE
 CBD .F                40:   CASING BOTTOM DRILLER
 CBL .F                40:   CASING BOTTOM LOGGER
 BS  .IN            7.875:   BIT SIZE
 BSD .F               532:   BIT SIZE AT DEPTH
 DFT .                KCL:   DRILLING FLUID TYPE
 DFD .                8.8:   DRILLING FLUID DENSITY
 DFV .                 38:   DRILLING FLUID VISCOSITY
 DFPH.                  9:   DRILLING FLUID PH
 DFL .                6.2:   DRILLING FLUID LOSS
 MSS .                PIT:   MUD SAMPLE SOURCE
 BHT .F                69:   BOTTOM HOLE TEMPERATURE
 TCS .HRS               3:   TIME CURCULATED STOPPED
 MRT .F                69:   MAXIMUM RECORDED TEMPERATURE
 LUN .               2958:   LOGGING UNIT NUMBER
 LUL .             CASPER:   LOGGING UNIT LOCATION
 ENGI.           REYNOLDS:   RECORDING ENGINEER
 WITN.           DINSMORE:   WITNESSED BY
 CLNT.            A2DTECH:   CLIENT CODE
 ORIG.       2", 5" PRINT:   ORIGIN OF DATA
 UWI .       490251072200:   UNIQUE WELL ID
 DICO. A2D Technologies, Inc.:   DIGITIZING COMPANY
~OTHER INFORMATION
~A    DEPT    CALD         GRD      RHOB       DPHI       CORR        SPR         SN        ILD   
# ...
  405.0000     6.7318    60.3290     2.5064     0.1078     0.2347   -25.5281    13.3821    13.7562
  405.5000     6.6239    60.0928     2.5138     0.1229     0.1677   -25.5038    13.3820    13.8004
  406.0000     6.7994    59.9624     2.4865     0.1345     0.1308   -25.4795    13.4704    13.9207
  406.5000     6.5522    59.1709     2.4645     0.1389     0.1262   -25.4562    13.6273    14.0421
  407.0000     6.7853    58.7272     2.4474     0.1397     0.1315   -25.4516    13.7860    14.1421
  407.5000     6.8049    60.2694     2.4454     0.1334     0.1454   -25.4147    13.9466    14.4508
  408.0000     6.7982    62.7495     2.4487     0.1245     0.1614   -24.5473    14.1054    14.7713
  408.5000     6.7892    65.0477     2.4578     0.1155     0.1785   -23.7437    14.6743    15.0990
  409.0000     6.9164    65.7945     2.4733     0.1066     0.1936   -23.2436    15.3640    15.6332
  409.5000     6.9666    66.5961     2.4886     0.0980     0.2084   -22.7471    16.2188    17.0034
  410.0000     6.9380    67.3285     2.5041     0.1017     0.2204   -22.5654    17.2983    18.4936
  410.5000     6.9090    65.9431     2.5199     0.1095     0.1925   -22.3402    18.4497    20.1145
  411.0000     6.8806    64.5025     2.5032     0.1221     0.1547   -21.7439    19.6777    21.8774
  411.5000     6.8709    64.3068     2.4829     0.1379     0.1169   -21.1659    20.9874    23.7948
  412.0000     6.9131    64.1722     2.4610     0.1792     0.0781   -20.5881    22.6719    25.8803
  412.5000     7.0159    64.0148     2.4065     0.2165     0.0551   -20.2966    24.1858    28.1485
  413.0000     7.0665    63.2859     2.3484     0.2314     0.0387   -20.2971    24.9084    31.5078
  413.5000     7.0921    60.3493     2.2907     0.2348     0.0438   -20.2972    25.1458    31.2813
  414.0000     7.1160    57.2361     2.2877     0.2220     0.0602   -20.2976    25.3867    30.9109
  414.5000     7.0571    54.1362     2.2955     0.2108     0.0785   -20.2671    25.6299    30.6515
  415.0000     6.9056    52.2265     2.3066     0.2023     0.0969   -20.0325    25.8755    30.8092
  415.5000     6.8616    52.4688     2.3316     0.2104     0.1028   -19.7971    26.1234    30.9353
  416.0000     6.9034    53.1435     2.3405     0.2218     0.0724   -19.5614    26.3737    31.0620
  416.5000     6.9660    54.1102     2.3087     0.2315     0.0652   -19.2007    26.4515    31.1897
  417.0000     7.0285    53.9392     2.2886     0.2121     0.0733   -18.7867    26.4511    31.3186
  417.5000     7.0910    52.5830     2.3066     0.1943     0.0813   -18.9570    26.4511    31.5079
  418.0000     7.1530    51.2435     2.3429     0.1765     0.0897   -19.2707    26.4508    31.1358
  418.5000     7.1904    49.8935     2.3858     0.1586     0.0880   -19.5898    26.4508    30.4230
  419.0000     7.1900    49.4081     2.4280     0.1408     0.0834   -19.8874    26.1952    29.9185
  419.5000     7.1897    49.8198     2.4666     0.1230     0.0729   -19.7497    25.9209    29.5942
  420.0000     7.1914    51.1070     2.5042     0.1021     0.0501   -19.5946    25.6495    29.2735
  420.5000     7.0996    52.3878     2.5046     0.1261     0.0270   -19.5041    25.3810    28.9108
  421.0000     7.0657    53.8608     2.4786     0.1550     0.0104   -19.5051    25.0211    28.2899
  421.5000     7.1267    55.3251     2.4350     0.1776     0.0052   -19.5049    24.5724    27.6823
  422.0000     7.1872    55.1524     2.3965     0.1927     0.0087   -19.5049    23.8560    27.0878
  422.5000     7.2194    52.6840     2.3675     0.2034     0.0130   -19.5049    23.2295    26.5061
  423.0000     7.2508    48.7670     2.3484     0.2043     0.0173   -19.5049    23.0987    25.9368
  423.5000     7.2836    47.0415     2.3362     0.2053     0.0215   -19.5049    22.9686    25.3798
  424.0000     7.2629    47.9578     2.3340     0.2048     0.0257   -19.5049    22.8392    25.2353
  424.5000     7.2154    49.5825     2.3335     0.2026     0.0289   -19.5046    22.7106    25.1921
  425.0000     7.1681    51.9400     2.3355     0.2005     0.0321   -19.5037    22.5827    25.1489
  425.5000     7.1238    54.3059     2.3397     0.1984     0.0353   -19.5065    22.4555    25.1058
  426.0000     7.1316    54.9788     2.3439     0.1963     0.0363   -19.6803    22.3290    25.0628
  426.5000     7.1647    56.4275     2.3460     0.1942     0.0342   -20.4962    22.2055    24.9539
  427.0000     7.1981    58.8039     2.3477     0.1928     0.0322   -21.2602    21.9352    24.6096
  427.5000     7.2696    61.6204     2.3493     0.1923     0.0301   -21.2898    21.6731    24.2700
  428.0000     7.3490    62.9648     2.3496     0.1982     0.0281   -21.2885    21.4138    23.9351
  428.5000     7.3516    63.1324     2.3461     0.2049     0.0260   -21.2868    21.1577    23.6561
  429.0000     7.3908    63.1937     2.3379     0.2119     0.0251   -21.2857    20.9047    23.5411
  429.5000     7.4845    63.4991     2.3270     0.2057     0.0251   -21.2930    20.6548    23.4266
  430.0000     7.2752    63.5841     2.3278     0.1992     0.0251   -21.5658    20.4078    23.3126
  430.5000     7.1748    62.1604     2.3366     0.1939     0.0251   -21.6091    20.1637    23.0902
  431.0000     7.1062    60.5206     2.3454     0.1951     0.0237   -21.4607    19.9226    22.7452
  431.5000     7.2301    58.9177     2.3486     0.1962     0.0220   -20.7835    19.6844    22.4054
  432.0000     7.3449    58.5316     2.3489     0.1967     0.0211   -21.3858    19.4490    22.0707
  432.5000     7.2991    58.1204     2.3492     0.1951     0.0211   -21.4846    19.2164    21.7409
  433.0000     7.3398    57.7159     2.3495     0.1935     0.0211   -21.4836    18.9866    21.4160
  433.5000     7.4193    56.9650     2.3510     0.1919     0.0211   -21.5031    18.7596    21.0962
  434.0000     7.5029    56.1625     2.3538     0.1914     0.0211   -21.9405    18.5353    20.7810
  434.5000     7.3496    55.3550     2.3554     0.1921     0.0210   -22.2831    18.3195    20.5555
  435.0000     7.2816    54.1236     2.3569     0.1906     0.0236   -22.2788    18.1086    20.4132
  435.5000     7.4548    53.0039     2.3584     0.1858     0.0270   -22.3790    17.9489    20.2718
  436.0000     7.3823    52.5942     2.3617     0.1810     0.0304   -22.8395    17.8916    20.1315
  436.5000     7.3515    53.8221     2.3704     0.1762     0.0329   -23.1620    17.8346    19.9921
  437.0000     7.4437    55.6848     2.3793     0.1738     0.0314   -23.3538    17.7777    19.8537
  437.5000     7.4456    57.8022     2.3807     0.1778     0.0299   -23.5456    17.7210    19.7163
  438.0000     7.3670    60.5622     2.3801     0.1839     0.0284   -23.7377    17.6645    19.5798
  438.5000     7.2855    63.2806     2.3772     0.1895     0.0271   -23.9282    17.5259    19.4568
  439.0000     7.2768    64.8308     2.3692     0.1893     0.0272   -24.0635    17.3241    19.3445
  439.5000     7.3137    63.8946     2.3631     0.1879     0.0273   -23.9950    17.1247    19.2328
  440.0000     7.4200    61.9810     2.3635     0.1843     0.0274   -23.4381    16.9275    18.9716
  440.5000     7.3638    60.0568     2.3667     0.1807     0.0275   -23.3621    16.6202    18.4724
  441.0000     7.3100    58.4142     2.3730     0.1796     0.0276   -23.4831    16.2397    17.9863
  441.5000     7.3850    58.3846     2.3763     0.1784     0.0277   -23.6047    15.8668    17.5130
  442.0000     7.2948    58.5059     2.3777     0.1757     0.0278   -24.1226    15.5886    17.0520
  442.5000     7.2342    59.3998     2.3793     0.1731     0.0279   -24.4772    15.4356    16.6038
  443.0000     7.3382    60.3638     2.3828     0.1704     0.0280   -24.5300    15.2857    16.1666
  443.5000     7.4113    60.5556     2.3886     0.1677     0.0280   -24.5779    15.1366    15.9774
  444.0000     7.4103    59.8578     2.3943     0.1650     0.0281   -24.6295    14.9890    15.8002
  444.5000     7.4108    58.7880     2.4003     0.1646     0.0282   -24.9212    14.8429    15.6250
  445.0000     7.4111    57.2613     2.4017     0.1652     0.0283   -25.5961    14.6982    15.4518
