~VERSION INFORMATION
 VERS.                2.0:   CWLS LOG ASCII STANDARD - VERSION 2.0
 WRAP.                 NO:   ONE LINE PER DEPTH STEP
~WELL INFORMATION
#MNEM.UNIT      DATA TYPE    INFORMATION
#----------   ------------   ------------------------------
 STRT.F           27.0000:   START DEPTH
 STOP.F          713.0000:   STOP DEPTH
 STEP.F            0.5000:   STEP LENGTH
 NULL.          -999.2500:   NO VALUE
 COMP. FENIX & SCISSON INC:   COMPANY
 WELL.       NPR 3 #44-34:   WELL
 FLD .        TEAPOT DOME:   FIELD
 LOC .      S34 T39N R78W:   LOCATION
 CNTY.            NATRONA:   COUNTY
 STAT.            WYOMING:   STATE
 CTRY. UNITED STATES OF AMERICA:   COUNTRY
 SRVC.           BIRDWELL:   SERVICE COMPANY
 DATE.        24-AUG-1978:   LOGDATE
 API .       490251070000:   API NUMBER
~CURVE INFORMATION
#MNEM.UNIT       API CODE    CURVE DESCRIPTION
#----------   ------------   ------------------------------
 DEPT.F                  :   
 SPR .MV     05 010 01 00:   SPONTANEOUS POTENTIAL FROM RES.
 ILD .OHMM   05 120 46 00:   INDUCTION LOG DEEP
 SN  .OHMM   05 040 16 00:   SHORT NORMAL 16"
 CALD.IN     45 280 60 00:   CALIPER
 GRD .GAPI   45 310 01 00:   GAMMA RAY FROM DENSITY LOG
 DEN .G/C3   45 350 01 00:   COMPENSATED BULK DENSTIY
 DPHI.DEC    45 890 12 00:   DENSITY POROSITY SANDSTONE
 CORR.G/C3   45 356 01 00:   DENSITY CORRECTION
~PARAMETER INFORMATION
#MNEM.UNIT          VALUE    DESCRIPTION
#----------   ------------   ------------------------------
 PD  .                 GL:   PERMANENT DATUM
 EPD .F              5124:   ELEVATION PERMANENT DATUM
 LMF .                 KB:   LOG MEASURED FROM
 DAPD.F                 4:   FEET ABOVE PERMANENT DATUM
 DMF .                 KB:   DRILLING MEASURED FROM
 EKB .F              5128:   KELLING BUSHING
 EGL .F              5124:   GROUND LEVEL
 DATE.            8-24-78:   RUN DATE
 RUN .                  1:   RUN NUMBER
 DD  .F               716:   DEPTH DRILLER
 DL  .F               713:   DEPTH LOGGER
 BLI .F               707:   BOTTOM LOG INTERVAL
 TLI .F                50:   TOP LOG INTERVAL
 CS  .IN            8.625:   CASING SIZE
 CBD .F                40:   CASING BOTTOM DRILLER
 BS  .IN            7.875:   BIT SIZE
 BSD .F               716:   BIT SIZE AT DEPTH
 DFT .            MUD KCL:   DRILLING FLUID TYPE
 DFD .                8.6:   DRILLING FLUID DENSITY
 DFV .                 34:   DRILLING FLUID VISCOSITY
 DFL .                7.4:   DRILLING FLUID LOSS
 MSS .          FLOW LINE:   MUD SAMPLE SOURCE
 RMS .OHMM            .18:   RESISTIVITY MUD SAMPLE
 MST .F                76:   MUD SAMPLE TEMPERATURE
 RMF .OHMM            .16:   RESISTIVITY MUD FILTRATE SAMPLE
 MFST.F                92:   MUD FILTRATE SAMPLE TEMPERATURE
 RMC .OHMM             .3:   RESISTIVITY MUD CAKE
 MCST.F                86:   MUD CAKE SAMPLE TEMPERATURE
 MFSS.               MEAS:   MUD FILTRATE SAMPLE SOURCE
 TCS .HRS               3:   TIME CURCULATED STOPPED
 MRT .F                72:   MAXIMUM RECORDED TEMPERATURE
 LUN .               2958:   LOGGING UNIT NUMBER
 LUL .               CASP:   LOGGING UNIT LOCATION
 ENGI.           REYNOLDS:   RECORDING ENGINEER
 WITN.              AMEND:   WITNESSED BY
 CLNT.            A2DTECH:   CLIENT CODE
 ORIG.           5" PRINT:   ORIGIN OF DATA
 UWI .       490251070000:   UNIQUE WELL ID
 DICO. A2D Technologies, Inc.:   DIGITIZING COMPANY
~OTHER INFORMATION
~A   DEPT      SPR        ILD         SN       CALD         GRD       DEN       DPHI       CORR   
# ...
  472.5000   -69.6150     5.7108     6.1255     8.6851   110.5243     2.4480     0.1507     0.0454
  473.0000   -69.5658     5.8095     6.1105     8.6798   110.4347     2.4595     0.1393     0.0477
  473.5000   -69.5018     6.0673     6.3576     8.6615   111.6216     2.4710     0.1300     0.0504
  474.0000   -69.4379     6.3371     6.5869     8.6266   110.4781     2.4801     0.1316     0.0543
  474.5000   -69.3742     6.6188     6.8246     8.5944   109.6749     2.4790     0.1336     0.0590
  475.0000   -69.3105     6.8835     7.0715     8.5816   110.6479     2.4840     0.1284     0.0614
  475.5000   -69.2468     6.8870     7.3378     8.5682   111.5583     2.4898     0.1280     0.0624
  476.0000   -69.1833     6.8909     7.4302     8.5547   114.7224     2.4921     0.1236     0.0697
  476.5000   -69.1196     6.8948     7.5277     8.5412   118.5024     2.4930     0.1240     0.0755
  477.0000   -69.0559     6.8986     7.6264     8.5278   119.2038     2.4929     0.1245     0.0769
  477.5000   -68.9499     6.9025     7.7265     8.5173   116.2892     2.4971     0.1214     0.0714
  478.0000   -68.8014     6.9064     7.7620     8.5203   113.1123     2.5011     0.1193     0.0650
  478.5000   -68.6529     6.9103     7.7736     8.5231   110.5729     2.5008     0.1176     0.0639
  479.0000   -68.5043     6.9142     7.7852     8.5258   109.7280     2.5086     0.1104     0.0646
  479.5000   -68.3557     6.9180     7.7969     8.5286   109.7747     2.5148     0.1095     0.0677
  480.0000   -68.2070     6.9219     7.8085     8.5313   108.3793     2.5165     0.1099     0.0708
  480.5000   -68.0584     6.9258     7.8247     8.5340   104.7025     2.5180     0.1094     0.0735
  481.0000   -67.9106     6.9297     7.8011     8.5370   104.4121     2.5177     0.1087     0.0734
  481.5000   -67.8391     6.9336     7.7610     8.5476   108.4064     2.5174     0.1081     0.0739
  482.0000   -67.8638     6.9376     7.7213     8.5592   111.1304     2.5172     0.1076     0.0768
  482.5000   -67.8878     6.9414     7.6819     8.5708   112.8883     2.5178     0.1089     0.0786
  483.0000   -67.9122     6.9467     7.6426     8.5824   114.6001     2.5153     0.1111     0.0782
  483.5000   -67.9363     6.9194     7.5925     8.5940   117.4308     2.5123     0.1132     0.0691
  484.0000   -67.9605     6.8754     7.5075     8.6058   119.9701     2.5098     0.1136     0.0600
  484.5000   -67.9841     6.8318     7.4233     8.6167   119.4624     2.5090     0.1108     0.0515
  485.0000   -68.0086     6.7481     7.3395     8.6082   116.2053     2.5131     0.1071     0.0497
  485.5000   -68.0781     6.6547     7.3271     8.5988   116.8305     2.5179     0.1108     0.0481
  486.0000   -68.3453     6.3428     7.3119     8.5896   118.4373     2.5178     0.1162     0.0464
  486.5000   -68.4976     6.0082     7.2967     8.5804   117.9784     2.5052     0.1174     0.0453
  487.0000   -68.6015     5.6795     7.2820     8.5712   114.6807     2.5009     0.1186     0.0450
  487.5000   -68.7057     5.6020     7.2432     8.5621   110.8241     2.4973     0.1199     0.0448
  488.0000   -68.8117     5.5256     7.1652     8.5609   110.8247     2.4946     0.1278     0.0445
  488.5000   -68.7700     5.5256     6.9880     8.5689   112.5776     2.4835     0.1399     0.0442
  489.0000   -68.7049     5.5256     6.7632     8.5770   118.8878     2.4649     0.1534     0.0439
  489.5000   -68.6395     5.5256     6.5457     8.5850   119.2436     2.4460     0.1587     0.0436
  490.0000   -68.5593     5.5256     6.3421     8.5930   122.1944     2.4399     0.1471     0.0424
  490.5000   -68.4750     5.5256     6.2769     8.6011   124.7242     2.4515     0.1378     0.0404
  491.0000   -68.3907     5.5070     6.3507     8.6092   123.7684     2.4676     0.1285     0.0383
  491.5000   -68.3063     5.3298     6.4307     8.6169   119.5207     2.4838     0.1192     0.0375
  492.0000   -68.2220     5.1583     6.5121     8.6147   112.1788     2.4999     0.1180     0.0375
  492.5000   -68.1377     4.9924     6.5755     8.6121   112.5105     2.5014     0.1224     0.0399
  493.0000   -68.0526     4.9037     6.4479     8.6094   113.7144     2.4957     0.1303     0.0479
  493.5000   -68.0143     4.8966     6.2614     8.6068   112.7038     2.4817     0.1424     0.0487
  494.0000   -67.9944     4.8895     6.0009     8.6042   111.7622     2.4557     0.1571     0.0497
  494.5000   -67.9749     4.8824     5.7514     8.6015   114.2029     2.4218     0.1817     0.0507
  495.0000   -67.9554     4.8753     5.4753     8.5991   116.4553     2.3881     0.2039     0.0531
  495.5000   -67.9357     4.8683     5.5543     8.6139   108.0214     2.3658     0.2030     0.0600
  496.0000   -67.9161     4.8609     5.6795     8.6708   112.8750     2.3917     0.1848     0.0658
  496.5000   -67.8965     5.2671     5.9326     8.7283   109.6495     2.4273     0.1609     0.0667
  497.0000   -67.8768     5.7341     6.2111     8.6962   112.0125     2.4633     0.1369     0.0674
  497.5000   -67.8573     6.2405     6.5027     8.6382   113.2598     2.4990     0.1184     0.0664
  498.0000   -67.8375     6.7930     6.8080     8.6419   112.6004     2.5004     0.1193     0.0654
  498.5000   -67.8450     6.9468     7.0752     8.6467   110.5259     2.5013     0.1199     0.0645
  499.0000   -67.8742     6.4707     7.0233     8.6513   106.9787     2.5019     0.1197     0.0635
  499.5000   -67.9038     6.1398     6.9792     8.6559   104.4600     2.5075     0.1196     0.0625
  500.0000   -67.9334     5.8258     6.9348     8.6564   105.2141     2.5080     0.1207     0.0615
  500.5000   -67.9630     5.5279     6.8912     8.6550   105.8540     2.4967     0.1209     0.0628
  501.0000   -67.9928     5.2452     6.8475     8.6536   103.5138     2.4985     0.1205     0.0642
  501.5000   -68.0257     5.1591     6.8208     8.6522   100.5799     2.5000     0.1201     0.0645
  502.0000   -67.9105     5.1354     6.5928     8.6508   100.0744     2.4920     0.1196     0.0585
  502.5000   -67.7637     5.1354     6.3717     8.6494   103.6081     2.4688     0.1192     0.0580
  503.0000   -67.6167     5.1354     6.1580     8.6480   106.2143     2.4459     0.1247     0.0588
  503.5000   -67.4675     5.1354     5.9455     8.6466   110.0550     2.4290     0.1276     0.0586
  504.0000   -67.3367     5.3498     5.9455     8.6452   118.4171     2.4291     0.1218     0.0680
  504.5000   -67.1109     5.6569     5.9455     8.6438   121.7716     2.4643     0.1145     0.0804
  505.0000   -66.4486     6.0599     6.3517     8.6425   119.8923     2.4895     0.1071     0.0779
  505.5000   -66.3560     6.5507     6.7453     8.6411   117.5119     2.4992     0.0996     0.0591
  506.0000   -66.2859     7.0782     7.1634     8.6397   114.7808     2.5052     0.0983     0.1000
  506.5000   -66.1912     7.3334     7.6073     8.6383   110.4643     2.5192     0.1031     0.0924
  507.0000   -66.0434     7.5572     7.8676     8.6372   107.8405     2.5337     0.1117     0.0818
  507.5000   -65.8958     7.6518     7.9488     8.6369   106.9984     2.5489     0.1164     0.0726
  508.0000   -65.7494     7.6849     8.0309     8.6529   105.4449     2.5329     0.0860     0.0696
  508.5000   -65.6525     7.6950     8.1140     8.6743   102.8348     2.5303     0.0925     0.0684
  509.0000   -65.7431     7.7051     8.1914     8.6959   104.2525     2.5347     0.0987     0.0719
  509.5000   -65.8290     7.7153     8.1826     8.7181   106.0902     2.5347     0.0975     0.0753
  510.0000   -65.9146     7.7254     8.1740     8.7337   107.5192     2.5344     0.0963     0.0746
  510.5000   -66.0010     7.7355     8.1655     8.6475   104.2242     2.5340     0.0980     0.0736
  511.0000   -66.0101     7.7457     8.1572     8.5574   100.7026     2.5340     0.1000     0.0728
  511.5000   -65.9682     7.7537     8.1488     8.5328    98.9474     2.5340     0.0987     0.0696
  512.0000   -65.9253     7.7535     8.1404     8.5193   100.5387     2.5345     0.0972     0.0664
  512.5000   -65.8822     7.7535     8.1320     8.5156   104.5190     2.5350     0.0994     0.0654
