~VERSION INFORMATION
 VERS.                2.0:   CWLS LOG ASCII STANDARD - VERSION 2.0
 WRAP.                 NO:   ONE LINE PER DEPTH STEP
~WELL INFORMATION
#MNEM.UNIT      DATA TYPE    INFORMATION
#----------   ------------   ------------------------------
 STRT.F           60.0000:   START DEPTH
 STOP.F         3052.0000:   STOP DEPTH
 STEP.F            0.5000:   STEP LENGTH
 NULL.          -999.2500:   NO VALUE
 COMP.   FLUOR DANIEL INC:   COMPANY
 WELL. NAVAL PETROLEUM RESERVE 3 X-14 #57-14:   WELL
 FLD .            WILDCAT:   FIELD
 LOC .      S14 T38N R78W:   LOCATION
 CNTY.            NATRONA:   COUNTY
 STAT.            WYOMING:   STATE
 CTRY. UNITED STATES OF AMERICA:   COUNTRY
 SRVC.            Unknown:   SERVICE COMPANY
 DATE.        16-MAY-1995:   LOGDATE
 API .       490252272000:   API NUMBER
~CURVE INFORMATION
#MNEM.UNIT       API CODE    CURVE DESCRIPTION
#----------   ------------   ------------------------------
 DEPT.F                  :   
 ROP .FT/HR  91 810 01 00:   RAT OF DRILLING PENETRATION
 TGAS.TC/CC  91 830 01 00:   TOTAL GAS UNIT
~PARAMETER INFORMATION
#MNEM.UNIT          VALUE    DESCRIPTION
#----------   ------------   ------------------------------
 EKB .F              5312:   KELLING BUSHING
 EGL .F              5302:   GROUND LEVEL
 DATE.        16-MAY-1995:   RUN DATE
 RUN .                  1:   RUN NUMBER
 BLI .F              3062:   BOTTOM LOG INTERVAL
 TLI .F                60:   TOP LOG INTERVAL
 ENGI.     C.TOWER/R.HUSK:   RECORDING ENGINEER
 CLNT.            A2DTECH:   CLIENT CODE
 ORIG.           5" PRINT:   ORIGIN OF DATA
 UWI .       490252272000:   UNIQUE WELL ID
 DICO. A2D Technologies, Inc.:   DIGITIZING COMPANY
~OTHER INFORMATION
~A   DEPT        ROP       TGAS 
# ...
 2733.0000     0.6403     3.2651
 2733.5000     0.6408     3.0856
 2734.0000     0.6414     3.2834
 2734.5000     0.6420     3.1038
 2735.0000     0.6331     3.1132
 2735.5000     0.6336     3.1226
 2736.0000     0.6340     3.1338
 2736.5000     0.6346     3.1430
 2737.0000     0.6351     2.9635
 2737.5000     0.6356     2.9727
 2738.0000     0.6267     2.9818
 2738.5000     0.6272     2.9910
 2739.0000     0.6278     3.0002
 2739.5000     0.6283     3.0094
 2740.0000     0.6288     3.0189
 2740.5000     0.6293     3.0512
 2741.0000     0.6392     3.4166
 2741.5000     0.6397     3.4258
 2742.0000     0.6402     3.6236
 2742.5000     0.6407     3.4441
 2743.0000     0.6413     3.2646
 2743.5000     0.6419     3.2738
 2744.0000     0.6424     2.9056
 2744.5000     0.6429     2.7261
 2745.0000     0.6528     2.7376
 2745.5000     0.6533     2.5558
 2746.0000     0.6632     2.5673
 2746.5000     0.6731     2.5765
 2747.0000     0.6736     2.5857
 2747.5000     0.6752     2.5943
 2748.0000     0.6841     2.6040
 2748.5000     0.6376     2.6132
 2749.0000     0.5628     2.6226
 2749.5000     0.5652     2.6339
 2750.0000     0.5673     2.4521
 2750.5000     0.5694     2.4635
 2751.0000     0.5715     2.4727
 2751.5000     0.5736     2.2932
 2752.0000     0.5757     2.3024
 2752.5000     0.5778     2.3116
 2753.0000     0.5799     2.3208
 2753.5000     0.5820     2.3302
 2754.0000     0.5841     2.3414
 2754.5000     0.5862     2.3506
 2755.0000     0.5883     2.3598
 2755.5000     0.5904     2.3690
 2756.0000     0.5925     2.3782
 2756.5000     0.5946     2.1964
 2757.0000     0.5967     2.2078
 2757.5000     0.5988     2.2170
 2758.0000     0.6827     2.2264
 2758.5000     0.6831     2.2377
 2759.0000     0.6835     2.2469
 2759.5000     0.6839     2.2560
 2760.0000     0.6842     2.2652
 2760.5000     0.6846     2.4631
 2761.0000     0.6850     2.4723
 2761.5000     0.8076     2.4814
 2762.0000     0.7985     2.6793
 2762.5000     0.7989     2.6885
 2763.0000     0.7993     2.5090
 2763.5000     0.7902     2.3295
 2764.0000     0.6684     2.1500
 2764.5000     0.6688     2.1615
 2765.0000     0.6692     2.1707
 2765.5000     0.6695     2.1798
 2766.0000     0.6699     2.1890
 2766.5000     0.6797     2.1982
 2767.0000     0.6801     2.3962
 2767.5000     0.6899     2.4075
 2768.0000     0.6902     2.6054
 2768.5000     0.6906     2.6146
 2769.0000     0.6910     2.4328
 2769.5000     0.6914     2.4443
 2770.0000     0.6917     2.4534
 2770.5000     0.6921     2.4626
 2771.0000     0.6925     2.4326
 2771.5000     0.6929     2.3597
 2772.0000     0.6932     2.2868
 2772.5000     0.6936     2.2252
 2773.0000     0.6940     2.0458
 2773.5000     0.7884     2.0532
 2774.0000     0.7981     2.0606
 2774.5000     0.7985     2.2567
 2775.0000     0.7989     2.2641
 2775.5000     0.8086     2.0829
 2776.0000     0.8090     2.0906
 2776.5000     0.8094     2.0996
 2777.0000     0.8098     2.1070
 2777.5000     0.8102     2.3031
 2778.0000     0.8199     2.3105
 2778.5000     0.8203     2.3179
 2779.0000     0.8224     2.3253
 2779.5000     0.8305     2.3327
 2780.0000     0.8308     2.3401
 2780.5000     0.7612     2.1570
 2781.0000     0.6530     1.9774
 2781.5000     0.6534     1.7962
 2782.0000     0.6538     1.8038
 2782.5000     0.6541     1.8113
 2783.0000     0.6545     1.8189
 2783.5000     0.6549     1.8278
 2784.0000     0.6553     1.8352
 2784.5000     0.6556     1.8426
 2785.0000     0.6561     1.8500
 2785.5000     0.6564     1.8575
 2786.0000     0.6568     1.8649
 2786.5000     0.6572     1.8723
 2787.0000     0.7798     1.8797
 2787.5000     0.7989     1.8871
 2788.0000     0.8087     1.8945
 2788.5000     0.8185     1.9019
 2789.0000     0.8188     1.9094
 2789.5000     0.8192     2.1057
 2790.0000     0.8196     2.1147
 2790.5000     0.8294     2.1221
 2791.0000     0.6324     2.1295
 2791.5000     0.6421     2.1369
 2792.0000     0.6425     2.1443
 2792.5000     0.6429     1.9612
 2793.0000     0.6526     1.9705
 2793.5000     0.6530     1.9779
 2794.0000     0.6534     2.1740
 2794.5000     0.6538     2.1814
 2795.0000     0.6542     2.1888
 2795.5000     0.6450     2.0075
 2796.0000     0.6455     2.0151
 2796.5000     0.6553     2.0226
 2797.0000     0.6462     2.0316
 2797.5000     0.6560     1.8485
 2798.0000     0.6564     1.8578
 2798.5000     0.7884     1.8652
 2799.0000     0.7982     1.8726
 2799.5000     0.7985     1.8800
 2800.0000     0.7989     1.8874
 2800.5000     1.0157     1.8948
 2801.0000     1.0165     1.9022
 2801.5000     1.0170     2.0983
 2802.0000     1.0085     2.2944
 2802.5000     1.0100     2.3019
 2803.0000     1.0114     2.3094
 2803.5000     1.0128     2.2817
 2804.0000     1.0142     2.1674
 2804.5000     1.0157     2.1433
 2805.0000     1.0171     2.3396
 2805.5000     1.0185     2.3485
 2806.0000     1.0200     2.3558
 2806.5000     1.0214     2.3632
 2807.0000     1.0228     2.3705
 2807.5000     1.0242     2.3778
 2808.0000     1.1008     2.3852
 2808.5000     1.2894     2.3925
 2809.0000     1.2900     2.4000
 2809.5000     1.2908     2.2185
 2810.0000     1.2915     2.2276
 2810.5000     1.1041     2.2350
 2811.0000     1.0200     2.2423
 2811.5000     1.0302     2.2496
 2812.0000     1.0309     2.0665
 2812.5000     1.0315     2.2643
 2813.0000     1.0322     2.2778
 2813.5000     1.0328     2.4679
 2814.0000     1.0335     2.4768
 2814.5000     0.8085     2.4842
 2815.0000     0.8092     2.4915
 2815.5000     0.8099     2.4988
 2816.0000     0.8105     2.5061
 2816.5000     0.8112     2.5135
 2817.0000     0.8118     2.3321
 2817.5000     0.8125     2.1508
 2818.0000     0.8132     1.9694
 2818.5000     0.8138     1.7881
 2819.0000     0.8145     1.7973
 2819.5000     0.8151     1.6141
 2820.0000     0.8158     1.6233
 2820.5000     0.8164     1.6306
 2821.0000     0.8171     1.6379
 2821.5000     0.8178     1.6453
 2822.0000     0.8184     1.8415
 2822.5000     0.8191     1.8504
 2823.0000     0.8197     2.0464
 2823.5000     0.8204     2.0538
 2824.0000     0.6332     2.0611
 2824.5000     0.6333     2.0684
 2825.0000     0.6335     2.2645
 2825.5000     0.6337     2.2718
 2826.0000     0.6339     2.2792
 2826.5000     0.6341     2.2883
 2827.0000     0.6342     2.2956
 2827.5000     0.6344     2.1143
 2828.0000     0.6346     2.1216
 2828.5000     0.6348     1.9384
 2829.0000     0.6350     2.1363
 2829.5000     0.6351     2.1436
 2830.0000     0.6353     2.1509
 2830.5000     0.6355     2.1585
 2831.0000     0.6357     2.1674
 2831.5000     0.6359     2.1748
 2832.0000     0.6361     2.1821
 2832.5000     0.6362     2.3781
 2833.0000     0.6364     2.3855
 2833.5000     0.6366     2.3928
 2834.0000     0.7309     2.4001
 2834.5000     1.0229     2.4075
 2835.0000     1.0235     2.3836
 2835.5000     1.0242     2.0448
 2836.0000     1.0248     2.0539
 2836.5000     1.0255     1.8707
 2837.0000     1.0261     1.8799
 2837.5000     1.0268     2.0759
 2838.0000     1.0274     2.0833
 2838.5000     1.0281     2.0906
 2839.0000     1.0288     2.2868
 2839.5000     1.0294     2.2958
 2840.0000     1.0302     2.3031
 2840.5000     0.8051     2.4991
 2841.0000     0.8153     2.5065
 2841.5000     0.8159     2.5138
 2842.0000     0.8166     2.5211
 2842.5000     0.5823     2.5285
 2843.0000     0.5829     2.5358
 2843.5000     0.5836     2.5434
 2844.0000     0.5748     2.5517
 2844.5000     0.5756     2.5590
 2845.0000     0.5762     2.5663
 2845.5000     0.5673     2.3849
 2846.0000     0.6527     2.3925
 2846.5000     0.6627     2.4015
 2847.0000     0.6633     2.2183
 2847.5000     0.6640     2.2275
 2848.0000     0.6647     2.2348
 2848.5000     0.6653     2.2422
 2849.0000     0.6660     2.2495
 2849.5000     0.6572     2.2568
 2850.0000     0.6580     2.2641
 2850.5000     0.6604     2.2717
 2851.0000     0.6628     2.4693
 2851.5000     0.6652     2.4767
 2852.0000     0.6676     2.4840
 2852.5000     0.5663     2.6800
 2853.0000     0.5207     2.6873
 2853.5000     0.5227     2.6947
 2854.0000     0.5246     2.7020
