~VERSION INFORMATION
 VERS.                2.0:   CWLS LOG ASCII STANDARD - VERSION 2.0
 WRAP.                 NO:   ONE LINE PER DEPTH STEP
~WELL INFORMATION
#MNEM.UNIT      DATA TYPE    INFORMATION
#----------   ------------   ------------------------------
 STRT.F           22.0000:   START DEPTH
 STOP.F          533.0000:   STOP DEPTH
 STEP.F            0.5000:   STEP LENGTH
 NULL.          -999.2500:   NO VALUE
 COMP. FENIX & SCISSON INC:   COMPANY
 WELL.        NPR 3 #32-3:   WELL
 FLD .        TEAPOT DOME:   FIELD
 LOC .       S3 T38N R78W:   LOCATION
 CNTY.            NATRONA:   COUNTY
 STAT.            WYOMING:   STATE
 CTRY. UNITED STATES OF AMERICA:   COUNTRY
 SRVC.            Unknown:   SERVICE COMPANY
 DATE.        19-JUL-1978:   LOGDATE
 API .       490251067200:   API NUMBER
~CURVE INFORMATION
#MNEM.UNIT       API CODE    CURVE DESCRIPTION
#----------   ------------   ------------------------------
 DEPT.F                  :   
 SPR .MV     05 010 01 00:   SPONTANEOUS POTENTIAL FROM RES.
 SN  .OHMM   05 040 16 00:   SHORT NORMAL 16"
 IL  .OHMM   05 120 00 00:   INDUCTION LOG
 RHOB.G/C3   45 350 01 00:   BULK DENSITY
 DPHI.DEC    45 890 12 00:   DENSITY POROSITY SANDSTONE
 CORR.G/C3   45 356 01 00:   DENSITY CORRECTION
 CALD.IN     45 280 60 00:   CALIPER
 GRD .GAPI   45 310 01 00:   GAMMA RAY FROM DENSITY LOG
~PARAMETER INFORMATION
#MNEM.UNIT          VALUE    DESCRIPTION
#----------   ------------   ------------------------------
 PD  .                 GL:   PERMANENT DATUM
 EPD .F              5179:   ELEVATION PERMANENT DATUM
 LMF .                 KB:   LOG MEASURED FROM
 DAPD.F                 4:   FEET ABOVE PERMANENT DATUM
 DMF .                 KB:   DRILLING MEASURED FROM
 EKB .F              5183:   KELLING BUSHING
 EGL .F              5179:   GROUND LEVEL
 DATE.            7-19-78:   RUN DATE
 RUN .                  1:   RUN NUMBER
 DD  .F               520:   DEPTH DRILLER
 DL  .F               533:   DEPTH LOGGER
 BLI .F               527:   BOTTOM LOG INTERVAL
 TLI .F                50:   TOP LOG INTERVAL
 CS  .IN            8.625:   CASING SIZE
 CBD .F                40:   CASING BOTTOM DRILLER
 BS  .IN            7.875:   BIT SIZE
 BSD .F               520:   BIT SIZE AT DEPTH
 DFT .                KCL:   DRILLING FLUID TYPE
 DFD .                8.7:   DRILLING FLUID DENSITY
 DFV .                 33:   DRILLING FLUID VISCOSITY
 DFPH.                  9:   DRILLING FLUID PH
 DFL .               12.4:   DRILLING FLUID LOSS
 MSS .          FLOW LINE:   MUD SAMPLE SOURCE
 RMS .OHMM            .28:   RESISTIVITY MUD SAMPLE
 MST .F                70:   MUD SAMPLE TEMPERATURE
 RMF .OHMM            .24:   RESISTIVITY MUD FILTRATE SAMPLE
 MFST.F                76:   MUD FILTRATE SAMPLE TEMPERATURE
 RMC .OHMM             .5:   RESISTIVITY MUD CAKE
 MCST.F                78:   MUD CAKE SAMPLE TEMPERATURE
 MFSS.               MEAS:   MUD FILTRATE SAMPLE SOURCE
 MCSS.               MEAS:   MUD CAKE SAMPLE SOURCE
 TCS .HRS               2:   TIME CURCULATED STOPPED
 LUN .               2958:   LOGGING UNIT NUMBER
 LUL .               CASP:   LOGGING UNIT LOCATION
 ENGI.             MILLER:   RECORDING ENGINEER
 WITN.           MCGINLEY:   WITNESSED BY
 CLNT.            A2DTECH:   CLIENT CODE
 ORIG.           5" PRINT:   ORIGIN OF DATA
 UWI .       490251067200:   UNIQUE WELL ID
 DICO. A2D Technologies, Inc.:   DIGITIZING COMPANY
~OTHER INFORMATION
~A   DEPT      SPR         SN         IL       RHOB       DPHI       CORR       CALD         GRD  
# ...
  184.0000   -25.4975     8.8736    10.6302     2.4602     0.1380     0.0092     7.8903    74.3338
  184.5000   -25.5361     8.7577    10.5087     2.4560     0.1388     0.0069     7.8909    74.4905
  185.0000   -25.5744     8.6433    10.3884     2.4577     0.1348     0.0047     7.8914    75.7131
  185.5000   -25.6126     8.5302    10.2692     2.4600     0.1413     0.0026     7.8920    77.8131
  186.0000   -25.6393     8.4193    10.1501     2.4486     0.1444     0.0004     7.8926    79.9272
  186.5000   -25.6080     8.3729    10.1512     2.4450     0.1425    -0.0019     7.8931    80.6303
  187.0000   -25.5777     8.3911    10.1235     2.4469     0.1477    -0.0003     7.8937    80.3634
  187.5000   -25.5476     8.4035    10.0543     2.4417     0.1507     0.0028     7.8943    79.1190
  188.0000   -25.5174     8.4160     9.9857     2.4394     0.1442     0.0060     7.8949    78.0075
  188.5000   -25.4873     8.4285     9.9175     2.4432     0.1467     0.0092     7.8954    77.8414
  189.0000   -25.4572     8.4409     9.8498     2.4402     0.1472     0.0123     7.8960    77.0559
  189.5000   -25.4271     8.4500     9.7825     2.4369     0.1436     0.0155     7.8966    75.8462
  190.0000   -25.3969     8.3725     9.7157     2.4405     0.1444     0.0166     7.8972    74.7321
  190.5000   -25.3668     8.3085     9.6493     2.4438     0.1460     0.0109     7.8977    75.7631
  191.0000   -25.3367     8.2451     9.5833     2.4420     0.1475     0.0092     7.8983    76.6900
  191.5000   -25.3064     8.1821     9.5201     2.4403     0.1468     0.0136     7.8989    75.6643
  192.0000   -25.2758     8.1467     9.5201     2.4403     0.1432     0.0181     7.8994    74.4601
  192.5000   -25.2509     8.1467     9.5201     2.4471     0.1340     0.0122     7.9000    74.0315
  193.0000   -25.3224     8.1466     9.5201     2.4540     0.1383     0.0014     7.9006    74.3216
  193.5000   -25.3958     8.1467     9.5201     2.4594     0.1448    -0.0083     7.9012    75.3485
  194.0000   -25.4686     8.1467     9.5201     2.4474     0.1512    -0.0060     7.9017    75.7247
  194.5000   -25.5414     8.1467     9.5201     2.4355     0.1544    -0.0036     7.9023    75.2673
  195.0000   -25.6141     8.1467     9.5201     2.4321     0.1376    -0.0012     7.9029    75.0524
  195.5000   -25.6869     8.1467     9.5201     2.4466     0.1412     0.0011     7.9035    75.2499
  196.0000   -25.7598     8.1467     9.5201     2.4551     0.1442     0.0034     7.9040    73.9989
  196.5000   -25.8318     8.1458     9.5201     2.4479     0.1432     0.0019     7.9046    71.0121
  197.0000   -25.8673     8.1479     9.5201     2.4481     0.1464     0.0002     7.9052    70.3741
  197.5000   -25.8965     8.0368     9.5204     2.4522     0.1491    -0.0015     7.9057    73.1719
  198.0000   -25.9257     7.9633     9.5190     2.4417     0.1497    -0.0032     7.9063    75.0858
  198.5000   -25.9550     7.8904     9.5236     2.4353     0.1519    -0.0045     7.9065    74.9885
  199.0000   -25.9843     7.7920     9.1976     2.4320     0.1540    -0.0030     7.9139    74.8830
  199.5000   -26.0136     7.6682     8.9075     2.4289     0.1495    -0.0015     7.9223    74.8204
  200.0000   -26.0429     7.5464     8.6275     2.4348     0.1452    -0.0001     7.9307    77.0368
  200.5000   -26.0722     7.4265     8.3571     2.4415     0.1480     0.0014     7.9391    79.2787
  201.0000   -26.1015     7.2993     8.0723     2.4416     0.1466     0.0028     7.9475    81.4910
  201.5000   -26.1308     7.3171     8.1007     2.4369     0.1521     0.0043     7.9558    83.5056
  202.0000   -26.1601     7.3393     8.1319     2.4320     0.1535     0.0054     7.9642    82.4854
  202.5000   -26.1894     7.3611     8.1632     2.4427     0.1346     0.0040     7.9726    80.0481
  203.0000   -26.2183     7.3828     8.1946     2.4572     0.1354     0.0027     7.9810    76.8392
  203.5000   -26.2298     7.4045     8.2217     2.4601     0.1378     0.0014     7.9894    74.1769
  204.0000   -26.2054     7.4263     8.3014     2.4568     0.1406     0.0001     7.9978    75.1360
  204.5000   -26.1817     7.4482     8.3869     2.4527     0.1434    -0.0012     8.0062    76.2535
  205.0000   -26.1579     7.4702     8.4733     2.4485     0.1462    -0.0024     8.0146    76.8493
  205.5000   -26.1342     7.4918     8.5366     2.4444     0.1458    -0.0037     8.0228    75.0424
  206.0000   -26.1104     7.5012     8.5585     2.4421     0.1445    -0.0050     8.0380    73.1130
  206.5000   -26.0866     7.4939     8.5805     2.4443     0.1433    -0.0064     8.0561    73.8861
  207.0000   -26.0628     7.4890     8.6025     2.4451     0.1475    -0.0030     8.0744    77.4910
  207.5000   -26.0408     7.4841     8.6245     2.4425     0.1482     0.0010     8.0927    81.0251
  208.0000   -26.0438     7.4792     8.6467     2.4395     0.1444     0.0051     8.1110    81.4335
  208.5000   -25.8789     7.4742     8.6688     2.4381     0.1384     0.0093     8.1293    81.4035
  209.0000   -25.6851     7.4693     8.6859     2.4434     0.1419     0.0118     8.1454    80.0072
  209.5000   -25.4906     7.4644     8.6765     2.4493     0.1384     0.0143     8.1514    76.8308
  210.0000   -25.2965     7.4595     8.6684     2.4506     0.1475     0.0245     8.1572    76.0035
  210.5000   -25.1023     7.4546     8.6603     2.4405     0.1540     0.0414     8.1700    75.6236
  211.0000   -24.9083     7.4497     8.6521     2.4304     0.1316     0.0561     8.3359    77.1012
  211.5000   -24.7117     7.4447     8.6440     2.4514     0.1347     0.0432     9.0286    78.9329
  212.0000   -24.6538     7.4400     8.6358     2.4683     0.1404     0.0273     8.0308    79.2572
  212.5000   -24.6488     7.4324     8.6277     2.4569     0.1306     0.0177     8.0637    78.3122
  213.0000   -24.8735     7.5007     8.6196     2.4511     0.1248     0.0185     8.0630    77.1235
  213.5000   -25.1832     7.6076     8.6115     2.4792     0.1297     0.0192     8.0586    74.0456
  214.0000   -25.4969     7.7150     8.6072     2.4734     0.1304     0.0164     8.0548    72.4620
  214.5000   -25.6056     7.8240     8.7596     2.4681     0.1319     0.0131     8.0511    73.7750
  215.0000   -25.5423     7.9257     8.8475     2.4680     0.1344     0.0073     8.0474    79.7905
  215.5000   -25.4747     7.9349     8.8582     2.4654     0.1369     0.0036     8.0437    82.7047
  216.0000   -25.5507     7.9434     8.8683     2.4599     0.1392     0.0000     8.0400    78.7916
  216.5000   -25.7384     7.9520     8.8786     2.4571     0.1372    -0.0038     8.0362    75.9510
  217.0000   -25.9271     7.9605     8.8888     2.4571     0.1374    -0.0076     8.0325    76.5885
  217.5000   -26.1161     7.9690     8.8990     2.4553     0.1409    -0.0085     8.0288    77.2175
  218.0000   -26.3050     7.9777     8.9094     2.4495     0.1444    -0.0085     8.0250    77.2061
  218.5000   -26.4939     7.9863     8.9196     2.4433     0.1453    -0.0085     8.0213    82.5510
  219.0000   -26.6826     8.0003     8.9286     2.4422     0.1440    -0.0085     8.0176    85.4979
  219.5000   -26.8588     7.9580     8.8741     2.4474     0.1423    -0.0070     8.0139    83.4146
  220.0000   -26.9830     7.8367     8.7724     2.4511     0.1400    -0.0050     8.0101    80.8116
  220.5000   -27.1081     7.7172     8.6719     2.4502     0.1401    -0.0009     8.0064    79.2331
  221.0000   -27.2252     7.5995     8.5725     2.4510     0.1403     0.0016     8.0027    80.5570
  221.5000   -27.2284     7.4333     8.5287     2.4561     0.1397     0.0040     7.9990    80.8119
  222.0000   -27.2279     7.4434     8.5287     2.4589     0.1381     0.0066     7.9952    80.0521
  222.5000   -27.2277     7.4615     8.5082     2.4552     0.1345     0.0091     7.9915    80.4340
  223.0000   -27.2277     7.4796     8.3884     2.4556     0.1285     0.0093     7.9877    80.7870
  223.5000   -27.2277     7.5017     8.2217     2.4675     0.1286     0.0086     7.9990    79.0790
  224.0000   -27.2277     7.4022     8.2418     2.4690     0.1298     0.0079     8.0221    77.2311
