~VERSION INFORMATION
 VERS.                2.0:   CWLS LOG ASCII STANDARD - VERSION 2.0
 WRAP.                 NO:   ONE LINE PER DEPTH STEP
~WELL INFORMATION
#MNEM.UNIT      DATA TYPE    INFORMATION
#----------   ------------   ------------------------------
 STRT.F            0.0000:   START DEPTH
 STOP.F          404.0000:   STOP DEPTH
 STEP.F            0.1000:   STEP LENGTH
 NULL.          -999.2500:   NO VALUE
 COMP.   FLUOR DANIEL INC:   COMPANY
 WELL.   62-1 X 10 #62-10:   WELL
 FLD .             TEAPOT:   FIELD
 LOC .      S10 T38N R78W:   LOCATION
 CNTY.            NATRONA:   COUNTY
 STAT.            WYOMING:   STATE
 CTRY. UNITED STATES OF AMERICA:   COUNTRY
 SRVC.      Western Atlas:   SERVICE COMPANY
 DATE.        29-MAR-1995:   LOGDATE
 API .       490252270300:   API NUMBER
~CURVE INFORMATION
#MNEM.UNIT       API CODE    CURVE DESCRIPTION
#----------   ------------   ------------------------------
 DEPT.F                  :   
 GRR .GAPI   07 310 01 00:   GAMMA RAY
 RILD.OHMM   07 120 46 00:   INDUCTION LOG DEEP RESISTIVITY
 RILM.OHMM   07 120 44 00:   RESITIVITY LONG MEDIUM
~PARAMETER INFORMATION
#MNEM.UNIT          VALUE    DESCRIPTION
#----------   ------------   ------------------------------
 PD  .                 GL:   PERMANENT DATUM
 EPD .F              5160:   ELEVATION PERMANENT DATUM
 LMF .                 KB:   LOG MEASURED FROM
 DAPD.F                10:   FEET ABOVE PERMANENT DATUM
 DMF .                 KB:   DRILLING MEASURED FROM
 EKB .F              5170:   KELLING BUSHING
 EDF .F              5169:   DRILLING FLOOR
 EGL .F              5160:   GROUND LEVEL
 DATE.        29-MAR-1995:   RUN DATE
 RUN .                  1:   RUN NUMBER
 DD  .F               455:   DEPTH DRILLER
 DL  .F               416:   DEPTH LOGGER
 BLI .F               408:   BOTTOM LOG INTERVAL
 TLI .F                95:   TOP LOG INTERVAL
 CS  .IN            9.625:   CASING SIZE
 CBD .F                95:   CASING BOTTOM DRILLER
 CBL .F                95:   CASING BOTTOM LOGGER
 BS  .IN             8.75:   BIT SIZE
 BSD .F               455:   BIT SIZE AT DEPTH
 DFT .                AIR:   DRILLING FLUID TYPE
 MRT .F               204:   MAXIMUM RECORDED TEMPERATURE
 LUN .            HL 6530:   LOGGING UNIT NUMBER
 LUL .             CASPER:   LOGGING UNIT LOCATION
 ENGI.        VERN RAUTIO:   RECORDING ENGINEER
 WITN.        GARY STRONG:   WITNESSED BY
 CLNT.            A2DTECH:   CLIENT CODE
 ORIG.           5" PRINT:   ORIGIN OF DATA
 UWI .       490252270300:   UNIQUE WELL ID
 DICO. A2D Technologies, Inc.:   DIGITIZING COMPANY
~OTHER INFORMATION
~A    DEPT      GRR      RILD       RILM   
# ...
  273.0000    88.1327     5.0498     4.9929
  273.1000    87.8789     4.9908     4.9345
  273.2000    87.6252     4.9417     4.8710
  273.3000    87.4606     4.9088     4.8198
  273.4000    87.4618     4.8489     4.7635
  273.5000    87.4631     4.7947     4.7226
  273.6000    87.4645     4.7387     4.6754
  273.7000    87.4655     4.6834     4.6031
  273.8000    87.4667     4.6287     4.5760
  273.9000    87.4679     4.5746     4.4817
  274.0000    87.4691     4.5211     4.4389
  274.1000    87.4703     4.4611     4.3870
  274.2000    87.4716     4.4161     4.3473
  274.3000    87.4727     4.3645     4.3148
  274.4000    87.2945     4.3135     4.2643
  274.5000    86.9080     4.2631     4.2103
  274.6000    86.4853     4.2133     4.1652
  274.7000    86.1922     4.1618     4.1343
  274.8000    85.6688     4.1385     4.1101
  274.9000    85.1745     4.0957     4.0770
  275.0000    85.0679     4.0619     4.0339
  275.1000    84.9146     4.0284     4.0103
  275.2000    84.8764     3.9813     3.9829
  275.3000    85.0715     3.9348     3.9440
  275.4000    85.0871     3.8825     3.9129
  275.5000    85.3757     3.8434     3.8900
  275.6000    85.8224     3.7985     3.8605
  275.7000    86.1574     3.7542     3.8153
  275.8000    86.5431     3.7103     3.7678
  275.9000    87.0545     3.6669     3.7471
  276.0000    87.5294     3.6220     3.7087
  276.1000    87.7961     3.5817     3.6777
  276.2000    87.7973     3.5399     3.6477
  276.3000    87.6006     3.4985     3.6096
  276.4000    87.4980     3.4577     3.5884
  276.5000    87.3947     3.4217     3.5643
  276.6000    87.1988     3.4008     3.5287
  276.7000    87.2000     3.3556     3.4875
  276.8000    87.2014     3.3387     3.4566
  276.9000    87.2024     3.3060     3.4364
  277.0000    87.2036     3.2864     3.4136
  277.1000    87.2048     3.2803     3.3718
  277.2000    87.2856     3.2611     3.3529
  277.3000    87.5089     3.2410     3.3333
  277.4000    87.5102     3.2230     3.3137
  277.5000    87.9939     3.1897     3.2943
  277.6000    88.3105     3.1633     3.2750
  277.7000    88.5667     3.1448     3.2558
  277.8000    88.8229     3.1223     3.2342
  277.9000    89.1338     3.0865     3.2177
  278.0000    89.6371     3.0658     3.2119
  278.1000    89.9320     3.0351     3.2022
  278.2000    89.9330     3.0116     3.1896
  278.3000    90.1040     2.9939     3.1868
  278.4000    90.3602     2.9764     3.1676
  278.5000    90.6928     2.9589     3.1495
  278.6000    91.1445     2.9407     3.1311
  278.7000    91.1458     2.9244     3.1127
  278.8000    91.3850     2.9203     3.0945
  278.9000    91.8326     2.9104     3.0718
  279.0000    92.0543     2.9001     3.0384
  279.1000    92.1537     2.8964     3.0384
  279.2000    92.4099     2.8801     3.0225
  279.3000    92.6660     2.8801     3.0174
  279.4000    92.9643     2.8656     3.0174
  279.5000    93.1785     2.8601     3.0174
  279.6000    93.4347     2.8601     3.0174
  279.7000    93.6909     2.8549     3.0174
  279.8000    93.9472     2.8403     3.0174
  279.9000    94.2033     2.8403     3.0174
  280.0000    94.4797     2.8403     3.0174
  280.1000    94.4808     2.8531     3.0174
  280.2000    94.6703     2.8601     3.0174
  280.3000    94.7849     2.8601     3.0174
  280.4000    94.7861     2.8601     3.0174
  280.5000    94.7873     2.8601     3.0174
  280.6000    94.7885     2.8601     3.0174
  280.7000    94.7900     2.8601     3.0174
  280.8000    94.7909     2.8601     3.0174
  280.9000    94.7922     2.8601     3.0174
  281.0000    94.6767     2.8653     3.0174
  281.1000    94.3530     2.8801     3.0174
  281.2000    93.8440     2.8801     3.0174
  281.3000    93.2888     2.8801     3.0174
  281.4000    92.8266     2.8801     3.0174
  281.5000    92.6878     2.8801     3.0174
  281.6000    92.6890     2.8801     3.0174
  281.7000    92.7819     2.8837     3.0174
  281.8000    93.0381     2.9001     3.0174
  281.9000    93.2959     2.9001     3.0174
  282.0000    93.9007     2.9001     3.0275
  282.1000    94.1084     2.9001     3.0384
  282.2000    94.3646     2.9001     3.0384
  282.3000    94.5074     2.9001     3.0384
  282.4000    94.5086     2.9022     3.0384
  282.5000    94.5098     2.9203     3.0535
  282.6000    94.5111     2.9203     3.0595
  282.7000    94.5122     2.9203     3.0595
  282.8000    94.5134     2.9303     3.0651
  282.9000    94.3795     2.9407     3.0809
  283.0000    94.1257     2.9444     3.0809
  283.1000    93.9135     2.9612     3.0980
  283.2000    93.9150     2.9612     3.1023
  283.3000    93.6660     2.9760     3.1023
  283.4000    93.6157     2.9818     3.1023
  283.5000    93.6169     2.9904     3.1064
  283.6000    93.6181     3.0026     3.1239
  283.7000    93.6193     3.0048     3.1239
  283.8000    93.6205     3.0236     3.1239
  283.9000    93.6219     3.0403     3.1365
  284.0000    93.8482     3.0582     3.1457
  284.1000    94.2830     3.0658     3.1457
  284.2000    94.6622     3.0658     3.1483
  284.3000    94.8332     3.0696     3.1676
  284.4000    94.8344     3.0877     3.1676
  284.5000    94.8356     3.1087     3.1822
  284.6000    94.8368     3.1242     3.1896
  284.7000    94.8380     3.1427     3.1976
  284.8000    94.9929     3.1522     3.2165
  284.9000    95.1421     3.1578     3.2342
  285.0000    95.1433     3.1764     3.2342
  285.1000    95.1581     3.1963     3.2511
  285.2000    95.4475     3.2140     3.2702
  285.3000    95.6706     3.2329     3.2794
  285.4000    95.9268     3.2410     3.2861
  285.5000    96.0543     3.2485     3.3054
  285.6000    96.1376     3.2676     3.3253
  285.7000    96.3937     3.2864     3.3253
  285.8000    96.6613     3.2864     3.3410
  285.9000    96.9062     3.3027     3.3484
  286.0000    96.9653     3.3222     3.3572
  286.1000    97.1169     3.3323     3.3718
  286.2000    97.1656     3.3323     3.3734
  286.3000    96.9118     3.3323     3.3952
  286.4000    96.6476     3.3323     3.3952
  286.5000    96.0665     3.3323     3.3952
  286.6000    95.4111     3.3323     3.4061
  286.7000    94.8195     3.3435     3.4189
  286.8000    94.3108     3.3556     3.4225
  286.9000    93.9596     3.3556     3.4427
  287.0000    93.9608     3.3556     3.4427
  287.1000    93.9621     3.3556     3.4427
  287.2000    93.9632     3.3556     3.4427
  287.3000    93.9644     3.3556     3.4427
  287.4000    94.1128     3.3556     3.4427
  287.5000    94.3690     3.3556     3.4407
  287.6000    94.6790     3.3556     3.4189
  287.7000    95.1831     3.3556     3.4005
  287.8000    95.4789     3.3556     3.3806
  287.9000    95.9110     3.3556     3.3607
  288.0000    96.2534     3.3556     3.3410
  288.1000    96.5096     3.3556     3.3214
  288.2000    96.6902     3.3516     3.3020
  288.3000    96.6914     3.3323     3.2794
  288.4000    96.6927     3.3323     3.2634
  288.5000    96.4565     3.3160     3.2442
  288.6000    96.3934     3.2965     3.2342
  288.7000    96.2506     3.2772     3.2286
  288.8000    96.0941     3.2636     3.2119
  288.9000    96.0953     3.2615     3.2119
  289.0000    96.0926     3.2410     3.2119
  289.1000    95.7963     3.2234     3.1976
  289.2000    95.7973     3.2186     3.1896
  289.3000    95.9642     3.2079     3.1823
  289.4000    96.1014     3.1892     3.1636
  289.5000    96.1750     3.1705     3.1450
  289.6000    96.4569     3.1522     3.1239
  289.7000    97.0101     3.1522     3.1239
  289.8000    97.2453     3.1368     3.1116
  289.9000    97.3140     3.1065     3.1023
  290.0000    97.4560     3.0787     3.1023
  290.1000    97.7122     3.0658     3.0999
  290.2000    97.9210     3.0639     3.0809
  290.3000    97.9222     3.0446     3.0636
  290.4000    97.6219     3.0281     3.0595
  290.5000    97.4138     3.0104     3.0595
  290.6000    97.3225     3.0026     3.0595
  290.7000    97.2079     2.9959     3.0595
  290.8000    96.8849     2.9818     3.0595
  290.9000    96.3985     2.9815     3.0595
  291.0000    96.1208     2.9612     3.0595
  291.1000    95.8910     2.9612     3.0595
