~VERSION INFORMATION
 VERS.                2.0:   CWLS LOG ASCII STANDARD - VERSION 2.0
 WRAP.                 NO:   ONE LINE PER DEPTH STEP
~WELL INFORMATION
#MNEM.UNIT      DATA TYPE    INFORMATION
#----------   ------------   ------------------------------
 STRT.F           19.0000:   START DEPTH
 STOP.F         1200.0000:   STOP DEPTH
 STEP.F            0.5000:   STEP LENGTH
 NULL.          -999.2500:   NO VALUE
 COMP.       INTEX OIL CO:   COMPANY
 WELL.     NPR 3 #73 S-14:   WELL
 FLD .             TEAPOT:   FIELD
 LOC .      S14 T38N R78W:   LOCATION
 CNTY.            NATRONA:   COUNTY
 STAT.            WYOMING:   STATE
 CTRY. UNITED STATES OF AMERICA:   COUNTRY
 SRVC.       Schlumberger:   SERVICE COMPANY
 DATE.        24-AUG-1966:   LOGDATE
 API .       490250970900:   API NUMBER
~CURVE INFORMATION
#MNEM.UNIT       API CODE    CURVE DESCRIPTION
#----------   ------------   ------------------------------
 DEPT.F                  :   
 SPR .MV     05 010 01 00:   SPONTANEOUS POTENTIAL FROM RES.
 ILD .OHMM   05 120 46 00:   INDUCTION LOG DEEP
 ASN .OHMM   05 041 16 00:   AMPLIFIED SHORT NORMAL 16"
 CILD.MMHO   05 110 46 00:   CONDUCTIVITY INDUCTION LOG DEEP
 CALD.IN     45 280 60 00:   CALIPER
 GRD .GAPI   45 310 01 00:   GAMMA RAY FROM DENSITY LOG
 CORR.G/C3   45 356 01 00:   DENSITY CORRECTION
 RHOB.G/C3   45 350 01 00:   BULK DENSITY
 DPHI.DEC    45 890 12 00:   DENSITY POROSITY SANDSTONE
~PARAMETER INFORMATION
#MNEM.UNIT          VALUE    DESCRIPTION
#----------   ------------   ------------------------------
 PD  .                 GL:   PERMANENT DATUM
 EPD .F              5274:   ELEVATION PERMANENT DATUM
 LMF .                 KB:   LOG MEASURED FROM
 DAPD.F                 5:   FEET ABOVE PERMANENT DATUM
 DMF .                 KB:   DRILLING MEASURED FROM
 EKB .F              5279:   KELLING BUSHING
 EGL .F              5274:   GROUND LEVEL
 DATE.            8-24-66:   RUN DATE
 RUN .                  1:   RUN NUMBER
 DD  .F              1200:   DEPTH DRILLER
 DL  .F              1200:   DEPTH LOGGER
 BLI .F              1199:   BOTTOM LOG INTERVAL
 TLI .F                86:   TOP LOG INTERVAL
 CS  .IN            8.625:   CASING SIZE
 CBD .F                10:   CASING BOTTOM DRILLER
 BS  .IN             6.75:   BIT SIZE
 BSD .F              1200:   BIT SIZE AT DEPTH
 DFT .                GEL:   DRILLING FLUID TYPE
 DFD .               10.1:   DRILLING FLUID DENSITY
 DFV .                 60:   DRILLING FLUID VISCOSITY
 MSS .          FLOW LINE:   MUD SAMPLE SOURCE
 RMS .OHMM            1.8:   RESISTIVITY MUD SAMPLE
 MST .F                67:   MUD SAMPLE TEMPERATURE
 RMF .OHMM            1.4:   RESISTIVITY MUD FILTRATE SAMPLE
 MFST.F                77:   MUD FILTRATE SAMPLE TEMPERATURE
 MFSS.                  M:   MUD FILTRATE SAMPLE SOURCE
 RMB .OHMM            1.1:   RESISTIVITY MUD AT BHT
 BHT .F               112:   BOTTOM HOLE TEMPERATURE
 TCS .HRS               1:   TIME CURCULATED STOPPED
 MRT .F               112:   MAXIMUM RECORDED TEMPERATURE
 LUN .               4507:   LOGGING UNIT NUMBER
 LUL .               CSPR:   LOGGING UNIT LOCATION
 ENGI.            MANGOLD:   RECORDING ENGINEER
 WITN.                MAY:   WITNESSED BY
 CLNT.            A2DTECH:   CLIENT CODE
 ORIG.           5" PRINT:   ORIGIN OF DATA
 UWI .       490250970900:   UNIQUE WELL ID
 DICO. A2D Technologies, Inc.:   DIGITIZING COMPANY
~OTHER INFORMATION
~A   DEPT      SPR        ILD        ASN       CILD       CALD         GRD        CORR     RHOB       DPHI   
# ...
  347.5000   -55.4380     7.1910     8.1540   131.6620     7.2930    95.2860     0.0610     2.5200     0.0980
  348.0000   -55.3250     7.1160     8.0980   132.8360     7.2940    97.1620     0.0760     2.5390     0.1050
  348.5000   -55.2310     7.0390     8.0380   134.3660     7.2870    95.9880     0.0670     2.5330     0.1050
  349.0000   -55.1230     6.9770     7.9890   135.3650     7.2780    93.7450     0.0410     2.5070     0.1050
  349.5000   -55.0160     6.8860     7.9290   135.3650     7.2690    91.6120     0.0450     2.4820     0.1040
  350.0000   -54.9260     6.8530     7.8740   135.0230     7.2610    90.2630     0.0520     2.4690     0.1050
  350.5000   -54.8030     6.9710     7.8230   133.1990     7.2520    88.9040     0.0470     2.4720     0.1080
  351.0000   -54.7270     7.1040     7.7550   131.3760     7.2430    87.6480     0.0450     2.4760     0.1110
  351.5000   -54.7940     7.2040     7.7680   129.5530     7.2340    86.4080     0.0540     2.4820     0.1120
  352.0000   -54.8900     7.3240     7.9120   127.7290     7.2260    88.1370     0.0600     2.4870     0.1120
  352.5000   -54.9700     7.4370     8.0510   125.9060     7.2170    91.0500     0.0540     2.4890     0.1120
  353.0000   -55.0480     7.5470     8.1570   124.0820     7.2080    93.5580     0.0400     2.4770     0.1120
  353.5000   -55.1270     7.6640     8.2960   122.2590     7.1990    95.4500     0.0280     2.4580     0.1280
  354.0000   -55.2900     7.7760     8.4110   120.4350     7.1910    96.7020     0.0200     2.4460     0.1260
  354.5000   -55.4600     7.8610     8.4430   118.9780     7.1820    98.2890     0.0320     2.4480     0.1230
  355.0000   -55.5850     7.9120     8.4350   118.0230     7.1730    98.3480     0.0480     2.4600     0.1200
  355.5000   -55.7710     7.9560     8.4740   117.0670     7.1650    94.8810     0.0640     2.4770     0.1170
  356.0000   -55.8970     8.0080     8.6130   116.1120     7.1550    93.1600     0.0680     2.4740     0.1140
  356.5000   -55.7890     8.0550     8.8090   115.1570     7.1540    94.1430     0.0740     2.4710     0.1120
  357.0000   -55.5070     8.1010     8.9510   114.2010     7.1530    94.1520     0.0820     2.4800     0.1100
  357.5000   -55.3600     8.1540     8.9900   113.2460     7.1590    91.8780     0.0800     2.4900     0.1090
  358.0000   -55.5610     8.1940     9.0130   112.2910     7.1770    89.8780     0.0710     2.5010     0.1070
  358.5000   -55.9090     8.2480     9.0590   111.3360     7.1880    88.1420     0.0630     2.5110     0.1050
  359.0000   -56.1740     8.3490     9.0890   110.3800     7.2050    86.0130     0.0540     2.5220     0.1020
  359.5000   -56.2040     8.4590     9.1330   109.4250     7.2200    84.3650     0.0470     2.5310     0.0990
  360.0000   -55.9730     8.5570     9.2820   108.4700     7.2360    86.8530     0.0510     2.5320     0.0960
  360.5000   -55.7120     8.6590     9.5260   107.5140     7.2520    89.6630     0.0590     2.5310     0.0930
  361.0000   -55.4940     8.7640     9.6920   106.5590     7.2680    92.5330     0.0680     2.5210     0.0920
  361.5000   -55.2320     8.8410     9.7130   105.6040     7.2830    95.2660     0.0640     2.5060     0.0910
  362.0000   -55.0050     8.8450     9.6740   104.3960     7.2990    98.1820     0.0510     2.4940     0.0910
  362.5000   -54.9030     8.7880     9.6110   105.3950     7.3150    98.2590     0.0430     2.4890     0.0960
  363.0000   -54.8800     8.7160     9.5480   106.7530     7.3300    96.2090     0.0410     2.4740     0.1060
  363.5000   -54.8610     8.6430     9.4780   108.1120     7.3330    97.2480     0.0370     2.4610     0.1160
  364.0000   -54.8330     8.5690     9.4330   109.4710     7.3300    97.8020     0.0350     2.4450     0.1330
  364.5000   -54.8130     8.4960     9.4120   110.8290     7.3270    96.8600     0.0260     2.4380     0.1300
  365.0000   -54.7930     8.4230     9.2810   112.1880     7.3240    96.2840     0.0160     2.4380     0.1230
  365.5000   -54.7600     8.3490     9.0880   113.5460     7.3210    95.4780     0.0250     2.4480     0.1160
  366.0000   -54.7540     8.2760     8.9540   114.9050     7.3180    95.4690     0.0360     2.4710     0.1090
  366.5000   -54.7060     8.2030     8.8650   116.2640     7.3150    95.1100     0.0460     2.4900     0.1020
  367.0000   -54.5140     8.1290     8.7740   117.6220     7.3120    94.2030     0.0560     2.5130     0.0950
  367.5000   -54.2590     8.0560     8.6240   118.9810     7.3100    93.5170     0.0610     2.5180     0.0890
  368.0000   -54.0350     7.9830     8.5160   120.3400     7.3070    94.7880     0.0710     2.5010     0.0830
  368.5000   -53.9270     7.9090     8.5690   121.6980     7.3040    96.3830     0.0680     2.4920     0.0830
  369.0000   -53.9510     7.8360     8.6910   123.0570     7.3010    97.9450     0.0420     2.4970     0.0830
  369.5000   -53.9840     7.7630     8.7490   124.4160     7.2980    99.0700     0.0460     2.5030     0.0810
  370.0000   -54.0040     7.6890     8.6670   125.7740     7.2950    96.6640     0.0530     2.5100     0.0770
  370.5000   -54.0350     7.6170     8.5050   127.1330     7.2920    96.0790     0.0620     2.5160     0.0800
  371.0000   -54.0600     7.5430     8.3550   128.4920     7.2890    97.4450     0.0630     2.5220     0.0900
  371.5000   -54.0860     7.4710     8.2050   129.8500     7.2870    96.1630     0.0510     2.5240     0.1020
  372.0000   -54.1150     7.4410     8.0510   129.9120     7.2840    93.5500     0.0470     2.5240     0.0970
  372.5000   -54.1400     7.4440     7.9200   129.1710     7.2810    91.5480     0.0520     2.5190     0.0890
  373.0000   -54.1660     7.4410     7.8850   128.4300     7.2780    93.2730     0.0620     2.5030     0.0800
  373.5000   -54.1960     7.4450     7.9500   127.6890     7.2750    97.7950     0.0560     2.4810     0.0950
  374.0000   -54.2180     7.4410     8.0000   126.9480     7.2740    97.7560     0.0190     2.4600     0.1100
  374.5000   -54.2480     7.3710     8.0440   126.3740     7.2750    96.3320     0.0250     2.4420     0.1230
  375.0000   -54.2750     7.2670     8.1010   128.1840     7.2750    94.9620     0.0310     2.4500     0.1140
  375.5000   -54.2960     7.1660     8.1230   130.6470     7.2750    93.5920     0.0400     2.4700     0.1060
  376.0000   -54.4300     7.0630     8.1200   133.1090     7.2750    92.2030     0.0530     2.4870     0.0980
  376.5000   -54.6710     6.9620     8.0630   135.5720     7.2750    90.8220     0.0590     2.5050     0.0920
  377.0000   -54.9320     6.8590     7.9270   138.0340     7.2750    89.5050     0.0550     2.5170     0.0920
  377.5000   -55.1940     6.7580     7.7560   140.4970     7.2750    89.9550     0.0520     2.5160     0.0940
  378.0000   -55.4230     6.6560     7.5970   142.9600     7.2750    91.6950     0.0580     2.5050     0.0960
  378.5000   -55.7180     6.5510     7.4180   145.4220     7.2750    91.2890     0.0670     2.4890     0.0980
  379.0000   -55.9020     6.4570     7.2530   147.8850     7.2750    89.6270     0.0630     2.4800     0.0950
  379.5000   -55.7410     6.3420     7.1920   150.3470     7.2750    87.8600     0.0370     2.4900     0.0920
  380.0000   -55.5370     6.2510     7.1760   152.8100     7.2750    89.9040     0.0420     2.5100     0.0890
  380.5000   -55.3480     6.2720     7.0900   155.3450     7.2750    95.6480     0.0500     2.5190     0.0900
  381.0000   -55.1430     6.3240     6.9030   153.4830     7.2750    96.3260     0.0450     2.5090     0.0960
  381.5000   -55.2200     6.3540     6.6580   151.5650     7.2750    95.0170     0.0340     2.4950     0.1010
  382.0000   -55.4520     6.3970     6.5740   149.6470     7.2750    93.7780     0.0220     2.4810     0.1060
  382.5000   -55.5800     6.4360     6.7480   147.7290     7.2750    93.9190     0.0180     2.4670     0.1110
  383.0000   -55.7400     6.4720     6.9480   145.8110     7.2750    94.9650     0.0260     2.4530     0.1160
  383.5000   -55.9880     6.5150     7.1350   143.8930     7.2750    96.0860     0.0320     2.4330     0.1210
