~VERSION INFORMATION
 VERS.                2.0:   CWLS LOG ASCII STANDARD - VERSION 2.0
 WRAP.                 NO:   ONE LINE PER DEPTH STEP
~WELL INFORMATION
#MNEM.UNIT      DATA TYPE    INFORMATION
#----------   ------------   ------------------------------
 STRT.F            4.0000:   START DEPTH
 STOP.F          508.0000:   STOP DEPTH
 STEP.F            0.5000:   STEP LENGTH
 NULL.          -999.2500:   NO VALUE
 COMP. LAWRENCE-ALLISON &AS:   COMPANY
 WELL. NPR ##3 58-65-SX-3-UPI:   WELL
 FLD .             TEAPOT:   FIELD
 LOC .       S3 T38N R78W:   LOCATION
 CNTY.            NATRONA:   COUNTY
 STAT.            WYOMING:   STATE
 CTRY. UNITED STATES OF AMERICA:   COUNTRY
 SRVC.      Dresser Atlas:   SERVICE COMPANY
 DATE.        07-DEC-1984:   LOGDATE
 API .       490251102500:   API NUMBER
~CURVE INFORMATION
#MNEM.UNIT       API CODE    CURVE DESCRIPTION
#----------   ------------   ------------------------------
 DEPT.F                  :   
 SPR .MV     07 010 01 00:   SPONTANEOUS POTENTIAL
 RILD.OHMM   07 120 46 00:   INDUCTION LOG DEEP RESISTIVITY
 RILM.OHMM   07 120 44 00:   INDUCTION LOG MEDIUM RESISTIVITY
 RFOC.OHMM   07 220 04 00:   RESISTIVITY FOCUSED LOG
 CALS.IN     60 280 50 00:   CALIPER FROM SONIC LOG
 GRS .GAPI   60 310 01 00:   GAMMA RAY FROM SONIC LOG
 AC  .US/F   60 520 00 00:   ACCOUSTIC SONIC
~PARAMETER INFORMATION
#MNEM.UNIT          VALUE    DESCRIPTION
#----------   ------------   ------------------------------
 PD  .                 GL:   PERMANENT DATUM
 EPD .F              5184:   ELEVATION PERMANENT DATUM
 LMF .                 GL:   LOG MEASURED FROM
 DMF .                 GL:   DRILLING MEASURED FROM
 EGL .F              5184:   GROUND LEVEL
 DATE.        07-DEC-1984:   RUN DATE
 RUN .                  1:   RUN NUMBER
 DD  .F               510:   DEPTH DRILLER
 DL  .F               510:   DEPTH LOGGER
 BLI .F               508:   BOTTOM LOG INTERVAL
 TLI .F                20:   TOP LOG INTERVAL
 CS  .IN            8.625:   CASING SIZE
 CBD .F                20:   CASING BOTTOM DRILLER
 CBL .F                20:   CASING BOTTOM LOGGER
 BS  .IN            7.875:   BIT SIZE
 BSD .F               510:   BIT SIZE AT DEPTH
 DFT .          KCL WATER:   DRILLING FLUID TYPE
 MSS .            MUD PIT:   MUD SAMPLE SOURCE
 RMS .OHMM            .14:   RESISTIVITY MUD SAMPLE
 MST .F                55:   MUD SAMPLE TEMPERATURE
 RMF .OHMM             .1:   RESISTIVITY MUD FILTRATE SAMPLE
 MFST.F                55:   MUD FILTRATE SAMPLE TEMPERATURE
 RMC .OHMM            .17:   RESISTIVITY MUD CAKE
 MCST.F                55:   MUD CAKE SAMPLE TEMPERATURE
 MFSS.               CALC:   MUD FILTRATE SAMPLE SOURCE
 MCSS.               CALC:   MUD CAKE SAMPLE SOURCE
 RMB .OHMM            .08:   RESISTIVITY MUD AT BHT
 BHT .F                86:   BOTTOM HOLE TEMPERATURE
 TCS .HRS               3:   TIME CURCULATED STOPPED
 MRT .F               100:   MAXIMUM RECORDED TEMPERATURE
 LUN .               6270:   LOGGING UNIT NUMBER
 LUL .                 FM:   LOGGING UNIT LOCATION
 ENGI.          E. GOVETT:   RECORDING ENGINEER
 WITN.      GROOMS, LUERS:   WITNESSED BY
 CLNT.            A2DTECH:   CLIENT CODE
 ORIG.           5" PRINT:   ORIGIN OF DATA
 UWI .       490251102500:   UNIQUE WELL ID
 DICO. A2D Technologies, Inc.:   DIGITIZING COMPANY
~OTHER INFORMATION
~A    DEPT     SPR       RILD       RILM       RFOC       CALS         GRS        AC   
# ...
   49.5000   -56.9411     8.4007     7.2610     9.7782     7.7252    97.4954   156.4455
   50.0000   -56.7812     8.4047     7.3675     9.7185     7.7260    98.1115   151.3112
   50.5000   -56.7707     8.3933     7.6327     9.7265     7.7173    96.9234   142.1045
   51.0000   -56.7601     8.3383     8.0178     9.6671     7.7099    96.1925   137.7997
   51.5000   -56.7477     8.2837     8.2490     9.6751     7.7024    95.7291   136.3206
   52.0000   -56.7372     8.2477     7.7015     9.6160     7.7011    95.7880   135.8934
   52.5000   -56.7267     8.2324     7.3927     9.5574     7.7024    97.2906   135.7403
   53.0000   -56.8679     8.1585     7.2443     9.5652     7.7036    97.7235   135.4364
   53.5000   -56.8823     8.0688     7.1479     9.5068     7.7197    97.1412   134.9050
   54.0000   -57.1663     7.9944     7.0568     9.5146     7.7209    97.3018   133.4660
   54.5000   -57.7486     7.8862     7.0619     9.4566     7.7519    97.1649   127.9945
   55.0000   -58.1819     7.7795     7.0705     9.3339     7.7680    95.9886   121.0836
   55.5000   -58.7528     7.6509     7.1209     9.2755     7.7990    95.1091   114.2918
   56.0000   -59.0482     7.4707     7.1154     9.0904     7.8299    96.0127   112.4758
   56.5000   -59.1789     7.3382     7.0207     8.9706     7.8162    99.2937   112.3188
   57.0000   -59.0194     7.2653     6.9339     8.8524     7.7430    98.8599   112.0111
   57.5000   -58.7108     7.1923     6.8900     8.7357     7.6698    98.8720   111.6279
   58.0000   -58.4023     7.1979     6.8463     8.6303     7.6559   100.2213   111.2447
   58.5000   -57.9447     7.3081     6.8109     8.6381     7.6425   103.7995   110.9980
   59.0000   -57.6361     7.4681     6.8155     8.6453     7.6437   102.9200   110.7572
   59.5000   -57.6256     7.6628     6.7639     8.6606     7.6447    99.0687   110.3058
   60.0000   -57.6152     7.8529     6.7211     8.7476     7.6458    94.9203   109.6180
   60.5000   -57.7541     8.0596     6.6785     8.9420     7.6321    96.4182   108.4194
   61.0000   -57.7432     8.2575     6.6607     9.1175     7.6333    97.7675   107.5143
   61.5000   -57.7327     8.4383     6.6993     9.2024     7.6196    97.7772   107.2819
   62.0000   -57.7222     8.5032     6.6630     9.3131     7.6060    98.0862   107.8792
   62.5000   -57.8634     8.4669     6.4867     9.3208     7.6072    98.7048   108.4764
   63.0000   -57.7012     8.3706     6.2503     9.3286     7.6084    99.1500   108.6226
   63.5000   -57.8424     8.2573     6.1387     9.3364     7.6245    97.8247   108.0871
   64.0000   -57.8293     8.1455     6.2052     9.3442     7.6405    95.1622   107.4777
   64.5000   -57.8188     8.0774     6.4040     9.3519     7.6566    96.3629   107.1699
   65.0000   -58.1063     8.0678     6.5836     9.3597     7.6727   103.6558   107.3146
   65.5000   -58.2475     8.0717     6.7007     9.3675     7.6888   108.2741   107.8364
   66.0000   -58.5324     8.0205     6.8082     9.3753     7.7049   109.0290   108.0581
   66.5000   -58.2239     8.0243     6.8402     9.3832     7.7210   107.2580   107.9750
   67.0000   -57.7663     8.0840     6.8666     9.3910     7.7222   103.8525   108.0443
   67.5000   -57.4577     8.0879     6.9199     9.3736     7.7383   101.0414   108.0382
   68.0000   -57.2982     8.0918     6.9268     9.3155     7.7543   100.1589   108.0321
   68.5000   -57.2877     8.0956     6.9069     9.2847     7.7704   101.5112   107.7244
   69.0000   -57.2772     8.0995     6.8623     9.2924     7.7716   102.2662   107.4166
   69.5000   -57.4184     8.1033     6.7215     9.3002     7.7877   102.5754   107.3363
   70.0000   -57.5569     8.1636     6.5147     9.3079     7.8038   102.5874   107.8985
   70.5000   -57.5438     8.1675     6.3673     9.3157     7.8050   102.0051   108.7768
   71.0000   -57.5333     8.1150     6.3848     9.3234     7.8060   101.2742   109.1283
   71.5000   -57.3738     8.0627     6.4799     9.3646     7.8071   100.6350   109.0467
   72.0000   -57.3633     8.0666     6.6331     9.4387     7.8083    99.1559   108.8144
   72.5000   -57.3528     8.0706     6.8274     9.5134     7.7946    96.7878   108.6575
   73.0000   -57.3423     8.0776     7.0274     9.5514     7.7810    93.4196   108.1989
   73.5000   -57.3318     8.1387     7.2668     9.6755     7.7673    91.5246   107.3632
   74.0000   -57.1723     8.2055     7.5684     9.8906     7.7387    91.9824   106.5275
   74.5000   -57.1356     8.3389     7.8624    10.1104     7.7250    95.2634   105.6919
   75.0000   -56.8555     8.5818     8.0298    10.3352     7.6964    97.3556   105.1579
   75.5000   -56.5256     8.8318     8.0678    10.4708     7.6676    99.0021   104.8501
   76.0000   -56.2385     9.0686     7.9910    10.6508     7.6391   101.2430   104.6178
   76.5000   -56.2280     9.2251     7.9677    10.7859     7.6108   102.4437   104.4608
   77.0000   -56.2176     9.4808     8.0160    10.9235     7.6120   100.8213   104.2285
   77.5000   -56.2072     9.7029     8.1673    11.0336     7.5980    96.3757   103.7699
   78.0000   -56.1927    10.0019     8.4997    11.1210     7.5844    92.8216   103.0096
   78.5000   -55.8882    10.3480     8.6843    11.2090     7.5859    93.9743   102.1740
   79.0000   -55.5797    10.6495     8.8116    11.3569     7.5871    94.8202   101.2629
   79.5000   -55.1221    10.9379     8.8790    11.5278     7.5731    95.2333   100.5026
   80.0000   -54.6645    11.2011     8.9469    11.7653     7.5895    94.7994    99.8642
   80.5000   -54.2069    11.5274     9.2689    12.0787     7.5907    93.6227    99.2619
   81.0000   -53.8984    11.7798     9.6025    12.3430     7.5919    91.4059    98.7270
   81.5000   -53.5898    11.8982     9.8111    12.5258     7.5931    90.0807    97.8311
   82.0000   -53.5793    12.0421     9.9549    12.7113     7.5943    89.7949    97.2287
   82.5000   -53.5688    12.1006    10.0311    12.8103     7.5953    89.3618    96.9984
   83.0000   -53.5583    12.1406    10.0379    12.8208     7.6113    89.2223    97.0678
   83.5000   -53.5478    12.1967     9.9754    12.7426     7.6140    89.2373    97.4387
   84.0000   -53.6890    12.2026     9.9822    12.5772     7.6434    90.1409    97.8851
   84.5000   -53.6759    12.1699     9.9890    12.5005     7.6597    92.2332    98.5577
   85.0000   -53.6654    12.0506     9.9252    12.1682     7.7054    93.1367    99.3058
   85.5000   -53.6549    11.8074     9.8623    11.9272     7.7512    92.9972    99.9784
   86.0000   -53.4954    11.3262     9.7999    11.9370     7.7971    90.9320   100.1247
   86.5000   -53.3358    10.6717     9.7282    11.8641     7.8131    86.6349   100.2679
   87.0000   -53.0273    10.0940     9.5429    11.8739     7.8292    88.2815   100.7142
   87.5000   -52.7187     9.7988     9.4886    11.7982     7.8453    90.6709   101.3869
   88.0000   -52.7082     9.7441     9.5443    11.6427     7.8465    90.8285   101.6839
   88.5000   -52.6977     9.8302    10.0539    11.4770     7.8477    88.5230   101.5255
   89.0000   -52.6872     9.9748    11.2887    11.1141     7.8489    87.1084    99.7094
   89.5000   -52.6768    10.1662    13.2506    11.3692     7.8352    85.9466    98.0442
   90.0000   -52.8179    10.3888    15.1505    12.4716     7.7620    83.2987    97.2085
   90.5000   -53.1029    10.7159    15.9175    13.5314     7.6442    78.5559    96.9762
   91.0000   -53.2440    11.0529    11.6884    12.9776     7.6153    78.2406    97.3876
   91.5000   -53.3799    11.2639    10.0049    12.2503     7.6168    81.7003    98.8325
   92.0000   -53.3694    11.4295     8.8696    11.9597     7.6180    86.7643   100.1447
   92.5000   -53.5106    11.4793     8.3007    11.8856     7.6193    89.0052   100.8019
   93.0000   -53.4975    11.4249     8.0494    11.8260     7.6053    89.3114   101.0950
   93.5000   -53.3380    11.2295     7.9024    11.7863     7.6068    87.2462   101.3906
   94.0000   -53.3275    10.9996     7.7973    11.5492     7.6078    85.6238   101.9124
   94.5000   -53.3170    10.8066     7.7108    11.3169     7.6089    86.2302   102.4342
