~VERSION INFORMATION
 VERS.                2.0:   CWLS LOG ASCII STANDARD - VERSION 2.0
 WRAP.                 NO:   ONE LINE PER DEPTH STEP
~WELL INFORMATION
#MNEM.UNIT      DATA TYPE    INFORMATION
#----------   ------------   ------------------------------
 STRT.F           30.0000:   START DEPTH
 STOP.F          440.0000:   STOP DEPTH
 STEP.F            0.5000:   STEP LENGTH
 NULL.          -999.2500:   NO VALUE
 COMP. FENIX & SCISSON INC:   COMPANY
 WELL.    54 SX 10 #54-10:   WELL
 FLD .             TEAPOT:   FIELD
 LOC .      S10 T38N R78W:   LOCATION
 CNTY.            NATRONA:   COUNTY
 STAT.            WYOMING:   STATE
 CTRY. UNITED STATES OF AMERICA:   COUNTRY
 SRVC.            Unknown:   SERVICE COMPANY
 DATE.        10-NOV-1978:   LOGDATE
 API .       490251072800:   API NUMBER
~CURVE INFORMATION
#MNEM.UNIT       API CODE    CURVE DESCRIPTION
#----------   ------------   ------------------------------
 DEPT.F                  :   
 CALD.IN     45 280 60 00:   CALIPER
 GRD .GAPI   45 310 01 00:   GAMMA RAY FROM DENSITY LOG
 DPHI.DEC    45 890 12 00:   DENSITY POROSITY SANDSTONE
 RHOB.G/C3   45 350 01 00:   BULK DENSITY
 CORR.G/C3   45 356 01 00:   DENSITY CORRECTION
 SPR .MV     05 010 01 00:   SPONTANEOUS POTENTIAL FROM RES.
 ILD .OHMM   05 120 46 00:   INDUCTION LOG DEEP
 SN  .OHMM   05 040 16 00:   SHORT NORMAL 16"
~PARAMETER INFORMATION
#MNEM.UNIT          VALUE    DESCRIPTION
#----------   ------------   ------------------------------
 PD  .                 GL:   PERMANENT DATUM
 EPD .F              5196:   ELEVATION PERMANENT DATUM
 LMF .                 KB:   LOG MEASURED FROM
 DAPD.F                 4:   FEET ABOVE PERMANENT DATUM
 DMF .                 KB:   DRILLING MEASURED FROM
 EKB .F              5200:   KELLING BUSHING
 EGL .F              5196:   GROUND LEVEL
 DATE.           11-10-78:   RUN DATE
 RUN .                  1:   RUN NUMBER
 DD  .F               435:   DEPTH DRILLER
 DL  .F               442:   DEPTH LOGGER
 BLI .F               436:   BOTTOM LOG INTERVAL
 TLI .F                50:   TOP LOG INTERVAL
 CS  .IN            8.625:   CASING SIZE
 CBD .F                40:   CASING BOTTOM DRILLER
 CBL .F                50:   CASING BOTTOM LOGGER
 BS  .IN            7.875:   BIT SIZE
 BSD .F               435:   BIT SIZE AT DEPTH
 DFT .            SEA MUD:   DRILLING FLUID TYPE
 DFD .                8.7:   DRILLING FLUID DENSITY
 DFV .                 34:   DRILLING FLUID VISCOSITY
 DFPH.                 10:   DRILLING FLUID PH
 MSS .            MUD PIT:   MUD SAMPLE SOURCE
 RMS .OHMM             .4:   RESISTIVITY MUD SAMPLE
 MST .F                57:   MUD SAMPLE TEMPERATURE
 RMF .OHMM            .34:   RESISTIVITY MUD FILTRATE SAMPLE
 MFST.F                64:   MUD FILTRATE SAMPLE TEMPERATURE
 RMC .OHMM            .44:   RESISTIVITY MUD CAKE
 MCST.F                60:   MUD CAKE SAMPLE TEMPERATURE
 MFSS.            MUD PIT:   MUD FILTRATE SAMPLE SOURCE
 MCSS.            MUD PIT:   MUD CAKE SAMPLE SOURCE
 RMB .OHMM            .36:   RESISTIVITY MUD AT BHT
 BHT .F                72:   BOTTOM HOLE TEMPERATURE
 TCS .HRS               1:   TIME CURCULATED STOPPED
 MRT .F                70:   MAXIMUM RECORDED TEMPERATURE
 LUN .               3006:   LOGGING UNIT NUMBER
 LUL .               CASP:   LOGGING UNIT LOCATION
 ENGI.             MILLER:   RECORDING ENGINEER
 WITN.           DINSMORE:   WITNESSED BY
 CLNT.            A2DTECH:   CLIENT CODE
 ORIG.           5" PRINT:   ORIGIN OF DATA
 UWI .       490251072800:   UNIQUE WELL ID
 DICO. A2D Technologies, Inc.:   DIGITIZING COMPANY
~OTHER INFORMATION
~A   DEPT     CALD         GRD      DPHI       RHOB       CORR        SPR        ILD         SN   
# ...
  232.5000     7.8140   118.1050     0.1437     2.4657     0.0197   -54.2249     6.7717     7.8988
  233.0000     7.8231   117.8209     0.1556     2.4531     0.0185   -51.2426     6.4628     7.8068
  233.5000     7.8302   118.6579     0.1675     2.4344     0.0174   -43.4577     6.1670     7.6672
  234.0000     7.8300   121.0647     0.1753     2.4156     0.0163   -38.9885     5.9583     7.3014
  234.5000     7.8300   123.4470     0.1761     2.3924     0.0151   -36.8854     5.8619     6.9530
  235.0000     7.8300   125.1735     0.1604     2.3904     0.0139   -36.5779     5.7675     6.6212
  235.5000     7.8300   126.0193     0.1463     2.4157     0.0162   -36.5844     5.6746     6.3317
  236.0000     7.8300   126.8840     0.1322     2.4388     0.0194   -36.5849     5.5747     6.3317
  236.5000     7.8300   127.0543     0.1277     2.4625     0.0226   -36.3410     5.5743     6.7400
  237.0000     7.8300   126.8938     0.1271     2.4684     0.0257   -35.5681     5.7519     7.1658
  237.5000     7.8278   127.1876     0.1265     2.4695     0.0259   -34.8341     6.0867     7.6185
  238.0000     7.8228   127.8191     0.1259     2.4759     0.0199   -34.8076     6.4394     7.9577
  238.5000     7.8178   124.5099     0.1226     2.4756     0.0140   -34.8128     6.8126     8.2191
  239.0000     7.8130   121.1624     0.1170     2.4758     0.0082   -34.8142     7.2073     8.4890
  239.5000     7.8192   117.8330     0.1113     2.4835     0.0079   -34.7513     7.6618     8.7678
  240.0000     7.8392   114.5234     0.1110     2.4919     0.0079   -34.2505     7.7826     9.0557
  240.5000     7.8591   112.0049     0.1105     2.4951     0.0080   -34.0760     7.9170     9.2828
  241.0000     7.8789   112.1173     0.1092     2.4978     0.0080   -35.7568     8.0536     9.4578
  241.5000     7.8856   113.2622     0.1045     2.5004     0.0080   -36.2424     8.1926     9.6360
  242.0000     7.8767   114.7909     0.0998     2.5057     0.0080   -33.5378     8.3340     9.7086
  242.5000     7.8678   116.4595     0.1003     2.5127     0.0080   -32.9238     8.4666     9.7190
  243.0000     7.8590   118.1441     0.1011     2.5164     0.0080   -32.2806     8.4700     9.7295
  243.5000     7.8501   119.4021     0.1020     2.5170     0.0080   -32.7267     8.5023     9.7399
  244.0000     7.8413   119.7227     0.1028     2.5145     0.0080   -33.2676     8.5348     9.7503
  244.5000     7.8324   119.5071     0.1032     2.5101     0.0080   -33.8022     8.5674     9.7608
  245.0000     7.8236   119.2819     0.1036     2.5091     0.0080   -34.2203     8.6001     9.7713
  245.5000     7.8148   119.7436     0.1040     2.5087     0.0080   -34.1496     8.6329     9.7818
  246.0000     7.8175   120.4771     0.1046     2.5083     0.0080   -34.0867     8.6658     9.7923
  246.5000     7.8326   121.0232     0.1037     2.5079     0.0080   -34.0222     8.6989     9.8028
  247.0000     7.8455   121.0208     0.1028     2.5074     0.0080   -34.0670     8.7321     9.8133
  247.5000     7.9385   120.4700     0.1022     2.5103     0.0080   -34.9564     8.7655     9.8238
  248.0000     8.0084   118.8160     0.1022     2.5134     0.0080   -36.3446     8.8150     9.8344
  248.5000     8.0485   116.8753     0.1022     2.5140     0.0080   -36.7407     8.9090     9.8449
  249.0000     8.0655   116.2602     0.1022     2.5142     0.0081   -36.8071     9.0040     9.8554
  249.5000     8.0590   115.7066     0.1022     2.5130     0.0044   -36.7117     9.1000     9.8660
  250.0000     8.0526   113.0358     0.1072     2.5124     0.0004   -35.0240     9.1876     9.8798
  250.5000     8.0461   110.3150     0.1117     2.5065    -0.0036   -33.3645     9.1876     9.8055
  251.0000     8.0397   110.5726     0.1163     2.5000    -0.0077   -31.8769     8.8125     9.7013
  251.5000     8.0333   111.7260     0.1276     2.4934    -0.0084   -29.3951     8.1454     9.5136
  252.0000     8.0288   112.3824     0.1471     2.4837    -0.0089   -28.0868     7.5287     8.8957
  252.5000     8.0288   114.1743     0.1744     2.4518    -0.0095   -27.9848     6.7472     8.3180
  253.0000     8.0288   117.7960     0.1926     2.4193    -0.0093   -27.9396     6.8206     7.7778
  253.5000     8.0279   121.3915     0.1976     2.3871    -0.0044   -26.7473     6.9432     7.3885
  254.0000     8.0208   124.9934     0.1726     2.3631     0.0006   -25.3375     7.0606     7.7956
  254.5000     8.0137   128.5938     0.1505     2.3995     0.0057   -25.1400     7.0606     8.1415
  255.0000     8.0065   132.0972     0.1283     2.4355     0.0081   -25.3605     7.0606     8.5577
  255.5000     7.9994   134.2377     0.1101     2.4710     0.0084   -25.6688     7.7598     9.5447
  256.0000     7.9923   122.4744     0.1051     2.4979     0.0087   -25.9795     9.0121    10.6456
  256.5000     7.9851   113.5445     0.1026     2.5069     0.0090   -26.2885    10.5282    11.5253
  257.0000     7.9780   108.5132     0.1033     2.5087     0.0093   -26.6012    10.9664    11.8153
  257.5000     7.9709   109.3584     0.1042     2.5107     0.0096   -26.6119    11.4420    12.1125
  258.0000     7.9638   111.7785     0.1052     2.5103     0.0100   -26.4268    11.6377    12.4173
  258.5000     7.9569   114.1614     0.1069     2.5085     0.0112   -26.2389    11.6357    12.7297
  259.0000     7.9485   114.2000     0.1085     2.5064     0.0125   -26.1572    11.6308    13.0500
  259.5000     7.9031   114.1176     0.1102     2.5044     0.0138   -26.2113    11.6340    13.3777
  260.0000     7.8552   114.2231     0.1140     2.5000     0.0151   -26.2643    12.1484    13.7164
  260.5000     7.8074   115.2492     0.1194     2.4941     0.0164   -26.3274    12.7589    14.1517
  261.0000     7.7599   115.9608     0.1248     2.4881     0.0177   -25.9327    13.3970    14.8259
  261.5000     7.7226   113.0578     0.1435     2.4818     0.0190   -25.3856    14.2939    15.5286
  262.0000     7.7029   106.1977     0.1624     2.4679     0.0203   -24.8347    15.4386    16.2646
  262.5000     7.6829    99.3784     0.1813     2.4371     0.0216   -24.2861    16.6784    17.0361
  263.0000     7.6631    92.5959     0.2002     2.4067     0.0229   -23.9788    18.0166    17.8436
  263.5000     7.6526    86.3677     0.2191     2.3762     0.0242   -24.5088    19.4623    18.5272
  264.0000     7.6567    82.3900     0.2259     2.3456     0.0255   -25.0488    21.0322    19.0150
  264.5000     7.6607    78.4010     0.2266     2.3149     0.0268   -25.5315    22.7548    19.5168
  265.0000     7.6647    74.4107     0.2266     2.3086     0.0279   -25.7511    24.3850    19.9048
  265.5000     7.6690    71.4409     0.2266     2.3090     0.0280   -25.9839    25.1724    20.1699
  266.0000     7.6884    68.6999     0.2293     2.3099     0.0245   -26.2189    25.1724    20.4386
  266.5000     7.7302    67.1778     0.2370     2.3102     0.0222   -26.4546    25.1724    20.7108
  267.0000     7.7715    68.6312     0.2453     2.2987     0.0199   -26.6940    25.1478    20.9873
  267.5000     7.8130    70.0969     0.2458     2.2869     0.0176   -26.8968    25.1047    21.2652
  268.0000     7.8545    70.3823     0.2476     2.2803     0.0158   -26.3009    25.0618    21.4069
  268.5000     7.8959    70.4572     0.2536     2.2763     0.0162   -25.7458    25.0188    21.4741
  269.0000     7.9374    70.5298     0.2596     2.2668     0.0217   -27.4240    24.9760    21.5433
  269.5000     7.9788    70.6024     0.2628     2.2547     0.0363   -34.2336    24.9449    21.6126
  270.0000     8.0203    70.6619     0.2333     2.2453     0.0550   -34.9627    25.7504    21.6822
  270.5000     8.0618    69.9610     0.2130     2.2743     0.0740   -34.2987    26.9709    21.7521
  271.0000     8.1032    68.3273     0.1926     2.3149     0.0912   -34.0439    28.2493    21.8221
  271.5000     8.1447    67.1326     0.1846     2.3561     0.0906   -34.7518    29.5882    21.8924
  272.0000     8.1860    68.2601     0.1764     2.3767     0.0861   -35.4461    29.9769    21.9630
  272.5000     8.2049    70.6675     0.1740     2.3879     0.0819   -36.0091    30.1510    22.0337
