~VERSION INFORMATION
 VERS.                2.0:   CWLS LOG ASCII STANDARD - VERSION 2.0
 WRAP.                 NO:   ONE LINE PER DEPTH STEP
~WELL INFORMATION
#MNEM.UNIT      DATA TYPE    INFORMATION
#----------   ------------   ------------------------------
 STRT.F            0.0000:   START DEPTH
 STOP.F          523.0000:   STOP DEPTH
 STEP.F            0.1000:   STEP LENGTH
 NULL.          -999.2500:   NO VALUE
 COMP.       F D SERV INC:   COMPANY
 WELL. NAVAL PETROLEUM RESERVE 3 SX-3 #87-3:   WELL
 FLD .             TEAPOT:   FIELD
 LOC .       S3 T38N R78W:   LOCATION
 CNTY.            NATRONA:   COUNTY
 STAT.            WYOMING:   STATE
 CTRY. UNITED STATES OF AMERICA:   COUNTRY
 SRVC.      Western Atlas:   SERVICE COMPANY
 DATE.        22-NOV-1992:   LOGDATE
 API .       490252254300:   API NUMBER
~CURVE INFORMATION
#MNEM.UNIT       API CODE    CURVE DESCRIPTION
#----------   ------------   ------------------------------
 DEPT.F                  :   
 GRR .GAPI   07 310 01 00:   GAMMA RAY
 RILD.OHMM   07 120 46 00:   INDUCTION LOG DEEP RESISTIVITY
 RILM.OHMM   07 120 44 00:   INDUCTION LOG MEDIUM RESISTIVITY
~PARAMETER INFORMATION
#MNEM.UNIT          VALUE    DESCRIPTION
#----------   ------------   ------------------------------
 PD  .                 GL:   PERMANENT DATUM
 EPD .F              5129:   ELEVATION PERMANENT DATUM
 LMF .                 KB:   LOG MEASURED FROM
 DAPD.F                10:   FEET ABOVE PERMANENT DATUM
 DMF .                 KB:   DRILLING MEASURED FROM
 EKB .F              5139:   KELLING BUSHING
 EDF .F              5138:   DRILLING FLOOR
 EGL .F              5129:   GROUND LEVEL
 DATE.        22-NOV-1992:   RUN DATE
 RUN .                  1:   RUN NUMBER
 DD  .F               530:   DEPTH DRILLER
 DL  .F               531:   DEPTH LOGGER
 BLI .F               530:   BOTTOM LOG INTERVAL
 TLI .F                58:   TOP LOG INTERVAL
 CS  .IN            8.625:   CASING SIZE
 CBD .F                58:   CASING BOTTOM DRILLER
 CBL .F                58:   CASING BOTTOM LOGGER
 BS  .IN            7.875:   BIT SIZE
 BSD .F               530:   BIT SIZE AT DEPTH
 DFT .           AIR FOAM:   DRILLING FLUID TYPE
 MRT .F                73:   MAXIMUM RECORDED TEMPERATURE
 LUN .            HL-6274:   LOGGING UNIT NUMBER
 LUL .             CASPER:   LOGGING UNIT LOCATION
 ENGI.       P. RASMUSSEN:   RECORDING ENGINEER
 WITN.          G. STRONG:   WITNESSED BY
 CLNT.            A2DTECH:   CLIENT CODE
 ORIG.           5" PRINT:   ORIGIN OF DATA
 UWI .       490252254300:   UNIQUE WELL ID
 DICO. A2D Technologies, Inc.:   DIGITIZING COMPANY
~OTHER INFORMATION
~A    DEPT      GRR      RILD       RILM   
# ...
  145.6000   127.7079    11.5912    11.7684
  145.7000   128.4109    11.5899    11.7676
  145.8000   128.7864    11.5884    11.7595
  145.9000   129.7568    11.5304    11.6842
  146.0000   131.2740    11.4641    11.6835
  146.1000   132.2282    11.3981    11.6392
  146.2000   132.4706    11.3326    11.5443
  146.3000   132.9081    11.2638    11.4392
  146.4000   133.1185    11.1429    11.4384
  146.5000   132.9532    11.1055    11.4376
  146.6000   132.4860    11.1043    11.4368
  146.7000   132.2060    11.1030    11.4020
  146.8000   131.5669    11.1018    11.3558
  146.9000   130.8301    11.1006    11.3549
  147.0000   130.1919    11.0500    11.3541
  147.1000   129.7001    11.0210    11.3534
  147.2000   129.1775    11.0198    11.3526
  147.3000   128.7163    11.0186    11.3518
  147.4000   128.2242    11.0172    11.3404
  147.5000   127.8481    11.0161    11.2713
  147.6000   127.6010    11.0149    11.2705
  147.7000   127.3522    11.0136    11.2243
  147.8000   126.8601    11.0020    11.1907
  147.9000   126.3683    10.9347    11.1899
  148.0000   125.7436    10.9336    11.1892
  148.1000   125.1585    10.9323    11.1882
  148.2000   124.9115    10.9311    11.1876
  148.3000   124.6259    10.9299    11.1868
  148.4000   124.2104    10.9287    11.1860
  148.5000   124.0181    10.9275    11.1852
  148.6000   123.8297    10.9263    11.1844
  148.7000   123.3020    10.9250    11.1837
  148.8000   122.5024    10.9044    11.1829
  148.9000   121.6047    10.8467    11.1821
  149.0000   120.7905    10.8454    11.1673
  149.1000   120.3837    10.8444    11.1029
  149.2000   120.5936    10.8431    11.1021
  149.3000   121.5855    10.8419    11.1013
  149.4000   122.0649    10.8407    11.1006
  149.5000   122.3680    10.8394    11.0998
  149.6000   122.6103    10.8383    11.0990
  149.7000   122.7825    10.8371    11.0981
  149.8000   122.8065    10.8075    11.0975
  149.9000   123.3806    10.7594    11.0967
  150.0000   123.5797    10.7582    11.0959
  150.1000   123.6779    10.7571    11.0837
  150.2000   123.5881    10.7559    11.0173
  150.3000   123.3409    10.7221    10.9569
  150.4000   123.0670    10.6788    10.8940
  150.5000   122.8466    10.6687    10.8315
  150.6000   122.7608    10.5285    10.7862
  150.7000   122.6541    10.4775    10.7855
  150.8000   122.3119    10.4533    10.7846
  150.9000   121.5468    10.4521    10.7840
  151.0000   120.6033    10.4509    10.7832
  151.1000   120.1571    10.4496    10.7824
  151.2000   119.9099    10.4486    10.7817
  151.3000   119.6627    10.4474    10.7809
  151.4000   119.4232    10.4462    10.7802
  151.5000   119.4208    10.4450    10.7373
  151.6000   119.6139    10.4439    10.7038
  151.7000   119.8562    10.3845    10.7030
  151.8000   120.0986    10.3691    10.7023
  151.9000   120.3904    10.3680    10.7016
  152.0000   121.2184    10.3668    10.7008
  152.1000   121.6415    10.3656    10.7001
  152.2000   122.2840    10.3643    10.6994
  152.3000   122.9171    10.3634    10.6986
  152.4000   123.5023    10.3622    10.6978
  152.5000   124.5619    10.3610    10.6971
  152.6000   125.6216    10.3598    10.6963
  152.7000   126.6813    10.3586    10.6956
  152.8000   127.8285    10.3576    10.6949
  152.9000   128.9738    10.3564    10.6941
  153.0000   129.8707    10.3553    10.6934
  153.1000   129.8647    10.3541    10.6927
  153.2000   130.2788    10.3529    10.6919
  153.3000   130.4591    10.3518    10.6912
  153.4000   130.4543    10.3506    10.6904
  153.5000   130.4093    10.3495    10.6895
  153.6000   130.1427    10.3483    10.6889
  153.7000   129.9090    10.3471    10.6881
  153.8000   129.1401    10.3458    10.6874
  153.9000   128.0372    10.3449    10.6867
  154.0000   126.8055    10.3437    10.6859
  154.1000   125.5704    10.3216    10.6852
  154.2000   124.0929    10.2696    10.6844
  154.3000   123.7744    10.2683    10.6836
  154.4000   123.7695    10.2673    10.6829
  154.5000   123.7647    10.2661    10.6822
  154.6000   123.7599    10.2650    10.6813
  154.7000   123.7544    10.2639    10.6807
  154.8000   123.7502    10.2627    10.6800
  154.9000   123.7454    10.2616    10.6792
  155.0000   123.7406    10.2605    10.6785
  155.1000   123.7357    10.2593    10.6777
  155.2000   123.7307    10.2422    10.6770
  155.3000   123.7261    10.1858    10.6357
  155.4000   123.7213    10.1845    10.6013
  155.5000   123.7164    10.1836    10.5875
  155.6000   123.7116    10.1491    10.5262
  155.7000   123.7067    10.1106    10.5255
  155.8000   123.7010    10.1095    10.4792
  155.9000   123.6971    10.1082    10.4509
  156.0000   123.9739    10.1072    10.4502
  156.1000   124.4597    10.1061    10.4494
  156.2000   124.9456    10.1049    10.4486
  156.3000   125.4872    10.1038    10.4480
  156.4000   125.9174    10.1026    10.4472
  156.5000   126.7249    10.1016    10.4465
  156.6000   127.5969    10.0589    10.4458
  156.7000   128.2318    10.0292    10.4450
  156.8000   128.4801    10.0281    10.4443
  156.9000   129.1875    10.0250    10.4436
  157.0000   129.5566     9.9560    10.4428
  157.1000   129.6724     9.9551    10.4260
  157.2000   129.6676     9.9540    10.3475
  157.3000   129.6628     9.9338    10.1226
  157.4000   129.6570     9.8827    10.1049
  157.5000   129.6531     9.8815    10.0466
  157.6000   129.6483     9.8317     9.9789
  157.7000   129.6434     9.8108     9.8843
  157.8000   129.6386     9.7787     9.8387
  157.9000   129.6333     9.8088     9.8376
  158.0000   129.6290     9.6718     9.8364
  158.1000   129.6241     9.6679     9.8353
  158.2000   129.6193     9.6023     9.8343
  158.3000   129.6145     9.5566     9.8332
  158.4000   129.6096     9.5338     9.8064
  158.5000   129.6048     9.5327     9.7627
  158.6000   129.6000     9.5316     9.7613
  158.7000   129.5952     9.5305     9.7050
  158.8000   129.5904     9.5295     9.6916
  158.9000   129.5855     9.5285     9.6905
  159.0000   129.5799     9.5274     9.6895
  159.1000   129.5759     9.5263     9.6834
  159.2000   129.5710     9.5252     9.6198
  159.3000   129.5662     9.5241     9.6189
  159.4000   129.5614     9.4807     9.5834
  159.5000   129.5562     9.4559     9.5500
  159.6000   129.5517     9.4548     9.5489
  159.7000   129.5469     9.4481     9.5478
  159.8000   129.5421     9.3870     9.5467
  159.9000   130.4364     9.3393     9.5456
  160.0000   134.3590     9.2854     9.5446
  160.1000   134.5996     9.2541     9.5293
  160.2000   134.6510     9.2531     9.4762
  160.3000   134.6462     9.2521     9.4749
  160.4000   134.7177     9.2511     9.4740
  160.5000   134.9386     9.2500     9.4730
  160.6000   134.9326     9.2490     9.4719
  160.7000   134.9285     9.2480     9.4709
  160.8000   134.6181     9.2469     9.4697
  160.9000   134.2190     9.2458     9.4688
  161.0000   133.6470     9.2449     9.4677
  161.1000   131.2890     9.2438     9.4434
  161.2000   129.2213     9.2428     9.3999
  161.3000   128.0460     9.2418     9.3988
  161.4000   127.3051     9.2407     9.3978
  161.5000   126.5038     9.2397     9.3569
  161.6000   125.5336     9.2387     9.3303
  161.7000   125.5288     9.2377     9.3293
  161.8000   125.5240     9.2366     9.3250
  161.9000   125.5191     9.2340     9.2623
  162.0000   125.5143     9.1703     9.2614
  162.1000   125.5095     9.1694     9.2604
  162.2000   125.5040     9.1385     9.2593
  162.3000   125.4998     9.0857     9.2505
  162.4000   125.4950     9.0396     9.1929
  162.5000   125.4902     9.0384     9.1919
  162.6000   125.4853     8.9916     9.1909
  162.7000   125.4803     8.9738     9.1658
  162.8000   125.4757     8.9728     9.1251
  162.9000   125.2940     8.9718     9.1240
  163.0000   125.1644     8.9708     9.1230
  163.1000   125.0310     8.9697     9.0818
  163.2000   124.5353     8.9688     9.0576
  163.3000   123.9423     8.9678     9.0566
  163.4000   123.9384     8.9668     9.0555
  163.5000   123.9336     8.9658     9.0544
  163.6000   123.9288     8.9646     9.0536
  163.7000   123.9240     8.9638     9.0525
