~VERSION INFORMATION
 VERS.                2.0:   CWLS LOG ASCII STANDARD - VERSION 2.0
 WRAP.                 NO:   ONE LINE PER DEPTH STEP
~WELL INFORMATION
#MNEM.UNIT      DATA TYPE    INFORMATION
#----------   ------------   ------------------------------
 STRT.F           43.0000:   START DEPTH
 STOP.F          551.0000:   STOP DEPTH
 STEP.F            0.5000:   STEP LENGTH
 NULL.          -999.2500:   NO VALUE
 COMP. FENIX & SCISSON INC:   COMPANY
 WELL.   NPR 3  27-S #3-3:   WELL
 FLD .             TEAPOT:   FIELD
 LOC .       S3 T38N R78W:   LOCATION
 CNTY.            NATRONA:   COUNTY
 STAT.            WYOMING:   STATE
 CTRY. UNITED STATES OF AMERICA:   COUNTRY
 SRVC.           BIRDWELL:   SERVICE COMPANY
 DATE.        07-OCT-1978:   LOGDATE
 API .       490251071600:   API NUMBER
~CURVE INFORMATION
#MNEM.UNIT       API CODE    CURVE DESCRIPTION
#----------   ------------   ------------------------------
 DEPT.F                  :   
 SPR .MV     05 010 01 00:   SPONTANEOUS POTENTIAL FROM RES.
 SN  .OHMM   05 040 16 00:   SHORT NORMAL 16"
 ILD .OHMM   05 120 46 00:   INDUCTION LOG DEEP
 GRD .GAPI   45 310 01 00:   GAMMA RAY FROM DENSITY LOG
 CALD.IN     45 280 60 00:   CALIPER
 RHOB.G/C3   45 350 01 00:   BULK DENSITY
 CORR.G/C3   45 356 01 00:   DENSITY CORRECTION
 DPHI.DEC    45 890 12 00:   DENSITY POROSITY SANDSTONE
~PARAMETER INFORMATION
#MNEM.UNIT          VALUE    DESCRIPTION
#----------   ------------   ------------------------------
 PD  .                 GL:   PERMANENT DATUM
 EPD .F              5241:   ELEVATION PERMANENT DATUM
 LMF .                 KB:   LOG MEASURED FROM
 DAPD.F                 4:   FEET ABOVE PERMANENT DATUM
 DMF .                 KB:   DRILLING MEASURED FROM
 EKB .F              5245:   KELLING BUSHING
 EGL .F              5241:   GROUND LEVEL
 DATE.            10-7-78:   RUN DATE
 RUN .                  1:   RUN NUMBER
 DD  .F               552:   DEPTH DRILLER
 DL  .F               551:   DEPTH LOGGER
 BLI .F               545:   BOTTOM LOG INTERVAL
 TLI .F                48:   TOP LOG INTERVAL
 CS  .IN            8.625:   CASING SIZE
 CBL .F                43:   CASING BOTTOM LOGGER
 BS  .IN            7.875:   BIT SIZE
 BSD .F               552:   BIT SIZE AT DEPTH
 DFT .                KCL:   DRILLING FLUID TYPE
 DFD .                8.7:   DRILLING FLUID DENSITY
 DFV .                 38:   DRILLING FLUID VISCOSITY
 DFPH.                  9:   DRILLING FLUID PH
 DFL .                 38:   DRILLING FLUID LOSS
 MSS .            MUD PIT:   MUD SAMPLE SOURCE
 RMS .OHMM            .24:   RESISTIVITY MUD SAMPLE
 MST .F                48:   MUD SAMPLE TEMPERATURE
 RMF .OHMM             .2:   RESISTIVITY MUD FILTRATE SAMPLE
 MFST.F                62:   MUD FILTRATE SAMPLE TEMPERATURE
 RMC .OHMM             .3:   RESISTIVITY MUD CAKE
 MCST.F                62:   MUD CAKE SAMPLE TEMPERATURE
 MFSS.               MEAS:   MUD FILTRATE SAMPLE SOURCE
 MCSS.               MEAS:   MUD CAKE SAMPLE SOURCE
 TCS .HRS               3:   TIME CURCULATED STOPPED
 LUN .               2958:   LOGGING UNIT NUMBER
 LUL .               CASP:   LOGGING UNIT LOCATION
 ENGI.             MILLER:   RECORDING ENGINEER
 WITN.              AMEND:   WITNESSED BY
 CLNT.            A2DTECH:   CLIENT CODE
 ORIG.       2", 5" PRINT:   ORIGIN OF DATA
 UWI .       490251071600:   UNIQUE WELL ID
 DICO. A2D Technologies, Inc.:   DIGITIZING COMPANY
~OTHER INFORMATION
~A   DEPT      SPR         SN        ILD        GRD         CALD       RHOB      CORR        DPHI 
# ...
  205.0000   -29.1011     7.5759     8.9931   113.1871     8.3568     2.5207     0.0924     0.0942
  205.5000   -29.0671     7.5819     8.9323   113.0532     8.3568     2.5221     0.1019     0.0931
  206.0000   -29.0322     7.5878     8.8717   113.1857     8.3575     2.5235     0.1058     0.0919
  206.5000   -28.9973     7.5938     8.8115   113.5597     8.3255     2.5243     0.1082     0.0922
  207.0000   -28.9624     7.5997     8.7517   113.9304     8.2900     2.5122     0.1115     0.0980
  207.5000   -28.9275     7.6057     8.6924   114.2235     8.2570     2.4984     0.1245     0.1045
  208.0000   -28.8927     7.6117     8.6430   114.2803     8.2465     2.4946     0.1629     0.1090
  208.5000   -28.8578     7.6176     8.6875   114.3348     8.2351     2.5168     0.1822     0.0986
  209.0000   -28.8229     7.6236     8.7258   114.4667     8.1903     2.5370     0.1779     0.0892
  209.5000   -28.7880     7.6296     8.7644   115.9143     8.1458     2.5516     0.1619     0.0825
  210.0000   -28.7531     7.6356     8.8031   116.2820     8.1016     2.5436     0.1285     0.0844
  210.5000   -28.7182     7.6416     8.8420   115.2791     8.0715     2.5282     0.0930     0.0916
  211.0000   -28.6834     7.6476     8.8811   113.0839     8.0583     2.5137     0.0573     0.0988
  211.5000   -28.6486     7.6536     8.9203   110.5200     8.0449     2.5057     0.0294     0.1060
  212.0000   -28.6136     7.6595     8.9597   107.9010     8.0241     2.4977     0.0167     0.1110
  212.5000   -28.5706     7.6652     9.0424   107.0019     7.9937     2.4975     0.0162     0.1096
  213.0000   -28.4898     7.7106     9.1689   108.5547     7.9634     2.5003     0.0157     0.1077
  213.5000   -28.4097     7.7658     9.3166   110.3522     7.9330     2.5032     0.0152     0.1058
  214.0000   -28.3295     7.8389     9.4797   110.5942     7.9026     2.5060     0.0128     0.1039
  214.5000   -28.2498     7.9797     9.6457   109.1382     7.8721     2.5063     0.0087     0.1032
  215.0000   -28.1913     8.1230     9.7849   105.7329     7.8419     2.5020     0.0045     0.1106
  215.5000   -28.2218     8.2073     9.8845   102.9662     7.8187     2.4978     0.0002     0.1117
  216.0000   -28.2506     8.2550     9.9851   100.9820     7.8472     2.4936    -0.0013     0.1124
  216.5000   -28.2792     8.3029    10.0867    99.0032     7.9150     2.4894    -0.0017     0.1131
  217.0000   -28.3079     8.3899    10.1893    97.8592     7.9111     2.4852    -0.0021     0.1159
  217.5000   -28.3370     8.5274    10.2930    97.8541     7.8708     2.4810    -0.0025     0.1194
  218.0000   -28.3646     8.6683    10.3931    97.8326     7.8440     2.4810    -0.0029     0.1203
  218.5000   -28.3381     8.8039    10.5618    97.8144     7.8750     2.4821    -0.0013     0.1178
  219.0000   -28.1035     8.8118    10.7260    97.7953     7.8993     2.4870     0.0006     0.1153
  219.5000   -27.8756     8.8193    10.8928    97.7762     7.9096     2.4916     0.0025     0.1128
  220.0000   -27.6476     8.8269    11.0622    97.7570     7.9207     2.4925     0.0027     0.1128
  220.5000   -27.4198     8.8345    11.1887    97.7379     7.9325     2.4844     0.0021     0.1198
  221.0000   -27.4069     8.8420    11.1625    97.7182     7.9823     2.4752     0.0016     0.1245
  221.5000   -27.4265     8.8496    11.1419    97.6991     8.0903     2.4720     0.0010     0.1274
  222.0000   -27.4466     8.8572    11.1213    97.6871     8.1986     2.4711     0.0004     0.1264
  222.5000   -27.4662     8.8648    11.1007    98.0323     8.2239     2.4703    -0.0001     0.1262
  223.0000   -27.4858     8.8726    11.0802    98.9275     8.2324     2.4694    -0.0007     0.1280
  223.5000   -27.5054     8.8808    11.0597    99.4251     8.2405     2.4688     0.0021     0.1283
  224.0000   -27.5250     8.8870    11.0392    99.1856     8.2487     2.4721     0.0082     0.1255
  224.5000   -27.5418     8.7429    11.0190    98.9532     8.2569     2.4811     0.0143     0.1202
  225.0000   -27.5311     8.6144    10.9988    99.0084     8.2639     2.4900     0.0110     0.1150
  225.5000   -27.5527     8.4877    10.9177    99.2417     8.2707     2.4922     0.0067     0.1116
  226.0000   -30.1873     8.3630    10.6983    99.4724     8.2775     2.4917     0.0022     0.1123
  226.5000   -33.7709     8.2536    10.4838    99.4910     8.2844     2.4912     0.0014     0.1130
  227.0000   -31.6122     8.2618    10.2977    98.4854     8.2913     2.4907     0.0021     0.1137
  227.5000   -28.9263     8.2692    10.3189    97.8587     8.2970     2.4902     0.0028     0.1145
  228.0000   -28.7980     8.2765    10.3420    97.8869     8.2968     2.4898     0.0036     0.1150
  228.5000   -28.8489     8.2839    10.3652    96.2179     8.2968     2.4932     0.0043     0.1114
  229.0000   -28.8893     8.2913    10.3884    93.4565     8.2968     2.5060     0.0050     0.1042
  229.5000   -28.9251     8.2987    10.4117    90.6480     8.2968     2.5188     0.0086     0.0970
  230.0000   -28.9596     8.3061    10.4351    89.4929     8.2968     2.5221     0.0126     0.0934
  230.5000   -28.9370     8.3135    10.4585    89.8002     8.2968     2.5096     0.0165     0.1026
  231.0000   -28.7922     8.3209    10.4819    94.0276     8.2968     2.4970     0.0177     0.1109
  231.5000   -28.6491     8.3300    10.5054    97.7803     8.2968     2.4844     0.0185     0.1192
  232.0000   -28.5064     8.2768    10.5291   100.1490     8.2968     2.4747     0.0243     0.1228
  232.5000   -28.3801     8.2065    10.5531   102.5164     8.2968     2.4762     0.0351     0.1210
  233.0000   -28.3619     8.1369    10.5863   104.1143     8.2968     2.4819     0.0455     0.1197
  233.5000   -28.3415     8.0678    10.4630   104.4185     8.2968     2.4843     0.0509     0.1188
  234.0000   -28.3206     7.9993    10.2482   104.5174     8.2968     2.4853     0.0508     0.1180
  234.5000   -28.2998     7.9314    10.0377   104.1472     8.2968     2.4852     0.0508     0.1195
  235.0000   -28.2790     7.8640     9.8315   103.8142     8.2968     2.4754     0.0508     0.1255
  235.5000   -28.2581     7.8095     9.6298   103.6669     8.2968     2.4624     0.0508     0.1315
  236.0000   -28.2372     7.8095     9.4306   103.9953     8.2968     2.4504     0.0575     0.1374
  236.5000   -28.2167     7.8095     9.3715   104.4557     8.2968     2.4496     0.0740     0.1373
  237.0000   -28.1943     7.8095     9.3462   104.8436     8.2968     2.4583     0.0903     0.1334
  237.5000   -28.2939     7.8095     9.3217   104.5554     8.2968     2.4670     0.1066     0.1292
  238.0000   -28.4694     7.8095     9.2971   100.8336     8.2968     2.4757     0.1228     0.1249
  238.5000   -28.6455     7.8093     9.2726   100.5099     8.2968     2.4766     0.1284     0.1240
  239.0000   -28.7935     7.8103     9.2480   100.6469     8.2968     2.4766     0.1271     0.1234
  239.5000   -28.8189     7.7233     9.2231   100.7818     8.2968     2.4772     0.1258     0.1220
  240.0000   -28.8463     7.6191     9.1883   100.8273     8.2968     2.4821     0.1240     0.1131
  240.5000   -28.8741     7.5161     9.1384    99.1996     8.2968     2.5059     0.1153     0.1042
  241.0000   -28.9018     7.4576     9.0887    97.6178     8.2968     2.5269     0.0846     0.0926
  241.5000   -28.9306     7.4823     9.0394    97.5770     8.2968     2.5255     0.0535     0.0998
  242.0000   -28.9615     7.4996     8.9903    97.5030     8.2968     2.5010     0.0227     0.1142
  242.5000   -28.9586     7.5170     8.9415    98.3448     8.2968     2.4789    -0.0011     0.1231
  243.0000   -28.3404     7.5264     8.8929    99.9828     8.2968     2.4772     0.0000     0.1221
  243.5000   -27.9564     7.4614     8.8446   100.0703     8.2968     2.4787     0.0011     0.1202
  244.0000   -27.8918     7.3853     8.7966   100.0615     8.2966     2.4802     0.0021     0.1191
  244.5000   -27.8278     7.3097     8.7488   100.1064     8.3048     2.4806     0.0030     0.1199
  245.0000   -27.9594     7.2542     8.7173   100.4863     8.3158     2.4806     0.0030     0.1207
