~VERSION INFORMATION
 VERS.                2.0:   CWLS LOG ASCII STANDARD - VERSION 2.0
 WRAP.                 NO:   ONE LINE PER DEPTH STEP
~WELL INFORMATION
#MNEM.UNIT      DATA TYPE    INFORMATION
#----------   ------------   ------------------------------
 STRT.F            2.0000:   START DEPTH
 STOP.F          592.0000:   STOP DEPTH
 STEP.F            0.1000:   STEP LENGTH
 NULL.          -999.2500:   NO VALUE
 COMP. BROWN JOHN E&C INC:   COMPANY
 WELL. NAVAL PETROLEUM RESERVE 3 SX-3 #73-3:   WELL
 FLD .             TEAPOT:   FIELD
 LOC .       S3 T38N R78W:   LOCATION
 CNTY.            NATRONA:   COUNTY
 STAT.            WYOMING:   STATE
 CTRY. UNITED STATES OF AMERICA:   COUNTRY
 SRVC.     Atlas Wireline:   SERVICE COMPANY
 DATE.        22-APR-1992:   LOGDATE
 API .       490252251000:   API NUMBER
~CURVE INFORMATION
#MNEM.UNIT       API CODE    CURVE DESCRIPTION
#----------   ------------   ------------------------------
 DEPT.F                  :   
 GRR .GAPI   07 310 01 00:   GAMMA RAY
 RILD.OHMM   07 120 46 00:   INDUCTION LOG DEEP RESISTIVITY
 RILM.OHMM   07 120 44 00:   INDUCTION LOG MEDIUM RESISTIVITY
~PARAMETER INFORMATION
#MNEM.UNIT          VALUE    DESCRIPTION
#----------   ------------   ------------------------------
 PD  .                 GL:   PERMANENT DATUM
 EPD .F              5148:   ELEVATION PERMANENT DATUM
 LMF .                 KB:   LOG MEASURED FROM
 DAPD.F                 5:   FEET ABOVE PERMANENT DATUM
 DMF .                 KB:   DRILLING MEASURED FROM
 EKB .F              5153:   KELLING BUSHING
 EDF .F              5152:   DRILLING FLOOR
 EGL .F              5148:   GROUND LEVEL
 DATE.        22-APR-1992:   RUN DATE
 RUN .                  1:   RUN NUMBER
 DD  .F               600:   DEPTH DRILLER
 DL  .F               601:   DEPTH LOGGER
 BLI .F               592:   BOTTOM LOG INTERVAL
 TLI .F                51:   TOP LOG INTERVAL
 CS  .IN            8.625:   CASING SIZE
 CBD .F                48:   CASING BOTTOM DRILLER
 CBL .F                51:   CASING BOTTOM LOGGER
 BS  .IN            7.875:   BIT SIZE
 BSD .F               600:   BIT SIZE AT DEPTH
 DFT .                AIR:   DRILLING FLUID TYPE
 LUN .            HL-5272:   LOGGING UNIT NUMBER
 LUL .             CASPER:   LOGGING UNIT LOCATION
 ENGI.       P. RAGMUSSEN:   RECORDING ENGINEER
 WITN.          G. STRONG:   WITNESSED BY
 CLNT.            A2DTECH:   CLIENT CODE
 ORIG.           5" PRINT:   ORIGIN OF DATA
 UWI .       490252251000:   UNIQUE WELL ID
 DICO. A2D Technologies, Inc.:   DIGITIZING COMPANY
~OTHER INFORMATION
~A    DEPT      GRR      RILD       RILM   
# ...
  566.2000   123.2051    10.3549    10.4038
  566.3000   124.0318    10.3557    10.4045
  566.4000   124.2522    10.3567    10.4052
  566.5000   124.6627    10.3575    10.4060
  566.6000   125.1578    10.3584    10.4066
  566.7000   125.6047    10.3592    10.4073
  566.8000   125.8619    10.3601    10.4081
  566.9000   125.8643    10.3610    10.4088
  567.0000   125.6849    10.3618    10.3903
  567.1000   125.4409    10.3172    10.3323
  567.2000   125.1282    10.2917    10.2671
  567.3000   124.6371    10.2741    10.2174
  567.4000   124.0586    10.2170    10.1240
  567.5000   123.4547    10.1520    10.0337
  567.6000   122.5720    10.1528     9.9777
  567.7000   121.7664    10.1178     9.9193
  567.8000   121.2440    10.0840     9.9200
  567.9000   120.4342    10.0848     9.9207
  568.0000   120.2142    10.0857     9.9214
  568.1000   119.8047    10.0334     9.9221
  568.2000   119.7501    10.0174     9.9227
  568.3000   120.1931    10.0182     9.9236
  568.4000   120.4461    10.0329     9.9241
  568.5000   120.9332    10.0899     9.9571
  568.6000   121.6146    10.0907     9.9948
  568.7000   122.4862    10.0916     9.9955
  568.8000   123.3290    10.0611     9.9963
  568.9000   123.8405    10.0051     9.9969
  569.0000   124.7034     9.9495     9.9976
  569.1000   125.1178     9.8864     9.9983
  569.2000   125.6130     9.8393     9.9879
  569.3000   125.9224     9.8194     9.9303
  569.4000   125.9249     9.7982     9.9310
  569.5000   125.9275     9.7436     9.8903
  569.6000   125.9297     9.6861     9.8071
  569.7000   125.9321     9.6356     9.7125
  569.8000   125.9345     9.5821     9.6583
  569.9000   125.8803     9.5288     9.5947
  570.0000   125.6364     9.4890     9.5509
  570.1000   125.3923     9.4898     9.4977
  570.2000   125.1483     9.4362     9.4639
  570.3000   125.0376     9.4255     9.4576
  570.4000   124.9631     9.3969     9.3996
  570.5000   124.7392     9.3617     9.4003
  570.6000   124.7422     9.3625     9.4009
  570.7000   124.9545     9.3634     9.3781
  570.8000   125.2032     9.3640     9.3369
  570.9000   125.3552     9.3648     9.3376
  571.0000   125.4385     9.3444     9.2864
  571.1000   125.9662     9.3013     9.2741
  571.2000   126.4291     9.3022     9.2747
  571.3000   126.5770     9.3030     9.2600
  571.4000   126.5794     9.3038     9.2117
  571.5000   126.5818     9.3046     9.2125
  571.6000   126.5842     9.3053     9.2130
  571.7000   126.3362     9.3061     9.2136
  571.8000   126.0920     9.3068     9.2142
  571.9000   125.7105     9.3076     9.2149
  572.0000   125.3818     9.3084     9.2156
  572.1000   125.3598     9.3092     9.2162
  572.2000   125.0840     9.3100     9.2168
  572.3000   125.3002     9.3109     9.2175
  572.4000   125.3916     9.3115     9.2181
  572.5000   125.4950     9.3123     9.2188
  572.6000   125.7439     9.3131     9.2194
  572.7000   126.0050     9.3138     9.2201
  572.8000   126.2416     9.3147     9.2207
  572.9000   126.3128     9.3154     9.2213
  573.0000   126.4364     9.3162     9.2262
  573.1000   126.7498     9.3170     9.2872
  573.2000   127.2372     9.3178     9.2877
  573.3000   127.5350     9.3185     9.2883
  573.4000   127.9329     9.3193     9.2890
  573.5000   128.2868     9.3201     9.2896
  573.6000   128.6205     9.3209     9.2903
  573.7000   129.0878     9.3216     9.2909
  573.8000   129.3651     9.3224     9.2916
  573.9000   129.5854     9.3233     9.2922
  574.0000   129.8344     9.3240     9.2800
  574.1000   130.0833     9.3248     9.2290
  574.2000   130.2837     9.3255     9.2297
  574.3000   130.2861     9.3263     9.2303
  574.4000   130.2885     9.3271     9.2310
  574.5000   129.9273     9.2781     9.2316
  574.6000   129.1863     9.2639     9.2271
  574.7000   128.2028     9.2647     9.1689
  574.8000   127.2197     9.2655     9.1695
  574.9000   126.0586     9.2662     9.1701
  575.0000   125.4547     9.2670     9.1708
  575.1000   124.8630     9.2263     9.1714
  575.2000   124.3724     9.2043     9.1721
  575.3000   123.8823     9.1877     9.1235
  575.4000   123.3433     9.1419     9.1097
  575.5000   123.1233     9.1428     9.0851
  575.6000   122.8793     9.1435     9.0478
  575.7000   122.8532     9.1112     9.0467
  575.8000   123.1022     9.0816     8.9863
  575.9000   123.3552     9.0823     8.9868
  576.0000   123.8423     9.0831     8.9875
  576.1000   124.5234     9.0351     8.9707
  576.2000   125.5236     9.0216     8.9263
  576.3000   126.6133     8.9974     8.9271
  576.4000   127.3556     8.9605     8.9276
  576.5000   128.2186     8.9612     8.9282
  576.6000   128.8390     8.9620     8.9074
  576.7000   129.5807     8.9224     8.8674
  576.8000   130.2293     8.9013     8.8682
  576.9000   130.6884     8.8851     8.8688
  577.0000   130.9578     8.8409     8.8694
  577.1000   131.1861     8.8419     8.8700
  577.2000   131.4351     8.8425     8.8566
  577.3000   131.5709     8.8111     8.8097
  577.4000   131.5734     8.7621     8.8104
  577.5000   131.5758     8.7223     8.7701
  577.6000   131.3318     8.7232     8.7504
  577.7000   130.7074     8.6770     8.7510
  577.8000   130.1038     8.6641     8.7451
  577.9000   129.5366     8.6648     8.6916
  578.0000   128.8001     8.6527     8.6921
  578.1000   127.9543     8.6061     8.6927
  578.2000   127.3257     8.6070     8.6934
  578.3000   126.5892     8.6076     8.6939
  578.4000   125.9493     8.5806     8.6945
  578.5000   125.4181     8.5492     8.6469
  578.6000   124.6329     8.5447     8.6354
  578.7000   124.1750     8.4915     8.6104
  578.8000   123.8579     8.4921     8.5624
  578.9000   123.7309     8.4617     8.5178
  579.0000   123.7937     8.4346     8.5185
  579.1000   124.0387     8.4264     8.4788
  579.2000   124.0412     8.3775     8.4315
  579.3000   124.2377     8.3782     8.4023
  579.4000   124.3491     8.3445     8.3960
  579.5000   124.4323     8.3215     8.3453
  579.6000   124.6814     8.3097     8.3026
  579.7000   124.9627     8.2635     8.2885
  579.8000   125.1789     8.2086     8.2676
  579.9000   125.4279     8.2091     8.2321
  580.0000   125.5758     8.1832     8.2327
  580.1000   125.6226     8.1535     8.1868
  580.2000   125.8838     8.1490     8.1412
  580.3000   126.1205     8.0984     8.0958
  580.4000   126.3694     8.0990     8.0648
  580.5000   126.6183     8.0997     8.0653
  580.6000   126.8024     8.0811     8.0660
  580.7000   126.8130     8.0447     8.0277
  580.8000   127.1108     8.0455     7.9829
  580.9000   127.1128     8.0462     7.9560
  581.0000   127.2565     8.0469     7.9492
  581.1000   127.5054     8.0475     7.9020
  581.2000   127.7261     8.0360     7.9025
  581.3000   127.7288     7.9930     7.9030
  581.4000   127.7309     7.9938     7.8824
  581.5000   127.7333     7.9579     7.8493
  581.6000   127.7357     7.9396     7.8499
  581.7000   127.7382     7.9247     7.8504
  581.8000   127.7407     7.8806     7.8161
  581.9000   127.7431     7.8318     7.7970
  582.0000   127.5636     7.8324     7.7976
  582.1000   127.3196     7.8041     7.7938
  582.2000   127.0069     7.7607     7.7446
  582.3000   126.5044     7.7259     7.7451
  582.4000   125.6344     7.7267     7.7177
  582.5000   125.0305     7.6853     7.6746
  582.6000   124.2933     7.6426     7.6318
  582.7000   123.7341     7.6217     7.5872
  582.8000   123.5221     7.6107     7.5877
  582.9000   123.5251     7.5701     7.5573
  583.0000   123.9716     7.5709     7.5152
  583.1000   124.3014     7.5368     7.4733
  583.2000   124.5503     7.4948     7.4315
  583.3000   124.8517     7.4679     7.3820
  583.4000   125.3552     7.4586     7.3489
  583.5000   125.1151     7.3660     7.3079
  583.6000   119.6664     7.3666     7.2813
  583.7000    67.0071     7.3398     7.2771
  583.8000     0.8194     7.2990     7.2319
  583.9000     0.8219     7.2584     7.2323
  584.0000     0.8246     7.2167     7.2328
  584.1000  -999.2500     7.2173     7.2333
  584.2000  -999.2500     7.1879     7.2338
  584.3000  -999.2500     7.1684     7.2343
