~VERSION INFORMATION
 VERS.                2.0:   CWLS LOG ASCII STANDARD - VERSION 2.0
 WRAP.                 NO:   ONE LINE PER DEPTH STEP
~WELL INFORMATION
#MNEM.UNIT      DATA TYPE    INFORMATION
#----------   ------------   ------------------------------
 STRT.F           10.0000:   START DEPTH
 STOP.F          756.0000:   STOP DEPTH
 STEP.F            0.1000:   STEP LENGTH
 NULL.          -999.2500:   NO VALUE
 COMP. BROWN JOHN E&C INC:   COMPANY
 WELL. N P R 3 SHX- #31-1-X-14:   WELL
 FLD .             TEAPOT:   FIELD
 LOC .      S14 T38N R78W:   LOCATION
 CNTY.            NATRONA:   COUNTY
 STAT.            WYOMING:   STATE
 CTRY. UNITED STATES OF AMERICA:   COUNTRY
 SRVC.     Atlas Wireline:   SERVICE COMPANY
 DATE.        07-JAN-1992:   LOGDATE
 API .       490252249700:   API NUMBER
~CURVE INFORMATION
#MNEM.UNIT       API CODE    CURVE DESCRIPTION
#----------   ------------   ------------------------------
 DEPT.F                  :   
 GRR .GAPI   07 310 01 00:   GAMMA RAY
 RFOC.OHMM   07 220 04 00:   RESISTIVITY FOCUSED LOG RES.
 RILD.OHMM   07 120 46 00:   INDUCTION LOG DEEP RESISTIVITY
 RILM.OHMM   07 120 44 00:   INDUCTION LOG MEDIUM  RESISTIVITY
~PARAMETER INFORMATION
#MNEM.UNIT          VALUE    DESCRIPTION
#----------   ------------   ------------------------------
 PD  .                 GL:   PERMANENT DATUM
 EPD .F              5210:   ELEVATION PERMANENT DATUM
 LMF .                 KB:   LOG MEASURED FROM
 DAPD.F                10:   FEET ABOVE PERMANENT DATUM
 DMF .                 KB:   DRILLING MEASURED FROM
 EKB .F              5220:   KELLING BUSHING
 EDF .F              5219:   DRILLING FLOOR
 EGL .F              5210:   GROUND LEVEL
 DATE.        07-JAN-1992:   RUN DATE
 RUN .                  1:   RUN NUMBER
 DD  .F               762:   DEPTH DRILLER
 DL  .F               760:   DEPTH LOGGER
 BLI .F               758:   BOTTOM LOG INTERVAL
 CS  .IN            9.625:   CASING SIZE
 CBD .F                48:   CASING BOTTOM DRILLER
 CBL .F                50:   CASING BOTTOM LOGGER
 BS  .IN             8.75:   BIT SIZE
 BSD .F               762:   BIT SIZE AT DEPTH
 DFT .    FORMATION FLUID:   DRILLING FLUID TYPE
 MRT .F                90:   MAXIMUM RECORDED TEMPERATURE
 LUN .            HL-6274:   LOGGING UNIT NUMBER
 LUL .             CASPER:   LOGGING UNIT LOCATION
 ENGI.             RAUTIC:   RECORDING ENGINEER
 WITN.        GARY STRONG:   WITNESSED BY
 CLNT.            A2DTECH:   CLIENT CODE
 ORIG.           5" PRINT:   ORIGIN OF DATA
 UWI .       490252249700:   UNIQUE WELL ID
 DICO. A2D Technologies, Inc.:   DIGITIZING COMPANY
~OTHER INFORMATION
~A   DEPT       GRR      RFOC       RILD       RILM   
# ...
  287.4000   114.0480     9.1441     8.4322     8.1784
  287.5000   113.5448     9.1547     8.4664     8.2254
  287.6000   113.0416     9.2078     8.4908     8.2348
  287.7000   112.6137     9.2077     8.4907     8.2347
  287.8000   112.3622     9.2505     8.4906     8.2346
  287.9000   112.0846     9.2719     8.4904     8.2428
  288.0000   112.0846     9.2934     8.4903     8.2918
  288.1000   112.0846     9.3474     8.5236     8.2916
  288.2000   112.3335     9.4017     8.5493     8.2915
  288.3000   112.7627     9.4016     8.5625     8.3178
  288.4000   113.0378     9.4453     8.6087     8.3491
  288.5000   113.5952     9.5002     8.6086     8.3556
  288.6000   113.8195     9.5332     8.6513     8.4070
  288.7000   114.4187     9.5442     8.6684     8.4069
  288.8000   115.0501     9.5996     8.6909     8.4418
  288.9000   115.6260     9.6554     8.7286     8.4653
  289.0000   116.3586     9.6665     8.7305     8.4801
  289.1000   116.9184     9.7002     8.7892     8.5241
  289.2000   117.1416     9.7339     8.7891     8.5239
  289.3000   117.5658     9.7451     8.8211     8.5676
  289.4000   117.8248     9.8017     8.8502     8.6169
  289.5000   117.8248     9.8015     8.8614     8.6428
  289.6000   117.8248     9.8471     8.9117     8.6560
  289.7000   117.8248     9.8699     8.9115     8.7028
  289.8000   117.6028     9.8697     8.9533     8.7027
  289.9000   117.1798     9.8696     8.9735     8.7026
  290.0000   116.4350     9.8694     8.9733     8.7348
  290.1000   115.4990     9.8693     8.9834     8.7630
  290.2000   114.6454     9.8692     9.0357     8.7744
  290.3000   112.3867     9.8690     9.0356     8.8238
  290.4000   111.7245     9.8919     9.0766     8.8237
  290.5000   110.9699     9.9378     9.0983     8.8236
  290.6000   110.2151     9.9377     9.1181     8.8543
  290.7000   109.6677     9.9375     9.1616     8.9052
  290.8000   109.6862     9.9374     9.1614     8.9467
  290.9000   109.9698     9.9372     9.2126     8.9465
  291.0000   109.9698     9.9371     9.2658     8.9971
  291.1000   109.9698     9.9370     9.2893     9.0086
  291.2000   110.0882     9.9368     9.3082     9.0380
  291.3000   110.2719     9.9367     9.3538     9.0900
  291.4000   110.2719     9.9829     9.3537     9.1423
  291.5000   110.2719    10.0059     9.4047     9.1978
  291.6000   110.2719    10.0058     9.4590     9.2478
  291.7000   110.1041    10.0057     9.5136     9.3010
  291.8000   109.9698    10.0055     9.5685     9.3545
  291.9000   109.9031    10.0054     9.6168     9.4083
  292.0000   109.6677    10.0052     9.6166     9.4624
  292.1000   109.6677    10.0051     9.6677     9.5221
  292.2000   109.4506    10.0050     9.7235     9.5219
  292.3000   109.3656    10.0048     9.7508     9.5601
  292.4000   109.3656    10.0047     9.7507     9.6151
  292.5000   109.3656    10.0045     9.7562     9.6547
  292.6000   109.3656    10.0044     9.8184     9.6587
  292.7000   109.3656    10.0043     9.8183     9.7217
  292.8000   109.1497    10.0041     9.8182     9.7216
  292.9000   109.0634    10.0156     9.8457     9.7215
  293.0000   109.0634    10.0738     9.8864     9.7467
  293.1000   109.0634    10.0737     9.8862     9.7890
  293.2000   109.0634    10.0736     9.8861     9.7888
  293.3000   109.0634    10.1087     9.8860     9.7887
  293.4000   109.0634    10.1674     9.9240     9.8353
  293.5000   109.0634    10.2265     9.9547     9.8567
  293.6000   109.0634    10.2859     9.9545     9.8800
  293.7000   109.0634    10.3457     9.9544     9.9251
  293.8000   109.0760    10.4546     9.9542     9.9249
  293.9000   109.3656    10.5766     9.9541     9.8681
  294.0000   109.3656    10.6751     9.9910     9.8560
  294.1000   109.3656    10.7371    10.0233     9.8558
  294.2000   109.3656    10.7995    10.0366     9.8346
  294.3000   109.3656    10.8623    10.0929     9.7873
  294.4000   109.3656    10.9254    10.0927     9.7872
  294.5000   109.3656    10.9890    10.0926     9.7871
  294.6000   109.3656    11.0271    10.0925     9.7869
  294.7000   109.3656    11.0270    10.0923     9.7868
  294.8000   109.4768    11.0268    10.0801     9.7867
  294.9000   109.6677    11.0266    10.0221     9.7865
  295.0000   109.6677    11.0265    10.0220     9.7864
  295.1000   109.6677    10.9881    10.0219     9.7863
  295.2000   109.8788    10.9496    10.0217     9.7861
  295.3000   110.1303    10.9368    10.0216     9.7860
  295.4000   110.3819    10.8732    10.0214     9.7859
  295.5000   110.6334    10.8101    10.0213     9.7857
  295.6000   110.8850    10.7974    10.0212     9.7856
  295.7000   111.1782    10.7224    10.0210     9.7360
  295.8000   111.3881    10.6475    10.0209     9.7176
  295.9000   111.6396    10.6351    10.0207     9.7174
  296.0000   111.8912    10.5733    10.0206     9.7173
  296.1000   112.0846    10.4996    10.0205     9.7172
  296.2000   112.0846    10.4509     9.9653     9.7170
  296.3000   112.0846    10.3902     9.9508     9.7169
  296.4000   112.0846    10.3299     9.9506     9.7168
  296.5000   111.9265    10.2698     9.9505     9.7166
  296.6000   111.6749    10.2102     9.9504     9.7165
  296.7000   111.4234    10.1509     9.9502     9.7164
  296.8000   111.1718    10.1389     9.8968     9.7162
  296.9000   110.8761    10.1036     9.8810     9.6713
  297.0000   110.4612    10.0449     9.8809     9.6487
  297.1000   109.9581     9.9981     9.8627     9.6486
  297.2000   109.4550     9.9980     9.8122     9.6385
  297.3000   109.0077     9.9978     9.8120     9.5815
  297.4000   108.7456     9.9977     9.8119     9.5814
  297.5000   107.8550     9.9976     9.7721     9.5812
  297.6000   107.6488     9.9974     9.7437     9.5811
  297.7000   107.3972     9.9973     9.7435     9.5810
  297.8000   107.0405     9.9972     9.7384     9.5808
  297.9000   106.5373     9.9970     9.6757     9.5807
  298.0000   106.0423     9.9969     9.6756     9.5806
  298.1000   106.0423     9.9967     9.6755     9.5805
  298.2000   105.8373     9.9966     9.6490     9.5803
  298.3000   106.0491     9.9965     9.6082     9.5802
  298.4000   106.4484     9.9963     9.6045     9.5801
  298.5000   106.8066     9.9962     9.5414     9.5799
  298.6000   107.5557     9.9960     9.5412     9.5798
  298.7000   107.8550     9.9959     9.5411     9.5419
  298.8000   108.4665     9.9958     9.5410     9.5132
  298.9000   109.2212     9.9956     9.5408     9.5131
  299.0000   109.9758     9.9955     9.5407     9.5129
  299.1000   110.6783     9.9953     9.5406     9.5128
  299.2000   111.1816     9.9952     9.5405     9.5127
  299.3000   111.7825     9.9951     9.5403     9.5126
  299.4000   111.9851     9.9949     9.5402     9.5124
  299.5000   112.2366     9.9948     9.5401     9.5123
  299.6000   112.4882     9.9946     9.5408     9.5122
  299.7000   112.6378     9.9945     9.6063     9.5120
  299.8000   112.3863     9.9481     9.6062     9.6439
  299.9000   110.5726     9.9595     9.6060     9.6554
  300.0000   110.5740     9.7872     9.6059     9.7119
  300.1000   110.7267     9.7875     9.6059     9.7124
  300.2000   111.0803     9.7878     9.6284     9.7127
  300.3000   111.5852     9.7880     9.6729     9.7131
  300.4000   112.0919     9.7883     9.6729     9.7364
  300.5000   112.5952     9.7886     9.6729     9.7816
  300.6000   113.1001     9.7889     9.7182     9.7826
  300.7000   113.6050     9.7892     9.7404     9.8507
  300.8000   114.2090     9.7894     9.7404     9.8510
  300.9000   114.9170     9.7897     9.7404     9.8515
  301.0000   115.4260     9.7899     9.7409     9.8757
  301.1000   115.9268     9.8042     9.8084     9.9210
  301.2000   116.2328     9.8590     9.8084     9.9214
  301.3000   116.4862     9.8593     9.8084     9.9219
  301.4000   116.6417     9.8595     9.8318     9.9222
  301.5000   116.6435     9.8598     9.8768     9.9586
  301.6000   116.6453     9.8601     9.8768     9.9922
  301.7000   116.3989     9.8604     9.8768     9.9926
  301.8000   116.1490     9.8606     9.8768     9.9930
  301.9000   115.8993     9.8609     9.8768     9.9935
