~VERSION INFORMATION
 VERS.                2.0:   CWLS LOG ASCII STANDARD - VERSION 2.0
 WRAP.                 NO:   ONE LINE PER DEPTH STEP
~WELL INFORMATION
#MNEM.UNIT      DATA TYPE    INFORMATION
#----------   ------------   ------------------------------
 STRT.F           20.0000:   START DEPTH
 STOP.F          930.0000:   STOP DEPTH
 STEP.F            0.5000:   STEP LENGTH
 NULL.          -999.2500:   NO VALUE
 COMP. FENIX & SCISSON INC:   COMPANY
 WELL.     NPR 3 #45-S-14:   WELL
 FLD .        TEAPOT DOME:   FIELD
 LOC .      S14 T38N R78W:   LOCATION
 CNTY.            NATRONA:   COUNTY
 STAT.            WYOMING:   STATE
 CTRY. UNITED STATES OF AMERICA:   COUNTRY
 SRVC.           BIRDWELL:   SERVICE COMPANY
 DATE.        02-JAN-1979:   LOGDATE
 API .       490251076200:   API NUMBER
~CURVE INFORMATION
#MNEM.UNIT       API CODE    CURVE DESCRIPTION
#----------   ------------   ------------------------------
 DEPT.F                  :   
 GRD .GAPI   45 310 01 00:   GAMMA RAY FROM DENSITY LOG
 CALD.IN     45 280 60 00:   CALIPER
 RHOB.G/C3   45 350 01 00:   BULK DENSITY
 DPHI.DEC    45 890 12 00:   DENSITY POROSITY SANDSTONE
 CORR.G/C3   45 356 01 00:   DENSITY CORRECTION
~PARAMETER INFORMATION
#MNEM.UNIT          VALUE    DESCRIPTION
#----------   ------------   ------------------------------
 PD  .                 GL:   PERMANENT DATUM
 EPD .F              5261:   ELEVATION PERMANENT DATUM
 LMF .                 KB:   LOG MEASURED FROM
 DAPD.F                 4:   FEET ABOVE PERMANENT DATUM
 DMF .                 KB:   DRILLING MEASURED FROM
 EKB .F              5265:   KELLING BUSHING
 EGL .F              5261:   GROUND LEVEL
 DATE.             1-7-79:   RUN DATE
 RUN .                  1:   RUN NUMBER
 DD  .F               969:   DEPTH DRILLER
 DL  .F               928:   DEPTH LOGGER
 BLI .F               928:   BOTTOM LOG INTERVAL
 TLI .F                20:   TOP LOG INTERVAL
 CS  .IN            8.625:   CASING SIZE
 CBD .F                40:   CASING BOTTOM DRILLER
 CBL .F                46:   CASING BOTTOM LOGGER
 BS  .IN            7.875:   BIT SIZE
 BSD .F               969:   BIT SIZE AT DEPTH
 DFT .                KCL:   DRILLING FLUID TYPE
 DFD .                8.8:   DRILLING FLUID DENSITY
 DFV .                 42:   DRILLING FLUID VISCOSITY
 DFPH.                9.2:   DRILLING FLUID PH
 DFL .                 10:   DRILLING FLUID LOSS
 MSS .           FLOWLINE:   MUD SAMPLE SOURCE
 RMS .OHMM            .95:   RESISTIVITY MUD SAMPLE
 MST .F                60:   MUD SAMPLE TEMPERATURE
 RMF .OHMM            1.7:   RESISTIVITY MUD FILTRATE SAMPLE
 MFST.F                60:   MUD FILTRATE SAMPLE TEMPERATURE
 RMC .OHMM            1.6:   RESISTIVITY MUD CAKE
 MCST.F                60:   MUD CAKE SAMPLE TEMPERATURE
 MFSS.           MEASURED:   MUD FILTRATE SAMPLE SOURCE
 MCSS.           MEASURED:   MUD CAKE SAMPLE SOURCE
 RMB .OHMM            .98:   RESISTIVITY MUD AT BHT
 BHT .F                58:   BOTTOM HOLE TEMPERATURE
 TCS .HRS               4:   TIME CURCULATED STOPPED
 MRT .F                58:   MAXIMUM RECORDED TEMPERATURE
 LUN .               3006:   LOGGING UNIT NUMBER
 LUL .             CASPER:   LOGGING UNIT LOCATION
 ENGI.            ROLLINS:   RECORDING ENGINEER
 WITN.           DINSMORE:   WITNESSED BY
 CLNT.            A2DTECH:   CLIENT CODE
 ORIG.           5" PRINT:   ORIGIN OF DATA
 UWI .       490251076200:   UNIQUE WELL ID
 DICO. A2D Technologies, Inc.:   DIGITIZING COMPANY
~OTHER INFORMATION
~A   DEPT      GRD         CALD     RHOB       DPHI       CORR   
# ...
  508.0000   107.1080     7.6760     2.4720     0.1280     0.1230
  508.5000   107.1600     7.6910     2.4700     0.1370     0.1130
  509.0000   107.2020     7.7070     2.4590     0.1490     0.1080
  509.5000   107.2490     7.7220     2.4450     0.1470     0.1140
  510.0000   107.2430     7.7380     2.4390     0.1450     0.1320
  510.5000   110.9380     7.7540     2.4550     0.1320     0.1480
  511.0000   111.5860     7.7690     2.4780     0.1220     0.1400
  511.5000   107.4240     7.7550     2.4820     0.1210     0.1320
  512.0000   106.6060     7.7370     2.4780     0.1190     0.1300
  512.5000   107.4070     7.7520     2.4780     0.1210     0.1270
  513.0000   106.7450     7.7890     2.4780     0.1230     0.1250
  513.5000   106.0980     7.8100     2.4780     0.1220     0.1220
  514.0000   105.4590     7.8100     2.4770     0.1170     0.1200
  514.5000   104.8950     7.8100     2.4800     0.1140     0.1190
  515.0000   104.8910     7.8100     2.4830     0.1210     0.1060
  515.5000   105.0190     7.8100     2.4780     0.1270     0.0930
  516.0000   107.1830     7.8100     2.4700     0.1350     0.0790
  516.5000   108.6410     7.8060     2.4570     0.1370     0.0770
  517.0000   107.7000     7.7950     2.4510     0.1370     0.0740
  517.5000   105.8300     7.7840     2.4470     0.1370     0.0690
  518.0000   104.8060     7.7730     2.4470     0.1410     0.0600
  518.5000   106.1970     7.7480     2.4470     0.1440     0.0500
  519.0000   106.5630     7.7170     2.4470     0.1390     0.0500
  519.5000   106.6400     7.6860     2.4480     0.1360     0.0500
  520.0000   106.9930     7.6550     2.4510     0.1340     0.0510
  520.5000   110.1790     7.6580     2.4540     0.1330     0.0520
  521.0000   111.1880     7.6680     2.4550     0.1320     0.0520
  521.5000   108.7720     7.6780     2.4560     0.1310     0.0530
  522.0000   107.3980     7.6880     2.4580     0.1300     0.0540
  522.5000   108.6290     7.6980     2.4580     0.1350     0.0540
  523.0000   110.2730     7.7070     2.4550     0.1400     0.0560
  523.5000   110.9740     7.7370     2.4520     0.1390     0.0700
  524.0000   109.5160     7.7720     2.4520     0.1340     0.0840
  524.5000   108.7240     7.8060     2.4550     0.1250     0.0970
  525.0000   110.0380     7.8310     2.4620     0.1200     0.1000
  525.5000   111.5730     7.8290     2.4690     0.1230     0.0960
  526.0000   112.2280     7.8280     2.4690     0.1250     0.0920
  526.5000   109.1880     7.8270     2.4680     0.1270     0.0930
  527.0000   107.1880     7.8260     2.4680     0.1250     0.0960
  527.5000   108.5460     7.8240     2.4680     0.1230     0.0990
  528.0000   110.5450     7.8230     2.4680     0.1250     0.0950
  528.5000   112.3290     7.8220     2.4680     0.1310     0.0900
  529.0000   112.1740     7.8210     2.4610     0.1340     0.0850
  529.5000   109.5180     7.8200     2.4540     0.1330     0.0810
  530.0000   108.9910     7.8190     2.4540     0.1370     0.0790
  530.5000   113.5940     7.8180     2.4530     0.1410     0.0780
  531.0000   115.1880     7.8170     2.4530     0.1390     0.0900
  531.5000   116.1470     7.8160     2.4550     0.1240     0.1090
  532.0000   116.0750     7.8140     2.4740     0.1140     0.1250
  532.5000   114.8980     7.8130     2.4920     0.1030     0.1310
  533.0000   111.3810     7.8120     2.4980     0.1020     0.1260
  533.5000   110.5850     7.8110     2.5010     0.1130     0.1020
  534.0000   106.5390     7.8100     2.4960     0.1250     0.0700
  534.5000   101.2330     7.8100     2.4740     0.1350     0.0460
  535.0000   100.4940     7.8100     2.4550     0.1370     0.0470
  535.5000   101.0500     7.8110     2.4520     0.1380     0.0470
  536.0000   103.2600     7.7780     2.4510     0.1390     0.0470
  536.5000   100.9470     7.7310     2.4510     0.1380     0.0480
  537.0000    99.2490     7.7300     2.4510     0.1360     0.0490
  537.5000   102.0960     7.7630     2.4510     0.1380     0.0430
  538.0000   107.6200     7.7910     2.4510     0.1390     0.0370
  538.5000   108.8160     7.7920     2.4510     0.1350     0.0310
  539.0000   109.9240     7.7940     2.4520     0.1350     0.0280
  539.5000   110.7980     7.7960     2.4520     0.1330     0.0270
  540.0000   109.7790     7.7980     2.4510     0.1330     0.0250
  540.5000   110.8900     7.8000     2.4510     0.1380     0.0220
  541.0000   112.9050     7.8020     2.4460     0.1420     0.0210
  541.5000   111.9820     7.8040     2.4410     0.1470     0.0210
  542.0000   110.9110     7.8060     2.4370     0.1500     0.0210
  542.5000   112.0940     7.8070     2.4360     0.1510     0.0210
  543.0000   114.0870     7.8090     2.4350     0.1510     0.0210
  543.5000   114.4140     7.8010     2.4350     0.1510     0.0210
  544.0000   114.7390     7.7820     2.4360     0.1490     0.0220
  544.5000   114.1690     7.7650     2.4360     0.1460     0.0240
  545.0000   111.9810     7.7600     2.4410     0.1430     0.0250
  545.5000   111.3840     7.8090     2.4460     0.1380     0.0260
  546.0000   106.9150     7.8110     2.4520     0.1310     0.0270
  546.5000   104.3200     7.8100     2.4600     0.1290     0.0290
  547.0000   106.3900     7.8100     2.4620     0.1310     0.0300
  547.5000   108.6190     7.8100     2.4620     0.1330     0.0310
  548.0000   109.8650     7.8100     2.4620     0.1320     0.0330
  548.5000   112.4870     7.8100     2.4620     0.1290     0.0330
  549.0000   112.7130     7.8100     2.4620     0.1260     0.0320
  549.5000   110.5380     7.8100     2.4600     0.1320     0.0310
  550.0000   104.6320     7.8100     2.4570     0.1370     0.0310
  550.5000    98.8660     7.8100     2.4550     0.1340     0.0300
  551.0000    98.3260     7.8100     2.4560     0.1320     0.0300
  551.5000   100.5960     7.8100     2.4560     0.1330     0.0300
  552.0000   106.6390     7.8100     2.4520     0.1380     0.0290
  552.5000   110.7900     7.8100     2.4490     0.1410     0.0290
  553.0000   111.3650     7.8100     2.4500     0.1380     0.0280
  553.5000   111.4750     7.8100     2.4490     0.1350     0.0280
  554.0000   110.9370     7.8100     2.4490     0.1330     0.0270
  554.5000   109.5490     7.8070     2.4460     0.1410     0.0270
  555.0000   108.1610     7.8040     2.4370     0.1550     0.0330
  555.5000   108.1040     7.8010     2.4210     0.1630     0.0390
  556.0000   108.7180     7.7980     2.4100     0.1680     0.0540
  556.5000   108.2360     7.7950     2.4080     0.1600     0.0800
  557.0000   108.2160     7.7920     2.4160     0.1430     0.1010
  557.5000   108.0980     7.7920     2.4380     0.1350     0.1130
  558.0000   106.9350     7.7990     2.4580     0.1330     0.1150
  558.5000   104.9220     7.8050     2.4650     0.1270     0.1160
  559.0000   105.8560     7.8110     2.4690     0.1280     0.1160
  559.5000   106.2900     7.8180     2.4690     0.1290     0.1170
  560.0000   105.4930     7.8240     2.4700     0.1300     0.1180
  560.5000   104.9380     7.8300     2.4710     0.1240     0.1240
  561.0000   105.3110     7.8130     2.4710     0.1190     0.1210
  561.5000   105.4170     7.7950     2.4720     0.1230     0.1080
  562.0000   105.2720     7.7780     2.4700     0.1280     0.0960
  562.5000   105.1480     7.7600     2.4620     0.1340     0.0820
  563.0000   104.5740     7.7430     2.4520     0.1440     0.0690
  563.5000   101.7140     7.7250     2.4390     0.1500     0.0670
  564.0000   102.8240     7.7070     2.4320     0.1520     0.0660
  564.5000   104.6190     7.6910     2.4310     0.1510     0.0730
  565.0000    97.9360     7.7290     2.4300     0.1490     0.0840
  565.5000    96.5150     7.7700     2.4300     0.1480     0.0980
  566.0000    96.5940     7.8110     2.4310     0.1500     0.1070
  566.5000    94.9980     7.8300     2.4300     0.1540     0.1060
  567.0000    92.3000     7.8300     2.4310     0.1490     0.1050
  567.5000    92.1960     7.8300     2.4360     0.1400     0.1160
  568.0000    93.7900     7.8300     2.4530     0.1310     0.1260
  568.5000    95.9130     7.8300     2.4640     0.1240     0.1260
