~VERSION INFORMATION
 VERS.                2.0:   CWLS LOG ASCII STANDARD - VERSION 2.0
 WRAP.                 NO:   ONE LINE PER DEPTH STEP
~WELL INFORMATION
#MNEM.UNIT      DATA TYPE    INFORMATION
#----------   ------------   ------------------------------
 STRT.F          438.0000:   START DEPTH
 STOP.F         2175.0000:   STOP DEPTH
 STEP.F            0.5000:   STEP LENGTH
 NULL.          -999.2500:   NO VALUE
 COMP.   FLUOR DANIEL INC:   COMPANY
 WELL. NAVAL PETROLEUM RESERVE 3 X29 #74-29:   WELL
 FLD .            WLIDCAT:   FIELD
 LOC .      S29 T39N R78W:   LOCATION
 CNTY.            NATRONA:   COUNTY
 STAT.            WYOMING:   STATE
 CTRY. UNITED STATES OF AMERICA:   COUNTRY
 SRVC.            Unknown:   SERVICE COMPANY
 DATE.        05-JUN-1995:   LOGDATE
 API .       490252272900:   API NUMBER
~CURVE INFORMATION
#MNEM.UNIT       API CODE    CURVE DESCRIPTION
#----------   ------------   ------------------------------
 DEPT.F                  :   
 ROP .FT/HR  91 810 01 00:   RAT OF DRILLING PENETRATION
 TGAS.TC/CC  91 830 01 00:   TOTAL GAS UNIT
~PARAMETER INFORMATION
#MNEM.UNIT          VALUE    DESCRIPTION
#----------   ------------   ------------------------------
 EKB .F              5036:   KELLING BUSHING
 EGL .F              5026:   GROUND LEVEL
 DATE.        05-JUN-1995:   RUN DATE
 RUN .                  1:   RUN NUMBER
 BLI .F              2160:   BOTTOM LOG INTERVAL
 TLI .F               440:   TOP LOG INTERVAL
 ENGI.     R.HUSK/C.TOWER:   RECORDING ENGINEER
 CLNT.            A2DTECH:   CLIENT CODE
 ORIG.           5" PRINT:   ORIGIN OF DATA
 UWI .       490252272900:   UNIQUE WELL ID
 DICO. A2D Technologies, Inc.:   DIGITIZING COMPANY
~OTHER INFORMATION
~A   DEPT        ROP       TGAS 
# ...
  681.0000     0.4967     3.1201
  681.5000     0.4864     2.9394
  682.0000     0.4954     2.7378
  682.5000     0.4947     2.7264
  683.0000     0.4939     2.7119
  683.5000     0.4933     2.7000
  684.0000     0.4926     2.6868
  684.5000     0.4920     2.6732
  685.0000     0.5105     2.6603
  685.5000     0.5195     2.6472
  686.0000     0.5477     2.7061
  686.5000     0.5663     2.9956
  687.0000     0.5654     2.9827
  687.5000     0.5552     2.9698
  688.0000     0.5449     2.9585
  688.5000     0.5540     2.9453
  689.0000     0.5630     2.9311
  689.5000     0.5526     2.9189
  690.0000     0.5423     2.9052
  690.5000     0.5416     2.8923
  691.0000     0.5410     2.8792
  691.5000     0.5402     2.8660
  692.0000     0.5493     2.8503
  692.5000     0.5581     2.8374
  693.0000     0.5574     2.8245
  693.5000     0.5568     2.8132
  694.0000     0.5561     2.7987
  694.5000     0.5459     2.7868
  695.0000     0.5452     2.7728
  695.5000     0.5444     2.7599
  696.0000     0.5437     2.7472
  696.5000     0.5431     2.7340
  697.0000     0.5424     2.7208
  697.5000     0.5418     2.7075
  698.0000     0.5411     2.6943
  698.5000     0.5452     2.6811
  699.0000     0.5494     2.6663
  699.5000     0.5486     2.6534
  700.0000     0.5480     2.8323
  700.5000     0.5473     2.8162
  701.0000     0.5467     2.8033
  701.5000     0.5460     2.7904
  702.0000     0.5454     2.7774
  702.5000     0.5447     2.7642
  703.0000     0.5440     2.7484
  703.5000     0.5434     2.7377
  704.0000     0.5426     2.7245
  704.5000     0.5517     2.7096
  705.0000     0.5607     2.6967
  705.5000     0.5598     2.6849
  706.0000     0.5688     2.6717
  706.5000     0.5682     2.6580
  707.0000     0.5675     2.6453
  707.5000     0.5668     2.6321
  708.0000     0.5756     2.8079
  708.5000     0.5750     2.6360
  709.0000     0.5586     2.8164
  709.5000     0.5582     2.8026
  710.0000     0.5564     2.7915
  710.5000     0.5475     2.9719
  711.0000     0.5470     2.9581
  711.5000     0.5466     2.9472
  712.0000     0.5461     2.9358
  712.5000     0.5457     2.9245
  713.0000     0.5452     2.9132
  713.5000     0.5447     2.9001
  714.0000     0.5441     2.7004
  714.5000     0.5341     2.6894
  715.0000     0.5336     2.6783
  715.5000     0.5331     2.8587
  716.0000     0.5423     2.8453
  716.5000     0.5418     2.8339
  717.0000     0.5413     3.0115
  717.5000     0.5408     3.0000
  718.0000     0.5403     2.9887
  718.5000     0.5398     2.9774
  719.0000     0.5394     2.9660
  719.5000     0.5293     2.9535
  720.0000     0.5096     2.9434
  720.5000     0.4899     2.9321
  721.0000     0.5086     2.9204
  721.5000     0.5466     3.0331
  722.0000     0.5751     3.1874
  722.5000     0.6129     3.2799
  723.0000     0.6125     3.6309
  723.5000     0.6120     3.8058
  724.0000     0.6019     3.9862
  724.5000     0.6111     4.1638
  725.0000     0.6105     4.3415
  725.5000     0.6100     4.3277
  726.0000     0.5903     4.3166
  726.5000     0.5899     4.3056
  727.0000     0.5894     4.1937
  727.5000     0.5697     4.0786
  728.0000     0.5595     3.8923
  728.5000     0.5494     3.8813
  729.0000     0.5490     4.0617
  729.5000     0.5293     3.8592
  730.0000     0.5288     3.8481
  730.5000     0.5380     3.8371
  731.0000     0.5375     3.8260
  731.5000     0.5370     4.0038
  732.0000     0.5462     3.9925
  732.5000     0.5456     3.9811
  733.0000     0.5451     4.1592
  733.5000     0.5447     4.1454
  734.0000     0.5442     4.1344
  734.5000     0.5437     4.1245
  735.0000     0.5433     4.1132
  735.5000     0.5524     4.1012
  736.0000     0.5519     4.2258
  736.5000     0.5610     4.2679
  737.0000     0.5605     4.2559
  737.5000     0.5312     4.2453
  738.0000     0.5212     4.2347
  738.5000     0.5207     4.4123
  739.0000     0.5201     4.3985
  739.5000     0.5196     4.3887
  740.0000     0.5192     4.3764
  740.5000     0.5091     4.3654
  741.0000     0.5184     4.1660
  741.5000     0.5178     4.1547
  742.0000     0.5365     3.9547
  742.5000     0.5360     3.9434
  743.0000     0.5356     3.9300
  743.5000     0.5254     3.9208
  744.0000     0.5153     3.9094
  744.5000     0.5149     3.8969
  745.0000     0.5144     3.8859
  745.5000     0.5139     3.8755
  746.0000     0.5134     3.8638
  746.5000     0.5129     3.8527
  747.0000     0.5124     3.8415
  747.5000     0.5120     3.8302
  748.0000     0.5211     3.8168
  748.5000     0.5207     3.8058
  749.0000     0.5106     3.6061
  749.5000     0.5100     3.5950
  750.0000     0.5095     3.5840
  750.5000     0.5001     3.5729
  751.0000     0.5019     3.5619
  751.5000     0.5195     3.5446
  752.0000     0.5292     3.5396
  752.5000     0.5390     3.4969
  753.0000     0.5487     3.3263
  753.5000     0.5584     3.3152
  754.0000     0.5585     3.3042
  754.5000     0.5586     3.2931
  755.0000     0.5587     3.2830
  755.5000     0.5588     3.2717
  756.0000     0.5492     3.2604
  756.5000     0.5397     3.2470
  757.0000     0.5398     3.2377
  757.5000     0.5495     3.2247
  758.0000     0.5496     3.2136
  758.5000     0.5401     3.2024
  759.0000     0.5402     3.1913
  759.5000     0.5403     3.1802
  760.0000     0.5404     3.2390
  760.5000     0.5405     3.4230
  761.0000     0.5310     3.5245
  761.5000     0.5214     3.5131
  762.0000     0.5023     3.5019
  762.5000     0.5024     3.4853
  763.0000     0.5025     3.2906
  763.5000     0.5026     3.0884
  764.0000     0.5027     3.0773
  764.5000     0.5028     3.0662
  765.0000     0.5029     3.0550
  765.5000     0.5126     3.0439
  766.0000     0.5223     3.0340
  766.5000     0.5224     3.0217
  767.0000     0.5225     3.0105
  767.5000     0.5226     3.1909
  768.0000     0.5227     3.1770
  768.5000     0.5228     3.1658
  769.0000     0.5229     2.9660
  769.5000     0.5134     2.9547
  770.0000     0.5135     2.9434
  770.5000     0.5136     2.9299
  771.0000     0.5137     2.9187
  771.5000     0.5138     2.9076
  772.0000     0.5235     2.8965
  772.5000     0.5236     2.8854
  773.0000     0.5237     2.8742
  773.5000     0.5141     2.8936
  774.0000     0.5046     3.2293
  774.5000     0.5047     3.2189
  775.0000     0.5048     3.2075
  775.5000     0.5049     3.1960
  776.0000     0.5146     3.3736
  776.5000     0.5243     3.1719
  777.0000     0.5244     3.1607
  777.5000     0.5341     3.1496
  778.0000     0.5438     4.0819
  778.5000     0.5343     8.0330
  779.0000     0.5248     2.7389
  779.5000     0.5249     2.7277
  780.0000     0.6789     2.9057
  780.5000     0.7463     2.8942
  781.0000     0.7560     2.8830
  781.5000     0.7561     3.0604
  782.0000     0.7562     3.0491
  782.5000     0.7563     3.0356
  783.0000     0.7564     3.2159
  783.5000     0.7564     3.2020
  784.0000     0.7373     3.1909
  784.5000     0.6989     3.1797
  785.0000     0.6990     2.9799
  785.5000     0.6991     2.9688
  786.0000     0.6992     2.9577
  786.5000     0.7186     2.9465
  787.0000     0.7379     2.9358
  787.5000     0.7380     2.9243
  788.0000     0.7189     2.7245
  788.5000     0.7189     2.5245
  789.0000     0.6998     2.5371
  789.5000     0.6999     2.6911
  790.0000     0.7000     2.6772
  790.5000     0.7193     2.6661
  791.0000     0.7194     2.6550
  791.5000     0.7195     2.6438
  792.0000     0.7196     2.8242
  792.5000     0.7101     2.8103
  793.0000     0.7006     2.8000
  793.5000     0.7007     2.7880
  794.0000     0.7008     2.9656
  794.5000     0.7009     3.1434
  795.0000     0.7010     3.1320
  795.5000     0.7107     3.1208
  796.0000     0.7108     3.1094
  796.5000     0.7205     3.0981
  797.0000     0.7206     3.0847
  797.5000     0.7207     3.0736
  798.0000     0.7400     3.0642
  798.5000     0.7401     2.8642
  799.0000     0.7594     2.8515
  799.5000     0.7403     2.8404
  800.0000     0.6827     2.8293
  800.5000     0.6251     2.8181
  801.0000     0.6444     2.8070
  801.5000     0.6349     2.9849
  802.0000     0.6350     2.9734
