~VERSION INFORMATION
 VERS.                2.0:   CWLS LOG ASCII STANDARD - VERSION 2.0
 WRAP.                 NO:   ONE LINE PER DEPTH STEP
~WELL INFORMATION
#MNEM.UNIT      DATA TYPE    INFORMATION
#----------   ------------   ------------------------------
 STRT.F            2.0000:   START DEPTH
 STOP.F          560.0000:   STOP DEPTH
 STEP.F            0.1000:   STEP LENGTH
 NULL.          -999.2500:   NO VALUE
 COMP.       F D SERV INC:   COMPANY
 WELL. NAVAL PETROLEUM RESERVE 3 SX-3 #88-3:   WELL
 FLD .             NPR #3:   FIELD
 LOC .       S3 T38N R78W:   LOCATION
 CNTY.            NATRONA:   COUNTY
 STAT.            WYOMING:   STATE
 CTRY. UNITED STATES OF AMERICA:   COUNTRY
 SRVC.      Western Atlas:   SERVICE COMPANY
 DATE.        30-OCT-1992:   LOGDATE
 API .       490252254900:   API NUMBER
~CURVE INFORMATION
#MNEM.UNIT       API CODE    CURVE DESCRIPTION
#----------   ------------   ------------------------------
 DEPT.F                  :   
 GRR .GAPI   07 310 01 00:   GAMMA RAY
 RILD.OHMM   07 120 46 00:   INDUCTION LOG DEEP RESISTIVITY
 RILM.OHMM   07 120 44 00:   INDUCTION LOG MEDIUM RESISTIVITY
~PARAMETER INFORMATION
#MNEM.UNIT          VALUE    DESCRIPTION
#----------   ------------   ------------------------------
 PD  .                 GL:   PERMANENT DATUM
 EPD .F              5131:   ELEVATION PERMANENT DATUM
 LMF .                 KB:   LOG MEASURED FROM
 DAPD.F                10:   FEET ABOVE PERMANENT DATUM
 DMF .                 KB:   DRILLING MEASURED FROM
 EKB .F              5141:   KELLING BUSHING
 EDF .F              5140:   DRILLING FLOOR
 EGL .F              5131:   GROUND LEVEL
 DATE.        30-OCT-1992:   RUN DATE
 RUN .                  1:   RUN NUMBER
 DD  .F               568:   DEPTH DRILLER
 DL  .F               568:   DEPTH LOGGER
 BLI .F               560:   BOTTOM LOG INTERVAL
 CS  .IN            8.625:   CASING SIZE
 CBD .F                73:   CASING BOTTOM DRILLER
 CBL .F                73:   CASING BOTTOM LOGGER
 BS  .IN            7.875:   BIT SIZE
 BSD .F               568:   BIT SIZE AT DEPTH
 DFT .           AIR FOAM:   DRILLING FLUID TYPE
 BHT .F                63:   BOTTOM HOLE TEMPERATURE
 TCS .HRS               2:   TIME CURCULATED STOPPED
 MRT .F                63:   MAXIMUM RECORDED TEMPERATURE
 LUN .            HL-6274:   LOGGING UNIT NUMBER
 LUL .             CASPER:   LOGGING UNIT LOCATION
 ENGI.             RAUTIO:   RECORDING ENGINEER
 WITN.          BOB SYLAR:   WITNESSED BY
 CLNT.            A2DTECH:   CLIENT CODE
 ORIG.           5" PRINT:   ORIGIN OF DATA
 UWI .       490252254900:   UNIQUE WELL ID
 DICO. A2D Technologies, Inc.:   DIGITIZING COMPANY
~OTHER INFORMATION
~A    DEPT      GRR      RILD       RILM   
# ...
  238.6000   130.2577     8.2819     8.1968
  238.7000   130.7189     8.2822     8.2251
  238.8000   130.8578     8.3138     8.2256
  238.9000   130.8566     8.3633     8.2260
  239.0000   130.8554     8.4131     8.2265
  239.1000   130.8542     8.4578     8.2701
  239.2000   130.8465     8.4584     8.2845
  239.3000   130.2492     8.5051     8.2850
  239.4000   130.2482     8.5180     8.3029
  239.5000   130.0793     8.5185     8.3434
  239.6000   129.7004     8.5388     8.3439
  239.7000   129.2645     8.5786     8.3445
  239.8000   128.9767     8.5790     8.3855
  239.9000   128.4349     8.5796     8.4032
  240.0000   127.9518     8.5800     8.4037
  240.1000   127.6347     8.6152     8.4042
  240.2000   127.6775     8.6405     8.4104
  240.3000   127.8277     8.6410     8.4635
  240.4000   127.9438     8.6415     8.4639
  240.5000   128.4538     8.6420     8.4644
  240.6000   129.0288     8.6424     8.4940
  240.7000   129.0277     8.6429     8.5241
  240.8000   129.0265     8.6434     8.5361
  240.9000   129.0253     8.6439     8.5843
  241.0000   129.0241     8.6444     8.5848
  241.1000   128.9821     8.6448     8.5852
  241.2000   128.7205     8.6454     8.5857
  241.3000   128.4178     8.6458     8.5862
  241.4000   128.0064     8.6463     8.5866
  241.5000   127.4939     8.6467     8.5871
  241.6000   126.9815     8.6472     8.5876
  241.7000   126.5376     8.6477     8.5882
  241.8000   126.2578     8.6482     8.5478
  241.9000   125.6999     8.6487     8.5298
  242.0000   125.4659     8.6491     8.5303
  242.1000   125.3964     8.6496     8.5168
  242.2000   125.3952     8.6501     8.4723
  242.3000   125.4902     8.6506     8.4729
  242.4000   125.7446     8.6441     8.4733
  242.5000   126.0040     8.5919     8.4738
  242.6000   126.5950     8.5923     8.4743
  242.7000   126.8090     8.5928     8.4553
  242.8000   127.0635     8.5933     8.4167
  242.9000   127.1940     8.5938     8.4172
  243.0000   127.2711     8.5943     8.4177
  243.1000   127.4929     8.5947     8.4181
  243.2000   127.4915     8.5953     8.4186
  243.3000   127.4904     8.5957     8.3942
  243.4000   127.2920     8.5600     8.3615
  243.5000   127.0351     8.5373     8.3619
  243.6000   126.7783     8.5378     8.3624
  243.7000   126.5819     8.5289     8.3629
  243.8000   126.5659     8.4799     8.3244
  243.9000   126.2782     8.4804     8.3061
  244.0000   126.5020     8.4808     8.3066
  244.1000   126.5771     8.4813     8.2943
  244.2000   126.7096     8.4580     8.2502
  244.3000   126.9641     8.4237     8.2507
  244.4000   127.1761     8.4242     8.2511
  244.5000   127.1747     8.4247     8.2163
  244.6000   127.7757     8.4251     8.1951
  244.7000   128.1888     8.4256     8.1776
  244.8000   128.5374     8.4261     8.1301
  244.9000   128.9076     8.4265     8.0838
  245.0000   129.3474     8.4270     8.0844
  245.1000   129.6018     8.4275     8.0448
  245.2000   129.8770     8.4280     8.0294
  245.3000   130.1106     8.3849     8.0299
  245.4000   130.1759     8.3707     8.0450
  245.5000   130.1747     8.3454     8.0865
  245.6000   130.1735     8.3139     8.0870
  245.7000   130.0675     8.3144     8.0874
  245.8000   129.5550     8.3149     8.1250
  245.9000   128.9649     8.2581     8.1445
  246.0000   128.7470     8.2584     8.1449
  246.1000   128.4902     8.2280     8.1336
  246.2000   128.3590     8.2024     8.0896
  246.3000   128.3578     8.1892     8.0902
  246.4000   128.3221     8.1467     8.0483
  246.5000   128.0542     8.1472     8.0352
  246.6000   128.0530     8.1033     8.0104
  246.7000   128.2508     8.0919     7.9807
  246.8000   128.3518     8.0923     7.9811
  246.9000   128.4584     8.0740     7.9816
  247.0000   128.7128     8.0374     7.9270
  247.1000   128.9839     8.0359     7.9274
  247.2000   129.5517     7.9829     7.8977
  247.3000   129.7773     7.9429     7.8518
  247.4000   130.0317     7.8968     7.8197
  247.5000   130.2861     7.8276     7.8148
  247.6000   130.5406     7.7667     7.7667
  247.7000   130.7950     7.7600     7.7671
  247.8000   131.0506     7.7140     7.7328
  247.9000   131.3504     7.6613     7.6879
  248.0000   131.5582     7.6257     7.6433
  248.1000   131.8126     7.6092     7.6092
  248.2000   132.1847     7.5898     7.6072
  248.3000   132.6227     7.5457     7.5576
  248.4000   132.8771     7.5019     7.4425
  248.5000   133.1505     7.4546     7.3728
  248.6000   133.6225     7.4549     7.3077
  248.7000   134.1325     7.4232     7.2227
  248.8000   134.4972     7.3801     7.1318
  248.9000   134.9513     7.3209     7.0060
  249.0000   135.6626     7.2357     6.9101
  249.1000   136.1726     7.1515     6.8450
  249.2000   136.7565     7.0559     6.7654
  249.3000   136.7554     6.9516     6.6867
  249.4000   136.9273     6.8574     6.6197
  249.5000   137.0542     6.7582     6.5773
  249.6000   136.9711     6.6526     6.4950
  249.7000   136.7142     6.5698     6.4253
  249.8000   136.4482     6.4509     6.3784
  249.9000   136.2006     6.3073     6.3203
  250.0000   135.7430     6.2180     6.2611
  250.1000   135.2305     6.1457     6.2142
  250.2000   134.7181     6.0818     6.1293
  250.3000   134.2056     6.0286     6.0444
  250.4000   133.7117     5.9754     5.9594
  250.5000   133.4276     5.9222     5.8745
  250.6000   133.1980     5.8412     5.7896
  250.7000   133.1241     5.7385     5.7116
  250.8000   133.1229     5.6376     5.6370
  250.9000   133.1217     5.5400     5.5377
  251.0000   133.1205     5.4675     5.4305
  251.1000   133.1193     5.3827     5.3448
  251.2000   133.1179     5.2660     5.2509
  251.3000   133.1169     5.1595     5.1586
  251.4000   133.1157     5.0575     5.0798
  251.5000   133.1145     4.9270     5.0132
  251.6000   133.1133     4.7559     4.9208
  251.7000   133.0555     4.6007     4.7638
  251.8000   132.5083     4.4370     4.6135
  251.9000   132.2689     4.3106     4.4719
  252.0000   131.6265     4.1965     4.3414
  252.1000   131.0056     4.0830     4.1849
  252.2000   130.3915     3.9778     3.9963
  252.3000   129.6235     3.8406     3.8385
  252.4000   128.8659     3.7397     3.7409
  252.5000   128.2830     3.6633     3.6809
  252.6000   127.8410     3.5852     3.5690
  252.7000   127.1536     3.5109     3.4678
  252.8000   126.6442     3.4366     3.3784
  252.9000   126.3873     3.3487     3.2893
  253.0000   126.1305     3.3166     3.2314
  253.1000   125.8662     3.2528     3.1700
  253.2000   125.8651     3.1857     3.1019
  253.3000   125.8639     3.1297     3.0294
  253.4000   125.8627     3.0746     2.9688
  253.5000   126.0843     3.0195     2.9165
  253.6000   126.5944     2.9782     2.8652
  253.7000   127.0842     2.9498     2.8163
  253.8000   127.3637     2.9152     2.7808
  253.9000   127.8233     2.8810     2.7657
  254.0000   128.3333     2.8524     2.7496
  254.1000   128.7042     2.8357     2.7432
  254.2000   129.0522     2.8187     2.7364
  254.3000   129.4665     2.7994     2.7246
  254.4000   129.4651     2.7862     2.7248
  254.5000   129.7649     2.7699     2.7250
  254.6000   129.9763     2.7537     2.7403
  254.7000   129.8970     2.7375     2.7443
  254.8000   129.7615     2.7215     2.7445
  254.9000   129.6846     2.7051     2.7447
  255.0000   129.4578     2.6866     2.7493
  255.1000   129.4566     2.6868     2.7641
  255.2000   128.9751     2.6768     2.7643
  255.3000   128.8518     2.6611     2.7800
  255.4000   128.5526     2.6455     2.7967
  255.5000   128.1436     2.6321     2.8239
  255.6000   127.8867     2.6323     2.8502
  255.7000   127.6333     2.6507     2.8722
  255.8000   127.4478     2.6509     2.9086
  255.9000   127.2622     2.6711     2.9638
  256.0000   126.9316     2.7031     2.9976
  256.1000   125.9036     2.7404     3.0621
  256.2000   125.9036     2.7919     3.1244
  256.3000   125.9036     2.8613     3.1894
  256.4000   126.0779     2.9111     3.2550
  256.5000   126.3363     2.9919     3.2965
  256.6000   126.7724     3.0822     3.3586
  256.7000   127.5477     3.1574     3.3779
