~VERSION INFORMATION
 VERS.                2.0:   CWLS LOG ASCII STANDARD - VERSION 2.0
 WRAP.                 NO:   ONE LINE PER DEPTH STEP
~WELL INFORMATION
#MNEM.UNIT      DATA TYPE    INFORMATION
#----------   ------------   ------------------------------
 STRT.F           33.0000:   START DEPTH
 STOP.F          694.0000:   STOP DEPTH
 STEP.F            0.5000:   STEP LENGTH
 NULL.          -999.2500:   NO VALUE
 COMP. FENIX & SCISSON INC:   COMPANY
 WELL.  NPR 3 #64 S 34-34:   WELL
 FLD .             TEAPOT:   FIELD
 LOC .      S34 T39N R78W:   LOCATION
 CNTY.            NATRONA:   COUNTY
 STAT.            WYOMING:   STATE
 CTRY. UNITED STATES OF AMERICA:   COUNTRY
 SRVC.              Welex:   SERVICE COMPANY
 DATE.        28-APR-1977:   LOGDATE
 API .       490251034600:   API NUMBER
~CURVE INFORMATION
#MNEM.UNIT       API CODE    CURVE DESCRIPTION
#----------   ------------   ------------------------------
 DEPT.F                  :   
 CALD.IN     45 280 60 00:   CALIPER FROM DENSITY LOG
 GRD .GAPI   45 310 01 00:   GAMMA RAY FROM DENSITY LOG
 CORR.G/C3   45 356 01 00:   DENSITY CORRECTION
 DPHI.DEC    45 890 12 00:   DENSITY POROSITY SANDSTONE
 RHOB.G/C3   45 350 01 00:   BULK DENSITY
 SPR .MV     07 010 01 00:   SPONTANEOUS POTENTIAL
 ILD .OHMM   07 120 46 00:   INDUCTION LOG DEEP
 ILM .OHMM   07 120 44 00:   INDUCTION LOG MEDIUM
 SGRD.OHMM   07 221 05 00:   SHALLOW SHORT GUARD RESISTIVITY
~PARAMETER INFORMATION
#MNEM.UNIT          VALUE    DESCRIPTION
#----------   ------------   ------------------------------
 PD  .                 GL:   PERMANENT DATUM
 EPD .F              5079:   ELEVATION PERMANENT DATUM
 LMF .                 GL:   LOG MEASURED FROM
 DMF .                 GL:   DRILLING MEASURED FROM
 EGL .F              5079:   GROUND LEVEL
 DATE.        28-APR-1977:   RUN DATE
 RUN .                  1:   RUN NUMBER
 DD  .F               735:   DEPTH DRILLER
 DL  .F               697:   DEPTH LOGGER
 BLI .F               695:   BOTTOM LOG INTERVAL
 TLI .F                32:   TOP LOG INTERVAL
 CS  .IN            8.625:   CASING SIZE
 BS  .IN               12:   BIT SIZE
 BSD .F               735:   BIT SIZE AT DEPTH
 DFT .            KCL MUD:   DRILLING FLUID TYPE
 DFD .                9.0:   DRILLING FLUID DENSITY
 BHT .F                74:   BOTTOM HOLE TEMPERATURE
 TCS .HRS            0100:   TIME CURCULATED STOPPED
 MRT .F                74:   MAXIMUM RECORDED TEMPERATURE
 ENGI.            C. DOAK:   RECORDING ENGINEER
 WITN.           ROB LYON:   WITNESSED BY
 CLNT.            A2DTECH:   CLIENT CODE
 ORIG.           5" PRINT:   ORIGIN OF DATA
 UWI .       490251034600:   UNIQUE WELL ID
 DICO. A2D Technologies, Inc.:   DIGITIZING COMPANY
~OTHER INFORMATION
~A   DEPT     CALD        GRD       CORR       DPHI       RHOB        SPR        ILD        ILM       SGRD   
# ...
  361.5000     7.9328    98.0728     0.0089     0.1358     2.4447   -40.0805     9.3562    10.8542    12.4377
  362.0000     7.9331    96.9052     0.0135     0.1295     2.4627   -40.0793     9.7053    10.7122    12.1068
  362.5000     7.9333    95.2925     0.0181     0.1195     2.4740   -40.0781     9.9718    10.5703    12.2839
  363.0000     7.9336    93.3831     0.0212     0.1157     2.4800   -40.0769    10.0481    11.2603    12.2056
  363.5000     7.9338    91.7704     0.0228     0.1133     2.4846   -40.0757     9.9124    11.3466    13.1816
  364.0000     7.9341    91.1915     0.0243     0.1127     2.4891   -40.0745     9.7195    11.2741    16.9191
  364.5000     7.9343    94.3314     0.0259     0.1260     2.4704   -40.0733     9.8649    11.0517    17.4057
  365.0000     7.9346    96.4279     0.0260     0.1309     2.4548   -40.0721    10.0087    10.6090    12.0735
  365.5000     7.9348   100.1564     0.0261     0.1333     2.4518   -40.0709    10.1546    10.5412    11.5909
  366.0000     7.9351   103.2915     0.0262     0.1296     2.4526   -40.0697     9.8779    10.7720    11.6794
  366.5000     7.9353   103.6028     0.0263     0.1260     2.4632   -40.0684     9.1005    10.9300    11.6070
  367.0000     7.9356   101.8465     0.0249     0.1233     2.4677   -40.0672     8.9817    10.7851    11.2203
  367.5000     7.9358   100.5565     0.0235     0.1212     2.4708   -40.0660     8.9880    10.7181    11.0720
  368.0000     7.9361    99.3037     0.0220     0.1247     2.4730   -40.0648     8.9942    10.5067    11.0816
  368.5000     7.9363   100.0489     0.0206     0.1268     2.4626   -40.0636     9.0005    10.5140    11.4002
  369.0000     7.9366   102.0385     0.0222     0.1262     2.4627   -40.0624     8.9446    10.3049    11.4873
  369.5000     7.9368   103.2745     0.0238     0.1282     2.4627   -40.0612     8.8277    10.1683    11.1046
  370.0000     7.9371   102.5124     0.0239     0.1348     2.4530   -40.0600     8.6521    10.5360    10.8823
  370.5000     7.9373   102.1255     0.0240     0.1357     2.4463   -40.0588     8.4266    10.6148    10.8917
  371.0000     7.9376   102.7547     0.0196     0.1380     2.4441   -40.0575     8.3114    10.2622    11.6796
  371.5000     7.9378   103.2171     0.0167     0.1400     2.4412   -40.0563     8.3173    10.0581    11.0587
  372.0000     7.9381   102.7538     0.0123     0.1413     2.4390   -40.0551     8.2655     9.9248    10.6167
  372.5000     7.9383   101.2933     0.0108     0.1436     2.4353   -40.0539     8.2142    10.0721    10.4763
  373.0000     7.9386   100.5902     0.0079     0.1466     2.4316   -40.0527     8.2200    10.2197    10.6314
  373.5000     7.9388   101.8027     0.0080     0.1543     2.4234   -40.0515     8.1688    10.1545    10.7869
  374.0000     7.9391   102.2610     0.0081     0.1588     2.4153   -40.0503     8.1180    10.0778    11.1741
  374.5000     7.9393   101.0895     0.0082     0.1615     2.4018   -40.0491     8.1803     9.8784    10.5072
  375.0000     7.9396    99.9258     0.0113     0.1578     2.4049   -40.0479     8.2429     9.6938    10.2968
  375.5000     7.9398    98.7582     0.0144     0.1530     2.4139   -40.0467     8.3059     9.6238    10.6683
  376.0000     7.9401    97.5906     0.0160     0.1479     2.4245   -40.0454     8.3695     9.5076    10.8244
  376.5000     7.9403    99.2420     0.0176     0.1398     2.4335   -40.0442     8.4921     9.9184    10.5364
  377.0000     7.9406    99.7065     0.0177     0.1377     2.4425   -40.0430     8.4980     9.7143    10.1140
  377.5000     7.9408   101.0612     0.0177     0.1410     2.4418   -40.0418     8.5039     9.5937    10.7975
  378.0000     7.9411   103.4544     0.0163     0.1397     2.4374   -40.0406     8.5098     9.6718    11.3215
  378.5000     7.9413   105.9960     0.0149     0.1397     2.4427   -40.0394     8.4569     9.7412    11.4863
  379.0000     7.9416   107.9441     0.0150     0.1434     2.4368   -40.0382     8.2874     9.7503    11.1533
  379.5000     7.9418   107.3700     0.0181     0.1461     2.4301   -40.0370     8.2359     9.8226    10.4229
  380.0000     7.9418   105.3122     0.0213     0.1439     2.4264   -40.0358     8.1862     9.6272    10.2930
  380.5000     7.9417   103.4028     0.0258     0.1395     2.4332   -40.0345     8.0778     9.4356    10.2337
  381.0000     7.9416   101.7901     0.0289     0.1362     2.4430   -40.0333     7.8639     9.1840    10.1671
  381.5000     7.9415   100.4741     0.0305     0.1345     2.4498   -40.0321     7.6544     8.9392     9.8972
  382.0000     7.9414   101.0870     0.0321     0.1348     2.4498   -40.0309     7.5022     8.3464     9.4368
  382.5000     7.9413   101.7285     0.0276     0.1350     2.4499   -40.0297     7.3023     8.0121     8.9347
  383.0000     7.9412   100.6805     0.0247     0.1350     2.4499   -40.0285     7.2557     7.7984     8.4613
  383.5000     7.9411    99.8097     0.0203     0.1350     2.4477   -40.0273     7.2620     7.6963     8.1234
  384.0000     7.9410   100.7193     0.0189     0.1370     2.4406   -40.0261     7.3175     8.1409     8.4150
  384.5000     7.9409   104.2398     0.0190     0.1421     2.4366   -40.0249     7.3226     8.3755     9.8044
  385.0000     7.9408   107.7313     0.0206     0.1337     2.4467   -40.0237     7.3786     8.4397    10.1564
  385.5000     7.9407   110.1245     0.0222     0.1298     2.4557   -40.0224     7.3328     8.4455     9.7504
  386.0000     7.9406   108.3634     0.0238     0.1265     2.4616   -40.0212     7.3889     8.5102     9.4910
  386.5000     7.9405   109.1246     0.0209     0.1333     2.4572   -40.0200     7.3940     8.6350     9.9686
  387.0000     7.9404   110.3309     0.0149     0.1372     2.4441   -40.0188     7.4506     8.7011    10.1846
  387.5000     7.9403   111.3888     0.0120     0.1404     2.4399   -40.0176     7.5075     8.8287    10.1916
  388.0000     7.9402   110.3696     0.0121     0.1362     2.4438   -40.0164     7.6175     8.8962    10.1987
  388.5000     7.9401   108.9053     0.0162     0.1299     2.4529   -40.0152     7.6758     9.0267    10.1353
  389.0000     7.9400   107.5893     0.0213     0.1251     2.4633   -40.0140     7.7345     9.1590     9.8658
  389.5000     7.9399   107.9054     0.0229     0.1263     2.4648   -40.0128     7.8478     9.2292     9.7368
  390.0000     7.9398   107.4797     0.0260     0.1233     2.4626   -40.0115     7.9628     9.2982     9.7438
  390.5000     7.9397   107.9441     0.0261     0.1187     2.4709   -40.0103     8.0794     8.9893     9.8863
  391.0000     7.9396   109.5955     0.0262     0.1166     2.4785   -40.0091     8.0851     8.7497    10.1005
  391.5000     7.9394   112.5822     0.0248     0.1157     2.4815   -40.0079     8.0907     8.6938    10.3194
  392.0000     7.9393   114.2336     0.0234     0.1151     2.4808   -40.0067     8.0963     8.8228    10.5430
  392.5000     7.9392   115.2916     0.0219     0.1201     2.4734   -40.0055     8.1019     8.8903    10.7715
  393.0000     7.9391   114.2724     0.0190     0.1267     2.4644   -40.0043     8.1075     8.9584    10.8537
  393.5000     7.9390   113.9901     0.0161     0.1281     2.4600   -40.0031     8.1132     9.0270    10.7102
  394.0000     7.9389   114.0143     0.0162     0.1287     2.4585   -40.0019     8.1188     9.0961    10.4994
  394.5000     7.9388   112.2533     0.0163     0.1302     2.4564   -40.0007     8.1809     9.1024    10.2910
  395.0000     7.9387   110.0471     0.0164     0.1308     2.4549   -39.9994     8.1866     9.0442    10.1567
  395.5000     7.9386   108.8795     0.0165     0.1316     2.4542   -39.9982     8.2492     8.9275     9.9551
  396.0000     7.9385   108.1522     0.0166     0.1361     2.4528   -39.9970     8.3123     8.8108     9.5571
  396.5000     7.9384   111.5888     0.0151     0.1402     2.4423   -39.9958     8.2592     8.6940     9.4962
  397.0000     7.9383   112.7951     0.0122     0.1396     2.4379   -39.9946     8.1513     8.7016     9.5704
  397.5000     7.9382   109.4020     0.0108     0.1375     2.4409   -39.9934     8.1007     8.7682     9.8456
