~VERSION INFORMATION
 VERS.                2.0:   CWLS LOG ASCII STANDARD - VERSION 2.0
 WRAP.                 NO:   ONE LINE PER DEPTH STEP
~WELL INFORMATION
#MNEM.UNIT      DATA TYPE    INFORMATION
#----------   ------------   ------------------------------
 STRT.F           60.0000:   START DEPTH
 STOP.F         3052.0000:   STOP DEPTH
 STEP.F            0.5000:   STEP LENGTH
 NULL.          -999.2500:   NO VALUE
 COMP.   FLUOR DANIEL INC:   COMPANY
 WELL. NAVAL PETROLEUM RESERVE 3 X-14 #57-14:   WELL
 FLD .            WILDCAT:   FIELD
 LOC .      S14 T38N R78W:   LOCATION
 CNTY.            NATRONA:   COUNTY
 STAT.            WYOMING:   STATE
 CTRY. UNITED STATES OF AMERICA:   COUNTRY
 SRVC.            Unknown:   SERVICE COMPANY
 DATE.        16-MAY-1995:   LOGDATE
 API .       490252272000:   API NUMBER
~CURVE INFORMATION
#MNEM.UNIT       API CODE    CURVE DESCRIPTION
#----------   ------------   ------------------------------
 DEPT.F                  :   
 ROP .FT/HR  91 810 01 00:   RAT OF DRILLING PENETRATION
 TGAS.TC/CC  91 830 01 00:   TOTAL GAS UNIT
~PARAMETER INFORMATION
#MNEM.UNIT          VALUE    DESCRIPTION
#----------   ------------   ------------------------------
 EKB .F              5312:   KELLING BUSHING
 EGL .F              5302:   GROUND LEVEL
 DATE.        16-MAY-1995:   RUN DATE
 RUN .                  1:   RUN NUMBER
 BLI .F              3062:   BOTTOM LOG INTERVAL
 TLI .F                60:   TOP LOG INTERVAL
 ENGI.     C.TOWER/R.HUSK:   RECORDING ENGINEER
 CLNT.            A2DTECH:   CLIENT CODE
 ORIG.           5" PRINT:   ORIGIN OF DATA
 UWI .       490252272000:   UNIQUE WELL ID
 DICO. A2D Technologies, Inc.:   DIGITIZING COMPANY
~OTHER INFORMATION
~A   DEPT        ROP       TGAS 
# ...
 2611.5000     1.9650     9.5499
 2612.0000     1.9659     9.3736
 2612.5000     2.5588     9.3871
 2613.0000     2.5597     9.5887
 2613.5000     2.5606     9.6019
 2614.0000     2.3726     9.6177
 2614.5000     1.0489     9.6306
 2615.0000     1.0404     9.6436
 2615.5000     1.0413     9.6565
 2616.0000     1.0421     9.6694
 2616.5000     0.9092     9.3017
 2617.0000     0.7806     9.3179
 2617.5000     0.7815     9.1389
 2618.0000     0.7816     9.1550
 2618.5000     0.7815     9.1679
 2619.0000     0.7813     9.1811
 2619.5000     0.7812     9.1943
 2620.0000     0.7810     9.2099
 2620.5000     0.7809     9.0342
 2621.0000     0.7807     9.0471
 2621.5000     0.7805     8.8681
 2622.0000     0.7804     8.8842
 2622.5000     0.7026     8.8971
 2623.0000     0.6258     8.7182
 2623.5000     0.6224     8.7343
 2624.0000     0.6231     8.7472
 2624.5000     0.6238     8.7604
 2625.0000     0.6245     8.7736
 2625.5000     0.6252     8.7892
 2626.0000     0.6259     8.8021
 2626.5000     0.6266     8.8150
 2627.0000     0.6273     8.6360
 2627.5000     0.6280     8.2748
 2628.0000     0.6287     8.0958
 2628.5000     0.6294     8.1120
 2629.0000     0.6301     8.1249
 2629.5000     0.6308     8.1378
 2630.0000     0.6315     7.9620
 2630.5000     0.6322     7.9755
 2631.0000     0.6329     7.7992
 2631.5000     0.6336     7.4380
 2632.0000     0.6343     7.4509
 2632.5000     0.6350     7.4638
 2633.0000     0.6357     7.4767
 2633.5000     0.6364     7.4897
 2634.0000     0.6371     7.3107
 2634.5000     0.6378     7.3268
 2635.0000     0.6385     7.1509
 2635.5000     0.6392     6.9753
 2636.0000     0.6399     6.9887
 2636.5000     0.6406     7.0043
 2637.0000     0.6413     6.8254
 2637.5000     0.6420     6.6528
 2638.0000     0.6427     6.6657
 2638.5000     0.6434     6.6097
 2639.0000     0.6441     6.1245
 2639.5000     0.6448     6.1377
 2640.0000     0.6455     6.1535
 2640.5000     0.6462     6.1664
 2641.0000     0.6469     6.1794
 2641.5000     0.6476     6.0036
 2642.0000     0.6483     6.0165
 2642.5000     0.6490     6.0294
 2643.0000     0.6497     6.0424
 2643.5000     0.6504     6.0553
 2644.0000     0.6511     6.0682
 2644.5000     0.6518     6.0811
 2645.0000     0.6525     6.0943
 2645.5000     0.6532     5.9215
 2646.0000     0.6539     5.9344
 2646.5000     0.6546     5.9473
 2647.0000     0.6553     6.1489
 2647.5000     0.6560     6.1618
 2648.0000     0.6567     6.1747
 2648.5000     0.6574     6.1877
 2649.0000     0.6581     6.2006
 2649.5000     0.6588     6.2135
 2650.0000     0.6595     6.0377
 2650.5000     0.6602     6.0509
 2651.0000     0.6609     5.8749
 2651.5000     0.6616     5.5137
 2652.0000     0.6624     5.5266
 2652.5000     0.6631     4.9338
 2653.0000     0.6638     4.9407
 2653.5000     0.6645     4.9463
 2654.0000     0.6652     4.7617
 2654.5000     0.6659     4.7686
 2655.0000     0.6666     4.7742
 2655.5000     0.6673     4.5897
 2656.0000     0.7384     4.5966
 2656.5000     0.7817     4.4132
 2657.0000     0.7825     4.4190
 2657.5000     0.7834     4.4245
 2658.0000     0.7842     4.4302
 2658.5000     0.7757     4.2469
 2659.0000     0.7766     4.2538
 2659.5000     0.7774     4.2594
 2660.0000     0.7783     4.4536
 2660.5000     0.7228     4.4591
 2661.0000     0.6670     4.4646
 2661.5000     0.6681     4.2801
 2662.0000     0.6689     4.2870
 2662.5000     0.6698     4.2926
 2663.0000     0.6705     4.2981
 2663.5000     0.6713     4.3038
 2664.0000     0.6722     4.3106
 2664.5000     0.6730     4.3161
 2665.0000     0.6739     4.3216
 2665.5000     0.6842     4.5158
 2666.0000     0.6850     4.5214
 2666.5000     0.6953     4.5269
 2667.0000     0.8183     4.5325
 2667.5000     0.8192     4.3479
 2668.0000     0.8200     4.3548
 2668.5000     0.8209     4.3604
 2669.0000     0.7372     4.3660
 2669.5000     0.6796     4.3717
 2670.0000     0.6745     4.3784
 2670.5000     0.6697     4.3839
 2671.0000     0.6697     4.3894
 2671.5000     0.6686     4.3950
 2672.0000     0.6674     4.4005
 2672.5000     0.6663     4.2160
 2673.0000     0.6651     4.4116
 2673.5000     0.6640     4.4170
 2674.0000     0.6629     4.4227
 2674.5000     0.6617     4.2395
 2675.0000     0.6606     4.2453
 2675.5000     0.6594     4.2520
 2676.0000     0.6583     4.2575
 2676.5000     0.6572     4.4517
 2677.0000     0.6560     4.4573
 2677.5000     0.6549     4.4628
 2678.0000     0.6537     4.2783
 2678.5000     0.6526     4.2852
 2679.0000     0.6515     4.2907
 2679.5000     0.6631     4.2963
 2680.0000     0.7924     4.1131
 2680.5000     0.7929     4.1189
 2681.0000     0.7934     4.3143
 2681.5000     0.7939     4.1297
 2682.0000     0.7944     3.9480
 2682.5000     0.6444     3.9528
 2683.0000     0.6450     3.9590
 2683.5000     0.6455     3.7745
 2684.0000     0.6461     3.7814
 2684.5000     0.6467     3.7870
 2685.0000     0.6472     3.7925
 2685.5000     0.6477     3.7981
 2686.0000     0.6482     3.8038
 2686.5000     0.6487     3.8105
 2687.0000     0.6492     3.8160
 2687.5000     0.6497     3.8216
 2688.0000     0.7538     3.8271
 2688.5000     0.7635     3.8326
 2689.0000     0.7735     3.6481
 2689.5000     0.7834     3.8437
 2690.0000     0.6523     3.8492
 2690.5000     0.6433     3.8548
 2691.0000     0.6439     3.8604
 2691.5000     0.6538     3.8660
 2692.0000     0.6543     3.8728
 2692.5000     0.6548     3.8783
 2693.0000     0.6554     3.6938
 2693.5000     0.6560     3.7007
 2694.0000     0.6565     3.5176
 2694.5000     0.6570     3.5231
 2695.0000     0.6480     3.7173
 2695.5000     0.6486     3.7228
 2696.0000     0.6021     3.9171
 2696.5000     0.5274     3.9294
 2697.0000     0.5279     4.1170
 2697.5000     0.5378     4.1237
 2698.0000     0.5290     3.9392
 2698.5000     0.5295     3.9461
 2699.0000     0.5301     3.9517
 2699.5000     0.5306     3.9572
 2700.0000     0.5311     3.9627
 2700.5000     0.5316     3.9679
 2701.0000     0.5321     3.9736
 2701.5000     0.5420     3.9803
 2702.0000     0.6741     3.9858
 2702.5000     0.6644     3.9913
 2703.0000     0.6634     3.9969
 2703.5000     0.6624     4.0024
 2704.0000     0.6614     3.8179
 2704.5000     0.6604     3.8248
 2705.0000     0.6594     3.8303
 2705.5000     0.6584     3.6472
 2706.0000     0.6575     3.4640
 2706.5000     0.6565     3.4698
 2707.0000     0.6555     3.4765
 2707.5000     0.6545     3.4820
 2708.0000     0.6535     3.4876
 2708.5000     0.6525     3.6818
 2709.0000     0.6515     3.6873
 2709.5000     0.6505     3.8815
 2710.0000     0.6495     4.0757
 2710.5000     0.6486     4.0813
 2711.0000     0.6476     4.0868
 2711.5000     0.6464     4.0925
 2712.0000     1.2578     4.0981
 2712.5000     1.2677     4.1048
 2713.0000     1.2682     3.9203
 2713.5000     1.2780     3.9272
 2714.0000     1.2691     3.7427
 2714.5000     1.2697     3.5595
 2715.0000     1.2796     3.5665
 2715.5000     1.2837     3.5720
 2716.0000     1.5345     3.7662
 2716.5000     1.5444     3.9604
 2717.0000     1.5449     4.1547
 2717.5000     1.5548     4.1604
 2718.0000     1.1794     4.1671
 2718.5000     1.0200     4.1726
 2719.0000     1.0206     3.9881
 2719.5000     1.0305     3.6163
 2720.0000     0.7772     3.4331
 2720.5000     0.7966     3.2500
 2721.0000     0.7972     3.0668
 2721.5000     0.7225     2.8851
 2722.0000     0.6853     2.8906
 2722.5000     0.6859     2.8962
 2723.0000     0.6864     2.7326
 2723.5000     0.5741     2.8080
 2724.0000     0.5464     2.8834
 2724.5000     0.5469     2.9157
 2725.0000     0.5475     3.1136
 2725.5000     0.5480     3.1228
 2726.0000     0.5486     3.1321
 2726.5000     0.5490     2.9525
 2727.0000     0.5495     3.1526
 2727.5000     0.5500     3.1618
 2728.0000     0.5506     3.1710
 2728.5000     0.5511     3.1802
 2729.0000     0.5516     3.1893
 2729.5000     0.5522     3.1985
 2730.0000     0.5527     3.2077
 2730.5000     0.5533     3.2170
 2731.0000     0.5654     3.2264
 2731.5000     0.6012     3.2375
 2732.0000     0.6299     3.2467
 2732.5000     0.6304     3.2559
