~VERSION INFORMATION
 VERS.                2.0:   CWLS LOG ASCII STANDARD - VERSION 2.0
 WRAP.                 NO:   ONE LINE PER DEPTH STEP
~WELL INFORMATION
#MNEM.UNIT      DATA TYPE    INFORMATION
#----------   ------------   ------------------------------
 STRT.F            0.0000:   START DEPTH
 STOP.F          562.0000:   STOP DEPTH
 STEP.F            0.1000:   STEP LENGTH
 NULL.          -999.2500:   NO VALUE
 COMP. BROWN JOHN E&C INC:   COMPANY
 WELL.    73-1 SX-3 #73-3:   WELL
 FLD .             TEAPOT:   FIELD
 LOC .       S3 T38N R78W:   LOCATION
 CNTY.            NATRONA:   COUNTY
 STAT.            WYOMING:   STATE
 CTRY. UNITED STATES OF AMERICA:   COUNTRY
 SRVC.      Western Atlas:   SERVICE COMPANY
 DATE.        23-APR-1992:   LOGDATE
 API .       490252251200:   API NUMBER
~CURVE INFORMATION
#MNEM.UNIT       API CODE    CURVE DESCRIPTION
#----------   ------------   ------------------------------
 DEPT.F                  :   
 GRR .GAPI   07 310 01 00:   GAMMA RAY
 RILD.OHMM   07 120 46 00:   INDUCTION LOG DEEP RESISTIVITY
 RILM.OHMM   07 120 44 00:   INDUCTION LOG MEDIUM RESISTIVITY
 CILD.MMHO   07 110 46 00:   CONDUCTIVITY INDUCTION LOG DEEP
~PARAMETER INFORMATION
#MNEM.UNIT          VALUE    DESCRIPTION
#----------   ------------   ------------------------------
 PD  .                 GL:   PERMANENT DATUM
 EPD .F              5164:   ELEVATION PERMANENT DATUM
 LMF .                 KB:   LOG MEASURED FROM
 DAPD.F                 5:   FEET ABOVE PERMANENT DATUM
 DMF .                 KB:   DRILLING MEASURED FROM
 EKB .F              5169:   KELLING BUSHING
 EDF .F              5168:   DRILLING FLOOR
 EGL .F              5164:   GROUND LEVEL
 DATE.        23-APR-1992:   RUN DATE
 RUN .                  1:   RUN NUMBER
 DD  .F               561:   DEPTH DRILLER
 DL  .F               564:   DEPTH LOGGER
 BLI .F               562:   BOTTOM LOG INTERVAL
 CS  .IN            8.625:   CASING SIZE
 CBD .F                48:   CASING BOTTOM DRILLER
 CBL .F                49:   CASING BOTTOM LOGGER
 BS  .IN            7.875:   BIT SIZE
 BSD .F               561:   BIT SIZE AT DEPTH
 DFT .                AIR:   DRILLING FLUID TYPE
 TCS .HRS               2:   TIME CURCULATED STOPPED
 LUN .           HL- 6272:   LOGGING UNIT NUMBER
 LUL .             CASPER:   LOGGING UNIT LOCATION
 ENGI.            LEBSOCK:   RECORDING ENGINEER
 WITN.        GARY STRONG:   WITNESSED BY
 CLNT.            A2DTECH:   CLIENT CODE
 ORIG.       2", 5" PRINT:   ORIGIN OF DATA
 UWI .       490252251200:   UNIQUE WELL ID
 DICO. A2D Technologies, Inc.:   DIGITIZING COMPANY
~OTHER INFORMATION
~A    DEPT      GRR      RILD       RILM       CILD   
# ...
  248.2000   134.6709     7.5826     7.9068   132.3284
  248.3000   134.6693     7.5826     7.9068   132.3356
  248.4000   134.3525     7.5826     7.9068   132.1242
  248.5000   133.8684     7.5826     7.9068   131.8910
  248.6000   133.3469     7.5826     7.9068   131.6579
  248.7000   132.5534     7.5826     7.9068   131.6072
  248.8000   131.8964     7.5826     7.9068   131.6138
  248.9000   131.0126     7.5780     7.9068   131.6205
  249.0000   128.6321     7.5299     7.9068   131.6271
  249.1000   128.0983     7.5640     7.9068   131.6337
  249.2000   126.9745     7.5826     7.9068   131.6403
  249.3000   126.1415     7.5826     7.9068   131.6469
  249.4000   125.3125     7.5826     7.9238   131.6535
  249.5000   124.5788     7.5422     7.9621   131.6601
  249.6000   123.8773     7.5299     7.9621   131.4329
  249.7000   123.3351     7.5471     8.0352   130.7201
  249.8000   122.6798     7.5826     8.0740   130.0073
  249.9000   123.2227     7.5826     8.0863   129.2514
  250.0000   124.3435     7.5826     8.1306   128.2991
  250.1000   125.2785     7.6063     8.1306   127.3469
  250.2000   126.0594     7.6478     8.1627   126.4027
  250.3000   126.2870     7.6896     8.1875   125.6899
  250.4000   126.8704     7.7315     8.1949   124.9772
  250.5000   127.3809     7.7430     8.2448   124.1853
  250.6000   127.5196     7.7618     8.3251   123.7649
  250.7000   127.2685     7.7972     8.3607   123.2921
  250.8000   126.5525     7.7972     8.3758   122.8193
  250.9000   125.9984     7.8347     8.4239   122.1682
  251.0000   125.3879     7.8775     8.5165   121.4554
  251.1000   124.5914     7.9204     8.5736   120.7426
  251.2000   123.6166     7.9621     8.6206   120.4600
  251.3000   122.8829     7.9621     8.6677   120.4666
  251.4000   122.5289     7.9948     8.7181   120.4732
  251.5000   122.4152     8.0179     8.7629   120.4798
  251.6000   122.4145     8.0179     8.7792   120.4864
  251.7000   122.4281     8.0179     8.7975   120.4930
  251.8000   122.7163     8.0975     8.8407   120.4260
  251.9000   122.9158     8.1306     8.8407   120.1929
  252.0000   123.4427     8.1458     8.8407   119.9598
  252.1000   124.4238     8.1875     8.8407   119.7642
  252.2000   125.8654     8.1875     8.8536   119.7719
  252.3000   127.2587     8.1875     8.9026   119.7785
  252.4000   128.0988     8.1875     8.9026   119.7851
  252.5000   129.0757     8.1780     8.9026   119.7917
  252.6000   130.0530     8.1306     8.9026   119.7983
  252.7000   130.9272     8.1306     8.9026   119.8057
  252.8000   131.1951     8.1019     8.9026   120.0201
  252.9000   130.9743     8.0579     8.9026   120.2665
  253.0000   130.7292     8.0179     8.8737   120.5128
  253.1000   130.2779     8.0179     8.8407   120.7592
  253.2000   129.6331     8.0179     8.8407   121.0055
  253.3000   129.3739     8.0179     8.8407   121.2518
  253.4000   128.6822     8.0179     8.8041   121.6370
  253.5000   127.9482     8.0179     8.7561   122.1232
  253.6000   127.3276     8.0179     8.7084   122.6094
  253.7000   126.7838     8.0179     8.6575   122.9915
  253.8000   126.0376     8.0179     8.6575   123.2378
  253.9000   125.3157     8.0228     8.6270   123.4841
  254.0000   125.1273     8.0740     8.5973   123.7304
  254.1000   125.3730     8.1259     8.5973   123.9768
  254.2000   125.8613     8.1258     8.5973   124.2232
  254.3000   126.3559     8.1257     8.5593   124.5039
  254.4000   127.0885     8.1255     8.5127   124.9899
  254.5000   127.6291     8.1254     8.4664   125.4759
  254.6000   128.1174     8.1254     8.4192   125.9634
  254.7000   128.5311     8.1253     8.4192   125.9700
  254.8000   128.7911     8.1251     8.3872   125.9766
  254.9000   129.3641     8.1250     8.3607   125.9842
  255.0000   129.3636     8.1249     8.3607   126.1941
  255.1000   129.3630     8.1248     8.3607   126.4404
  255.2000   129.2775     8.1247     8.3215   126.6867
  255.3000   129.0060     8.1205     8.3026   126.7638
  255.4000   128.4520     8.0679     8.2887   126.7704
  255.5000   128.2394     8.0678     8.2448   126.7770
  255.6000   127.6871     8.0392     8.2448   126.7836
  255.7000   127.0480     8.0115     8.2448   126.7902
  255.8000   126.5222     8.0114     8.2448   126.7967
  255.9000   125.7218     8.0113     8.2448   126.9028
  256.0000   125.0549     8.0112     8.2448   127.1492
  256.1000   124.1571     8.0111     8.1666   127.3956
  256.2000   123.2836     7.9895     8.1836   127.5773
  256.3000   122.6891     7.9552     8.2297   127.5839
  256.4000   122.6885     7.9550     8.2803   127.5905
  256.5000   123.1526     7.9549     8.2800   127.5971
  256.6000   123.4671     7.9548     8.2797   127.6037
  256.7000   123.7108     7.9547     8.2793   127.6103
  256.8000   124.0678     7.9546     8.2888   127.6170
  256.9000   124.8067     7.9545     8.3366   127.6235
  257.0000   125.7757     7.9544     8.3362   127.6301
  257.1000   126.2013     7.9156     8.3359   127.6378
  257.2000   126.8209     7.8707     8.3355   127.6433
  257.3000   127.5315     7.8261     8.3352   127.6499
  257.4000   127.5309     7.7817     8.3348   127.6564
  257.5000   127.5303     7.7349     8.3344   127.6630
  257.6000   127.5297     7.7348     8.3341   127.6697
  257.7000   127.5291     7.7347     8.3338   127.6763
  257.8000   127.4518     7.7346     8.3335   127.6829
  257.9000   127.1706     7.7345     8.3331   127.6895
  258.0000   126.3151     7.7344     8.3327   127.6961
  258.1000   124.6822     7.7342     8.3324   127.7027
  258.2000   122.7265     7.7341     8.3320   127.7093
  258.3000   121.1175     7.7341     8.3317   127.7159
  258.4000   120.2238     7.7339     8.3225   127.7225
  258.5000   119.9484     7.7338     8.2730   127.7291
  258.6000   119.7338     7.7337     8.2727   127.7357
  258.7000   119.4887     7.7336     8.2387   127.7423
  258.8000   119.6315     7.7335     8.2145   127.7489
  258.9000   120.3642     7.7334     8.2023   127.7555
  259.0000   121.1575     7.7333     8.1567   127.7623
  259.1000   121.8298     7.7332     8.1564   127.7687
  259.2000   122.7282     7.7330     8.1560   127.7753
  259.3000   123.7052     7.7329     8.1557   127.7831
  259.4000   124.5853     7.7329     8.1554   127.7885
  259.5000   125.0939     7.7328     8.1506   127.7950
  259.6000   126.0304     7.7335     8.0979   127.8016
  259.7000   127.0076     7.7773     8.0976   127.8082
  259.8000   128.1021     7.7865     8.0973   127.8148
  259.9000   129.2069     7.7865     8.0970   127.8215
  260.0000   129.9394     7.8009     8.0966   127.8281
  260.1000   130.6720     7.8408     8.0962   127.8347
  260.2000   131.5903     7.8406     8.0533   127.8413
  260.3000   132.5676     7.8405     8.0393   127.8479
  260.4000   133.5451     7.8404     8.0603   127.8545
  260.5000   134.5518     7.8584     8.0949   127.8611
  260.6000   136.6023     7.8951     8.0946   127.8676
  260.7000   137.5817     7.8950     8.0943   127.8743
  260.8000   138.8030     7.8948     8.0939   127.8809
  260.9000   139.8670     7.8947     8.1182   127.8875
  261.0000   140.5394     7.9164     8.1499   127.8941
  261.1000   140.5387     7.9384     8.1496   127.9006
  261.2000   140.3321     7.8944     8.1491   127.9076
  261.3000   139.9395     7.8943     8.1488   127.9138
  261.4000   139.4499     7.8942     8.1485   127.9204
  261.5000   138.9304     7.8690     8.1482   127.9271
  261.6000   138.1115     7.8244     8.1479   127.9336
  261.7000   137.4623     7.7845     8.1475   127.9402
  261.8000   136.7284     7.7844     8.1471   127.9468
  261.9000   136.0936     7.7843     8.1468   128.1095
  262.0000   135.5638     7.7841     8.1465   128.3559
  262.1000   134.7751     7.7841     8.1461   128.6022
  262.2000   134.0960     7.7840     8.1458   128.7273
  262.3000   133.0268     7.7838     8.1907   128.7339
  262.4000   131.6947     7.7420     8.2022   128.7406
  262.5000   130.2774     7.7295     8.2258   128.7472
  262.6000   129.0145     7.7294     8.2458   128.7538
  262.7000   127.5960     7.7293     8.1989   128.7603
