~VERSION INFORMATION
 VERS.                2.0:   CWLS LOG ASCII STANDARD - VERSION 2.0
 WRAP.                 NO:   ONE LINE PER DEPTH STEP
~WELL INFORMATION
#MNEM.UNIT      DATA TYPE    INFORMATION
#----------   ------------   ------------------------------
 STRT.F           41.0000:   START DEPTH
 STOP.F          468.0000:   STOP DEPTH
 STEP.F            0.1000:   STEP LENGTH
 NULL.          -999.2500:   NO VALUE
 COMP.       F D SERV INC:   COMPANY
 WELL. NAVAL PETROLEUM RESERVE 3 SX-1 #53-1-10:   WELL
 FLD .             TEAPOT:   FIELD
 LOC .      S10 T38N R78W:   LOCATION
 CNTY.            NATRONA:   COUNTY
 STAT.            WYOMING:   STATE
 CTRY. UNITED STATES OF AMERICA:   COUNTRY
 SRVC.     Atlas Wireline:   SERVICE COMPANY
 DATE.        22-DEC-1992:   LOGDATE
 API .       490252256900:   API NUMBER
~CURVE INFORMATION
#MNEM.UNIT       API CODE    CURVE DESCRIPTION
#----------   ------------   ------------------------------
 DEPT.F                  :   
 GRR .GAPI   07 310 01 00:   GAMMA RAY
 RILD.OHMM   07 120 46 00:   INDUCTION LOG DEEP RESISTIVITY
 RILM.OHMM   07 120 44 00:   RESITIVITY LONG MEDIUM
~PARAMETER INFORMATION
#MNEM.UNIT          VALUE    DESCRIPTION
#----------   ------------   ------------------------------
 PD  .                 GL:   PERMANENT DATUM
 EPD .F              5185:   ELEVATION PERMANENT DATUM
 LMF .                 KB:   LOG MEASURED FROM
 DAPD.F                10:   FEET ABOVE PERMANENT DATUM
 DMF .                 KB:   DRILLING MEASURED FROM
 EKB .F              5195:   KELLING BUSHING
 EDF .F              5194:   DRILLING FLOOR
 EGL .F              5185:   GROUND LEVEL
 DATE.        22-DEC-1992:   RUN DATE
 RUN .                  1:   RUN NUMBER
 DD  .F               475:   DEPTH DRILLER
 DL  .F               472:   DEPTH LOGGER
 BLI .F               470:   BOTTOM LOG INTERVAL
 CS  .IN            8.625:   CASING SIZE
 CBL .F                80:   CASING BOTTOM LOGGER
 BS  .IN            7.875:   BIT SIZE
 BSD .F               475:   BIT SIZE AT DEPTH
 DFT .        AIR DRILLED:   DRILLING FLUID TYPE
 LUN .            HL 6321:   LOGGING UNIT NUMBER
 LUL .       RCK, SPRINGS:   LOGGING UNIT LOCATION
 ENGI.      JOHN THOMPSON:   RECORDING ENGINEER
 WITN.          G. STRONG:   WITNESSED BY
 CLNT.            A2DTECH:   CLIENT CODE
 ORIG.           5" PRINT:   ORIGIN OF DATA
 UWI .       490252256900:   UNIQUE WELL ID
 DICO. A2D Technologies, Inc.:   DIGITIZING COMPANY
~OTHER INFORMATION
~A   DEPT      GRR       RILD       RILM   
# ...
  150.2000   144.0092     7.9744     8.8277
  150.3000   144.0106     7.9749     8.8362
  150.4000   144.0121     7.9909     8.8909
  150.5000   144.0137     8.0318     8.8916
  150.6000   144.0152     8.0324     8.8924
  150.7000   143.9930     8.0329     8.9181
  150.8000   143.7149     8.0335     8.9560
  150.9000   143.4979     8.0340     8.9567
  151.0000   143.2504     8.0346     8.9576
  151.1000   143.0028     8.0351     9.0008
  151.2000   142.8103     8.0357     9.0216
  151.3000   142.8124     8.0363     9.0223
  151.4000   143.0630     8.0368     9.0231
  151.5000   143.7041     8.0353     9.0239
  151.6000   144.1712     8.0299     9.0246
  151.7000   144.5945     8.0245     9.0152
  151.8000   145.3432     8.0191     9.0021
  151.9000   146.1595     8.0137     8.9889
  152.0000   146.6141     8.0083     8.9757
  152.1000   147.2859     8.0029     8.9626
  152.2000   147.7991     7.9975     8.9494
  152.3000   148.1763     7.9921     8.9362
  152.4000   148.9250     7.9893     8.9231
  152.5000   149.8106     7.9899     8.9099
  152.6000   151.3403     7.9906     8.8690
  152.7000   152.8378     7.9913     8.8462
  152.8000   153.5515     7.9919     8.8469
  152.9000   153.8020     7.9926     8.8431
  153.0000   154.0668     7.9933     8.7871
  153.1000   154.3032     7.9939     8.7878
  153.2000   154.3733     7.9947     8.7885
  153.3000   154.2487     7.9953     8.7892
  153.4000   154.0728     7.9656     8.7900
  153.5000   154.0572     7.9411     8.7907
  153.6000   153.7726     7.9418     8.7914
  153.7000   153.1384     7.9424     8.7922
  153.8000   151.9204     7.9431     8.7929
  153.9000   150.5305     7.9437     8.8097
  154.0000   149.4324     7.9703     8.8557
  154.1000   148.9242     8.0006     8.7952
  154.2000   148.6825     8.0013     8.7958
  154.3000   148.2461     8.0020     8.7966
  154.4000   148.0182     8.0026     8.7973
  154.5000   148.0197     8.0033     8.7980
  154.6000   148.0212     8.0040     8.7988
  154.7000   148.0229     8.0046     8.7995
  154.8000   148.4646     8.0053     8.8002
  154.9000   148.7985     8.0061     8.8010
  155.0000   149.0491     8.0066     8.8017
  155.1000   149.4134     8.0073     8.8025
  155.2000   150.1597     8.0080     8.8033
  155.3000   150.6593     8.0087     8.8039
  155.4000   151.1589     8.0094     8.7716
  155.5000   151.6586     8.0100     8.7443
  155.6000   152.1582     8.0107     8.7450
  155.7000   152.6917     8.0113     8.7458
  155.8000   153.5024     8.0120     8.7465
  155.9000   153.7322     8.0127     8.7472
  156.0000   154.3308     8.0135     8.7204
  156.1000   154.8404     8.0140     8.6880
  156.2000   155.0910     8.0147     8.6887
  156.3000   155.3308     8.0154     8.6895
  156.4000   155.3326     8.0160     8.6463
  156.5000   155.3338     8.0167     8.6306
  156.6000   155.3354     7.9736     8.6094
  156.7000   155.3369     7.9624     8.5722
  156.8000   155.2963     7.9630     8.5729
  156.9000   155.0365     7.9637     8.5736
  157.0000   155.0379     7.9681     8.5362
  157.1000   154.6749     8.0208     8.5155
  157.2000   154.3061     8.0214     8.5163
  157.3000   154.0586     7.9927     8.5170
  157.4000   153.8299     7.9670     8.5177
  157.5000   153.8318     7.9677     8.5184
  157.6000   153.8331     7.9684     8.4865
  157.7000   153.8346     7.9690     8.4607
  157.8000   153.8361     7.9350     8.4503
  157.9000   153.8880     7.9150     8.4034
  158.0000   154.1427     7.9010     8.4041
  158.1000   154.1441     7.8567     8.3672
  158.2000   153.9551     7.8075     8.3203
  158.3000   153.8437     7.7687     8.2737
  158.4000   153.7635     7.6959     8.2274
  158.5000   153.4614     7.6091     8.1768
  158.6000   152.6345     7.5329     8.1355
  158.7000   151.9700     7.4906     8.0588
  158.8000   151.0567     7.4486     7.9888
  158.9000   150.2882     7.4068     7.9441
  159.0000   149.7329     7.3652     7.8996
  159.1000   148.9958     7.3239     7.8554
  159.2000   148.7482     7.2827     7.8114
  159.3000   148.1029     7.2382     7.7676
  159.4000   147.6461     7.2387     7.7241
  159.5000   146.9150     7.2109     7.6809
  159.6000   146.1693     7.1897     7.6339
  159.7000   145.3673     7.1800     7.5951
  159.8000   144.9083     7.1409     7.5526
  159.9000   144.4117     7.1417     7.5103
  160.0000   144.1578     7.1091     7.4579
  160.1000   144.1593     7.0454     7.3748
  160.2000   144.1608     6.9659     7.3254
  160.3000   144.1626     6.8873     7.2594
  160.4000   144.1639     6.8045     7.1777
  160.5000   144.4709     6.7688     7.0969
  160.6000   144.9706     6.7035     7.0170
  160.7000   145.5141     6.6279     6.9314
  160.8000   146.2944     6.5531     6.8245
  160.9000   147.2500     6.4791     6.7359
  161.0000   148.8001     6.3942     6.6424
  161.1000   150.1561     6.3038     6.5394
  161.2000   151.0786     6.1757     6.4657
  161.3000   151.7856     6.0366     6.3791
  161.4000   152.0700     5.9064     6.2637
  161.5000   152.0713     5.8023     6.1433
  161.6000   152.2339     5.6773     6.0150
  161.7000   152.3779     5.5730     5.8508
  161.8000   152.3794     5.4627     5.7090
  161.9000   152.3809     5.3486     5.5620
  162.0000   151.8887     5.2557     5.3852
  162.1000   151.5845     5.1211     5.1908
  162.2000   151.3370     5.0220     4.9878
  162.3000   151.0059     4.9090     4.7933
  162.4000   150.5093     4.7985     4.6032
  162.5000   149.9622     4.6850     4.4985
  162.6000   149.5160     4.5509     4.3871
  162.7000   149.1887     4.4504     4.2885
  162.8000   149.0561     4.3130     4.1920
  162.9000   149.0576     4.1808     4.0911
  163.0000   149.0592     4.0707     3.9850
  163.1000   149.0610     3.9765     3.8889
  163.2000   149.0622     3.8522     3.8016
  163.3000   149.0637     3.7192     3.6999
  163.4000   149.0652     3.6143     3.5541
  163.5000   149.0668     3.5329     3.3682
  163.6000   149.0684     3.4445     3.2310
  163.7000   149.0698     3.3285     3.0800
  163.8000   149.0713     3.2353     2.9551
  163.9000   149.0728     3.1586     2.8607
  164.0000   149.0055     3.0875     2.7922
  164.1000   148.7293     3.0121     2.7482
  164.2000   147.8637     2.9252     2.7128
  164.3000   147.6559     2.8180     2.6898
  164.4000   147.0992     2.7462     2.6747
  164.5000   145.9528     2.6692     2.6597
  164.6000   144.4396     2.5942     2.6423
  164.7000   143.9257     2.5284     2.6300
  164.8000   143.2061     2.4865     2.6244
  164.9000   142.6464     2.4699     2.6246
  165.0000   142.0182     2.4586     2.6248
  165.1000   141.2725     2.4448     2.6250
  165.2000   140.5722     2.4363     2.6394
  165.3000   140.2931     2.4365     2.6438
  165.4000   139.6425     2.4367     2.6440
  165.5000   139.0597     2.4369     2.6484
  165.6000   138.5631     2.4371     2.6629
  165.7000   138.1205     2.4373     2.6632
  165.8000   137.8725     2.4375     2.6761
  165.9000   137.6254     2.4377     2.6822
  166.0000   137.3779     2.4380     2.6884
  166.1000   137.1303     2.4381     2.7040
  166.2000   137.0535     2.4383     2.7205
  166.3000   137.2731     2.4441     2.7503
  166.4000   137.2748     2.4558     2.7821
  166.5000   137.5018     2.4560     2.8142
  166.6000   137.7523     2.4697     2.8467
  166.7000   138.3531     2.4736     2.8816
  166.8000   139.4133     2.4812     2.9590
  166.9000   140.6600     2.4956     3.0022
  167.0000   142.1399     2.5101     3.0652
  167.1000   143.7612     2.5267     3.1289
  167.2000   145.6071     2.5646     3.1863
  167.3000   147.3522     2.5995     3.2633
  167.4000   149.0187     2.6425     3.3356
  167.5000   150.3415     2.7102     3.4273
  167.6000   151.0446     2.8062     3.5372
  167.7000   151.6139     2.8704     3.6542
  167.8000   152.2386     2.9501     3.7598
  167.9000   152.7754     3.0358     3.8857
  168.0000   152.7769     3.1180     4.0009
  168.1000   152.7787     3.1883     4.1556
  168.2000   152.5691     3.2500     4.3148
  168.3000   152.3216     3.3339     4.4648
