~VERSION INFORMATION
 VERS.                2.0:   CWLS LOG ASCII STANDARD - VERSION 2.0
 WRAP.                 NO:   ONE LINE PER DEPTH STEP
~WELL INFORMATION
#MNEM.UNIT      DATA TYPE    INFORMATION
#----------   ------------   ------------------------------
 STRT.F           39.5000:   START DEPTH
 STOP.F          591.0000:   STOP DEPTH
 STEP.F            0.5000:   STEP LENGTH
 NULL.          -999.2500:   NO VALUE
 COMP. FENIX & SCISSON INC:   COMPANY
 WELL.      26 SX 3 #26-3:   WELL
 FLD .             TEAPOT:   FIELD
 LOC .       S3 T38N R78W:   LOCATION
 CNTY.            NATRONA:   COUNTY
 STAT.            WYOMING:   STATE
 CTRY. UNITED STATES OF AMERICA:   COUNTRY
 SRVC.           BIRDWELL:   SERVICE COMPANY
 DATE.        01-OCT-1978:   LOGDATE
 API .       490251071500:   API NUMBER
~CURVE INFORMATION
#MNEM.UNIT       API CODE    CURVE DESCRIPTION
#----------   ------------   ------------------------------
 DEPT.F                  :   
 SPR .MV     05 010 01 00:   SPONTANEOUS POTENTIAL FROM RES.
 SN  .OHMM   05 040 16 00:   SHORT NORMAL 16"
 ILD .OHMM   05 120 46 00:   INDUCTION LOG DEEP
 RHOB.G/C3   45 350 01 00:   BULK DENSITY
 CORR.G/C3   45 356 01 00:   DENSITY CORRECTION
 DPHI.DEC    45 890 12 00:   DENSITY POROSITY SANDSTONE
 GRD .GAPI   45 310 01 00:   GAMMA RAY FROM DENSITY LOG
 CALD.IN     45 280 60 00:   CALIPER
~PARAMETER INFORMATION
#MNEM.UNIT          VALUE    DESCRIPTION
#----------   ------------   ------------------------------
 PD  .                 GL:   PERMANENT DATUM
 EPD .F              5225:   ELEVATION PERMANENT DATUM
 LMF .                 KB:   LOG MEASURED FROM
 DAPD.F                 4:   FEET ABOVE PERMANENT DATUM
 DMF .                 KB:   DRILLING MEASURED FROM
 EKB .F              5229:   KELLING BUSHING
 EGL .F              5225:   GROUND LEVEL
 DATE.            10-1-78:   RUN DATE
 RUN .                  1:   RUN NUMBER
 DD  .F               600:   DEPTH DRILLER
 DL  .F               597:   DEPTH LOGGER
 BLI .F               591:   BOTTOM LOG INTERVAL
 TLI .F                60:   TOP LOG INTERVAL
 CS  .IN            8.625:   CASING SIZE
 CBD .F                40:   CASING BOTTOM DRILLER
 BS  .IN            7.875:   BIT SIZE
 BSD .F               600:   BIT SIZE AT DEPTH
 DFT .                KCL:   DRILLING FLUID TYPE
 DFD .                8.7:   DRILLING FLUID DENSITY
 DFV .                 34:   DRILLING FLUID VISCOSITY
 DFPH.                  9:   DRILLING FLUID PH
 DFL .                 10:   DRILLING FLUID LOSS
 MSS .            MUD PIT:   MUD SAMPLE SOURCE
 RMS .OHMM            .24:   RESISTIVITY MUD SAMPLE
 MST .F                65:   MUD SAMPLE TEMPERATURE
 RMF .OHMM            .45:   RESISTIVITY MUD FILTRATE SAMPLE
 MFST.F                65:   MUD FILTRATE SAMPLE TEMPERATURE
 RMC .OHMM             .4:   RESISTIVITY MUD CAKE
 MCST.F                65:   MUD CAKE SAMPLE TEMPERATURE
 MFSS.               MEAS:   MUD FILTRATE SAMPLE SOURCE
 TCS .HRS               3:   TIME CURCULATED STOPPED
 LUN .               2958:   LOGGING UNIT NUMBER
 LUL .               CASP:   LOGGING UNIT LOCATION
 ENGI.             MILLER:   RECORDING ENGINEER
 WITN.           DINSMORE:   WITNESSED BY
 CLNT.            A2DTECH:   CLIENT CODE
 ORIG.       2", 5" PRINT:   ORIGIN OF DATA
 UWI .       490251071500:   UNIQUE WELL ID
 DICO. A2D Technologies, Inc.:   DIGITIZING COMPANY
~OTHER INFORMATION
~A   DEPT      SPR         SN        ILD       RHOB       CORR       DPHI        GRD         CALD 
# ...
  242.0000   -12.9161     7.5561     8.1975     2.4743     0.0025     0.1237   143.3754     7.7919
  242.5000   -12.9209     7.5487     8.0567     2.4718     0.0033     0.1247   153.0231     7.8005
  243.0000   -12.9257     7.5417     7.9730     2.4696     0.0041     0.1257   153.2996     7.8090
  243.5000   -12.9305     7.5348     7.9301     2.4684     0.0049     0.1272   153.5875     7.8175
  244.0000   -12.9353     7.5279     7.8884     2.4672     0.0057     0.1287   155.1389     7.8261
  244.5000   -12.9401     7.5210     7.8467     2.4660     0.0065     0.1261   156.8548     7.8346
  245.0000   -12.9449     7.5140     7.8051     2.4672     0.0072     0.1224   156.7917     7.8413
  245.5000   -12.9497     7.5071     7.7672     2.4705     0.0081     0.1176   150.7874     7.8380
  246.0000   -12.9545     7.5002     7.8008     2.4776     0.0089     0.1128   144.6266     7.8349
  246.5000   -12.9593     7.4932     7.8321     2.4847     0.0061     0.1143   143.9379     7.8318
  247.0000   -12.9641     7.4874     7.8635     2.4878     0.0024     0.1174   144.1955     7.8287
  247.5000   -12.9689     7.5062     7.8950     2.4829     0.0002     0.1215   143.1118     7.8256
  248.0000   -12.9737     7.5240     7.9267     2.4767    -0.0008     0.1246   146.9695     7.8225
  248.5000   -12.9785     7.5418     7.9585     2.4712     0.0032     0.1210   152.2959     7.8195
  249.0000   -12.9833     7.5596     7.9904     2.4749     0.0073     0.1189   150.6306     7.8164
  249.5000   -12.9881     7.5775     8.0224     2.4788     0.0110     0.1174   150.3856     7.8133
  250.0000   -12.9930     7.5954     8.0578     2.4800     0.0109     0.1168   150.6165     7.8102
  250.5000   -12.9978     7.6134     8.0578     2.4800     0.0107     0.1164   150.8728     7.8071
  251.0000   -13.0026     7.6335     8.0578     2.4800     0.0105     0.1160   150.7857     7.8041
  251.5000   -13.0074     7.6587     8.0578     2.4826     0.0104     0.1142   149.2854     7.8023
  252.0000   -13.0122     7.6962     8.0576     2.4877     0.0103     0.1102   146.0848     7.8033
  252.5000   -13.0170     7.5958     8.0580     2.4927     0.0101     0.1127   145.3056     7.8043
  253.0000   -13.0218     7.4056     7.9927     2.4886     0.0099     0.1161   138.3067     7.8053
  253.5000   -13.0266     7.2202     7.9230     2.4839     0.0098     0.1191   137.4525     7.8063
  254.0000   -13.0314     7.0395     7.8538     2.4795     0.0097     0.1196   138.1413     7.8073
  254.5000   -13.0362     6.9354     7.7851     2.4775     0.0095     0.1201   142.1061     7.8082
  255.0000   -13.0410     6.8955     7.5634     2.4753     0.0094     0.1244   142.9135     7.8092
  255.5000   -13.0458     6.8559     7.2954     2.4695     0.0092     0.1313   148.8022     7.8102
  256.0000   -13.0506     6.7409     7.0369     2.4577     0.0091     0.1406   149.0175     7.8112
  256.5000   -13.0554     6.4897     6.7875     2.4459     0.0089     0.1498   146.9305     7.8122
  257.0000   -13.0603     6.2480     6.5525     2.4341     0.0088     0.1530   147.0134     7.8132
  257.5000   -13.0654     6.0062     6.3541     2.4265     0.0086     0.1407   146.8005     7.8142
  258.0000   -13.0701     6.0642     6.2309     2.4397     0.0085     0.1305   144.7343     7.8152
  258.5000   -13.0481     6.1253     6.3025     2.4585     0.0083     0.1203   142.7346     7.8162
  259.0000   -12.8794     6.1870     6.3464     2.4737     0.0082     0.1122   141.0049     7.8172
  259.5000   -12.7122     6.2493     6.5127     2.4880     0.0080     0.1120   140.7677     7.8182
  260.0000   -12.5439     6.3990     6.8095     2.4903     0.0079     0.1145   140.8673     7.8191
  260.5000   -12.4830     6.7009     7.1198     2.4877     0.0077     0.1169   140.9744     7.8201
  261.0000   -12.4935     7.0170     7.4442     2.4817     0.0076     0.1156   141.0695     7.8211
  261.5000   -12.5052     7.3481     7.7834     2.4825     0.0074     0.1100   141.3512     7.8227
  262.0000   -12.5170     7.6184     8.1381     2.4903     0.0073     0.1090   142.2955     7.8255
  262.5000   -12.5287     7.8782     8.3812     2.4959     0.0071     0.1139   146.8337     7.8282
  263.0000   -12.5405     8.0043     8.4366     2.4892     0.0074     0.1186   151.3834     7.8310
  263.5000   -12.5522     8.0379     8.4923     2.4795     0.0111     0.1198   155.8759     7.8338
  264.0000   -12.5639     8.0716     8.5484     2.4822     0.0148     0.1146   157.3300     7.8368
  264.5000   -12.5756     8.1055     8.6049     2.4885     0.0147     0.1098   157.6439     7.8394
  265.0000   -12.5873     8.1396     8.6618     2.4947     0.0142     0.1046   155.2139     7.8288
  265.5000   -12.5991     8.1737     8.7190     2.5004     0.0138     0.1024   154.2267     7.7551
  266.0000   -12.6108     8.2081     8.7568     2.5023     0.0134     0.1038   153.2963     7.7369
  266.5000   -12.6225     8.2425     8.7680     2.5035     0.0130     0.1056   153.6810     7.7299
  267.0000   -12.6342     8.2772     8.7792     2.5001     0.0126     0.1053   154.7890     7.7232
  267.5000   -12.6459     8.3119     8.7905     2.5005     0.0122     0.1049   154.9200     7.7163
  268.0000   -12.6577     8.3467     8.8017     2.5011     0.0118     0.1053   154.1734     7.7094
  268.5000   -12.6694     8.3594     8.8130     2.5016     0.0113     0.1088   153.4042     7.7025
  269.0000   -12.6811     8.3593     8.8243     2.4984     0.0113     0.1124   153.2718     7.6956
  269.5000   -12.6928     8.3592     8.8328     2.4892     0.0220     0.1146   152.6403     7.6887
  270.0000   -12.7045     8.3592     8.8336     2.4839     0.0330     0.1158   151.1337     7.6818
  270.5000   -12.7163     8.3592     8.8075     2.4992     0.0441     0.1059   149.6167     7.6750
  271.0000   -12.7280     8.3592     8.7686     2.5041     0.0550     0.0986   147.4117     7.6679
  271.5000   -12.7397     8.3593     8.7301     2.5068     0.0685     0.0913   146.7045     7.6500
  272.0000   -12.7514     8.3592     8.6919     2.5167     0.0832     0.0822   148.6039     7.6075
  272.5000   -12.7631     8.3592     8.6720     2.5370     0.0968     0.0679   152.8249     7.5654
  273.0000   -12.7748     8.3145     8.6966     2.5566     0.0965     0.0602   156.8154     7.5233
  273.5000   -12.7866     8.2225     8.7135     2.5708     0.0959     0.0776   157.0989     7.4812
  274.0000   -12.7983     8.1315     8.7307     2.5554     0.0954     0.0942   154.1984     7.4391
  274.5000   -12.8100     8.0415     8.7523     2.5315     0.0995     0.1114   145.9852     7.3969
  275.0000   -12.8217     7.9526     8.6366     2.5071     0.1087     0.1177   143.1384     7.3539
  275.5000   -12.8334     7.8646     8.4737     2.4823     0.1195     0.1180   143.0910     7.3465
  276.0000   -12.8451     7.7341     8.3139     2.4790     0.1400     0.1154   144.4298     7.3553
  276.5000   -12.8569     7.5880     8.1571     2.4836     0.1507     0.1135   148.6997     7.4021
  277.0000   -12.8683     7.4446     8.0032     2.4881     0.1589     0.1147   152.2300     7.4445
  277.5000   -12.9607     7.3042     7.8523     2.4869     0.1667     0.1174   152.7340     7.4420
  278.0000   -13.1275     7.1661     7.7043     2.4814     0.1908     0.1233   150.5183     7.4380
  278.5000   -13.3124     7.0209     7.5592     2.4707     0.2202     0.1286   146.5105     7.4343
  279.0000   -13.5870     6.6315     7.4173     2.4633     0.2332     0.1159   145.8729     7.4306
  279.5000   -13.8649     6.2649     7.1454     2.4879     0.2186     0.1002   146.1850     7.4264
  280.0000   -14.1448     6.0283     6.7749     2.4946     0.1930     0.1068   148.2160     7.4499
  280.5000   -14.2784     5.4254     6.4049     2.4977     0.1337     0.1182   150.1427     7.4837
  281.0000   -14.2975     5.1620     5.8017     2.4914     0.0762     0.1434   150.6120     7.5181
  281.5000   -14.3145     4.6472     5.2221     2.4511     0.0608     0.1780   152.3284     7.5524
  282.0000   -14.3311     4.1711     4.7357     2.3958     0.0751     0.2103   152.6742     7.5866
