~VERSION INFORMATION
 VERS.                2.0:   CWLS LOG ASCII STANDARD - VERSION 2.0
 WRAP.                 NO:   ONE LINE PER DEPTH STEP
~WELL INFORMATION
#MNEM.UNIT      DATA TYPE    INFORMATION
#----------   ------------   ------------------------------
 STRT.F            0.0000:   START DEPTH
 STOP.F          534.0000:   STOP DEPTH
 STEP.F            0.1000:   STEP LENGTH
 NULL.          -999.2500:   NO VALUE
 COMP.       F D SERV INC:   COMPANY
 WELL. NAVAL PETROLEUM RESERVE 3 SX-1 #71-2-10:   WELL
 FLD .            N.P.R 3:   FIELD
 LOC .      S10 T38N R78W:   LOCATION
 CNTY.            NATRONA:   COUNTY
 STAT.            WYOMING:   STATE
 CTRY. UNITED STATES OF AMERICA:   COUNTRY
 SRVC.     Atlas Wireline:   SERVICE COMPANY
 DATE.        07-DEC-1992:   LOGDATE
 API .       490252257200:   API NUMBER
~CURVE INFORMATION
#MNEM.UNIT       API CODE    CURVE DESCRIPTION
#----------   ------------   ------------------------------
 DEPT.F                  :   
 GRR .GAPI   07 310 01 00:   GAMMA RAY
 RILD.OHMM   07 120 46 00:   INDUCTION LOG DEEP RESISTIVITY
 RILM.OHMM   07 120 44 00:   RESITIVITY LONG MEDIUM
~PARAMETER INFORMATION
#MNEM.UNIT          VALUE    DESCRIPTION
#----------   ------------   ------------------------------
 PD  .                 GL:   PERMANENT DATUM
 EPD .F              5165:   ELEVATION PERMANENT DATUM
 LMF .                 KB:   LOG MEASURED FROM
 DAPD.F                10:   FEET ABOVE PERMANENT DATUM
 DMF .                 KB:   DRILLING MEASURED FROM
 EKB .F              5175:   KELLING BUSHING
 EDF .F              5174:   DRILLING FLOOR
 EGL .F              5165:   GROUND LEVEL
 DATE.        07-DEC-1992:   RUN DATE
 RUN .                  1:   RUN NUMBER
 DD  .F               540:   DEPTH DRILLER
 DL  .F               542:   DEPTH LOGGER
 BLI .F               534:   BOTTOM LOG INTERVAL
 CS  .IN            8.625:   CASING SIZE
 CBD .F                78:   CASING BOTTOM DRILLER
 CBL .F                82:   CASING BOTTOM LOGGER
 BS  .IN            7.875:   BIT SIZE
 BSD .F               540:   BIT SIZE AT DEPTH
 DFT .           AIR FOAM:   DRILLING FLUID TYPE
 BHT .F                70:   BOTTOM HOLE TEMPERATURE
 MRT .F                70:   MAXIMUM RECORDED TEMPERATURE
 LUN .           HL- 6345:   LOGGING UNIT NUMBER
 LUL .         FT. MORGAN:   LOGGING UNIT LOCATION
 ENGI.             BURLEY:   RECORDING ENGINEER
 WITN.        GARY STRONG:   WITNESSED BY
 CLNT.            A2DTECH:   CLIENT CODE
 ORIG.           5" PRINT:   ORIGIN OF DATA
 UWI .       490252257200:   UNIQUE WELL ID
 DICO. A2D Technologies, Inc.:   DIGITIZING COMPANY
~OTHER INFORMATION
~A    DEPT      GRR      RILD       RILM   
# ...
  218.4000   118.7601     7.7588     7.7175
  218.5000   118.5089     7.7837     7.7148
  218.6000   118.1540     7.8126     7.6630
  218.7000   117.7542     7.8122     7.6626
  218.8000   117.7542     7.8119     7.6333
  218.9000   117.5037     7.8116     7.5887
  219.0000   117.2524     7.8113     7.5551
  219.1000   116.8550     7.8109     7.5526
  219.2000   116.5402     7.7952     7.5017
  219.3000   116.5402     7.7559     7.5013
  219.4000   116.5402     7.7556     7.5009
  219.5000   116.5402     7.7553     7.4812
  219.6000   116.5402     7.7549     7.4479
  219.7000   116.7777     7.7546     7.4475
  219.8000   117.0290     7.7397     7.4470
  219.9000   117.2803     7.7000     7.4467
  220.0000   117.5316     7.6997     7.4463
  220.1000   117.8117     7.6584     7.4269
  220.2000   118.3612     7.6455     7.3835
  220.3000   119.0446     7.6224     7.3419
  220.4000   119.6228     7.5780     7.3414
  220.5000   120.1254     7.5385     7.3410
  220.6000   120.6992     7.5382     7.3136
  220.7000   121.4530     7.4984     7.2892
  220.8000   122.3065     7.4547     7.2789
  220.9000   122.5246     7.4112     7.2377
  221.0000   122.9418     7.3680     7.2372
  221.1000   123.3307     7.3250     7.2020
  221.2000   123.5205     7.2777     7.1599
  221.3000   123.5205     7.2399     7.1180
  221.4000   123.5205     7.2265     7.0764
  221.5000   123.5205     7.2059     7.0361
  221.6000   123.5205     7.1639     7.0357
  221.7000   123.5205     7.1188     6.9682
  221.8000   123.5205     7.0262     6.9123
  221.9000   123.5205     6.9903     6.8719
  222.0000   123.5205     6.9226     6.8228
  222.1000   123.5205     6.8610     6.7445
  222.2000   123.3740     6.7794     6.6980
  222.3000   123.2170     6.5895     6.6658
  222.4000   123.2170     6.4598     6.6031
  222.5000   123.2170     6.3636     6.5423
  222.6000   122.9758     6.2777     6.5040
  222.7000   122.7245     6.2050     6.4653
  222.8000   122.3364     6.1327     6.3766
  222.9000   121.8339     6.0616     6.2275
  223.0000   121.3637     5.9807     5.9650
  223.1000   121.0926     5.9512     5.7136
  223.2000   120.8611     5.8726     5.5699
  223.3000   120.2513     5.7856     5.5051
  223.4000   119.3704     5.7030     5.4293
  223.5000   118.4401     5.5727     5.3530
  223.6000   117.6636     5.4603     5.2788
  223.7000   116.5402     5.3560     5.2052
  223.8000   115.6533     5.2518     5.1149
  223.9000   114.9872     5.1483     5.0261
  224.0000   114.4846     5.0298     4.9224
  224.1000   114.1775     4.9139     4.8536
  224.2000   114.4158     4.7807     4.7529
  224.3000   114.4158     4.6909     4.6434
  224.4000   114.6278     4.5670     4.5416
  224.5000   114.8791     4.4570     4.4626
  224.6000   115.2380     4.3745     4.3098
  224.7000   115.6852     4.2729     4.1914
  224.8000   115.9397     4.0139     4.0477
  224.9000   116.5402     3.8857     3.8912
  225.0000   116.9449     3.7437     3.7305
  225.1000   117.1472     3.6235     3.6443
  225.2000   117.2451     3.5156     3.5401
  225.3000   117.4964     3.3939     3.4546
  225.4000   117.7542     3.3166     3.3635
  225.5000   117.7542     3.2552     3.2744
  225.6000   117.9468     3.1774     3.1989
  225.7000   118.7598     3.0931     3.1246
  225.8000   119.9280     3.0219     3.0533
  225.9000   120.8611     2.9508     2.9967
  226.0000   121.3961     2.9009     2.9448
  226.1000   122.3365     2.8507     2.8937
  226.2000   123.1587     2.8014     2.8435
  226.3000   123.5205     2.7529     2.7936
  226.4000   123.5205     2.7078     2.7616
  226.5000   123.4942     2.6753     2.7295
  226.6000   123.2170     2.6307     2.6979
  226.7000   123.2170     2.5966     2.6606
  226.8000   122.5242     2.5583     2.5982
  226.9000   121.6400     2.5243     2.4631
  227.0000   120.8861     2.5118     2.4489
  227.1000   120.1157     2.5117     2.4457
  227.2000   118.9681     2.5116     2.4539
  227.3000   117.6740     2.5115     2.4625
  227.4000   116.1663     2.5114     2.4650
  227.5000   115.2150     2.5163     2.4795
  227.6000   114.6683     2.5308     2.4935
  227.7000   113.1675     2.5464     2.5079
  227.8000   111.6844     2.5463     2.5139
  227.9000   110.4486     2.5570     2.5249
  228.0000   109.2484     2.5718     2.5516
  228.1000   108.2432     2.5916     2.5667
  228.2000   107.2381     2.6198     2.5811
  228.3000   106.2215     2.6362     2.6078
  228.4000   105.4762     2.6644     2.6381
  228.5000   104.7223     2.6955     2.6746
  228.6000   103.6803     2.7351     2.7160
  228.7000   102.6076     2.7830     2.7321
  228.8000   101.8140     2.8317     2.7786
  228.9000   100.7587     2.8859     2.8274
  229.0000   100.5200     2.9474     2.8674
  229.1000   100.2687     3.0166     2.9070
  229.2000   100.1517     3.0782     2.9608
  229.3000   100.1517     3.1322     3.0325
  229.4000   100.2116     3.1888     3.0839
  229.5000   100.7587     3.2716     3.1521
  229.6000   101.6748     3.3229     3.2261
  229.7000   102.5032     3.3948     3.3088
  229.8000   103.5063     3.4744     3.4060
  229.9000   104.6903     3.5558     3.5099
  230.0000   105.8980     3.6390     3.5892
  230.1000   109.8634     3.7349     3.6735
  230.2000   112.0568     3.8119     3.7597
  230.3000   114.9039     3.9013     3.8478
  230.4000   117.6895     3.9817     3.9342
  230.5000   120.0770     4.0579     4.0061
  230.6000   122.0557     4.1529     4.0962
  230.7000   123.5205     4.2637     4.1924
  230.8000   126.0359     4.3502     4.2907
  230.9000   127.9495     4.5223     4.4005
  231.0000   128.6798     4.6731     4.5380
  231.1000   128.6268     4.7549     4.7349
  231.2000   128.3739     4.8381     4.8677
  231.3000   127.6200     4.9358     4.9891
  231.4000   126.4665     5.0094     5.0897
  231.5000   125.5054     5.0780     5.1788
  231.6000   124.8469     5.1504     5.2695
  231.7000   124.2578     5.2332     5.3667
  231.8000   123.2170     5.2952     5.4258
  231.9000   122.4898     5.4035     5.4890
  232.0000   121.5458     5.4296     5.5528
  232.1000   120.9546     5.5014     5.6174
  232.2000   120.6175     5.5698     5.6827
  232.3000   120.1485     5.6093     5.7526
  232.4000   119.8786     5.6745     5.7839
  232.5000   119.8786     5.7525     5.7923
  232.6000   119.8786     5.8075     5.8102
  232.7000   119.8786     5.8539     5.8322
  232.8000   119.8786     5.9020     5.8318
  232.9000   119.8786     5.9707     5.8315
  233.0000   119.8786     6.0398     5.8312
  233.1000   119.8786     6.0815     5.8309
  233.2000   120.0494     6.1098     5.8305
  233.3000   120.1821     6.1668     5.8189
  233.4000   120.3148     6.2240     5.7894
  233.5000   120.8316     6.2528     5.7890
  233.6000   121.6995     6.2525     5.7887
  233.7000   122.1261     6.2884     5.7884
  233.8000   122.4676     6.2958     5.7881
  233.9000   122.9366     6.2955     5.7877
  234.0000   123.8605     6.2812     5.7874
  234.1000   125.3636     6.2446     5.7871
  234.2000   126.8589     6.2074     5.7868
  234.3000   127.2659     6.2072     5.8109
  234.4000   127.7685     6.1514     5.8266
  234.5000   128.1720     6.1003     5.8263
  234.6000   128.3763     6.0777     5.8260
  234.7000   128.3763     6.0716     5.8256
  234.8000   128.3763     6.0349     5.8567
  234.9000   128.3763     6.0010     5.8658
  235.0000   128.3763     5.9660     5.8833
  235.1000   128.3763     5.9312     5.9062
  235.2000   128.3763     5.8967     5.9059
  235.3000   128.3763     5.8623     5.9055
  235.4000   128.3763     5.8264     5.9052
  235.5000   128.3763     5.7623     5.9049
  235.6000   128.3763     5.7203     5.9046
  235.7000   128.3763     5.7049     5.8935
  235.8000   128.3763     5.6822     5.8552
  235.9000   128.3763     5.6208     5.7813
  236.0000   128.3763     5.5859     5.6600
  236.1000   128.3763     5.5555     5.5073
  236.2000   128.3763     5.4997     5.3184
  236.3000   128.3763     5.4360     5.1237
  236.4000   128.3763     5.3832     4.9734
  236.5000   128.3763     5.3479     4.7869
