~VERSION INFORMATION
 VERS.                2.0:   CWLS LOG ASCII STANDARD - VERSION 2.0
 WRAP.                 NO:   ONE LINE PER DEPTH STEP
~WELL INFORMATION
#MNEM.UNIT      DATA TYPE    INFORMATION
#----------   ------------   ------------------------------
 STRT.F            3.0000:   START DEPTH
 STOP.F          523.0000:   STOP DEPTH
 STEP.F            0.1000:   STEP LENGTH
 NULL.          -999.2500:   NO VALUE
 COMP.     BROWN JOHN E&C:   COMPANY
 WELL.   NPR 3 #52-2-SX-3:   WELL
 FLD .             TEAPOT:   FIELD
 LOC .       S3 T38N R78W:   LOCATION
 CNTY.            NATRONA:   COUNTY
 STAT.            WYOMING:   STATE
 CTRY. UNITED STATES OF AMERICA:   COUNTRY
 SRVC.     Atlas Wireline:   SERVICE COMPANY
 DATE.        18-APR-1992:   LOGDATE
 API .       490252251500:   API NUMBER
~CURVE INFORMATION
#MNEM.UNIT       API CODE    CURVE DESCRIPTION
#----------   ------------   ------------------------------
 DEPT.F                  :   
 GRR .GAPI   07 310 01 00:   GAMMA RAY
 RILD.OHMM   07 120 46 00:   INDUCTION LOG DEEP RESISTIVITY
 RILM.OHMM   07 120 44 00:   INDUCTION LOG MEDIUM RESISTIVITY
~PARAMETER INFORMATION
#MNEM.UNIT          VALUE    DESCRIPTION
#----------   ------------   ------------------------------
 PD  .                 GL:   PERMANENT DATUM
 EPD .F              5128:   ELEVATION PERMANENT DATUM
 LMF .                 KB:   LOG MEASURED FROM
 DAPD.F                 5:   FEET ABOVE PERMANENT DATUM
 DMF .                 KB:   DRILLING MEASURED FROM
 EKB .F              5133:   KELLING BUSHING
 EDF .F              5132:   DRILLING FLOOR
 EGL .F              5128:   GROUND LEVEL
 DATE.        18-APR-1992:   RUN DATE
 RUN .                  1:   RUN NUMBER
 DD  .F               525:   DEPTH DRILLER
 DL  .F               526:   DEPTH LOGGER
 BLI .F               524:   BOTTOM LOG INTERVAL
 CS  .IN            8.625:   CASING SIZE
 CBD .F                48:   CASING BOTTOM DRILLER
 CBL .F                49:   CASING BOTTOM LOGGER
 BS  .IN            7.875:   BIT SIZE
 BSD .F               525:   BIT SIZE AT DEPTH
 DFT .                AIR:   DRILLING FLUID TYPE
 TCS .HRS               2:   TIME CURCULATED STOPPED
 MRT .F                87:   MAXIMUM RECORDED TEMPERATURE
 LUN .            HL 6274:   LOGGING UNIT NUMBER
 LUL .             CASPER:   LOGGING UNIT LOCATION
 ENGI.            LEBSOCK:   RECORDING ENGINEER
 WITN.             STRONG:   WITNESSED BY
 CLNT.            A2DTECH:   CLIENT CODE
 ORIG.       2", 5" PRINT:   ORIGIN OF DATA
 UWI .       490252251500:   UNIQUE WELL ID
 DICO. A2D Technologies, Inc.:   DIGITIZING COMPANY
~OTHER INFORMATION
~A    DEPT     GRR       RILD       RILM   
# ...
  312.4000    68.3135    33.2544    30.1551
  312.5000    68.4848    33.2521    30.1530
  312.6000    68.5047    33.2498    30.1509
  312.7000    68.7879    33.2474    30.1488
  312.8000    69.2097    33.2451    30.1467
  312.9000    69.8588    33.2428    30.1446
  313.0000    70.7980    33.1448    30.1422
  313.1000    72.0764    33.0067    29.8387
  313.2000    73.6364    32.9939    29.4989
  313.3000    75.2754    32.7719    29.0922
  313.4000    76.6485    32.7700    28.6296
  313.5000    77.7616    32.6551    28.2952
  313.6000    78.6174    32.4671    27.9812
  313.7000    79.1218    32.2802    27.7802
  313.8000    80.0000    32.0810    27.6206
  313.9000    80.2014    31.7418    27.4618
  314.0000    80.3030    31.3798    27.3040
  314.1000    80.3030    31.1058    27.1217
  314.2000    80.3030    30.9267    27.1201
  314.3000    80.3030    30.7439    27.1182
  314.4000    80.3030    30.3237    27.1163
  314.5000    80.3030    30.1841    27.1144
  314.6000    80.1903    30.0104    27.1124
  314.7000    79.9433    29.8376    27.1106
  314.8000    79.6970    29.6658    27.1087
  314.9000    79.6970    29.4777    27.1068
  315.0000    79.6970    29.4759    27.1049
  315.1000    79.6970    29.3611    27.1031
  315.2000    79.6170    29.2665    27.2587
  315.3000    79.3939    29.2645    27.2893
  315.4000    79.3939    29.2624    27.2874
  315.5000    79.3939    29.0947    27.2855
  315.6000    79.3939    29.0546    27.3004
  315.7000    79.3939    29.0526    27.4727
  315.8000    79.5832    29.0506    27.6092
  315.9000    80.6061    29.0643    27.6618
  316.0000    81.3213    29.2499    27.6598
  316.1000    81.8801    29.2481    27.6892
  316.2000    82.3742    29.2461    27.8498
  316.3000    82.7978    29.3140    28.1578
  316.4000    83.0449    29.5123    28.3578
  316.5000    83.3333    29.8594    28.5177
  316.6000    83.3333    30.0226    28.6785
  316.7000    83.3333    30.3207    28.8501
  316.8000    83.3333    30.5757    29.2335
  316.9000    83.3333    30.7484    29.3709
  317.0000    83.3333    30.9453    29.7424
  317.1000    83.3333    31.5627    30.1865
  317.2000    83.1605    31.7125    30.5831
  317.3000    82.9134    32.0042    31.3387
  317.4000    82.7273    32.3689    31.8360
  317.5000    82.7273    32.7068    32.3825
  317.6000    82.7273    32.9029    32.7613
  317.7000    82.5311    33.2552    33.0374
  317.8000    82.1438    33.4975    33.6004
  317.9000    81.4812    33.6867    33.9833
  318.0000    80.5495    33.8769    34.2164
  318.1000    80.0000    34.0752    34.5195
  318.2000    80.0000    34.5377    34.8460
  318.3000    80.0000    34.6958    35.0220
  318.4000    79.6776    34.7755    35.0190
  318.5000    78.8849    34.8445    35.1920
  318.6000    77.8788    35.0413    35.3905
  318.7000    75.2101    35.2573    35.5048
  318.8000    73.6122    35.4383    35.5023
  318.9000    72.5074    35.6385    35.4997
  319.0000    71.5190    35.7462    35.4973
  319.1000    70.5684    35.7912    35.4948
  319.2000    70.0000    35.9919    35.4923
  319.3000    69.5801    35.9894    35.4899
  319.4000    69.0860    35.9868    35.4874
  319.5000    68.6899    36.0987    35.4845
  319.6000    68.4428    36.2341    35.4824
  319.7000    68.1818    36.2316    35.4799
  319.8000    68.1818    36.2288    35.4775
  319.9000    68.1818    36.2266    35.4457
  320.0000    68.0606    36.2240    35.2253
  320.1000    67.9440    36.2215    34.8573
  320.2000    68.1818    36.2190    34.4604
  320.3000    68.1818    36.2164    34.0679
  320.4000    68.1818    36.2139    33.6351
  320.5000    68.7595    36.0567    33.0636
  320.6000    69.6594    35.9567    32.6876
  320.7000    70.4983    35.8927    32.0316
  320.8000    72.1212    35.6860    31.4058
  320.9000    74.1341    35.4498    30.8716
  321.0000    75.8546    35.2766    30.3458
  321.1000    77.2253    34.9496    29.7633
  321.2000    78.4606    34.6288    29.3235
  321.3000    79.6970    34.3958    28.8252
  321.4000    81.1782    33.9826    28.4013
  321.5000    82.2788    33.6156    28.0479
  321.6000    83.2671    33.2323    27.5517
  321.7000    84.2553    32.8531    27.2506
  321.8000    85.2436    32.4285    26.9404
  321.9000    86.3636    31.8753    26.6335
  322.0000    87.2202    31.2357    26.3300
  322.1000    88.2086    30.9438    26.0372
  322.2000    89.0947    30.4882    25.8612
  322.3000    89.7896    30.0311    25.7389
  322.4000    90.3030    29.6882    25.5910
  322.5000    90.5404    29.3216    25.4440
  322.6000    90.7875    29.1668    25.2977
  322.7000    91.0345    28.8852    25.1397
  322.8000    91.2121    28.6313    25.0078
  322.9000    91.2256    28.4664    24.8642
  323.0000    91.5152    28.3051    24.7213
  323.1000    91.5152    28.3031    24.6114
  323.2000    91.5152    28.1740    24.6097
  323.3000    91.3298    28.0118    24.6080
  323.4000    90.8356    27.9044    24.7153
  323.5000    90.3030    27.9025    24.7771
  323.6000    89.8473    27.9003    24.7753
  323.7000    89.5250    27.8986    24.7868
  323.8000    89.0460    27.8966    24.9453
  323.9000    88.3648    27.9646    24.9438
  324.0000    87.8747    28.1225    25.0330
  324.1000    87.6276    28.2833    25.1742
  324.2000    87.3806    28.2814    25.3161
  324.3000    87.2727    28.4026    25.4651
  324.4000    87.2727    28.4757    25.6024
  324.5000    87.2727    28.5243    25.7469
  324.6000    87.2727    28.6716    25.8920
  324.7000    87.2727    28.6691    26.0380
  324.8000    87.4352    28.8084    26.1847
  324.9000    87.5758    28.9711    26.3593
  325.0000    87.6263    29.0668    26.6051
  325.1000    87.8788    29.0952    26.8171
  325.2000    88.1203    29.2665    26.9683
  325.3000    88.3675    29.4248    27.1203
  325.4000    88.7443    29.4677    27.2872
  325.5000    89.1646    29.5510    27.4271
  325.6000    89.4117    29.6702    27.5818
  325.7000    89.6970    29.6775    27.8094
  325.8000    89.9059    29.8737    28.0892
  325.9000    90.3059    29.8720    28.2478
  326.0000    90.6061    29.8699    28.4069
  326.1000    90.6471    29.8678    28.5672
  326.2000    90.9091    29.8657    28.6394
  326.3000    90.9091    29.8635    28.6890
  326.4000    90.7329    29.8615    28.8363
  326.5000    90.4859    29.8594    28.8339
  326.6000    90.1746    29.8573    28.8321
  326.7000    89.6804    29.8553    28.7265
  326.8000    89.0909    29.8532    28.5614
  326.9000    88.4926    29.8507    28.3973
  327.0000    87.0339    29.8490    28.2260
  327.1000    85.4950    29.8469    28.0719
  327.2000    84.8169    29.7855    27.9106
  327.3000    84.5455    29.6349    27.7502
  327.4000    84.3228    29.6326    27.5907
  327.5000    84.2424    29.4795    27.4321
  327.6000    84.3531    29.4224    27.2451
  327.7000    84.7096    29.3455    26.9930
  327.8000    85.4545    29.2134    26.6856
  327.9000    85.9462    29.2114    26.3815
  328.0000    86.4403    29.0439    26.0616
  328.1000    86.9345    28.8768    25.5756
  328.2000    87.4286    28.6219    25.4429
  328.3000    87.9227    28.3465    25.2000
  328.4000    88.4848    28.1833    24.7878
  328.5000    88.4848    27.9999    24.2571
  328.6000    88.4848    27.8599    23.8412
  328.7000    88.4848    27.6996    23.4392
  328.8000    88.4848    27.4749    23.1411
  328.9000    88.4848    27.1612    22.8776
  329.0000    88.4848    26.8410    22.6566
  329.1000    88.4848    26.5452    22.5370
  329.2000    88.4848    26.2425    22.5352
  329.3000    88.4848    25.8675    22.5339
  329.4000    88.4848    25.4683    22.5323
  329.5000    88.4848    25.1868    22.5307
  329.6000    88.4848    25.0186    22.4849
  329.7000    88.6325    24.7792    22.2148
  329.8000    88.9713    24.5821    21.9757
  329.9000    89.5012    24.3869    21.6375
  330.0000    90.3030    24.1084    21.3879
  330.1000    91.2107    23.8161    21.2019
  330.2000    92.1991    23.6876    20.8492
  330.3000    93.0722    23.4562    20.7065
  330.4000    93.8723    23.2527    20.5161
  330.5000    94.8575    23.1188    20.2824
