~VERSION INFORMATION
 VERS.                2.0:   CWLS LOG ASCII STANDARD - VERSION 2.0
 WRAP.                 NO:   ONE LINE PER DEPTH STEP
~WELL INFORMATION
#MNEM.UNIT      DATA TYPE    INFORMATION
#----------   ------------   ------------------------------
 STRT.F           28.5000:   START DEPTH
 STOP.F          516.0000:   STOP DEPTH
 STEP.F            0.5000:   STEP LENGTH
 NULL.          -999.2500:   NO VALUE
 COMP. FENIX & SCISSON INC:   COMPANY
 WELL.         SX 3 #54-3:   WELL
 FLD .            WILDCAT:   FIELD
 LOC .       S3 T38N R78W:   LOCATION
 CNTY.            NATRONA:   COUNTY
 STAT.            WYOMING:   STATE
 CTRY. UNITED STATES OF AMERICA:   COUNTRY
 SRVC.            Unknown:   SERVICE COMPANY
 DATE.        22-SEP-1978:   LOGDATE
 API .       490251069000:   API NUMBER
~CURVE INFORMATION
#MNEM.UNIT       API CODE    CURVE DESCRIPTION
#----------   ------------   ------------------------------
 DEPT.F                  :   
 SPR .MV     05 010 01 00:   SPONTANEOUS POTENTIAL FROM RES.
 ILD .OHMM   05 120 46 00:   INDUCTION LOG DEEP
 SN  .OHMM   05 040 16 00:   SHORT NORMAL 16"
 CALD.IN     45 280 60 00:   CALIPER
 GRD .GAPI   45 310 01 00:   GAMMA RAY FROM DENSITY LOG
 CORR.G/C3   45 356 01 00:   DENSITY CORRECTION
 DEN .G/C3   45 350 01 00:   COMPENSATED BULK DENSTIY
 DPHI.DEC    45 890 12 00:   DENSITY POROSITY SANDSTONE
~PARAMETER INFORMATION
#MNEM.UNIT          VALUE    DESCRIPTION
#----------   ------------   ------------------------------
 PD  .                 GL:   PERMANENT DATUM
 EPD .F              5168:   ELEVATION PERMANENT DATUM
 LMF .                 KB:   LOG MEASURED FROM
 DAPD.F                 4:   FEET ABOVE PERMANENT DATUM
 DMF .                 KB:   DRILLING MEASURED FROM
 EKB .F              5172:   KELLING BUSHING
 EGL .F              5168:   GROUND LEVEL
 DATE.            9-22-78:   RUN DATE
 RUN .                  1:   RUN NUMBER
 DD  .F               510:   DEPTH DRILLER
 DL  .F               517:   DEPTH LOGGER
 BLI .F               510:   BOTTOM LOG INTERVAL
 TLI .F                40:   TOP LOG INTERVAL
 CS  .IN            8.625:   CASING SIZE
 CBD .F                40:   CASING BOTTOM DRILLER
 CBL .F                48:   CASING BOTTOM LOGGER
 BS  .IN            7.875:   BIT SIZE
 BSD .F               510:   BIT SIZE AT DEPTH
 DFT .            KCL MUD:   DRILLING FLUID TYPE
 DFD .                8.7:   DRILLING FLUID DENSITY
 DFV .                 39:   DRILLING FLUID VISCOSITY
 DFPH.                  9:   DRILLING FLUID PH
 DFL .                8.9:   DRILLING FLUID LOSS
 MSS .          FLOW LINE:   MUD SAMPLE SOURCE
 RMS .OHMM            .32:   RESISTIVITY MUD SAMPLE
 MST .F                68:   MUD SAMPLE TEMPERATURE
 RMF .OHMM            .26:   RESISTIVITY MUD FILTRATE SAMPLE
 MFST.F                72:   MUD FILTRATE SAMPLE TEMPERATURE
 RMC .OHMM            .28:   RESISTIVITY MUD CAKE
 MCST.F                75:   MUD CAKE SAMPLE TEMPERATURE
 MFSS.               MEAS:   MUD FILTRATE SAMPLE SOURCE
 MCSS.               MEAS:   MUD CAKE SAMPLE SOURCE
 RMB .OHMM            .32:   RESISTIVITY MUD AT BHT
 BHT .F                69:   BOTTOM HOLE TEMPERATURE
 TCS .HRS               3:   TIME CURCULATED STOPPED
 MRT .F                69:   MAXIMUM RECORDED TEMPERATURE
 LUN .               2958:   LOGGING UNIT NUMBER
 LUL .               CASP:   LOGGING UNIT LOCATION
 ENGI.           REYNOLDS:   RECORDING ENGINEER
 WITN.              AMEND:   WITNESSED BY
 CLNT.            A2DTECH:   CLIENT CODE
 ORIG.           5" PRINT:   ORIGIN OF DATA
 UWI .       490251069000:   UNIQUE WELL ID
 DICO. A2D Technologies, Inc.:   DIGITIZING COMPANY
~OTHER INFORMATION
~A   DEPT      SPR        ILD         SN       CALD         GRD      CORR        DEN       DPHI   
# ...
  271.5000   -55.5480     5.6934     7.5709     8.1158   125.5995     0.0132     2.4318     0.1352
  272.0000   -55.2667     5.7030     7.4942     8.1140   123.2291     0.0109     2.4480     0.1267
  272.5000   -54.7616     5.7163     7.3415     8.1123   123.5359     0.0089     2.4639     0.1197
  273.0000   -54.4644     5.7289     7.0384     8.1106   123.3676     0.0098     2.4799     0.1139
  273.5000   -54.4301     5.7379     6.7479     8.1089   122.0589     0.0111     2.4933     0.1081
  274.0000   -54.3937     5.9004     6.4694     8.1072   118.8771     0.0124     2.4998     0.1018
  274.5000   -54.3579     6.1833     6.3027     8.1055   119.8079     0.0137     2.5046     0.1026
  275.0000   -54.3210     6.4798     6.8391     8.1038   118.0735     0.0150     2.5055     0.1042
  275.5000   -54.2856     6.9768     7.2562     8.1020   114.7554     0.0144     2.5046     0.1062
  276.0000   -54.4021     7.3605     7.6961     8.1003   117.9291     0.0136     2.5036     0.1070
  276.5000   -54.5344     7.6834     7.9782     8.0986   122.3405     0.0128     2.5042     0.1025
  277.0000   -54.6665     7.8937     8.2278     8.0969   122.2791     0.0121     2.5105     0.0971
  277.5000   -54.7947     8.0882     8.4888     8.0952   119.1855     0.0113     2.5167     0.0915
  278.0000   -54.7612     8.0811     8.7580     8.0935   115.1395     0.0122     2.5217     0.0906
  278.5000   -54.4206     8.0706     9.0358     8.0918   119.0177     0.0142     2.5147     0.1001
  279.0000   -54.0845     8.0601     9.1202     8.0901   123.7456     0.0161     2.5050     0.1062
  279.5000   -53.7438     8.0496     9.1202     8.0883   127.3673     0.0181     2.4983     0.1035
  280.0000   -53.6807     8.0391     9.1202     8.0866   124.3042     0.0200     2.5054     0.1007
  280.5000   -53.5568     8.0287     9.1202     8.0849   122.4891     0.0220     2.5142     0.0979
  281.0000   -53.4308     8.0182     9.1202     8.0832   123.6140     0.0218     2.5234     0.0950
  281.5000   -53.3045     8.0139     9.1202     8.0815   121.3243     0.0194     2.5248     0.0930
  282.0000   -53.1790     8.0133     9.1202     8.0798   116.9220     0.0169     2.5209     0.0961
  282.5000   -53.0857     8.0311     9.1202     8.0779   115.2416     0.0145     2.5161     0.0990
  283.0000   -53.0872     8.0726     9.1202     8.0750   115.4547     0.0120     2.5145     0.0994
  283.5000   -53.0857     8.1147     9.1202     8.0926   116.0193     0.0095     2.5144     0.0998
  284.0000   -53.0910     8.1570     9.1202     8.0681   116.6246     0.0071     2.5136     0.1007
  284.5000   -53.4419     8.2370     9.1202     8.0429   118.3232     0.0070     2.5109     0.1042
  285.0000   -53.8273     8.3531     9.1202     8.0175   120.0464     0.0070     2.5064     0.1077
  285.5000   -54.1506     8.4699     9.1202     7.9922   117.9647     0.0070     2.5005     0.1112
  286.0000   -54.3347     8.5885     9.1197     7.9668   115.5002     0.0070     2.4947     0.1150
  286.5000   -54.5220     8.7100     9.1493     7.9409   113.0325     0.0071     2.4890     0.1225
  287.0000   -54.7091     8.7917     9.1902     7.9362   110.5870     0.0106     2.4780     0.1306
  287.5000   -54.8994     8.4155     9.2313     7.9371   109.2569     0.0161     2.4630     0.1658
  288.0000   -55.0984     7.6209     9.2725     7.9382   113.2750     0.0302     2.4317     0.1842
  288.5000   -54.1758     6.9013     9.2903     7.9391   120.1555     0.0307     2.3846     0.1680
  289.0000   -53.0606     6.2447     9.1855     7.9401   125.7358     0.0188     2.3640     0.1499
  289.5000   -52.8794     6.3284     9.1099     7.9410   121.0235     0.0073     2.4511     0.1319
  290.0000   -52.9221     6.4567     9.0364     7.9420   114.8464     0.0070     2.4891     0.1138
  290.5000   -50.6259     6.6006     8.7371     7.9429   108.6653     0.0085     2.5057     0.1015
  291.0000   -48.9115     6.7247     8.2788     7.9439   103.2042     0.0109     2.5032     0.1030
  291.5000   -48.5540     6.8469     7.8441     7.9449   102.6942     0.0130     2.5028     0.1014
  292.0000   -47.8681     6.9127     7.3020     7.9458   102.4216     0.0149     2.5107     0.0984
  292.5000   -46.9392     7.0416     7.3007     7.9468   102.9032     0.0139     2.5259     0.0955
  293.0000   -46.9051     8.1331     7.5122     7.9477   107.0332     0.0127     2.5359     0.0937
  293.5000   -46.9122    10.4758     7.7110     7.9487   114.3442     0.0116     2.5347     0.0961
  294.0000   -46.9173    10.6712     8.4451     7.9497   115.0553     0.0105     2.5250     0.0985
  294.5000   -46.8686    11.0729     9.3325     7.9506   113.2531     0.0094     2.5138     0.1010
  295.0000   -46.7211    10.8461    10.3132     7.9516   106.6831     0.0083     2.5036     0.1034
  295.5000   -45.8531    10.6063    10.8001     7.9525   108.4548     0.0071     2.5031     0.1082
  296.0000   -44.1777    10.3902    10.9759     7.9535   110.4168     0.0060     2.5022     0.1155
  296.5000   -43.8745    10.5843    11.1546     7.9545   111.3132     0.0049     2.4880     0.1228
  297.0000   -43.5869    11.2323    11.3363     7.9554    93.4231     0.0038     2.4729     0.1298
  297.5000   -43.2876    11.8134    11.5208     7.9555    84.8098     0.0038     2.4581     0.1385
  298.0000   -42.8476    13.0292    11.7084     7.9698    76.3283     0.0086     2.4413     0.1587
  298.5000   -42.2312    15.1589    11.8126     7.9856    72.3992     0.0205     2.3923     0.1910
  299.0000   -41.5470    15.5734    12.0346     8.0015    74.8851     0.0327     2.3427     0.2060
  299.5000   -40.8189    16.1716    12.4838     8.0150    79.5498     0.0369     2.3300     0.2090
  300.0000   -39.5131    17.1859    13.2224     7.9962    84.2820     0.0370     2.3240     0.2138
  300.5000   -38.2522    19.2601    14.0047     7.9770    88.8044     0.0370     2.3171     0.2206
  301.0000   -37.1154    21.5695    14.8334     7.9580    91.1766     0.0370     2.3098     0.2202
  301.5000   -37.3582    24.1453    15.7110     7.9390    93.5145     0.0370     2.3082     0.2192
  302.0000   -37.5392    26.6320    16.5384     7.9200    92.9122     0.0370     2.3076     0.2158
  302.5000   -36.7875    26.6320    17.1994     7.9003    93.2563     0.0374     2.3189     0.2047
  303.0000   -35.9743    26.6320    17.8868     7.8950    95.3037     0.0388     2.3340     0.2017
  303.5000   -35.1862    26.6320    18.6017     7.9291    87.2004     0.0401     2.3403     0.2109
  304.0000   -35.1125    26.6320    19.3451     7.9728    78.5530     0.0415     2.3349     0.2188
  304.5000   -35.0479    27.7564    19.8161     8.0167    69.9199     0.0430     2.3211     0.2268
  305.0000   -34.9794    29.2635    19.8895     8.0605    68.7531     0.0396     2.3074     0.2347
  305.5000   -34.9098    30.8523    20.0759     8.1045    68.9483     0.0357     2.2937     0.2418
  306.0000   -34.8399    31.5414    20.2641     8.1506    69.1932     0.0316     2.2798     0.2406
  306.5000   -34.7688    31.9646    20.6075     8.0885    73.6600     0.0336     2.2773     0.2316
  307.0000   -34.8164    32.0364    21.1620     8.0055    81.7155     0.0346     2.2887     0.2211
  307.5000   -34.8814    31.1176    21.7340     7.9902    82.3651     0.0358     2.3040     0.2106
  308.0000   -34.9468    30.3090    21.9495     7.9825    86.0154     0.0369     2.3195     0.2029
  308.5000   -35.0119    30.3090    22.0035     7.9748    90.6538     0.0330     2.3350     0.2003
  309.0000   -35.0771    30.2084    22.0576     7.9670    94.2731     0.0288     2.3492     0.1977
  309.5000   -35.1462    30.1146    22.1118     7.9592    93.5699     0.0251     2.3506     0.1958
  310.0000   -35.0724    30.0303    22.1392     7.9513    90.2295     0.0271     2.3512     0.1962
  310.5000   -34.9545    28.7497    21.7565     7.9434    88.1305     0.0291     2.3515     0.1966
  311.0000   -34.8356    27.6319    21.5045     7.9360    88.1714     0.0311     2.3512     0.1970
  311.5000   -34.7169    26.5576    21.2581     7.9436    89.8016     0.0330     2.3507     0.1961
