~VERSION INFORMATION
 VERS.                2.0:   CWLS LOG ASCII STANDARD - VERSION 2.0
 WRAP.                 NO:   ONE LINE PER DEPTH STEP
~WELL INFORMATION
#MNEM.UNIT      DATA TYPE    INFORMATION
#----------   ------------   ------------------------------
 STRT.F           20.0000:   START DEPTH
 STOP.F          698.0000:   STOP DEPTH
 STEP.F            0.5000:   STEP LENGTH
 NULL.          -999.2500:   NO VALUE
 COMP. FENIX & SCISSON INC:   COMPANY
 WELL.    52 SX 34 #52-34:   WELL
 FLD .             TEAPOT:   FIELD
 LOC .      S34 T39N R78W:   LOCATION
 CNTY.            NATRONA:   COUNTY
 STAT.            WYOMING:   STATE
 CTRY. UNITED STATES OF AMERICA:   COUNTRY
 SRVC.            Unknown:   SERVICE COMPANY
 DATE.        26-JAN-1979:   LOGDATE
 API .       490251077100:   API NUMBER
~CURVE INFORMATION
#MNEM.UNIT       API CODE    CURVE DESCRIPTION
#----------   ------------   ------------------------------
 DEPT.F                  :   
 SPR .MV     05 010 01 00:   SPONTANEOUS POTENTIAL FROM RES.
 CALD.IN     45 280 60 00:   CALIPER
 GRD .GAPI   45 310 01 00:   GAMMA RAY FROM DENSITY LOG
 CORR.G/C3   45 356 01 00:   DENSITY CORRECTION
 RHOB.G/C3   45 350 01 00:   BULK DENSITY
 ILD .OHMM   05 120 46 00:   INDUCTION LOG DEEP
 SN  .OHMM   05 040 16 00:   SHORT NORMAL 16"
 DPHI.DEC    45 890 12 00:   DENSITY POROSITY SANDSTONE
~PARAMETER INFORMATION
#MNEM.UNIT          VALUE    DESCRIPTION
#----------   ------------   ------------------------------
 PD  .                 GL:   PERMANENT DATUM
 EPD .F              5072:   ELEVATION PERMANENT DATUM
 LMF .                 KB:   LOG MEASURED FROM
 DAPD.F                 4:   FEET ABOVE PERMANENT DATUM
 DMF .                 KB:   DRILLING MEASURED FROM
 EKB .F              5076:   KELLING BUSHING
 EGL .F              5072:   GROUND LEVEL
 DATE.            1-26-79:   RUN DATE
 RUN .                  1:   RUN NUMBER
 DD  .F               688:   DEPTH DRILLER
 DL  .F               698:   DEPTH LOGGER
 BLI .F               691:   BOTTOM LOG INTERVAL
 TLI .F                30:   TOP LOG INTERVAL
 CS  .IN            8.625:   CASING SIZE
 CBD .F                40:   CASING BOTTOM DRILLER
 CBL .F                20:   CASING BOTTOM LOGGER
 BS  .IN            7.875:   BIT SIZE
 BSD .F               688:   BIT SIZE AT DEPTH
 DFT .                KCL:   DRILLING FLUID TYPE
 DFD .                8.9:   DRILLING FLUID DENSITY
 DFV .                 39:   DRILLING FLUID VISCOSITY
 DFPH.                 10:   DRILLING FLUID PH
 DFL .                 10:   DRILLING FLUID LOSS
 MSS .           FLOWLINE:   MUD SAMPLE SOURCE
 RMS .OHMM             .3:   RESISTIVITY MUD SAMPLE
 MST .F                60:   MUD SAMPLE TEMPERATURE
 RMF .OHMM            .22:   RESISTIVITY MUD FILTRATE SAMPLE
 MFST.F                66:   MUD FILTRATE SAMPLE TEMPERATURE
 MFSS.           MEASURED:   MUD FILTRATE SAMPLE SOURCE
 MCSS.           MEASURED:   MUD CAKE SAMPLE SOURCE
 RMB .OHMM            .25:   RESISTIVITY MUD AT BHT
 BHT .F                70:   BOTTOM HOLE TEMPERATURE
 TCS .HRS               7:   TIME CURCULATED STOPPED
 MRT .F                70:   MAXIMUM RECORDED TEMPERATURE
 LUN .               3006:   LOGGING UNIT NUMBER
 LUL .             CASPER:   LOGGING UNIT LOCATION
 ENGI.            ROLLINS:   RECORDING ENGINEER
 WITN.              AMEND:   WITNESSED BY
 CLNT.            A2DTECH:   CLIENT CODE
 ORIG.       2", 5" PRINT:   ORIGIN OF DATA
 UWI .       490251077100:   UNIQUE WELL ID
 DICO. A2D Technologies, Inc.:   DIGITIZING COMPANY
~OTHER INFORMATION
~A   DEPT      SPR         CALD       GRD      CORR       RHOB        ILD         SN       DPHI   
# ...
  465.5000   -42.8146     8.1719   109.7649     0.0155     2.4714     6.6999     6.9717     0.1278
  466.0000   -42.8146     8.1719   112.8959     0.0155     2.4576     6.7090     6.9646     0.1364
  466.5000   -42.8144     8.1719   117.4844     0.0155     2.4498     6.6104     6.8968     0.1364
  467.0000   -42.8137     8.1719   120.4715     0.0155     2.4481     6.4622     6.7979     0.1347
  467.5000   -42.7575     8.1719   120.0218     0.0155     2.4551     6.3172     6.7005     0.1292
  468.0000   -42.6201     8.1719   118.6638     0.0155     2.4634     6.1756     6.6045     0.1259
  468.5000   -42.6150     8.1719   116.4879     0.0159     2.4676     6.0371     6.5046     0.1264
  469.0000   -42.6157     8.1719   113.7823     0.0164     2.4670     5.9017     6.3794     0.1268
  469.5000   -42.6159     8.1719   112.1716     0.0168     2.4666     5.7844     6.2565     0.1271
  470.0000   -42.6159     8.1719   112.0161     0.0172     2.4655     5.7755     6.1361     0.1317
  470.5000   -42.6159     8.1719   114.9633     0.0176     2.4516     5.7668     6.0180     0.1382
  471.0000   -42.6159     8.1719   115.4796     0.0181     2.4341     5.7583     6.0037     0.1529
  471.5000   -42.6159     8.1719   113.2512     0.0185     2.4149     5.7494     6.0036     0.1641
  472.0000   -42.6159     8.1719   115.5994     0.0189     2.3969     5.7408     6.0043     0.1598
  472.5000   -42.6160     8.1719   116.6679     0.0193     2.4136     5.7321     6.0048     0.1464
  473.0000   -42.6238     8.1719   116.3705     0.0197     2.4395     5.4573     5.9388     0.1314
  473.5000   -42.6447     8.1719   115.6081     0.0202     2.4656     5.1956     5.8328     0.1222
  474.0000   -42.6654     8.1719   113.2488     0.0206     2.4771     5.0813     5.7279     0.1204
  474.5000   -42.6861     8.1719   109.5244     0.0210     2.4760     5.0816     5.6114     0.1213
  475.0000   -42.7068     8.1719   109.3697     0.0214     2.4788     5.1039     5.4225     0.1219
  475.5000   -42.7275     8.1719   110.3616     0.0191     2.4780     5.1205     5.4325     0.1204
  476.0000   -42.7481     8.1719   109.7315     0.0165     2.4760     5.1373     5.4531     0.1174
  476.5000   -42.7680     8.1719   108.0902     0.0139     2.4824     5.1540     5.4729     0.1143
  477.0000   -42.7903     8.1719   108.5923     0.0135     2.4918     5.1707     5.7181     0.1110
  477.5000   -42.8265     8.1719   108.4911     0.0174     2.4990     5.4023     5.9641     0.1098
  478.0000   -42.2898     8.1719   107.1650     0.0262     2.4936     5.7903     6.2157     0.1183
  478.5000   -41.6459     8.1719   105.6217     0.0284     2.4746     6.2241     6.4651     0.1303
  479.0000   -41.5472     8.1719   106.2880     0.0170     2.4538     6.3656     6.5907     0.1464
  479.5000   -41.4750     8.1719   108.6039     0.0039     2.4328     6.3633     6.6240     0.1552
  480.0000   -41.4012     8.1719   114.3491     0.0038     2.4147     6.4056     6.6472     0.1490
  480.5000   -41.3262     8.1719   119.7607     0.0043     2.4311     6.1727     6.4543     0.1384
  481.0000   -41.2480     8.1719   123.6249     0.0048     2.4487     5.8325     6.1920     0.1283
  481.5000   -41.2402     8.1719   121.6392     0.0053     2.4687     5.4867     6.0058     0.1184
  482.0000   -41.2608     8.1719   118.6198     0.0084     2.4976     5.1576     6.0015     0.1107
  482.5000   -41.2825     8.1719   113.2988     0.0190     2.4918     5.0354     5.7926     0.1174
  483.0000   -41.3042     8.1719   109.6855     0.0215     2.4841     5.0354     5.5945     0.1215
  483.5000   -41.3258     8.1719   110.7905     0.0168     2.4766     5.0354     5.4748     0.1219
  484.0000   -41.3475     8.1719   111.2960     0.0103     2.4777     5.0354     5.4992     0.1166
  484.5000   -41.3691     8.1719   105.7635     0.0053     2.4962     5.0504     5.5203     0.1097
  485.0000   -41.3907     8.1719   106.9004     0.0101     2.5130     5.0822     5.5238     0.1018
  485.5000   -41.4124     8.1719   107.5523     0.0171     2.5103     5.2253     6.0237     0.1067
  486.0000   -41.4340     8.1719   107.4698     0.0197     2.5032     5.7439     6.5164     0.1195
  486.5000   -41.4556     8.1719   106.7474     0.0201     2.4859     6.2690     7.0268     0.1170
  487.0000   -41.4773     8.1719   104.9845     0.0204     2.4825     6.7863     7.3035     0.1112
  487.5000   -41.4989     8.1719   103.1032     0.0208     2.4980     7.1416     7.6373     0.1054
  488.0000   -41.5205     8.1719   101.2786     0.0212     2.5126     7.2919     7.6332     0.1030
  488.5000   -41.5422     8.1719    99.9205     0.0212     2.5058     7.2919     7.6281     0.1074
  489.0000   -41.5638     8.1719   100.8718     0.0085     2.4974     7.2919     7.6233     0.1065
  489.5000   -41.5854     8.1719   104.2861     0.0048     2.5013     7.2919     7.6180     0.1039
  490.0000   -41.6071     8.1719   108.0392     0.0036     2.5080     7.2919     7.6129     0.1018
  490.5000   -41.6287     8.1719   108.9054     0.0026     2.5037     7.2919     7.6078     0.1130
  491.0000   -41.6503     8.1719   104.5097     0.0016     2.4959     7.2919     7.6027     0.1118
  491.5000   -41.6720     8.1719   106.6371     0.0023     2.4922     7.2919     7.5977     0.1100
  492.0000   -41.6936     8.1719   109.1231     0.0032     2.5014     7.2919     7.5926     0.1159
  492.5000   -41.7152     8.1719   107.9547     0.0041     2.4889     7.2919     7.5876     0.1204
  493.0000   -41.7369     8.1719   106.8568     0.0050     2.4798     7.2919     7.5825     0.1201
  493.5000   -41.7583     8.1719   105.9134     0.0059     2.4804     7.2919     7.5775     0.1198
  494.0000   -41.7801     8.1719   105.8230     0.0068     2.4808     7.2919     7.5724     0.1196
  494.5000   -41.8088     8.1719   100.1936     0.0066     2.4801     7.2939     7.5675     0.1216
  495.0000   -41.8152     8.1719    98.6657     0.0042     2.4764     7.3096     7.5932     0.1249
  495.5000   -41.1563     8.1719   101.1758     0.0237     2.4691     7.3254     7.6220     0.1271
  496.0000   -39.6758     8.1719   101.4046     0.0384     2.4656     7.3411     7.7415     0.1354
  496.5000   -39.2044     8.1719   101.9882     0.0198     2.4561     7.3589     7.9682     0.1489
  497.0000   -37.6203     8.1722   105.9227     0.0122     2.4180     7.3363     8.1486     0.1757
  497.5000   -36.4835     8.1718   111.9196     0.0190     2.3787     7.2994     7.9662     0.1919
  498.0000   -36.0413     8.1677   117.9331     0.0241     2.3503     7.2046     7.5366     0.1902
  498.5000   -35.6564     8.2459   117.9240     0.0247     2.3705     6.6539     7.2247     0.1649
  499.0000   -35.7152     8.0888   106.6911     0.0195     2.4293     5.8555     7.0922     0.1184
  499.5000   -35.7635     8.0842    96.9479     0.0141     2.4854     5.3725     6.8318     0.0994
  500.0000   -35.8102     8.0817    94.6902     0.0115     2.5162     5.4649     6.3150     0.0970
  500.5000   -35.8545     8.0761    93.8872     0.0115     2.5205     5.5486     5.8373     0.0985
  501.0000   -35.5768     8.0706    97.3743     0.0115     2.5209     5.6270     5.7854     0.1039
  501.5000   -35.2324     8.0651    95.7616     0.0114     2.5092     5.5658     5.8392     0.1082
  502.0000   -34.2701     8.0598    93.1170     0.0111     2.4979     5.5238     6.1158     0.1086
  502.5000   -33.3236     8.0555    96.3826     0.0109     2.4967     5.7392     6.7177     0.1085
  503.0000   -32.3820     8.0142    97.6016     0.0107     2.4974     6.2435     7.6472     0.1083
  503.5000   -31.4415     7.9748    97.3799     0.0104     2.4982     7.2886     8.5841     0.1082
  504.0000   -30.3721     7.9875    97.3091     0.0102     2.4990     8.5080     9.1693     0.1101
  504.5000   -28.8360     8.0139    97.8834     0.0100     2.4997     9.3610     9.7154     0.1121
  505.0000   -27.2915     8.0810    98.4223     0.0097     2.4979     9.4494     9.9890     0.1149
  505.5000   -25.7420     8.1177    98.4808     0.0096     2.4900     9.4069    10.0819     0.1196
