~VERSION INFORMATION
 VERS.                2.0:   CWLS LOG ASCII STANDARD - VERSION 2.0
 WRAP.                 NO:   ONE LINE PER DEPTH STEP
~WELL INFORMATION
#MNEM.UNIT      DATA TYPE    INFORMATION
#----------   ------------   ------------------------------
 STRT.F            0.0000:   START DEPTH
 STOP.F         2758.0000:   STOP DEPTH
 STEP.F            0.5000:   STEP LENGTH
 NULL.          -999.2500:   NO VALUE
 COMP. FENIX & SCISSON INC:   COMPANY
 WELL.       402A #402-20:   WELL
 FLD .             TEAPOT:   FIELD
 LOC .      S20 T39N R78W:   LOCATION
 CNTY.            NATRONA:   COUNTY
 STAT.            WYOMING:   STATE
 CTRY. UNITED STATES OF AMERICA:   COUNTRY
 SRVC.      NL McCullough:   SERVICE COMPANY
 DATE.        15-JUL-1965:   LOGDATE
 API .       490251021100:   API NUMBER
~CURVE INFORMATION
#MNEM.UNIT       API CODE    CURVE DESCRIPTION
#----------   ------------   ------------------------------
 DEPT.F                  :   
 GR  .GAPI   30 310 01 00:   GAMMA RAY
 CALI.IN     70 280 01 00:   CALIPER
~PARAMETER INFORMATION
#MNEM.UNIT          VALUE    DESCRIPTION
#----------   ------------   ------------------------------
 PD  .                 GL:   PERMANENT DATUM
 LMF .                 GL:   LOG MEASURED FROM
 DMF .                 GL:   DRILLING MEASURED FROM
 DATE.            7-15-65:   RUN DATE
 RUN .                  1:   RUN NUMBER
 DL  .F              2759:   DEPTH LOGGER
 BLI .F              2758:   BOTTOM LOG INTERVAL
 TLI .F              2100:   TOP LOG INTERVAL
 CS  .IN                7:   CASING SIZE
 ENGI. FITZSIMMONS/COWLTHORPE:   RECORDING ENGINEER
 WITN.             HUDSON:   WITNESSED BY
 CLNT.            A2DTECH:   CLIENT CODE
 ORIG.           5" PRINT:   ORIGIN OF DATA
 UWI .       490251021100:   UNIQUE WELL ID
 DICO. A2D Technologies, Inc.:   DIGITIZING COMPANY
~OTHER INFORMATION
~A    DEPT      GR         CALI 
# ...
 1215.0000  -999.2500     5.8927
 1215.5000  -999.2500     5.8832
 1216.0000  -999.2500     5.8723
 1216.5000  -999.2500     5.8613
 1217.0000  -999.2500     5.8518
 1217.5000  -999.2500     5.8501
 1218.0000  -999.2500     5.8482
 1218.5000  -999.2500     5.8463
 1219.0000  -999.2500     5.8443
 1219.5000  -999.2500     5.8424
 1220.0000  -999.2500     5.8405
 1220.5000  -999.2500     5.8386
 1221.0000  -999.2500     5.8366
 1221.5000  -999.2500     5.8347
 1222.0000  -999.2500     5.8327
 1222.5000  -999.2500     5.8323
 1223.0000  -999.2500     5.8323
 1223.5000  -999.2500     5.8324
 1224.0000  -999.2500     5.8324
 1224.5000  -999.2500     5.8324
 1225.0000  -999.2500     5.8324
 1225.5000  -999.2500     5.8324
 1226.0000  -999.2500     5.8324
 1226.5000  -999.2500     5.8324
 1227.0000  -999.2500     5.8323
 1227.5000  -999.2500     5.8323
 1228.0000  -999.2500     5.8327
 1228.5000  -999.2500     5.8435
 1229.0000  -999.2500     5.8546
 1229.5000  -999.2500     5.8654
 1230.0000  -999.2500     5.8725
 1230.5000  -999.2500     5.8724
 1231.0000  -999.2500     5.8724
 1231.5000  -999.2500     5.8724
 1232.0000  -999.2500     5.8724
 1232.5000  -999.2500     5.8724
 1233.0000  -999.2500     5.8724
 1233.5000  -999.2500     5.8724
 1234.0000  -999.2500     5.8724
 1234.5000  -999.2500     5.8724
 1235.0000  -999.2500     5.8724
 1235.5000  -999.2500     5.8724
 1236.0000  -999.2500     5.8724
 1236.5000  -999.2500     5.8724
 1237.0000  -999.2500     5.8724
 1237.5000  -999.2500     5.8724
 1238.0000  -999.2500     5.8724
 1238.5000  -999.2500     5.8724
 1239.0000  -999.2500     5.8724
 1239.5000  -999.2500     5.8724
 1240.0000  -999.2500     5.8716
 1240.5000  -999.2500     5.8655
 1241.0000  -999.2500     5.8594
 1241.5000  -999.2500     5.8532
 1242.0000  -999.2500     5.8524
 1242.5000  -999.2500     5.8524
 1243.0000  -999.2500     5.8524
 1243.5000  -999.2500     5.8524
 1244.0000  -999.2500     5.8524
 1244.5000  -999.2500     5.8524
 1245.0000  -999.2500     5.8524
 1245.5000  -999.2500     5.8524
 1246.0000  -999.2500     5.8524
 1246.5000  -999.2500     5.8524
 1247.0000  -999.2500     5.8524
 1247.5000  -999.2500     5.8524
 1248.0000  -999.2500     5.8524
 1248.5000  -999.2500     5.8524
 1249.0000  -999.2500     5.8524
 1249.5000  -999.2500     5.8523
 1250.0000  -999.2500     5.8589
 1250.5000  -999.2500     5.8685
 1251.0000  -999.2500     5.8779
 1251.5000  -999.2500     5.8868
 1252.0000  -999.2500     5.8709
 1252.5000  -999.2500     5.8722
 1253.0000  -999.2500     5.8725
 1253.5000  -999.2500     5.8724
 1254.0000  -999.2500     5.8724
 1254.5000  -999.2500     5.8724
 1255.0000  -999.2500     5.8724
 1255.5000  -999.2500     5.8724
 1256.0000  -999.2500     5.8724
 1256.5000  -999.2500     5.8724
 1257.0000  -999.2500     5.8724
 1257.5000  -999.2500     5.8724
 1258.0000  -999.2500     5.8724
 1258.5000  -999.2500     5.8739
 1259.0000  -999.2500     5.8777
 1259.5000  -999.2500     5.8815
 1260.0000  -999.2500     5.8852
 1260.5000  -999.2500     5.8891
 1261.0000  -999.2500     5.8920
 1261.5000  -999.2500     5.8826
 1262.0000  -999.2500     5.8733
 1262.5000  -999.2500     5.8641
 1263.0000  -999.2500     5.8546
 1263.5000  -999.2500     5.8560
 1264.0000  -999.2500     5.8628
 1264.5000  -999.2500     5.8696
 1265.0000  -999.2500     5.8764
 1265.5000  -999.2500     5.8832
 1266.0000  -999.2500     5.8902
 1266.5000  -999.2500     5.8832
 1267.0000  -999.2500     5.8693
 1267.5000  -999.2500     5.8547
 1268.0000  -999.2500     5.8591
 1268.5000  -999.2500     5.8675
 1269.0000  -999.2500     5.8760
 1269.5000  -999.2500     5.8845
 1270.0000  -999.2500     5.8924
 1270.5000  -999.2500     5.8898
 1271.0000  -999.2500     5.8866
 1271.5000  -999.2500     5.8834
 1272.0000  -999.2500     5.8803
 1272.5000  -999.2500     5.8771
 1273.0000  -999.2500     5.8740
 1273.5000  -999.2500     5.8708
 1274.0000  -999.2500     5.8677
 1274.5000  -999.2500     5.8645
 1275.0000  -999.2500     5.8614
 1275.5000  -999.2500     5.8582
 1276.0000  -999.2500     5.8550
 1276.5000  -999.2500     5.8535
 1277.0000  -999.2500     5.8621
 1277.5000  -999.2500     5.8706
 1278.0000  -999.2500     5.8791
 1278.5000  -999.2500     5.8876
 1279.0000  -999.2500     5.8916
 1279.5000  -999.2500     5.8687
 1280.0000  -999.2500     5.8520
 1280.5000  -999.2500     5.8508
 1281.0000  -999.2500     5.8492
 1281.5000  -999.2500     5.8478
 1282.0000  -999.2500     5.8463
 1282.5000  -999.2500     5.8449
 1283.0000  -999.2500     5.8434
 1283.5000  -999.2500     5.8419
 1284.0000  -999.2500     5.8405
 1284.5000  -999.2500     5.8390
 1285.0000  -999.2500     5.8375
 1285.5000  -999.2500     5.8361
 1286.0000  -999.2500     5.8346
 1286.5000  -999.2500     5.8331
 1287.0000  -999.2500     5.8330
 1287.5000  -999.2500     5.8357
 1288.0000  -999.2500     5.8383
 1288.5000  -999.2500     5.8409
 1289.0000  -999.2500     5.8435
 1289.5000  -999.2500     5.8461
 1290.0000  -999.2500     5.8487
 1290.5000  -999.2500     5.8513
 1291.0000  -999.2500     5.8539
 1291.5000  -999.2500     5.8566
 1292.0000  -999.2500     5.8591
 1292.5000  -999.2500     5.8618
 1293.0000  -999.2500     5.8644
 1293.5000  -999.2500     5.8670
 1294.0000  -999.2500     5.8696
 1294.5000  -999.2500     5.8723
 1295.0000  -999.2500     5.8704
 1295.5000  -999.2500     5.8675
 1296.0000  -999.2500     5.8647
 1296.5000  -999.2500     5.8618
 1297.0000  -999.2500     5.8590
 1297.5000  -999.2500     5.8561
 1298.0000  -999.2500     5.8532
 1298.5000  -999.2500     5.8524
 1299.0000  -999.2500     5.8524
 1299.5000  -999.2500     5.8502
 1300.0000  -999.2500     5.8467
 1300.5000  -999.2500     5.8431
 1301.0000  -999.2500     5.8395
 1301.5000  -999.2500     5.8359
 1302.0000  -999.2500     5.8327
 1302.5000  -999.2500     5.8400
 1303.0000  -999.2500     5.8479
 1303.5000  -999.2500     5.8558
 1304.0000  -999.2500     5.8636
 1304.5000  -999.2500     5.8715
 1305.0000  -999.2500     5.8794
 1305.5000  -999.2500     5.8871
 1306.0000  -999.2500     5.8854
 1306.5000  -999.2500     5.8633
 1307.0000  -999.2500     5.8413
 1307.5000  -999.2500     5.8325
 1308.0000  -999.2500     5.8323
 1308.5000  -999.2500     5.8323
 1309.0000  -999.2500     5.8324
 1309.5000  -999.2500     5.8324
 1310.0000  -999.2500     5.8324
 1310.5000  -999.2500     5.8324
 1311.0000  -999.2500     5.8324
 1311.5000  -999.2500     5.8324
 1312.0000  -999.2500     5.8324
 1312.5000  -999.2500     5.8324
 1313.0000  -999.2500     5.8324
 1313.5000  -999.2500     5.8324
 1314.0000  -999.2500     5.8324
 1314.5000  -999.2500     5.8324
 1315.0000  -999.2500     5.8328
 1315.5000  -999.2500     5.8275
 1316.0000  -999.2500     5.8153
 1316.5000  -999.2500     5.8180
 1317.0000  -999.2500     5.8216
 1317.5000  -999.2500     5.8250
 1318.0000  -999.2500     5.8284
 1318.5000  -999.2500     5.8318
 1319.0000  -999.2500     5.8352
 1319.5000  -999.2500     5.8386
 1320.0000  -999.2500     5.8420
 1320.5000  -999.2500     5.8454
 1321.0000  -999.2500     5.8489
 1321.5000  -999.2500     5.8523
 1322.0000  -999.2500     5.8501
 1322.5000  -999.2500     5.8470
 1323.0000  -999.2500     5.8440
 1323.5000  -999.2500     5.8409
 1324.0000  -999.2500     5.8379
 1324.5000  -999.2500     5.8348
 1325.0000  -999.2500     5.8318
 1325.5000  -999.2500     5.8287
 1326.0000  -999.2500     5.8257
 1326.5000  -999.2500     5.8226
 1327.0000  -999.2500     5.8196
 1327.5000  -999.2500     5.8165
 1328.0000  -999.2500     5.8134
 1328.5000  -999.2500     5.8123
 1329.0000  -999.2500     5.8123
 1329.5000  -999.2500     5.8123
 1330.0000  -999.2500     5.8123
 1330.5000  -999.2500     5.8123
 1331.0000  -999.2500     5.8123
 1331.5000  -999.2500     5.8123
 1332.0000  -999.2500     5.8123
 1332.5000  -999.2500     5.8123
 1333.0000  -999.2500     5.8123
 1333.5000  -999.2500     5.8123
 1334.0000  -999.2500     5.8123
 1334.5000  -999.2500     5.8123
 1335.0000  -999.2500     5.8123
 1335.5000  -999.2500     5.8123
 1336.0000  -999.2500     5.8123
