~VERSION INFORMATION
 VERS.                2.0:   CWLS LOG ASCII STANDARD - VERSION 2.0
 WRAP.                 NO:   ONE LINE PER DEPTH STEP
~WELL INFORMATION
#MNEM.UNIT      DATA TYPE    INFORMATION
#----------   ------------   ------------------------------
 STRT.F           40.0000:   START DEPTH
 STOP.F         3444.0000:   STOP DEPTH
 STEP.F            0.5000:   STEP LENGTH
 NULL.          -999.2500:   NO VALUE
 COMP.    FENIX & SCISSON:   COMPANY
 WELL.     13-A-10 #13-10:   WELL
 FLD .            WILDCAT:   FIELD
 LOC .      S10 T38N R78W:   LOCATION
 CNTY.            NATRONA:   COUNTY
 STAT.            WYOMING:   STATE
 CTRY. UNITED STATES OF AMERICA:   COUNTRY
 SRVC.       Schlumberger:   SERVICE COMPANY
 DATE.        08-JUL-1970:   LOGDATE
 API .       490251090300:   API NUMBER
~CURVE INFORMATION
#MNEM.UNIT       API CODE    CURVE DESCRIPTION
#----------   ------------   ------------------------------
 DEPT.F                  :   
 ASN .OHMM   05 041 16 00:   AMPLIFIED SHORT NORMAL 16"
 CILD.MMHO   05 110 46 00:   CONDUCTIVITY INDUCTION LOG DEEP
 ILD .OHMM   05 120 46 00:   INDUCTION LOG DEEP
 SPR .MV     05 010 01 00:   SPONTANEOUS POTENTIAL FROM RES.
 CALD.IN     45 280 60 00:   CALIPER FROM DENSITY
 CORR.G/C3   45 356 01 00:   DENSITY CORRECTION
 DPHI.DEC    45 890 12 00:   DENSITY POROSITY SANDSTONE
 RHOB.G/C3   45 350 01 00:   BULK DENSITY
~PARAMETER INFORMATION
#MNEM.UNIT          VALUE    DESCRIPTION
#----------   ------------   ------------------------------
 PD  .                 GL:   PERMANENT DATUM
 EPD .F              5295:   ELEVATION PERMANENT DATUM
 LMF .                 KB:   LOG MEASURED FROM
 DAPD.F                10:   FEET ABOVE PERMANENT DATUM
 DMF .                 KB:   DRILLING MEASURED FROM
 EKB .F              5305:   KELLING BUSHING
 EGL .F              5295:   GROUND LEVEL
 DATE.        08-JUL-1970:   RUN DATE
 RUN .                  3:   RUN NUMBER
 DD  .F              3450:   DEPTH DRILLER
 DL  .F              3444:   DEPTH LOGGER
 BLI .F              3443:   BOTTOM LOG INTERVAL
 TLI .F              2950:   TOP LOG INTERVAL
 CS  .IN            10.75:   CASING SIZE
 CBD .F               842:   CASING BOTTOM DRILLER
 BS  .IN                9:   BIT SIZE
 BSD .F              3450:   BIT SIZE AT DEPTH
 DFT .      FRESH GEL MUD:   DRILLING FLUID TYPE
 DFD .               10.4:   DRILLING FLUID DENSITY
 DFV .                 43:   DRILLING FLUID VISCOSITY
 DFPH.                7.6:   DRILLING FLUID PH
 DFL .                  8:   DRILLING FLUID LOSS
 MSS .           FLOWLINE:   MUD SAMPLE SOURCE
 RMS .OHMM              2:   RESISTIVITY MUD SAMPLE
 MST .F                85:   MUD SAMPLE TEMPERATURE
 RMF .OHMM            1.6:   RESISTIVITY MUD FILTRATE SAMPLE
 MFST.F                85:   MUD FILTRATE SAMPLE TEMPERATURE
 MFSS.               MEAS:   MUD FILTRATE SAMPLE SOURCE
 RMB .OHMM           1.49:   RESISTIVITY MUD AT BHT
 BHT .F               114:   BOTTOM HOLE TEMPERATURE
 TCS .HRS               3:   TIME CURCULATED STOPPED
 MRT .F               114:   MAXIMUM RECORDED TEMPERATURE
 LUN .               4507:   LOGGING UNIT NUMBER
 LUL .               CSPR:   LOGGING UNIT LOCATION
 ENGI.             TURNER:   RECORDING ENGINEER
 WITN.                MAY:   WITNESSED BY
 CLNT.            A2DTECH:   CLIENT CODE
 ORIG.     2.5", 5" PRINT:   ORIGIN OF DATA
 UWI .       490251090300:   UNIQUE WELL ID
 DICO. A2D Technologies, Inc.:   DIGITIZING COMPANY
~OTHER INFORMATION
~A   DEPT        ASN      CILD         ILD      SPR       CALD       CORR       DPHI       RHOB   
# ...
 2510.5000    11.5545   105.4198    10.2881   -35.1557     9.4673     0.0131     0.1001     2.4810
 2511.0000    11.5542   103.9881    10.3492   -34.8623     9.4636     0.0123     0.1055     2.4788
 2511.5000    11.4037   104.0492    10.3439   -34.8694     9.4600     0.0086     0.1088     2.4713
 2512.0000    11.2533   104.1079    10.4896   -34.8753     9.4563     0.0094     0.1067     2.4803
 2512.5000    11.1028   104.1667    10.4843   -34.8812     9.4525     0.0101     0.0965     2.4945
 2513.0000    11.1025   102.6983    10.4799   -34.8871     9.4822     0.0094     0.0902     2.5028
 2513.5000    10.9519   101.2301    10.6248   -34.8930     9.5270     0.0072     0.0881     2.5058
 2514.0000    10.9516    99.7617    10.6203   -34.8990     9.5716     0.0034     0.0935     2.4953
 2514.5000    10.9513    96.9612    10.6159   -34.6055     9.6014     0.0004     0.1106     2.4675
 2515.0000    11.1010    95.3370    10.6115   -34.6114     9.6460    -0.0033     0.1055     2.4757
 2515.5000    11.1007    93.8687    10.7563   -34.3174     9.6908     0.0102     0.1037     2.4900
 2516.0000    11.4007    91.1850    10.7519   -34.0240     9.7506     0.0170     0.1049     2.4780
 2516.5000    11.7007    89.4451    10.7475   -33.7305     9.7962     0.0260     0.1094     2.4682
 2517.0000    11.8505    87.9757    10.7431   -33.7368     9.7496     0.0375     0.1049     2.4743
 2517.5000    12.1504    85.4088    10.7387   -34.3415     9.6739     0.0246     0.1074     2.4712
 2518.0000    12.4504    83.5510    10.8836   -34.9462     9.6132     0.0080     0.1230     2.4411
 2518.5000    12.6002    82.0841    10.7298   -35.5509     9.5525     0.0201     0.1191     2.4524
 2519.0000    12.4498    81.1208    10.5740   -35.5568     9.5521     0.0216     0.1176     2.4554
 2519.5000    11.9990    85.2776    10.2671   -35.5629     9.5517     0.0186     0.1146     2.4621
 2520.0000    11.6984    90.7738     9.9501   -35.5689     9.5663     0.0042     0.1194     2.4501
 2520.5000    11.0974    95.9724     9.5039   -35.5470     9.5808    -0.0024     0.1213     2.4478
 2521.0000    10.4965    99.9010     9.1969   -35.2456     9.5804    -0.0009     0.1181     2.4561
 2521.5000    10.1039   104.4646     9.0392   -34.9442     9.5951     0.0097     0.1083     2.4666
 2522.0000     9.9622   107.5393     8.8816   -34.6428     9.6096     0.0127     0.1013     2.4779
 2522.5000     9.7723   110.6156     8.7538   -34.4006     9.6242     0.0127     0.0977     2.4854
 2523.0000     9.6543   112.2022     8.7155   -34.4751     9.6389     0.0112     0.0965     2.4854
 2523.5000     9.6984   113.7898     8.4085   -34.7126     9.6383     0.0037     0.1050     2.4786
 2524.0000     9.7437   115.9637     8.2090   -34.7185     9.6228     0.0007     0.0976     2.4886
 2524.5000     9.7134   120.4868     7.7945   -34.7245     9.6224     0.0097     0.0911     2.4989
 2525.0000     9.6658   126.4979     7.4378   -34.7306     9.6220     0.0098     0.0899     2.4959
 2525.5000     9.4123   133.9971     7.0314   -34.7365     9.6215     0.0105     0.0824     2.5169
 2526.0000     9.0517   141.4963     6.5751   -34.7425     9.6211     0.0135     0.0770     2.5244
 2526.5000     8.5408   150.4836     6.1189   -34.7485     9.6206     0.0143     0.0764     2.5214
 2527.0000     8.0300   156.4948     5.8776   -34.7545     9.6353     0.0053     0.0947     2.4966
 2527.5000     7.5191   161.0178     5.7239   -34.7605     9.6347     0.0016     0.1098     2.4732
 2528.0000     7.3086   165.5408     5.7194   -34.4671     9.6343     0.0068     0.1020     2.4853
 2528.5000     7.4584   168.5757     5.8642   -34.4731     9.6339     0.0061     0.0954     2.4928
 2529.0000     7.7284   171.6107     5.9413   -34.4790     9.6334     0.0024     0.0942     2.4905
 2529.5000     7.9382   170.1813     6.0044   -34.4850     9.6330     0.0064     0.0972     2.4883
 2530.0000     7.9079   162.7996     6.1493   -34.4922     9.6324     0.0219     0.0960     2.4860
 2530.5000     7.8175   159.8809     6.2932   -34.4981     9.6320     0.0159     0.1098     2.4680
 2531.0000     7.6670   158.4524     6.2888   -34.8034     9.6316     0.0084     0.1182     2.4567
 2531.5000     7.4865   165.9936     6.1351   -34.8093     9.6311     0.0092     0.1119     2.4698
 2532.0000     7.3957   170.4750     6.1307   -34.8152     9.6307     0.0122     0.1086     2.4732
 2532.5000     7.3971   164.2872     6.1263   -34.8211     9.6303     0.0344     0.0867     2.5108
 2533.0000     7.5272   156.9253     6.4204   -34.8271     9.6148     0.0475     0.0822     2.5145
 2533.5000     7.8417   149.4649     6.7145   -34.8330     9.6142     0.0370     0.0849     2.5085
 2534.0000     8.2352   143.7105     7.1578   -34.5395     9.6138     0.0250     0.0947     2.4912
 2534.5000     8.6174   139.2662     7.4519   -34.5454     9.6134     0.0341     0.0882     2.5017
 2535.0000     9.0701   134.8214     7.4475   -34.8507     9.6280     0.0251     0.0918     2.5032
 2535.5000     9.2556   132.1957     7.4592   -35.1560     9.6426     0.0296     0.1044     2.4942
 2536.0000     9.2172   135.6152     7.2894   -35.4613     9.6422     0.0176     0.1083     2.4724
 2536.5000     9.1079   139.1069     7.2850   -35.4672     9.6719     0.0079     0.1195     2.4513
 2537.0000     8.9147   141.7663     7.1313   -35.4731     9.6864     0.0086     0.1101     2.4799
 2537.5000     8.6293   143.3532     7.1269   -35.4790     9.6859     0.0297     0.0920     2.5250
 2538.0000     8.4078   144.4048     7.1223   -35.4851     9.7007     0.0349     0.0671     2.5370
 2538.5000     8.2799   142.4007     7.1179   -35.4911     9.7001     0.0319     0.0684     2.5353
 2539.0000     8.3197   140.9324     7.1134   -35.4970     9.6997     0.0171     0.0765     2.5190
 2539.5000     8.4859   137.9759     7.1249   -35.5030     9.6993     0.0109     0.0831     2.5039
 2540.0000     8.7444   135.7143     7.2737   -35.5090     9.6987     0.0072     0.0894     2.4994
 2540.5000     8.9880   133.5520     7.5481   -35.5150     9.6983     0.0132     0.0882     2.5009
 2541.0000     9.1667   131.3690     7.5433   -35.5210     9.6978     0.0201     0.0894     2.5039
 2541.5000     9.2515   129.9404     7.6885   -35.5269     9.6974     0.0043     0.0894     2.5024
 2542.0000     9.1611   127.6582     7.6478   -35.4612     9.7120     0.0020     0.0882     2.5055
 2542.5000     8.9506   125.6070     7.5298   -35.2387     9.7116     0.0073     0.0858     2.5099
 2543.0000     8.8601   125.6657     7.3324   -35.2455     9.7111     0.0013     0.0819     2.5129
 2543.5000     8.9799   128.7006     7.0731   -35.2515     9.7106    -0.0077     0.0942     2.5121
 2544.0000     9.1298   131.7356     6.9194   -35.2575     9.7102    -0.0037     0.1012     2.4925
 2544.5000     9.1655   133.2824     6.7099   -35.2635     9.7098     0.0066     0.0930     2.4901
 2545.0000     9.0390   136.3174     6.5522   -35.2695     9.6943     0.0141     0.0931     2.4991
 2545.5000     8.7984   142.3285     6.3090   -35.2754     9.7089     0.0156     0.0907     2.5021
 2546.0000     8.4077   148.3396     6.0875   -35.2815     9.7235     0.0134     0.0928     2.5006
 2546.5000     8.0470   154.3507     5.9299   -35.2874     9.7381     0.0052     0.0913     2.4960
 2547.0000     7.5963   161.8499     5.6985   -35.1416     9.7526     0.0022     0.0952     2.4864
 2547.5000     7.1755   167.8610     5.4652   -35.0000     9.7522     0.0187     0.0925     2.4917
 2548.0000     6.8448   172.3841     5.3075   -35.0060     9.7518     0.0082     0.0943     2.4969
 2548.5000     6.9078   173.9309     5.2373   -35.0120     9.7513    -0.0045     0.1096     2.4842
 2549.0000     7.0321   176.9659     5.2320   -35.0191     9.7660     0.0090     0.1060     2.4676
 2549.5000     7.2182   178.5127     5.3768   -35.0250     9.7654     0.0188     0.0928     2.4955
 2550.0000     7.4274   178.5714     5.6709   -35.0309     9.7650     0.0165     0.0895     2.5030
 2550.5000     7.5940   175.6151     5.9650   -35.0368     9.7797     0.0008     0.1055     2.4720
