~VERSION INFORMATION
 VERS.                2.0:   CWLS LOG ASCII STANDARD - VERSION 2.0
 WRAP.                 NO:   ONE LINE PER DEPTH STEP
~WELL INFORMATION
#MNEM.UNIT      DATA TYPE    INFORMATION
#----------   ------------   ------------------------------
 STRT.F           19.5000:   START DEPTH
 STOP.F          635.0000:   STOP DEPTH
 STEP.F            0.5000:   STEP LENGTH
 NULL.          -999.2500:   NO VALUE
 COMP. FENIX & SCISSON INC:   COMPANY
 WELL. NPR-3 68-S-34 #3-34:   WELL
 FLD .  TEAPOT DOME NPR-3:   FIELD
 LOC .      S34 T39N R78W:   LOCATION
 CNTY.            NATRONA:   COUNTY
 STAT.            WYOMING:   STATE
 CTRY. UNITED STATES OF AMERICA:   COUNTRY
 SRVC.           BIRDWELL:   SERVICE COMPANY
 DATE.        01-AUG-1978:   LOGDATE
 API .       490251070600:   API NUMBER
~CURVE INFORMATION
#MNEM.UNIT       API CODE    CURVE DESCRIPTION
#----------   ------------   ------------------------------
 DEPT.F                  :   
 SPR .MV     05 010 01 00:   SPONTANEOUS POTENTIAL
 SN  .OHMM   05 040 16 00:   SHORT NORMAL 16'
 ILD .OHMM   05 120 46 00:   INDUCTION LOG DEEP RESISTIVITY
 GRD .GAPI   45 310 01 00:   GAMMA RAY FROM DENSITY LOG
 CALD.IN     45 280 60 00:   CALIPER
 RHOB.G/C3   45 350 01 00:   BULK DENSITY
 DPHI.DEC    45 890 12 00:   DENSITY POROSITY SANDSTONE
 CORR.G/C3   45 356 01 00:   DENSITY CORRECTION
~PARAMETER INFORMATION
#MNEM.UNIT          VALUE    DESCRIPTION
#----------   ------------   ------------------------------
 PD  .                 GL:   PERMANENT DATUM
 EPD .F              5100:   ELEVATION PERMANENT DATUM
 LMF .                 KB:   LOG MEASURED FROM
 DAPD.F                 4:   FEET ABOVE PERMANENT DATUM
 DMF .                 KB:   DRILLING MEASURED FROM
 EKB .F              5104:   KELLING BUSHING
 EGL .F              5100:   GROUND LEVEL
 DATE.           9-1-1978:   RUN DATE
 RUN .                  1:   RUN NUMBER
 DD  .F               635:   DEPTH DRILLER
 DL  .F               635:   DEPTH LOGGER
 BLI .F               629:   BOTTOM LOG INTERVAL
 TLI .F                40:   TOP LOG INTERVAL
 CS  .IN            8.625:   CASING SIZE
 CBD .F                40:   CASING BOTTOM DRILLER
 CBL .F                40:   CASING BOTTOM LOGGER
 BS  .IN            7.875:   BIT SIZE
 BSD .F               635:   BIT SIZE AT DEPTH
 DFT .                KCL:   DRILLING FLUID TYPE
 DFD .                8.6:   DRILLING FLUID DENSITY
 DFV .                 32:   DRILLING FLUID VISCOSITY
 DFPH.                  9:   DRILLING FLUID PH
 DFL .                  7:   DRILLING FLUID LOSS
 MSS .          FLOW LINE:   MUD SAMPLE SOURCE
 RMS .OHMM             .4:   RESISTIVITY MUD SAMPLE
 MST .F                76:   MUD SAMPLE TEMPERATURE
 RMF .OHMM             .3:   RESISTIVITY MUD FILTRATE SAMPLE
 MFST.F                80:   MUD FILTRATE SAMPLE TEMPERATURE
 RMC .OHMM             .4:   RESISTIVITY MUD CAKE
 MCST.F                80:   MUD CAKE SAMPLE TEMPERATURE
 MFSS.               MEAS:   MUD FILTRATE SAMPLE SOURCE
 MCSS.               MEAS:   MUD CAKE SAMPLE SOURCE
 RMB .OHMM            .43:   RESISTIVITY MUD AT BHT
 BHT .F                70:   BOTTOM HOLE TEMPERATURE
 TCS .HRS               3:   TIME CURCULATED STOPPED
 MRT .F                70:   MAXIMUM RECORDED TEMPERATURE
 LUN .               2958:   LOGGING UNIT NUMBER
 LUL .               CASP:   LOGGING UNIT LOCATION
 ENGI.            POINTER:   RECORDING ENGINEER
 WITN.           MCGINLEY:   WITNESSED BY
 CLNT.            A2DTECH:   CLIENT CODE
 ORIG.           5" PRINT:   ORIGIN OF DATA
 UWI .       490251070600:   UNIQUE WELL ID
 DICO. A2D Technologies, Inc.:   DIGITIZING COMPANY
~OTHER INFORMATION
~A   DEPT      SPR         SN        ILD         GRD      CALD       RHOB       DPHI       CORR   
# ...
  222.0000   -15.8625     8.8662     9.2524   120.7763     7.3764     2.4847     0.1163     0.0249
  222.5000   -15.9142     8.8532     9.3934   122.1843     7.3720     2.4881     0.1114     0.0271
  223.0000   -15.9659     8.8443     9.5421   124.0243     7.3676     2.4957     0.1066     0.0292
  223.5000   -16.0176     8.8352     9.4508   122.6302     7.3632     2.5032     0.1017     0.0290
  224.0000   -16.0693     8.8262     9.3522   120.3712     7.3588     2.5108     0.0984     0.0285
  224.5000   -16.1210     8.8172     9.2550   120.9922     7.3544     2.5184     0.1001     0.0280
  225.0000   -16.1728     8.8083     9.1146   122.4914     7.3501     2.5205     0.1082     0.0272
  225.5000   -16.2245     8.7993     9.1315   124.0607     7.3500     2.5108     0.1164     0.0190
  226.0000   -16.2688     8.7904     9.1651   125.4907     7.3500     2.4935     0.1240     0.0106
  226.5000   -16.2685     8.7815     9.1989   125.3120     7.3500     2.4780     0.1236     0.0100
  227.0000   -16.2770     8.7725     9.2328   123.4252     7.3500     2.4765     0.1233     0.0113
  227.5000   -15.9304     8.7636     9.2668   121.4620     7.3500     2.4793     0.1188     0.0125
  228.0000   -15.5365     8.7547     9.3009   121.4518     7.3500     2.4864     0.1116     0.0139
  228.5000   -15.2414     8.7458     9.3352   124.5544     7.3501     2.4991     0.1078     0.0162
  229.0000   -15.1711     8.7369     9.3688   126.7659     7.3500     2.5057     0.1061     0.0184
  229.5000   -15.0964     8.7280     9.3820   128.8520     7.3454     2.5051     0.1045     0.0207
  230.0000   -15.0228     8.7192     9.3948   128.4420     7.3263     2.5102     0.1029     0.0230
  230.5000   -14.9490     8.7103     9.4076   120.0963     7.3080     2.5150     0.1012     0.0253
  231.0000   -14.8751     8.7046     9.4205   119.1823     7.2906     2.5138     0.1025     0.0274
  231.5000   -14.8009     8.7047     9.4334   121.8183     7.2986     2.5127     0.1048     0.0269
  232.0000   -14.7273     8.7047     9.4464   122.0187     7.3195     2.5109     0.1071     0.0262
  232.5000   -14.6798     8.7047     9.4548   121.9312     7.3402     2.5060     0.1094     0.0255
  233.0000   -14.7342     8.7047     9.3974   122.0742     7.3549     2.5016     0.1107     0.0247
  233.5000   -14.7862     8.7047     9.3526   125.1687     7.3644     2.4995     0.1112     0.0240
  234.0000   -14.8375     8.7047     9.3080   127.0110     7.3605     2.4973     0.1097     0.0238
  234.5000   -14.8639     8.7047     9.2636   130.8492     7.3077     2.4991     0.1050     0.0258
  235.0000   -14.8216     8.7047     9.2194   129.2554     7.2561     2.5064     0.1041     0.0278
  235.5000   -14.7799     8.7048     9.1754   127.0536     7.2536     2.5090     0.1055     0.0295
  236.0000   -14.7376     8.7043     9.1317   127.1632     7.2995     2.5071     0.1069     0.0295
  236.5000   -14.6999     8.6902     9.0881   124.0409     7.2926     2.5052     0.1071     0.0295
  237.0000   -14.8608     8.6753     9.0448   119.9493     7.1882     2.5045     0.1063     0.0295
  237.5000   -15.4249     8.6605     9.0283   119.9233     7.1066     2.5060     0.1055     0.0295
  238.0000   -15.9875     8.6457     9.0247   120.4487     7.2268     2.5074     0.1048     0.0293
  238.5000   -15.9942     8.6310     9.0211   120.3446     7.4015     2.5088     0.1044     0.0287
  239.0000   -15.9035     8.6163     9.0176   123.3531     7.4113     2.5091     0.1087     0.0280
  239.5000   -15.8118     8.6016     9.0140   126.0315     7.4102     2.5026     0.1133     0.0266
  240.0000   -15.7245     8.5869     9.0105   123.8243     7.4100     2.4961     0.1159     0.0213
  240.5000   -15.7778     8.5723     9.0069   121.3362     7.4100     2.4903     0.1131     0.0209
  241.0000   -16.0550     8.5576     9.0034   120.3404     7.4100     2.4954     0.1078     0.0230
  241.5000   -16.3301     8.5443     8.9998   116.7193     7.4100     2.5006     0.1053     0.0251
  242.0000   -16.2732     8.5360     8.9962   113.2339     7.4100     2.5058     0.1062     0.0273
  242.5000   -15.9037     8.5277     8.9927   112.8963     7.4100     2.5053     0.1070     0.0294
  243.0000   -15.6928     8.5194     8.9891   114.2581     7.4100     2.5046     0.1079     0.0285
  243.5000   -15.8508     8.5111     8.9856   114.7574     7.4100     2.5038     0.1077     0.0274
  244.0000   -16.0036     8.5028     8.9820   115.0102     7.4100     2.5031     0.1063     0.0264
  244.5000   -16.1574     8.4945     8.9785   116.3961     7.4100     2.5036     0.1056     0.0255
  245.0000   -16.3126     8.4862     8.9749   123.5466     7.4100     2.5043     0.1056     0.0259
  245.5000   -16.4579     8.4780     8.9714   128.1579     7.4031     2.5051     0.1028     0.0263
  246.0000   -16.2847     8.4677     8.9679   128.1696     7.3912     2.5093     0.1000     0.0267
  246.5000   -16.0906     8.4881     8.9643   128.2404     7.3793     2.5136     0.1032     0.0271
  247.0000   -16.1927     8.5219     8.9608   128.3000     7.3674     2.5139     0.1069     0.0274
  247.5000   -16.3409     8.5559     8.9572   129.1750     7.3556     2.5094     0.1088     0.0270
  248.0000   -16.4898     8.5900     8.9536   134.2769     7.3293     2.5049     0.1069     0.0265
  248.5000   -16.6439     8.6242     8.9504   135.3704     7.2875     2.5040     0.1061     0.0259
  249.0000   -16.5236     8.6586     8.9480   128.0360     7.1693     2.5040     0.1088     0.0244
  249.5000   -16.3439     8.6931     9.0133   123.9259     7.1258     2.5041     0.1111     0.0192
  250.0000   -16.1630     8.7278     9.0600   120.3347     7.1467     2.4991     0.1141     0.0140
  250.5000   -15.9849     8.7626     9.1070   120.2596     7.2234     2.4933     0.1157     0.0131
  251.0000   -15.8668     8.7851     9.1543   120.9118     7.2996     2.4914     0.1163     0.0160
  251.5000   -15.8685     8.7624     9.2017   121.4816     7.3772     2.4905     0.1191     0.0188
  252.0000   -15.8681     8.7458     9.2495   121.4078     7.3889     2.4902     0.1229     0.0267
  252.5000   -15.8683     8.7292     9.2975   121.3023     7.3874     2.4823     0.1273     0.0356
  253.0000   -15.8680     8.7126     9.3689   121.4033     7.3857     2.4748     0.1156     0.0468
  253.5000   -15.8678     8.6961     9.3634   122.5371     7.3841     2.4877     0.1105     0.0721
  254.0000   -15.8699     8.6796     9.3516   126.8919     7.3826     2.5038     0.1049     0.0971
  254.5000   -15.9822     8.6631     9.3402   131.0657     7.3810     2.5199     0.0990     0.1105
  255.0000   -16.2659     8.6466     9.3288   128.3512     7.3795     2.5360     0.0932     0.1152
  255.5000   -16.5482     8.6298     9.3174   125.5623     7.3779     2.5480     0.0976     0.1084
  256.0000   -16.8306     8.5805     9.3060   123.4797     7.3764     2.5265     0.1068     0.0826
  256.5000   -17.0726     8.5143     9.2948   119.4548     7.3748     2.5048     0.1078     0.0565
  257.0000   -17.0665     8.4494     9.2832   118.9597     7.3733     2.5023     0.1052     0.0318
  257.5000   -17.0657     8.3848     9.1651   121.6042     7.3717     2.5039     0.1051     0.0260
  258.0000   -17.0658     8.3207     9.0457   124.7136     7.3701     2.5056     0.1055     0.0261
  258.5000   -17.0656     8.2376     8.9279   125.9914     7.3729     2.5073     0.1096     0.0269
  259.0000   -17.2302     8.2420     8.8116   125.3732     7.3763     2.5023     0.1172     0.0258
  259.5000   -17.5418     8.2484     8.6960   124.7402     7.3796     2.4922     0.1248     0.0212
  260.0000   -17.6467     8.2549     8.6241   125.5565     7.3830     2.4822     0.1275     0.0167
  260.5000   -17.6229     8.2613     8.6253   127.1073     7.3864     2.4729     0.1257     0.0148
  261.0000   -17.5960     8.2677     8.6251   125.9019     7.3900     2.4709     0.1197     0.0207
  261.5000   -17.5693     8.2742     8.6250   124.2962     7.3797     2.4819     0.1099     0.0265
  262.0000   -17.5428     8.2806     8.6250   127.4209     7.3682     2.4999     0.1047     0.0215
