~VERSION INFORMATION
 VERS.                2.0:   CWLS LOG ASCII STANDARD - VERSION 2.0
 WRAP.                 NO:   ONE LINE PER DEPTH STEP
~WELL INFORMATION
#MNEM.UNIT      DATA TYPE    INFORMATION
#----------   ------------   ------------------------------
 STRT.F           18.0000:   START DEPTH
 STOP.F          449.0000:   STOP DEPTH
 STEP.F            0.5000:   STEP LENGTH
 NULL.          -999.2500:   NO VALUE
 COMP.   LAWRENCE-ALLISON:   COMPANY
 WELL. NPR 3 #51-46SX10OB4:   WELL
 FLD .             TEAPOT:   FIELD
 LOC .      S10 T38N R78W:   LOCATION
 CNTY.            NATRONA:   COUNTY
 STAT.            WYOMING:   STATE
 CTRY. UNITED STATES OF AMERICA:   COUNTRY
 SRVC.      Dresser Atlas:   SERVICE COMPANY
 DATE.        19-NOV-1984:   LOGDATE
 API .       490251100700:   API NUMBER
~CURVE INFORMATION
#MNEM.UNIT       API CODE    CURVE DESCRIPTION
#----------   ------------   ------------------------------
 DEPT.F                  :   
 AC  .US/F   60 520 00 00:   ACCOUSTIC
 PORD.DEC    45 890 12 00:   POROSITY DENSITY SANDSTONE
 CNC .DEC    42 890 03 00:   NEUTRON POROSITY SANDSTONE
 CALD.IN     45 280 60 00:   CALIPER FROM DENSITY
 CORR.G/C3   45 356 01 00:   DENSITY CORRECTION
 DEN .G/C3   45 350 01 00:   COMPENSATED BULK DENSTIY
 GRD .GAPI   45 310 01 00:   GAMMA RAY FROM DENSITY LOG
~PARAMETER INFORMATION
#MNEM.UNIT          VALUE    DESCRIPTION
#----------   ------------   ------------------------------
 PD  .                 GL:   PERMANENT DATUM
 EPD .F              5163:   ELEVATION PERMANENT DATUM
 LMF .                 GL:   LOG MEASURED FROM
 DMF .                 GL:   DRILLING MEASURED FROM
 EGL .F              5163:   GROUND LEVEL
 DATE.        19-DEC-1984:   RUN DATE
 RUN .                  1:   RUN NUMBER
 DD  .F               450:   DEPTH DRILLER
 DL  .F               451:   DEPTH LOGGER
 BLI .F               449:   BOTTOM LOG INTERVAL
 TLI .F                20:   TOP LOG INTERVAL
 CS  .IN            8.625:   CASING SIZE
 CBD .F                20:   CASING BOTTOM DRILLER
 CBL .F                20:   CASING BOTTOM LOGGER
 BS  .IN             6.25:   BIT SIZE
 BSD .F               450:   BIT SIZE AT DEPTH
 DFT .          KCL WATER:   DRILLING FLUID TYPE
 MSS .            MUDTANK:   MUD SAMPLE SOURCE
 RMS .OHMM          0.146:   RESISTIVITY MUD SAMPLE
 MST .F               100:   MUD SAMPLE TEMPERATURE
 RMF .OHMM          0.110:   RESISTIVITY MUD FILTRATE SAMPLE
 MFST.F               100:   MUD FILTRATE SAMPLE TEMPERATURE
 RMC .OHMM          0.183:   RESISTIVITY MUD CAKE
 MCST.F               100:   MUD CAKE SAMPLE TEMPERATURE
 MFSS.               CALC:   MUD FILTRATE SAMPLE SOURCE
 MCSS.               CALC:   MUD CAKE SAMPLE SOURCE
 TCS .HRS               2:   TIME CURCULATED STOPPED
 MRT .F               100:   MAXIMUM RECORDED TEMPERATURE
 LUN .               6270:   LOGGING UNIT NUMBER
 ENGI.        TOM GAUGHAN:   RECORDING ENGINEER
 WITN.              LUERS:   WITNESSED BY
 CLNT.            A2DTECH:   CLIENT CODE
 ORIG.           5" PRINT:   ORIGIN OF DATA
 UWI .       490251100700:   UNIQUE WELL ID
 DICO. A2D Technologies, Inc.:   DIGITIZING COMPANY
~OTHER INFORMATION
~A   DEPT        AC      PORD        CNC       CALD       CORR        DEN        GRD   
# ...
   63.5000    99.7887     0.0993     0.2827     6.3672     0.0498     2.5168    89.8370
   64.0000   100.2705     0.0947     0.2836     6.3666     0.0573     2.5259    92.2407
   64.5000   100.6753     0.0908     0.2691     6.3659     0.0649     2.5289    94.1926
   65.0000   100.9302     0.0925     0.2588     6.3805     0.0678     2.5228    95.6927
   65.5000   101.1837     0.0983     0.2572     6.3797     0.0623     2.5144    97.0421
   66.0000   101.6604     0.1012     0.2608     6.3641     0.0538     2.5113    97.1868
   66.5000   102.1317     0.1012     0.2672     6.3635     0.0643     2.5105    94.7570
   67.0000   102.6135     0.1015     0.2757     6.3629     0.0658     2.5097    94.6145
   67.5000   103.0167     0.1031     0.2849     6.3623     0.0656     2.5074    94.7578
   68.0000   103.7344     0.1059     0.2809     6.3617     0.0686     2.5043    94.7519
   68.5000   104.2162     0.1087     0.2767     6.3611     0.0685     2.4982    94.2942
   69.0000   104.3023     0.1160     0.2837     6.3606     0.0608     2.4860    94.8906
   69.5000   103.9219     0.1257     0.2937     6.3600     0.0532     2.4753    99.2521
   70.0000   103.1458     0.1283     0.2922     6.3594     0.0364     2.4639   101.9570
   70.5000   102.3698     0.1307     0.2780     6.3588     0.0152     2.4593   102.2538
   71.0000   101.3579     0.1332     0.2713     6.3431     0.0166     2.4570    95.4692
   71.5000   100.5818     0.1377     0.2719     6.3426     0.0286     2.4516    91.2464
   72.0000   100.4321     0.1453     0.2734     6.3269     0.0361     2.4402    90.0372
   72.5000   101.2309     0.1484     0.2719     6.3263     0.0269     2.4311    91.8370
   73.0000   101.8700     0.1475     0.2713     6.3257     0.0041     2.4325    93.6382
   73.5000   102.4304     0.1441     0.2717     6.3251    -0.0020     2.4370    94.9877
   74.0000   102.5191     0.1396     0.2732     6.3396    -0.0021     2.4438    95.7349
   74.5000   101.9003     0.1357     0.2744     6.3388    -0.0007     2.4514    94.5240
   75.0000   100.4953     0.1347     0.2745     6.3382     0.0038     2.4551    93.0120
   75.5000    98.4320     0.1393     0.2763     6.3528     0.0173     2.4535    92.2531
   76.0000    96.4274     0.1421     0.2814     6.3521     0.0308     2.4443    92.5643
   76.5000    98.2791     0.1360     0.2641     6.3515     0.0413     2.4462    93.5422
   77.0000    99.7397     0.1196     0.2695     6.3509     0.0624     2.4689    94.9461
   77.5000   102.8282     0.1029     0.2827     6.3503     0.0744     2.4931    93.4326
   78.0000   103.7817     0.0999     0.2888     6.3649     0.0713     2.5118    90.2640
   78.5000   104.1849     0.1178     0.2885     6.3642     0.0243     2.4897    91.6135
   79.0000   104.1950     0.1227     0.2885     6.3788    -0.0045     2.4760    96.2763
   79.5000   103.8906     0.1227     0.2916     6.3780    -0.0031     2.4752    98.9812
   80.0000   103.5837     0.1248     0.3068     6.3925     0.0135     2.4699    96.1138
   80.5000   103.9108     0.1330     0.3095     6.3919     0.0209     2.4531    93.5476
   81.0000   104.3140     0.1379     0.3089     6.3913     0.0239     2.4500    93.9934
   81.5000   104.4813     0.1391     0.2986     6.3907     0.0238     2.4485    94.8911
   82.0000   104.4914     0.1416     0.2786     6.3901     0.0189     2.4401    95.1879
   82.5000   104.3443     0.1485     0.2743     6.3895     0.0008     2.4294    94.7286
   83.0000   103.6469     0.1516     0.2765     6.4039    -0.0052     2.4271    95.3251
   83.5000   102.3991     0.1495     0.2868     6.4032    -0.0083     2.4347    95.9217
   84.0000   100.6796     0.1425     0.2956     6.3876     0.0188     2.4430    95.0120
   84.5000   100.6019     0.1407     0.2911     6.3870     0.0477     2.4452    92.8976
   85.0000   101.7219     0.1404     0.2726     6.3864     0.0307     2.4444    92.8916
   85.5000   103.6188     0.1407     0.2668     6.3858     0.0124     2.4436    92.7349
   86.0000   104.6510     0.1404     0.2680     6.3852     0.0139     2.4435    89.6266
   86.5000   104.6610     0.1404     0.2760     6.3998     0.0334     2.4412    85.6449
   87.0000   104.3566     0.1486     0.2823     6.3990     0.0318     2.4336    88.9507
   87.5000   104.2095     0.1529     0.2860     6.3984     0.0302     2.4237    93.9147
   88.0000   104.3793     0.1565     0.2864     6.3979     0.0180     2.4191    95.5668
   88.5000   104.7825     0.1556     0.2845     6.4124     0.0074     2.4198    92.8486
   89.0000   106.0505     0.1541     0.2857     6.4117     0.0027     2.4213    92.0896
   89.5000   106.9254     0.1523     0.2876     6.4111     0.0011     2.4235    92.9873
   90.0000   107.8789     0.1508     0.2897     6.4105     0.0026     2.4250    94.3368
   90.5000   107.9676     0.1511     0.2946     6.4250     0.0055     2.4257    96.1380
   91.0000   107.6632     0.1508     0.3000     6.4244     0.0084     2.4272    97.0357
   91.5000   107.0444     0.1496     0.3074     6.4238     0.0159     2.4303    96.1261
   92.0000   106.3470     0.1457     0.3153     6.4232     0.0313     2.4355    95.6684
   92.5000   105.0967     0.1442     0.3053     6.4224     0.0444     2.4362    95.2106
   93.0000   105.7382     0.1469     0.2985     6.4068     0.0489     2.4316    93.9999
   93.5000   106.0628     0.1487     0.2880     6.4062     0.0140     2.4277    91.2831
   94.0000   107.0163     0.1494     0.2850     6.4208     0.0064     2.4292    90.5241
   94.5000   106.7114     0.1472     0.2804     6.4351     0.0123     2.4352    93.7289
   95.0000   106.4072     0.1439     0.2865     6.4195     0.0168     2.4412    95.1809
   95.5000   105.7887     0.1394     0.2902     6.4189     0.0182     2.4495    94.6948
   96.0000   105.4812     0.1315     0.2808     6.4183     0.0257     2.4594    93.8121
   96.5000   105.8881     0.1254     0.2665     6.4177     0.0453     2.4677    95.0110
   97.0000   106.1336     0.1230     0.2699     6.4171     0.0527     2.4729   101.7822
   97.5000   106.0574     0.1233     0.2778     6.4317     0.0528     2.4744   103.4328
   98.0000   105.8392     0.1285     0.2845     6.4309     0.0526     2.4653   100.2643
   98.5000   105.6160     0.1291     0.2845     6.4304     0.0600     2.4637    98.4511
   99.0000   105.5450     0.1294     0.2851     6.4298     0.0584     2.4652    97.9948
   99.5000   105.1645     0.1322     0.2988     6.4292     0.0462     2.4560    99.0416
  100.0000   103.9954     0.1370     0.2969     6.4286     0.0280     2.4477    97.6644
  100.5000   102.9049     0.1392     0.2858     6.4278     0.0234     2.4506    95.4129
  101.0000   102.1288     0.1371     0.2756     6.4271     0.0263     2.4532    94.6524
  101.5000   101.5075     0.1340     0.2774     6.4263     0.0156     2.4558    94.3456
  102.0000   102.2276     0.1322     0.2810     6.4256    -0.0011     2.4583    97.4988
  102.5000   103.2597     0.1307     0.2771     6.4248     0.0004     2.4603   100.9552
  103.0000   104.4491     0.1280     0.2762     6.4240     0.0063     2.4633   101.2508
  103.5000   105.6384     0.1256     0.2808     6.4233     0.0153     2.4688    99.2836
  104.0000   105.9630     0.1256     0.2883     6.4526     0.0289     2.4723    97.7700
  104.5000   105.9731     0.1299     0.2965     6.4519     0.0424     2.4672    98.5155
  105.0000   105.9832     0.1326     0.3080     6.4511     0.0499     2.4584    99.8635
  105.5000   105.4430     0.1329     0.3095     6.4504     0.0423     2.4596    97.8981
  106.0000   104.5883     0.1291     0.3007     6.4496     0.0331     2.4675    96.3846
  106.5000   104.6770     0.1295     0.2820     6.4489     0.0255     2.4629    95.7747
  107.0000   104.6871     0.1333     0.2678     6.4331     0.0163     2.4583    97.1226
  107.5000   104.6973     0.1354     0.2700     6.4323     0.0102     2.4552    98.0206
  108.0000   104.5440     0.1354     0.2743     6.4316     0.0071     2.4536    97.7100
  108.5000   103.9217     0.1339     0.2797     6.4459     0.0161     2.4543    97.2507
