~VERSION INFORMATION
 VERS.                2.0:   CWLS LOG ASCII STANDARD - VERSION 2.0
 WRAP.                 NO:   ONE LINE PER DEPTH STEP
~WELL INFORMATION
#MNEM.UNIT      DATA TYPE    INFORMATION
#----------   ------------   ------------------------------
 STRT.F            2.0000:   START DEPTH
 STOP.F          560.0000:   STOP DEPTH
 STEP.F            0.1000:   STEP LENGTH
 NULL.          -999.2500:   NO VALUE
 COMP.       F D SERV INC:   COMPANY
 WELL. NAVAL PETROLEUM RESERVE 3 SX-3 #88-3:   WELL
 FLD .             NPR #3:   FIELD
 LOC .       S3 T38N R78W:   LOCATION
 CNTY.            NATRONA:   COUNTY
 STAT.            WYOMING:   STATE
 CTRY. UNITED STATES OF AMERICA:   COUNTRY
 SRVC.      Western Atlas:   SERVICE COMPANY
 DATE.        30-OCT-1992:   LOGDATE
 API .       490252254900:   API NUMBER
~CURVE INFORMATION
#MNEM.UNIT       API CODE    CURVE DESCRIPTION
#----------   ------------   ------------------------------
 DEPT.F                  :   
 GRR .GAPI   07 310 01 00:   GAMMA RAY
 RILD.OHMM   07 120 46 00:   INDUCTION LOG DEEP RESISTIVITY
 RILM.OHMM   07 120 44 00:   INDUCTION LOG MEDIUM RESISTIVITY
~PARAMETER INFORMATION
#MNEM.UNIT          VALUE    DESCRIPTION
#----------   ------------   ------------------------------
 PD  .                 GL:   PERMANENT DATUM
 EPD .F              5131:   ELEVATION PERMANENT DATUM
 LMF .                 KB:   LOG MEASURED FROM
 DAPD.F                10:   FEET ABOVE PERMANENT DATUM
 DMF .                 KB:   DRILLING MEASURED FROM
 EKB .F              5141:   KELLING BUSHING
 EDF .F              5140:   DRILLING FLOOR
 EGL .F              5131:   GROUND LEVEL
 DATE.        30-OCT-1992:   RUN DATE
 RUN .                  1:   RUN NUMBER
 DD  .F               568:   DEPTH DRILLER
 DL  .F               568:   DEPTH LOGGER
 BLI .F               560:   BOTTOM LOG INTERVAL
 CS  .IN            8.625:   CASING SIZE
 CBD .F                73:   CASING BOTTOM DRILLER
 CBL .F                73:   CASING BOTTOM LOGGER
 BS  .IN            7.875:   BIT SIZE
 BSD .F               568:   BIT SIZE AT DEPTH
 DFT .           AIR FOAM:   DRILLING FLUID TYPE
 BHT .F                63:   BOTTOM HOLE TEMPERATURE
 TCS .HRS               2:   TIME CURCULATED STOPPED
 MRT .F                63:   MAXIMUM RECORDED TEMPERATURE
 LUN .            HL-6274:   LOGGING UNIT NUMBER
 LUL .             CASPER:   LOGGING UNIT LOCATION
 ENGI.             RAUTIO:   RECORDING ENGINEER
 WITN.          BOB SYLAR:   WITNESSED BY
 CLNT.            A2DTECH:   CLIENT CODE
 ORIG.           5" PRINT:   ORIGIN OF DATA
 UWI .       490252254900:   UNIQUE WELL ID
 DICO. A2D Technologies, Inc.:   DIGITIZING COMPANY
~OTHER INFORMATION
~A    DEPT      GRR      RILD       RILM   
# ...
  202.2000   124.0697     8.4023     8.3444
  202.3000   124.2932     8.4028     8.3448
  202.4000   124.5462     8.4032     8.3453
  202.5000   124.6687     8.4037     8.3458
  202.6000   124.6675     8.4090     8.3896
  202.7000   124.6663     8.4630     8.4046
  202.8000   124.6650     8.4635     8.4051
  202.9000   124.1763     8.4639     8.4056
  203.0000   124.0602     8.4644     8.4060
  203.1000   123.7594     8.4649     8.4065
  203.2000   123.2498     8.4653     8.4654
  203.3000   122.7402     8.4658     8.4658
  203.4000   122.2305     8.4663     8.4663
  203.5000   121.6444     8.4667     8.4668
  203.6000   121.2112     8.4672     8.4672
  203.7000   120.7016     8.4677     8.4677
  203.8000   120.1920     8.4682     8.4682
  203.9000   119.7574     8.4686     8.4686
  204.0000   119.4739     8.4691     8.4691
  204.1000   118.9264     8.4696     8.4696
  204.2000   118.6900     8.4700     8.4700
  204.3000   118.4345     8.5012     8.4595
  204.4000   118.1791     8.5298     8.4125
  204.5000   118.0181     8.5303     8.4131
  204.6000   118.0169     8.5267     8.4135
  204.7000   118.0157     8.4724     8.4139
  204.8000   118.3154     8.4728     8.4144
  204.9000   118.5221     8.4733     8.3984
  205.0000   118.9358     8.4738     8.3572
  205.1000   119.4430     8.4743     8.3578
  205.2000   119.9502     8.4747     8.3583
  205.3000   120.4771     8.4752     8.3587
  205.4000   121.3204     8.4757     8.3592
  205.5000   122.0000     8.4761     8.3377
  205.6000   122.9413     8.4766     8.3024
  205.7000   124.1579     8.4771     8.3029
  205.8000   125.5579     8.4775     8.3034
  205.9000   126.9579     8.4780     8.3038
  206.0000   128.1687     8.4785     8.3043
  206.1000   128.9036     8.4789     8.3047
  206.2000   129.4433     8.4794     8.3052
  206.3000   129.9237     8.4799     8.3057
  206.4000   130.4337     8.4804     8.3061
  206.5000   130.6446     8.4808     8.3066
  206.6000   130.6434     8.4780     8.3070
  206.7000   130.7590     8.4233     8.3075
  206.8000   131.2434     8.4237     8.3080
  206.9000   131.2420     8.4242     8.3084
  207.0000   131.2410     8.4247     8.3089
  207.1000   131.2398     8.4251     8.3094
  207.2000   131.2386     8.4256     8.3098
  207.3000   131.2374     8.4261     8.3103
  207.4000   131.1550     8.4266     8.2811
  207.5000   130.6325     8.4270     8.2539
  207.6000   130.3299     8.3955     8.2543
  207.7000   130.1239     8.3698     8.2548
  207.8000   129.7076     8.3703     8.2553
  207.9000   129.3090     8.3707     8.2122
  208.0000   128.9839     8.3712     8.1992
  208.1000   128.4714     8.3257     8.1735
  208.2000   127.9132     8.3144     8.1436
  208.3000   127.6793     8.3149     8.1440
  208.4000   127.6096     8.3153     8.1445
  208.5000   127.7500     8.3047     8.0888
  208.6000   128.0044     8.2589     8.0892
  208.7000   128.3092     8.2594     8.0585
  208.8000   128.8144     8.2598     8.0343
  208.9000   129.1095     8.2603     8.0205
  209.0000   129.3233     8.2607     7.9797
  209.1000   129.7470     8.2447     7.9803
  209.2000   130.1333     8.1968     7.9364
  209.3000   130.3878     8.1485     7.9261
  209.4000   130.6098     8.1491     7.9265
  209.5000   130.6084     8.1108     7.9076
  209.6000   130.6072     8.0937     7.8727
  209.7000   130.4090     8.0941     7.8732
  209.8000   130.1522     8.0815     7.8737
  209.9000   129.7896     8.0392     7.8740
  210.0000   129.2771     8.0397     7.8419
  210.1000   128.7500     8.0401     7.8206
  210.2000   127.8890     8.0405     7.8210
  210.3000   127.2138     8.0143     7.8135
  210.4000   126.9831     7.9860     7.7680
  210.5000   126.8484     7.9765     7.7685
  210.6000   126.6795     7.9318     7.7315
  210.7000   126.7207     7.9323     7.7157
  210.8000   126.9783     7.8928     7.6951
  210.9000   126.9769     7.8784     7.6633
  211.0000   126.9759     7.8557     7.6637
  211.1000   127.2972     7.8249     7.6642
  211.2000   127.5759     7.8186     7.6227
  211.3000   127.5747     7.7718     7.6122
  211.4000   127.5735     7.7281     7.5868
  211.5000   127.5722     7.7191     7.5428
  211.6000   127.3365     7.6917     7.4990
  211.7000   127.0797     7.6470     7.4554
  211.8000   126.6795     7.6026     7.4065
  211.9000   126.1671     7.5585     7.3691
  212.0000   125.7068     7.5105     7.3264
  212.1000   125.4434     7.4710     7.2838
  212.2000   124.8528     7.4277     7.2416
  212.3000   124.4185     7.4084     7.1995
  212.4000   124.0771     7.3926     7.1569
  212.5000   123.8203     7.3497     7.1080
  212.6000   123.6434     7.3078     7.0749
  212.7000   123.6765     7.3083     7.0338
  212.8000   123.9421     7.2726     6.9930
  212.9000   124.1853     7.2304     6.9524
  213.0000   124.4398     7.1884     6.9120
  213.1000   124.5410     7.1467     6.8685
  213.2000   124.6474     7.1052     6.8320
  213.3000   124.9018     7.0621     6.7923
  213.4000   125.1398     7.0230     6.7529
  213.5000   125.1384     6.9505     6.6987
  213.6000   125.1374     6.8938     6.6207
  213.7000   124.9552     6.8538     6.5436
  213.8000   124.6984     6.8043     6.4563
  213.9000   124.5313     6.7277     6.4244
  214.0000   124.4860     6.6844     6.3871
  214.1000   124.2277     6.6152     6.3500
  214.2000   123.9251     6.5657     6.3132
  214.3000   123.9241     6.5275     6.2765
  214.4000   124.0859     6.4896     6.2388
  214.5000   124.3404     6.4520     6.1688
  214.6000   124.6666     6.4145     6.1537
  214.7000   125.2030     6.3708     6.1321
  214.8000   126.0264     6.3711     6.1120
  214.9000   126.9707     6.3714     6.1123
  215.0000   127.8012     6.3718     6.1126
  215.1000   128.5669     6.3721     6.1130
  215.2000   129.3326     6.3725     6.1133
  215.3000   130.0442     6.3729     6.1398
  215.4000   130.5627     6.3732     6.1565
  215.5000   131.4396     6.4022     6.1568
  215.6000   131.6570     6.4182     6.1571
  215.7000   132.0843     6.4185     6.1575
  215.8000   132.4671     6.4189     6.1579
  215.9000   132.6398     6.4192     6.1582
  216.0000   132.6386     6.4196     6.1824
  216.1000   132.6373     6.4199     6.2016
  216.2000   132.3899     6.4467     6.2019
  216.3000   132.1331     6.4850     6.2069
  216.4000   131.5663     6.5105     6.2457
  216.5000   130.9076     6.5172     6.2461
  216.6000   130.3952     6.5564     6.2464
  216.7000   129.8461     6.5568     6.2467
  216.8000   128.7131     6.5885     6.2625
  216.9000   127.3423     6.6277     6.2908
  217.0000   126.1727     6.6493     6.2912
  217.1000   125.4233     6.6496     6.2916
  217.2000   124.7278     6.6500     6.2919
  217.3000   123.7040     6.6504     6.3185
  217.4000   122.6803     6.6869     6.3561
  217.5000   121.4757     6.6973     6.3939
  217.6000   120.2121     6.7201     6.4319
  217.7000   119.0068     6.7601     6.4702
  217.8000   118.2216     6.8089     6.5608
  217.9000   117.8566     6.8882     6.6249
  218.0000   117.9116     6.9350     6.6782
  218.1000   118.4565     6.9705     6.6995
  218.2000   118.6936     7.0120     6.7228
  218.3000   119.1406     7.0537     6.7981
  218.4000   119.6506     7.0957     6.8412
  218.5000   120.2621     7.1442     6.8792
  218.6000   120.9719     7.2314     6.9511
  218.7000   121.4819     7.2732     7.0097
  218.8000   122.0625     7.3165     7.0514
  218.9000   122.5020     7.3601     7.0934
  219.0000   122.8374     7.4038     7.1355
  219.1000   123.0918     7.4364     7.1835
  219.2000   123.2626     7.4405     7.2207
  219.3000   123.2994     7.4889     7.2637
  219.4000   123.5614     7.4893     7.3069
  219.5000   123.8082     7.5219     7.3504
  219.6000   123.8602     7.5667     7.3872
  219.7000   123.8590     7.6117     7.3876
  219.8000   123.8578     7.6481     7.3880
  219.9000   123.8566     7.6485     7.3884
  220.0000   123.8152     7.6490     7.3888
  220.1000   123.2517     7.6493     7.3892
  220.2000   123.2506     7.6798     7.3896
  220.3000   123.0649     7.7033     7.3900
