~VERSION INFORMATION
 VERS.                2.0:   CWLS LOG ASCII STANDARD - VERSION 2.0
 WRAP.                 NO:   ONE LINE PER DEPTH STEP
~WELL INFORMATION
#MNEM.UNIT      DATA TYPE    INFORMATION
#----------   ------------   ------------------------------
 STRT.F            0.0000:   START DEPTH
 STOP.F          545.0000:   STOP DEPTH
 STEP.F            0.1000:   STEP LENGTH
 NULL.          -999.2500:   NO VALUE
 COMP.       F D SERV INC:   COMPANY
 WELL. NAVAL PETROLEUM RESERVE 3 SX-3 #88-5-3:   WELL
 FLD .             TEAPOT:   FIELD
 LOC .       S3 T38N R78W:   LOCATION
 CNTY.            NATRONA:   COUNTY
 STAT.            WYOMING:   STATE
 CTRY. UNITED STATES OF AMERICA:   COUNTRY
 SRVC.     Atlas Wireline:   SERVICE COMPANY
 DATE.        14-OCT-1992:   LOGDATE
 API .       490252255700:   API NUMBER
~CURVE INFORMATION
#MNEM.UNIT       API CODE    CURVE DESCRIPTION
#----------   ------------   ------------------------------
 DEPT.F                  :   
 GRR .GAPI   07 310 01 00:   GAMMA RAY
 RILD.OHMM   07 120 46 00:   INDUCTION LOG DEEP RESISTIVITY
 RILM.OHMM   07 120 44 00:   INDUCTION LOG MEDIUM RESISTIVITY
~PARAMETER INFORMATION
#MNEM.UNIT          VALUE    DESCRIPTION
#----------   ------------   ------------------------------
 PD  .                 GL:   PERMANENT DATUM
 EPD .F              5152:   ELEVATION PERMANENT DATUM
 LMF .                 KB:   LOG MEASURED FROM
 DAPD.F                10:   FEET ABOVE PERMANENT DATUM
 DMF .                 KB:   DRILLING MEASURED FROM
 EKB .F              5162:   KELLING BUSHING
 EDF .F              5161:   DRILLING FLOOR
 EGL .F              5152:   GROUND LEVEL
 DATE.        14-OCT-1992:   RUN DATE
 RUN .                  1:   RUN NUMBER
 DD  .F               555:   DEPTH DRILLER
 DL  .F               552:   DEPTH LOGGER
 BLI .F               546:   BOTTOM LOG INTERVAL
 CS  .IN            8.625:   CASING SIZE
 CBD .F                85:   CASING BOTTOM DRILLER
 CBL .F                96:   CASING BOTTOM LOGGER
 BS  .IN            7.875:   BIT SIZE
 BSD .F               555:   BIT SIZE AT DEPTH
 DFT .           AIR FOAM:   DRILLING FLUID TYPE
 BHT .F                72:   BOTTOM HOLE TEMPERATURE
 TCS .HRS               2:   TIME CURCULATED STOPPED
 MRT .F                72:   MAXIMUM RECORDED TEMPERATURE
 LUN .            HL-6274:   LOGGING UNIT NUMBER
 LUL .             CASPER:   LOGGING UNIT LOCATION
 ENGI.             RAUTIO:   RECORDING ENGINEER
 WITN.        GARY STRONG:   WITNESSED BY
 CLNT.            A2DTECH:   CLIENT CODE
 ORIG.           5" PRINT:   ORIGIN OF DATA
 UWI .       490252255700:   UNIQUE WELL ID
 DICO. A2D Technologies, Inc.:   DIGITIZING COMPANY
~OTHER INFORMATION
~A    DEPT      GRR      RILD       RILM   
# ...
  345.8000    84.4913    32.0912    30.8577
  345.9000    84.7585    32.0920    30.8568
  346.0000    84.7568    32.0929    30.8560
  346.1000    84.7550    32.0938    30.8383
  346.2000    84.7532    32.0948    30.6414
  346.3000    84.9779    32.2760    30.4748
  346.4000    85.3502    32.3194    30.4285
  346.5000    85.4005    32.3203    30.4277
  346.6000    85.9470    32.3211    30.3549
  346.7000    86.9014    32.3220    30.2162
  346.8000    88.1216    32.3229    30.2153
  346.9000    89.4033    32.3239    30.2144
  347.0000    90.4686    32.3247    30.2137
  347.1000    91.1077    32.4660    30.2128
  347.2000    91.3834    32.5510    30.3082
  347.3000    91.9404    32.5519    30.4209
  347.4000    91.9387    32.5528    30.4201
  347.5000    91.9369    32.5537    30.4228
  347.6000    91.9351    32.5547    30.6295
  347.7000    91.7276    32.3899    30.7823
  347.8000    91.2124    32.3319    30.8406
  347.9000    90.6973    32.3328    30.8398
  348.0000    90.1259    32.2683    30.8389
  348.1000    89.4383    32.1114    30.8381
  348.2000    88.6666    32.1125    30.8372
  348.3000    88.1776    31.8921    30.8362
  348.4000    87.9191    31.7386    30.8355
  348.5000    87.6606    31.6737    30.8347
  348.6000    87.4022    31.6746    30.8338
  348.7000    87.1103    31.6755    30.8329
  348.8000    87.5555    31.6525    30.8321
  348.9000    87.8873    31.4588    30.8312
  349.0000    88.1421    31.4597    30.6589
  349.1000    88.4895    31.3162    30.6169
  349.2000    89.0010    31.2445    30.6161
  349.3000    89.5127    31.2453    30.5382
  349.4000    90.1006    31.1511    30.4033
  349.5000    90.5355    30.8175    30.4024
  349.6000    91.0470    30.8185    30.4015
  349.7000    91.5586    30.6541    30.2382
  349.8000    91.9828    30.4748    30.0595
  349.9000    92.2376    30.3974    29.7832
  350.0000    92.4925    30.2364    29.3383
  350.1000    92.1069    29.8236    28.7490
  350.2000    91.8871    29.4109    28.1597
  350.3000    91.8847    28.9981    27.5704
  350.4000    91.8823    28.5854    26.9811
  350.5000    91.8797    28.1726    26.3918
  350.6000    91.6460    27.9736    26.1055
  350.7000    91.3882    27.9168    26.0022
  350.8000    91.1303    27.7524    25.7467
  350.9000    90.8725    27.5880    25.7467
  351.0000    90.6146    27.3973    25.5692
  351.1000    90.3567    27.2652    25.4474
  351.2000    90.0609    27.0023    25.2981
  351.3000    90.0589    26.7592    25.1496
  351.4000    90.0565    26.6017    24.9603
  351.5000    90.0541    26.4263    24.6837
  351.6000    90.0516    26.0997    24.5293
  351.7000    90.0877    25.8102    24.3949
  351.8000    90.3471    25.6236    24.1441
  351.9000    90.8428    25.3838    24.0253
  352.0000    91.1471    25.1482    23.9108
  352.1000    91.5596    24.9638    23.6951
  352.2000    91.8390    24.6814    23.6951
  352.3000    91.8366    24.5215    23.6951
  352.4000    91.8342    24.3917    23.5727
  352.5000    91.8316    24.2481    23.5317
  352.6000    91.8294    24.1054    23.4586
  352.7000    91.6364    24.0164    23.3694
  352.8000    91.5243    23.9877    23.3694
  352.9000    91.5219    23.8464    23.3694
  353.0000    91.5195    23.6852    23.3694
  353.1000    91.5171    23.6850    23.2560
  353.2000    91.5144    23.5905    23.2083
  353.3000    91.2905    23.4517    23.1434
  353.4000    91.0326    23.3584    23.0482
  353.5000    90.7748    23.3581    23.0482
  353.6000    90.6042    23.3578    23.0482
  353.7000    90.6018    23.3574    23.0482
  353.8000    90.5994    23.2470    23.0482
  353.9000    90.5965    23.1958    23.0482
  354.0000    90.5946    23.1954    22.9910
  354.1000    90.5922    23.1951    22.8893
  354.2000    90.5898    23.1805    22.8893
  354.3000    90.5874    23.0345    22.8893
  354.4000    90.5850    23.0342    22.7689
  354.5000    90.5824    23.0339    22.7315
  354.6000    90.5802    23.0336    22.7315
  354.7000    90.7724    23.0333    22.6332
  354.8000    91.3248    23.0329    22.4190
  354.9000    92.2987    23.0326    22.4165
  355.0000    93.5136    23.0323    22.2644
  355.1000    94.5176    23.0320    22.1543
  355.2000    95.3703    23.0317    22.1109
  355.3000    96.2714    23.0313    22.1109
  355.4000    97.1098    23.0310    22.1109
  355.5000    98.0099    23.0307    22.1293
  355.6000    98.9381    23.0304    22.2644
  355.7000    99.7485    23.0300    22.2644
  355.8000   100.7632    23.0297    22.2644
  355.9000   101.0591    23.0294    22.2644
  356.0000   101.2693    23.0291    22.2644
  356.1000   101.3550    23.0288    22.2644
  356.2000   101.1074    23.0285    22.2760
  356.3000   100.5165    23.0281    22.4190
  356.4000    99.6821    22.8978    22.4190
  356.5000    98.3422    22.8687    22.4190
  356.6000    97.1227    22.8684    22.4190
  356.7000    96.0416    22.8681    22.4190
  356.8000    95.3249    22.8678    22.4190
  356.9000    94.9205    22.8675    22.4190
  357.0000    94.6627    22.8671    22.4190
  357.1000    94.4240    22.8668    22.4190
  357.2000    94.4214    22.8665    22.4190
  357.3000    94.4192    22.8662    22.4190
  357.4000    94.6018    22.8659    22.4190
  357.5000    94.7147    22.8656    22.3984
  357.6000    94.7123    22.8652    22.2644
  357.7000    94.7099    22.8649    22.2644
  357.8000    94.7075    22.9817    22.2644
  357.9000    94.7047    23.0231    22.2644
  358.0000    94.9189    23.0227    22.2644
  358.1000    95.0006    23.0224    22.2280
  358.2000    95.1247    23.0221    22.1109
  358.3000    95.2961    23.0218    22.1109
  358.4000    95.3305    23.0214    22.1109
  358.5000    95.5915    23.0211    22.1109
  358.6000    95.8367    23.0208    22.1862
  358.7000    96.0897    23.0205    22.2644
  358.8000    96.3427    23.0202    22.2644
  358.9000    96.7087    23.0199    22.2711
  359.0000    97.1491    23.0195    22.4190
  359.1000    97.4486    23.0192    22.4190
  359.2000    98.2773    23.0189    22.4190
  359.3000    98.7427    23.0186    22.4190
  359.4000    99.2513    23.0183    22.4190
  359.5000    99.9039    23.0180    22.4190
  359.6000   100.6679    23.0176    22.4190
  359.7000   101.4319    23.0173    22.4190
  359.8000   102.2151    23.0170    22.4190
  359.9000   103.6657    23.0167    22.4190
  360.0000   104.5446    23.0164    22.4190
  360.1000   105.2132    23.0160    22.4190
  360.2000   105.3301    23.0157    22.4190
  360.3000   105.0722    23.0154    22.4190
  360.4000   104.8553    23.0150    22.4190
  360.5000   104.8528    23.0148    22.4190
  360.6000   104.5497    23.0145    22.4190
  360.7000   103.9278    23.0141    22.4190
  360.8000   102.6739    23.0138    22.4190
  360.9000   101.2559    23.0135    22.4190
  361.0000   100.1202    23.0132    22.4190
  361.1000    99.2695    23.0128    22.3020
  361.2000    97.6287    23.0125    22.2644
  361.3000    96.6752    23.0122    22.2644
  361.4000    96.0368    23.0119    22.2644
  361.5000    95.8198    23.0116    22.2644
  361.6000    95.6109    23.0253    22.2628
  361.7000    95.1560    23.1707    22.1109
  361.8000    94.9118    23.1704    22.1109
  361.9000    95.8099    23.1701    22.1109
  362.0000    97.6015    23.1698    22.1109
  362.1000    99.6428    23.1695    22.1109
  362.2000   101.1459    23.1378    22.0934
  362.3000   101.8963    23.0090    21.9584
  362.4000   102.1493    23.0087    21.9584
  362.5000   102.4024    23.0084    21.8575
  362.6000   103.0002    23.0081    21.8070
  362.7000   102.9982    23.0078    21.8070
  362.8000   102.9958    23.0074    21.8070
  362.9000   102.7515    23.0071    21.8070
  363.0000   102.3904    23.0068    21.8070
  363.1000   102.3880    23.0064    21.8070
  363.2000   102.3855    23.0062    21.8070
  363.3000   102.3832    23.0059    21.8070
  363.4000   102.3808    23.0055    21.8559
  363.5000   102.3784    23.0052    21.9584
  363.6000   102.3760    23.0049    21.9584
  363.7000   102.3111    23.0046    21.9584
  363.8000   102.0533    23.0043    21.9584
  363.9000   101.7679    23.0039    21.9584
