~VERSION INFORMATION
 VERS.                2.0:   CWLS LOG ASCII STANDARD - VERSION 2.0
 WRAP.                 NO:   ONE LINE PER DEPTH STEP
~WELL INFORMATION
#MNEM.UNIT      DATA TYPE    INFORMATION
#----------   ------------   ------------------------------
 STRT.F           32.0000:   START DEPTH
 STOP.F         1006.0000:   STOP DEPTH
 STEP.F            0.5000:   STEP LENGTH
 NULL.          -999.2500:   NO VALUE
 COMP. FENIX & SCISSON INC:   COMPANY
 WELL.        NPR-3 #54-2:   WELL
 FLD .             TEAPOT:   FIELD
 LOC .       S2 T38N R78W:   LOCATION
 CNTY.            NATRONA:   COUNTY
 STAT.            WYOMING:   STATE
 CTRY. UNITED STATES OF AMERICA:   COUNTRY
 SRVC.              Welex:   SERVICE COMPANY
 DATE.        08-SEP-1977:   LOGDATE
 API .       490251041600:   API NUMBER
~CURVE INFORMATION
#MNEM.UNIT       API CODE    CURVE DESCRIPTION
#----------   ------------   ------------------------------
 DEPT.F                  :   
 CALD.IN     45 280 60 00:   CALIPER FROM DENSITY LOG
 GRD .GAPI   45 310 01 00:   GAMMA RAY FROM DENSITY LOG
 CORR.G/C3   45 356 01 00:   DENSITY CORRECTION
 DPHI.DEC    45 890 12 00:   DENSITY POROSITY SANDSTONE
 RHOB.G/C3   45 350 01 00:   BULK DENSITY
 SPR .MV     07 010 01 00:   SPONTANEOUS POTENTIAL
 ILD .OHMM   07 120 46 00:   INDUCTION LOG DEEP
 ILM .OHMM   07 120 44 00:   INDUCTION LOG MEDIUM
 SGRD.OHMM   07 221 05 00:   SHALLOW SHORT GUARD RESISTIVITY
~PARAMETER INFORMATION
#MNEM.UNIT          VALUE    DESCRIPTION
#----------   ------------   ------------------------------
 PD  .                 GL:   PERMANENT DATUM
 EPD .F              5160:   ELEVATION PERMANENT DATUM
 LMF .                 KB:   LOG MEASURED FROM
 DAPD.F                10:   FEET ABOVE PERMANENT DATUM
 DMF .                 KB:   DRILLING MEASURED FROM
 EKB .F              5170:   KELLING BUSHING
 EGL .F              5160:   GROUND LEVEL
 DATE.        08-SEP-1977:   RUN DATE
 RUN .                  1:   RUN NUMBER
 DD  .F              1000:   DEPTH DRILLER
 DL  .F              1008:   DEPTH LOGGER
 BLI .F              1006:   BOTTOM LOG INTERVAL
 TLI .F                47:   TOP LOG INTERVAL
 CS  .IN            8.625:   CASING SIZE
 BS  .IN             6.75:   BIT SIZE
 BSD .F              1000:   BIT SIZE AT DEPTH
 DFT .            KCL MUD:   DRILLING FLUID TYPE
 DFD .                9.1:   DRILLING FLUID DENSITY
 BHT .F               100:   BOTTOM HOLE TEMPERATURE
 TCS .HRS            0230:   TIME CURCULATED STOPPED
 MRT .F               100:   MAXIMUM RECORDED TEMPERATURE
 ENGI.          D. LAWSON:   RECORDING ENGINEER
 WITN.         HARRINGTON:   WITNESSED BY
 CLNT.            A2DTECH:   CLIENT CODE
 ORIG.           5" PRINT:   ORIGIN OF DATA
 UWI .       490251041600:   UNIQUE WELL ID
 DICO. A2D Technologies, Inc.:   DIGITIZING COMPANY
~OTHER INFORMATION
~A   DEPT     CALD         GRD       CORR      DPHI         RHOB      SPR        ILD        ILM       SGRD   
# ...
  543.0000     6.9181    83.2253     0.0081     0.1268     2.4281   -41.3363     8.8894     9.3586    12.9936
  543.5000     6.9199    85.7902     0.0082     0.1295     2.4185   -41.3204     8.7745     9.0459    13.0037
  544.0000     6.9068    88.3552     0.0083     0.1324     2.4189   -41.3034     8.7213     8.8045    12.3941
  544.5000     6.9086    89.5749     0.0085     0.1315     2.4273   -41.2870     8.6683     8.7478    12.7522
  545.0000     6.9103    89.0009     0.0086     0.1261     2.4394   -41.2706     8.6758     8.9382    12.8487
  545.5000     6.9121    86.4837     0.0087     0.1204     2.4540   -41.1046     8.6228     9.1948    12.7680
  546.0000     6.8990    90.5434     0.0088     0.1162     2.4594   -41.0849     8.5707     9.4587    12.7759
  546.5000     6.9008    92.3610     0.0104     0.1189     2.4452   -41.2221     8.5778     9.6631    12.6165
  547.0000     6.9026    91.4880     0.0106     0.1227     2.4543   -41.3511     8.5255     9.7363    12.6048
  547.5000     6.9043    90.0171     0.0137     0.1188     2.4663   -41.3347     8.4739     9.6084    12.8815
  548.0000     6.9061    88.2473     0.0183     0.1143     2.4746   -41.4719     8.4809     9.3519    12.7140
  548.5000     6.9079    90.0649     0.0199     0.1104     2.4807   -41.4515     8.4293     9.1022    12.2906
  549.0000     6.9097    93.2278     0.0201     0.1068     2.4845   -41.4351     8.3375     8.9431    12.1284
  549.5000     6.9115    93.8436     0.0202     0.1058     2.4861   -41.4187     8.2111     8.7941    12.8314
  550.0000     6.9133    90.4355     0.0203     0.1062     2.4854   -41.5808     8.1057     8.7469    13.1107
  550.5000     6.9032    88.5162     0.0213     0.1070     2.4862   -41.8806     8.1133     8.6925    12.6741
  551.0000     6.8932    87.0453     0.0176     0.1069     2.4863   -41.9702     8.0620     8.6385    12.3372
  551.5000     6.8892    87.3681     0.0132     0.1069     2.4872   -41.7984     8.0124     8.6459    11.9263
  552.0000     6.8912    89.3352     0.0102     0.1069     2.4880   -41.7805     8.0200     8.6519    11.6071
  552.5000     6.8931    91.9001     0.0089     0.1068     2.4888   -41.7626     8.0261     8.6578    12.1110
  553.0000     6.8951    93.4128     0.0135     0.1068     2.4897   -41.8242     8.0322     8.6638    12.6343
  553.5000     6.8970    91.1408     0.0182     0.1070     2.4905   -41.9862     8.0383     8.6698    12.7294
  554.0000     6.9139    88.5358     0.0183     0.1079     2.4876   -42.1483     8.0444     8.7360    12.3910
  554.5000     6.9158    87.5133     0.0169     0.1117     2.4802   -42.2920     8.0505     8.7420    12.4027
  555.0000     6.9178    89.3309     0.0140     0.1144     2.4683   -42.4191     8.0566     8.7480    12.4121
  555.5000     6.9197    90.8436     0.0111     0.1167     2.4594   -42.4013     8.1187     8.6935    12.2506
  556.0000     6.9221    87.1365     0.0097     0.1188     2.4535   -42.5373     8.1248     8.6996    11.6776
  556.5000     6.9240    85.8092     0.0068     0.1203     2.4513   -42.6689     8.0748     8.7056    11.8516
  557.0000     6.9259    89.2770     0.0040     0.1208     2.4507   -42.6466     7.8604     8.6515    11.9430
  557.5000     6.9279    91.5430     0.0025     0.1202     2.4523   -42.7782     7.7047     8.5978    12.0351
  558.0000     6.9447    89.0258     0.0012     0.1174     2.4561   -42.9098     7.5521     8.4832    12.2122
  558.5000     6.9467    90.2455    -0.0017     0.1147     2.4622   -42.8919     7.3512     8.3746    12.2214
  559.0000     6.9636    92.3620    -0.0031     0.1171     2.4571   -43.0280     7.1563     8.3177    12.0620
  559.5000     6.9805    93.5817    -0.0060     0.1215     2.4399   -43.0056     7.0611     8.2138    11.5004
  560.0000     6.9824    94.2035    -0.0074     0.1251     2.4288   -42.9877     6.9715     8.0992    10.7390
  560.5000     6.9990    94.6758    -0.0072     0.1280     2.4266   -43.1238     6.9246     7.8823    10.3098
  561.0000     7.0012    95.8955    -0.0041     0.1268     2.4342   -43.1015     6.8811     7.5043    10.0357
  561.5000     7.0031    98.1555    -0.0010     0.1223     2.4493   -43.2375     6.7966     7.3224     9.9051
  562.0000     7.0051    86.9746     0.0037     0.1180     2.4628   -43.0657     6.8019     7.4308     9.7763
  562.5000     7.0070    83.7040     0.0098     0.1117     2.4742   -43.0478     6.8543     7.5919     9.7837
  563.0000     7.0089    89.7130     0.0174     0.1075     2.4877   -43.0300     6.9162     7.7030     9.8610
  563.5000     7.0258    90.3288     0.0266     0.1033     2.4991   -43.0121     7.1075     7.7618    10.6596
  564.0000     7.0278    86.7712     0.0327     0.0994     2.5089   -42.8447     7.2120     7.7672    11.5120
  564.5000     7.0297    84.7024     0.0343     0.0957     2.5187   -42.8269     7.3689     7.6644    12.0886
  565.0000     7.0316    82.0357     0.0284     0.0936     2.5197   -42.8090     7.5815     8.1639    11.6349
  565.5000     7.0336    78.3226     0.0240     0.0966     2.5077   -42.7911     7.7464     8.4571    10.5716
  566.0000     7.0201    75.2075     0.0226     0.1022     2.4958   -42.7732     7.8603     8.5809    10.4682
  566.5000     7.0225    69.6948     0.0212     0.1045     2.4869   -42.7553     7.9208     8.7064    11.5448
  567.0000     7.0244    77.3479     0.0229     0.1054     2.4832   -42.7375     7.9819     8.7729    11.7147
  567.5000     7.0264    93.0669     0.0230     0.1057     2.4818   -42.7196     8.0993     8.8399    11.7236
  568.0000     7.0283    94.8785     0.0262     0.1059     2.4826   -42.7017     8.0495     8.6045    14.6868
  568.5000     7.0302    87.7334     0.0278     0.1056     2.4842   -42.6838     7.8901     8.3176    18.6709
  569.0000     7.0322    82.8246     0.0279     0.1049     2.4881   -42.6660     7.6805     8.0961    13.5700
  569.5000     7.0187    81.7962     0.0295     0.1040     2.4919   -42.6481     7.5284     7.9903    10.5948
  570.0000     7.0061    87.5061     0.0296     0.1031     2.4972   -42.6302     7.3793     8.0513    10.4597
  570.5000     7.0081    91.2669     0.0298     0.1009     2.5018   -42.6123     7.2820     8.1128    10.3954
  571.0000     6.9946    89.9455     0.0314     0.1000     2.5034   -42.4450     7.2373     8.1748    10.4035
  571.5000     6.9970    88.3251     0.0345     0.1009     2.5012   -42.4271     7.2441     8.1804    10.4114
  572.0000     6.9835    85.3595     0.0376     0.1017     2.4983   -42.4092     7.2496     8.1860    10.5647
  572.5000     6.9859    82.6928     0.0408     0.1029     2.4947   -42.3913     7.2551     8.1338    10.8714
  573.0000     6.9879    81.2159     0.0424     0.1040     2.4918   -42.3735     7.2606     8.1408    11.8223
  573.5000     6.9898    81.5447     0.0440     0.1052     2.4881   -42.3556     7.2661     8.2030    12.3332
  574.0000     6.9917    82.6149     0.0456     0.1058     2.4845   -42.4872     7.2716     8.2086    12.4260
  574.5000     6.9937    83.9841     0.0427     0.1060     2.4808   -42.4693     7.2771     8.2713    11.3669
  575.0000     7.0105    85.6522     0.0384     0.1063     2.4779   -42.4514     7.2827     8.2770    11.2170
  575.5000     7.0424    87.3203     0.0354     0.1062     2.4840   -42.4335     7.3388     8.2827    11.7039
  576.0000     7.0593    88.9885     0.0296     0.1065     2.4908   -42.2661     7.3443     8.3459    12.3800
  576.5000     7.0612    90.6566     0.0237     0.1076     2.4879   -42.2421     7.3499     8.4681    12.2189
  577.0000     7.0631    92.0257     0.0178     0.1091     2.4752   -42.0807     7.3555     8.6516    11.5692
  577.5000     7.0651    93.6939     0.0119     0.1115     2.4701   -42.0528     7.3610     8.9006    11.1067
  578.0000     7.0520    95.0571     0.0090     0.1123     2.4748   -41.8954     7.3144     9.0935    10.7348
  578.5000     7.0390    89.8552     0.0076     0.1105     2.4785   -41.8774     7.3214     9.2907    11.2787
  579.0000     7.0260    87.7805     0.0062     0.1095     2.4809   -41.8585     7.3269     9.2971    11.2872
