~VERSION INFORMATION
 VERS.                2.0:   CWLS LOG ASCII STANDARD - VERSION 2.0
 WRAP.                 NO:   ONE LINE PER DEPTH STEP
~WELL INFORMATION
#MNEM.UNIT      DATA TYPE    INFORMATION
#----------   ------------   ------------------------------
 STRT.F            2.0000:   START DEPTH
 STOP.F          500.0000:   STOP DEPTH
 STEP.F            0.1000:   STEP LENGTH
 NULL.          -999.2500:   NO VALUE
 COMP.   FLUOR DANIEL INC:   COMPANY
 WELL.   73-5 X 10 #73-10:   WELL
 FLD .             TEAPOT:   FIELD
 LOC .      S10 T38N R78W:   LOCATION
 CNTY.            NATRONA:   COUNTY
 STAT.            WYOMING:   STATE
 CTRY. UNITED STATES OF AMERICA:   COUNTRY
 SRVC.      Western Atlas:   SERVICE COMPANY
 DATE.        07-JUN-1995:   LOGDATE
 API .       490252271400:   API NUMBER
~CURVE INFORMATION
#MNEM.UNIT       API CODE    CURVE DESCRIPTION
#----------   ------------   ------------------------------
 DEPT.F                  :   
 GRR .GAPI   07 310 01 00:   GAMMA RAY
 RILD.OHMM   07 120 46 00:   INDUCTION LOG DEEP RESISTIVITY
 RILM.OHMM   07 120 44 00:   RESITIVITY LONG MEDIUM
~PARAMETER INFORMATION
#MNEM.UNIT          VALUE    DESCRIPTION
#----------   ------------   ------------------------------
 PD  .                 GL:   PERMANENT DATUM
 EPD .F              5175:   ELEVATION PERMANENT DATUM
 LMF .                 KB:   LOG MEASURED FROM
 DAPD.F                10:   FEET ABOVE PERMANENT DATUM
 DMF .                 KB:   DRILLING MEASURED FROM
 EKB .F              5185:   KELLING BUSHING
 EDF .F              5184:   DRILLING FLOOR
 EGL .F              5175:   GROUND LEVEL
 DATE.        07-JUN-1995:   RUN DATE
 RUN .                  1:   RUN NUMBER
 DD  .F               511:   DEPTH DRILLER
 DL  .F               508:   DEPTH LOGGER
 BLI .F               500:   BOTTOM LOG INTERVAL
 TLI .F                96:   TOP LOG INTERVAL
 CS  .IN            9.625:   CASING SIZE
 CBD .F                96:   CASING BOTTOM DRILLER
 CBL .F                96:   CASING BOTTOM LOGGER
 BS  .IN             8.75:   BIT SIZE
 BSD .F               511:   BIT SIZE AT DEPTH
 DFT .                AIR:   DRILLING FLUID TYPE
 MRT .F               116:   MAXIMUM RECORDED TEMPERATURE
 LUN .            HL 6530:   LOGGING UNIT NUMBER
 LUL .             CASPER:   LOGGING UNIT LOCATION
 ENGI.        VERN RAUTIO:   RECORDING ENGINEER
 WITN.        GARY STRONG:   WITNESSED BY
 CLNT.            A2DTECH:   CLIENT CODE
 ORIG.           5" PRINT:   ORIGIN OF DATA
 UWI .       490252271400:   UNIQUE WELL ID
 DICO. A2D Technologies, Inc.:   DIGITIZING COMPANY
~OTHER INFORMATION
~A    DEPT       GRR     RILD       RILM   
# ...
  147.6000   127.6677     8.3435     8.1521
  147.7000   127.6693     8.3731     8.1526
  147.8000   127.6711     8.3735     8.1530
  147.9000   127.6729     8.3738     8.1535
  148.0000   127.6185     8.4207     8.1804
  148.1000   127.3753     8.4327     8.2110
  148.2000   127.3771     8.4331     8.2115
  148.3000   127.3789     8.4334     8.2120
  148.4000   127.2353     8.4401     8.2124
  148.5000   127.0813     8.4928     8.2471
  148.6000   127.0831     8.4932     8.2703
  148.7000   127.0850     8.4935     8.2708
  148.8000   126.8522     8.4939     8.2758
  148.9000   126.6058     8.4942     8.3292
  149.0000   126.3594     8.4946     8.3296
  149.1000   126.1886     8.4950     8.3301
  149.2000   126.1679     8.4953     8.3305
  149.3000   125.8912     8.4956     8.3310
  149.4000   125.6751     8.4960     8.3314
  149.5000   125.4287     8.4963     8.3320
  149.6000   125.2940     8.4967     8.3324
  149.7000   125.2958     8.4971     8.3328
  149.8000   125.2976     8.4575     8.3333
  149.9000   125.2997     8.4391     8.3338
  150.0000   125.3012     8.4394     8.3342
  150.1000   126.8972     8.4262     8.3347
  150.2000   127.4121     8.3818     8.3349
  150.3000   127.8803     8.3884     8.3353
  150.4000   128.3719     8.4408     8.3356
  150.5000   128.8634     8.4412     8.3774
  150.6000   129.2896     8.4415     8.3942
  150.7000   129.5359     8.4419     8.3945
  150.8000   129.8291     8.4422     8.3949
  150.9000   130.0287     8.4426     8.3952
  151.0000   130.4177     8.4429     8.3956
  151.1000   130.7361     8.4793     8.3959
  151.2000   130.7679     8.5023     8.3963
  151.3000   131.0399     8.5027     8.3966
  151.4000   131.0410     8.5031     8.3970
  151.5000   131.0422     8.5035     8.3973
  151.6000   130.9358     8.5038     8.3977
  151.7000   130.6918     8.5041     8.3980
  151.8000   130.4434     8.5045     8.3984
  151.9000   130.2038     8.4978     8.3987
  152.0000   129.7751     8.4465     8.3991
  152.1000   129.2859     8.4468     8.3994
  152.2000   128.8695     8.4471     8.3998
  152.3000   128.6088     8.4475     8.4001
  152.4000   128.0412     8.4478     8.4005
  152.5000   127.6305     8.4482     8.4008
  152.6000   127.2911     8.4485     8.3590
  152.7000   127.0472     8.4123     8.3436
  152.8000   126.8032     8.3909     8.3439
  152.9000   126.5411     8.3766     8.3352
  153.0000   126.3153     8.3336     8.2871
  153.1000   126.0713     8.3340     8.2874
  153.2000   125.8273     8.2944     8.2877
  153.3000   125.5834     8.2771     8.2881
  153.4000   125.3422     8.2775     8.2766
  153.5000   125.3434     8.2778     8.2316
  153.6000   125.1526     8.2782     8.2320
  153.7000   125.0446     8.2785     8.2323
  153.8000   125.1257     8.2461     8.2200
  153.9000   125.3482     8.2220     8.1974
  154.0000   125.3496     8.2223     8.1749
  154.1000   125.5637     8.2219     8.1523
  154.2000   125.9671     8.1761     8.1297
  154.3000   126.3576     8.1666     8.0934
  154.4000   126.6940     8.1413     8.0655
  154.5000   127.4639     8.1108     8.0658
  154.6000   128.4016     8.1067     8.0662
  154.7000   130.0961     8.0555     8.0665
  154.8000   131.6924     8.0558     8.0364
  154.9000   132.9194     8.0562     8.0116
  155.0000   134.1266     8.0565     8.0027
  155.1000   135.0014     8.0487     7.9570
  155.2000   135.4008     8.0015     7.9573
  155.3000   135.7492     8.0019     7.9249
  155.4000   135.9956     8.0022     7.8809
  155.5000   136.2108     8.0025     7.8489
  155.6000   136.2122     8.0029     7.8478
  155.7000   135.7727     8.0032     7.8043
  155.8000   135.2835     8.0036     7.7958
  155.9000   134.6861     8.0039     7.7715
  156.0000   133.8996     7.9784     7.7426
  156.1000   132.9048     7.9492     7.7389
  156.2000   131.9405     7.9444     7.6899
  156.3000   131.3317     7.8950     7.6533
  156.4000   130.8426     7.8953     7.6375
  156.5000   130.4267     7.8666     7.6211
  156.6000   130.1999     7.8415     7.5854
  156.7000   130.2014     7.8331     7.5858
  156.8000   130.2024     7.7880     7.5470
  156.9000   130.2036     7.7460     7.5052
  157.0000   130.2992     7.7028     7.4635
  157.1000   130.5456     7.6598     7.4311
  157.2000   130.8097     7.6170     7.4315
  157.3000   131.0383     7.5745     7.3909
  157.4000   131.1133     7.5246     7.3499
  157.5000   131.2299     7.4902     7.3302
  157.6000   131.4169     7.4485     7.3191
  157.7000   131.4181     7.4069     7.2784
  157.8000   131.4193     7.3655     7.2304
  157.9000   131.4205     7.3204     7.1979
  158.0000   131.4217     7.2836     7.1580
  158.1000   131.4229     7.2430     7.1183
  158.2000   131.3996     7.2026     7.0788
  158.3000   131.1243     7.1624     7.0345
  158.4000   131.1253     7.1217     7.0005
  158.5000   130.9689     7.0436     6.9616
  158.6000   130.3185     6.9945     6.9075
  158.7000   129.0936     6.9555     6.8435
  158.8000   127.8169     6.9167     6.8438
  158.9000   126.8791     6.8781     6.8084
  159.0000   125.8996     6.8334     6.7706
  159.1000   124.9201     6.8016     6.7331
  159.2000   123.9406     6.7636     6.6957
  159.3000   122.9612     6.7259     6.6584
  159.4000   121.8002     6.6883     6.6586
  159.5000   121.2018     6.6479     6.6306
  159.6000   120.4675     6.6139     6.6133
  159.7000   119.9086     6.5770     6.6028
  159.8000   119.6647     6.5403     6.5661
  159.9000   119.3965     6.5038     6.5232
  160.0000   119.6185     6.4675     6.4935
  160.1000   119.7000     6.4678     6.4788
  160.2000   119.9189     6.4400     6.4790
  160.3000   120.3576     6.4236     6.4793
  160.4000   120.6072     6.4127     6.4796
  160.5000   121.3343     6.3798     6.4478
  160.6000   121.8851     6.3801     6.4354
  160.7000   122.5066     6.3803     6.4357
  160.8000   123.2434     6.3806     6.4359
  160.9000   123.9622     6.3809     6.4362
  161.0000   124.5303     6.3811     6.4365
  161.1000   124.9454     6.3814     6.4367
  161.2000   125.5880     6.3817     6.4370
  161.3000   126.1347     6.4074     6.4373
  161.4000   126.3811     6.4266     6.4375
  161.5000   126.6447     6.4358     6.4378
  161.6000   126.8739     6.4718     6.4381
  161.7000   127.1203     6.4721     6.4579
  161.8000   127.2506     6.5012     6.4833
  161.9000   127.2518     6.5382     6.4836
  162.0000   127.2570     6.5754     6.4839
  162.1000   127.5034     6.6128     6.5146
  162.2000   127.5566     6.6554     6.5515
  162.3000   127.5578     6.6557     6.5750
  162.4000   127.5590     6.6800     6.5802
  162.5000   127.5602     6.7025     6.6213
  162.6000   127.5616     6.7096     6.6215
  162.7000   127.5627     6.7497     6.6218
  162.8000   127.7221     6.7863     6.6380
  162.9000   127.8663     6.7972     6.6756
  163.0000   127.9136     6.8164     6.7149
  163.1000   128.1699     6.8552     6.7514
  163.2000   128.4064     6.8929     6.7621
  163.3000   128.6528     6.8933     6.7810
  163.4000   129.0225     6.9248     6.8194
  163.5000   129.4468     6.9642     6.8572
  163.6000   129.7044     6.9903     6.8575
  163.7000   130.2858     6.9951     6.8881
  163.8000   130.4871     7.0395     6.9271
  163.9000   130.8779     7.0750     6.9663
  164.0000   131.2811     7.1153     7.0025
  164.1000   131.5275     7.1386     7.0028
  164.2000   131.7977     7.1469     7.0031
  164.3000   131.7988     7.1889     7.0275
  164.4000   131.9655     7.1892     7.0523
  164.5000   132.1024     7.2195     7.0583
  164.6000   132.1036     7.2398     7.1019
  164.7000   132.1048     7.2401     7.1385
  164.8000   132.1060     7.2424     7.1518
  164.9000   131.9207     7.2911     7.1698
  165.0000   131.8072     7.2913     7.2020
  165.1000   131.7339     7.3160     7.2023
  165.2000   131.4899     7.3426     7.2419
  165.3000   131.2086     7.3429     7.2529
  165.4000   130.7944     7.3433     7.2737
  165.5000   130.4568     7.3810     7.3039
  165.6000   130.2128     7.3949     7.3055
  165.7000   129.9689     7.3952     7.3469
