~VERSION INFORMATION
 VERS.                2.0:   CWLS LOG ASCII STANDARD - VERSION 2.0
 WRAP.                 NO:   ONE LINE PER DEPTH STEP
~WELL INFORMATION
#MNEM.UNIT      DATA TYPE    INFORMATION
#----------   ------------   ------------------------------
 STRT.F           33.5000:   START DEPTH
 STOP.F          680.0000:   STOP DEPTH
 STEP.F            0.5000:   STEP LENGTH
 NULL.          -999.2500:   NO VALUE
 COMP. FENIX & SCISSON INC:   COMPANY
 WELL.       NPR 3 #66-34:   WELL
 FLD .             TEAPOT:   FIELD
 LOC .      S34 T39N R78W:   LOCATION
 CNTY.            NATRONA:   COUNTY
 STAT.            WYOMING:   STATE
 CTRY. UNITED STATES OF AMERICA:   COUNTRY
 SRVC.           BIRDWELL:   SERVICE COMPANY
 DATE.        12-AUG-1978:   LOGDATE
 API .       490251068400:   API NUMBER
~CURVE INFORMATION
#MNEM.UNIT       API CODE    CURVE DESCRIPTION
#----------   ------------   ------------------------------
 DEPT.F                  :   
 SPR .MV     05 010 01 00:   SPONTANEOUS POTENTIAL FROM RES.
 SN  .OHMM   05 040 16 00:   SHORT NORMAL 16"
 IL  .OHMM   05 120 00 00:   INDUCTION LOG
 CORR.G/C3   45 356 01 00:   DENSITY CORRECTION
 GRD .GAPI   45 310 01 00:   GAMMA RAY FROM DENSITY LOG
 RHOB.G/C3   45 350 01 00:   BULK DENSITY
 DPHI.DEC    45 890 12 00:   DENSITY POROSITY SANDSTONE
 CALD.IN     45 280 60 00:   CALIPER
~PARAMETER INFORMATION
#MNEM.UNIT          VALUE    DESCRIPTION
#----------   ------------   ------------------------------
 PD  .                 GL:   PERMANENT DATUM
 EPD .F              5078:   ELEVATION PERMANENT DATUM
 LMF .                 KB:   LOG MEASURED FROM
 DAPD.F                 4:   FEET ABOVE PERMANENT DATUM
 DMF .                 KB:   DRILLING MEASURED FROM
 EKB .F              5082:   KELLING BUSHING
 EGL .F              5078:   GROUND LEVEL
 DATE.            8-12-78:   RUN DATE
 RUN .                  1:   RUN NUMBER
 DD  .F               675:   DEPTH DRILLER
 DL  .F               686:   DEPTH LOGGER
 BLI .F               680:   BOTTOM LOG INTERVAL
 TLI .F                50:   TOP LOG INTERVAL
 CS  .IN            8.625:   CASING SIZE
 CBD .F                40:   CASING BOTTOM DRILLER
 BS  .IN            7.875:   BIT SIZE
 BSD .F               675:   BIT SIZE AT DEPTH
 DFT .                KCL:   DRILLING FLUID TYPE
 DFL .               10.4:   DRILLING FLUID LOSS
 MSS .          FLOW LINE:   MUD SAMPLE SOURCE
 RMS .OHMM            .18:   RESISTIVITY MUD SAMPLE
 MST .F                90:   MUD SAMPLE TEMPERATURE
 RMF .OHMM            .16:   RESISTIVITY MUD FILTRATE SAMPLE
 MFST.F                90:   MUD FILTRATE SAMPLE TEMPERATURE
 RMC .OHMM            .32:   RESISTIVITY MUD CAKE
 MCST.F                90:   MUD CAKE SAMPLE TEMPERATURE
 MFSS.               MEAS:   MUD FILTRATE SAMPLE SOURCE
 TCS .HRS               3:   TIME CURCULATED STOPPED
 LUN .               3006:   LOGGING UNIT NUMBER
 LUL .               CASP:   LOGGING UNIT LOCATION
 ENGI.             MILLER:   RECORDING ENGINEER
 WITN.           MCGINLEY:   WITNESSED BY
 CLNT.            A2DTECH:   CLIENT CODE
 ORIG.           5" PRINT:   ORIGIN OF DATA
 UWI .       490251068400:   UNIQUE WELL ID
 DICO. A2D Technologies, Inc.:   DIGITIZING COMPANY
~OTHER INFORMATION
~A   DEPT      SPR         SN         IL       CORR         GRD      RHOB       DPHI       CALD   
# ...
  479.0000   -51.5889     5.2816     4.4559     0.0083   103.8083     2.4556     0.1323     7.8696
  479.5000   -51.4472     5.2816     4.2605     0.0071   105.4495     2.4489     0.1412     7.8809
  480.0000   -51.3049     5.2512     4.0736     0.0077   110.9064     2.4315     0.1516     7.8926
  480.5000   -51.1616     5.1096     3.9009     0.0100   113.3462     2.4141     0.1620     7.8990
  481.0000   -51.2317     4.9718     3.9406     0.0129   111.2242     2.3976     0.1725     7.8701
  481.5000   -51.4676     4.8377     3.9785     0.0275   111.2739     2.3948     0.1742     7.8443
  482.0000   -51.3286     4.7305     4.0098     0.0426   111.8029     2.4133     0.1543     7.8739
  482.5000   -51.1178     4.8347     3.9893     0.0406   110.5346     2.4361     0.1386     7.9054
  483.0000   -50.9133     4.9075     3.9732     0.0171   110.1154     2.4593     0.1229     7.9367
  483.5000   -51.1933     4.8626     4.0478     0.0136   112.1349     2.4823     0.1157     7.9623
  484.0000   -51.4885     5.1941     4.4189     0.0203   114.3555     2.4981     0.1105     7.9389
  484.5000   -51.3946     5.7895     4.8260     0.0186   115.1436     2.4956     0.1094     7.9150
  485.0000   -51.3097     5.6958     5.0446     0.0165   111.8383     2.4972     0.1088     7.9092
  485.5000   -51.4887     5.5464     5.1972     0.0144   108.4424     2.4953     0.1128     7.9233
  486.0000   -51.6717     5.4792     5.3303     0.0123   107.7787     2.4859     0.1170     7.9375
  486.5000   -51.5280     5.5850     5.3799     0.0106   114.8532     2.4763     0.1212     7.9516
  487.0000   -51.3090     5.6812     4.9423     0.0121   115.6529     2.4730     0.1240     7.9581
  487.5000   -51.0889     5.7366     4.6415     0.0136   114.8955     2.4736     0.1235     7.9373
  488.0000   -50.8835     5.5435     4.3955     0.0128   110.7309     2.4745     0.1308     7.9173
  488.5000   -50.8045     5.4124     4.3155     0.0091   106.7042     2.4594     0.1433     7.8974
  489.0000   -50.7210     5.2845     4.3155     0.0099   104.0366     2.4423     0.1522     7.8775
  489.5000   -50.6371     5.1596     4.3155     0.0215   104.4249     2.4316     0.1346     7.8611
  490.0000   -50.5532     5.0911     4.3155     0.0305   107.1042     2.4692     0.1160     7.8560
  490.5000   -50.4693     5.1549     4.3155     0.0256   109.7715     2.4893     0.1140     7.8508
  491.0000   -50.3855     5.2121     4.3335     0.0209   109.8107     2.5102     0.1030     7.8459
  491.5000   -50.3016     5.4076     4.4831     0.0161   104.7273     2.5131     0.0975     7.8518
  492.0000   -50.2177     5.6482     4.8470     0.0113   103.1160     2.5094     0.1028     7.8750
  492.5000   -50.1338     5.9001     5.2395     0.0086    98.1457     2.5031     0.1062     7.8983
  493.0000   -50.0496     6.1600     5.7942     0.0070   100.6938     2.5022     0.1066     7.9209
  493.5000   -49.9659     6.3043     5.7872     0.0098   105.6046     2.5039     0.1057     7.8930
  494.0000   -49.9118     6.3424     5.8732     0.0124   109.3609     2.5019     0.1071     7.8640
  494.5000   -49.9866     6.3829     5.8975     0.0094   108.0910     2.4991     0.1104     7.8835
  495.0000   -50.0586     6.4238     5.8650     0.0070   109.4860     2.4998     0.1086     7.9046
  495.5000   -50.1305     6.4649     5.8425     0.0096   110.3036     2.5039     0.1057     7.9188
  496.0000   -50.2020     6.5234     5.8202     0.0121   104.0438     2.5081     0.1028     7.8872
  496.5000   -50.2751     6.4962     5.7895     0.0145   103.3344     2.5078     0.1017     7.8568
  497.0000   -50.2463     6.4480     5.7991     0.0165   102.1082     2.5012     0.1044     7.8295
  497.5000   -50.1643     6.4050     5.8145     0.0148   100.6698     2.5030     0.1041     7.8023
  498.0000   -50.0808     6.4208     5.8300     0.0111   104.3707     2.5035     0.1069     7.7750
  498.5000   -49.9970     6.4354     5.8427     0.0074   106.0088     2.4997     0.1108     7.7534
  499.0000   -49.9092     6.4501     5.8267     0.0045   103.4891     2.4961     0.1102     7.7360
  499.5000   -50.0429     6.4638     5.8127     0.0063   100.1787     2.4951     0.1091     7.7262
  500.0000   -50.2168     6.4640     5.7987     0.0116    99.4105     2.4997     0.1069     7.7426
  500.5000   -50.3875     6.4640     5.7897     0.0176   105.1989     2.5042     0.1037     7.7583
  501.0000   -50.4267     6.4641     5.7894     0.0236   109.3826     2.5086     0.1006     7.7738
  501.5000   -50.2174     6.4645     5.7909     0.0296   106.9989     2.5120     0.0976     7.7827
  502.0000   -50.1618     6.4296     5.7878     0.0288   104.0331     2.5128     0.0988     7.7678
  502.5000   -50.3048     6.3889     5.9800     0.0266   101.0651     2.5086     0.1022     7.7356
  503.0000   -50.4464     6.3464     6.1747     0.0297    98.1552     2.5037     0.1056     7.7035
  503.5000   -50.5884     6.3051     6.1739     0.0333    96.8846     2.5000     0.1066     7.6715
  504.0000   -50.7030     6.2622     6.2309     0.0361    96.0817     2.5007     0.1020     7.6394
  504.5000   -50.7020     6.2309     5.7324     0.0299    95.5221     2.4994     0.1095     7.6324
  505.0000   -50.6962     6.2941     5.3549     0.0251    95.5485     2.4864     0.1249     7.6350
  505.5000   -50.5699     6.3464     5.0035     0.0275    96.3545     2.4675     0.1372     7.6104
  506.0000   -50.0902     6.0885     4.8171     0.0301    97.8796     2.4458     0.1461     7.5857
  506.5000   -48.9380     5.8319     4.9191     0.0238   103.0238     2.4063     0.1861     7.6106
  507.0000   -48.1029     5.5855     5.0462     0.0292   109.4344     2.3715     0.1866     7.6414
  507.5000   -47.6976     5.3286     5.1855     0.0596   115.5979     2.4041     0.1525     7.6719
  508.0000   -46.8472     5.3562     5.0937     0.0695   116.1263     2.4556     0.1278     7.6522
  508.5000   -45.9013     5.4792     4.9985     0.0434   103.6947     2.5063     0.1067     7.5799
  509.0000   -44.9550     5.9644     5.0446     0.0443    95.0442     2.5337     0.0886     7.5640
  509.5000   -43.9937     6.4853     5.6743     0.0443    94.5231     2.5339     0.0890     7.5800
  510.0000   -43.4275     7.0493     6.3444     0.0423    96.1336     2.5282     0.0902     7.6233
  510.5000   -43.4564     7.5637     7.0937     0.0465    99.4833     2.5275     0.0916     7.6660
  511.0000   -43.6826     7.7961     7.5617     0.0513   102.8420     2.5329     0.0919     7.7089
  511.5000   -43.8879     7.8402     7.6962     0.0529   100.6848     2.5249     0.0947     7.7431
  512.0000   -43.7623     7.7240     7.5299     0.0488    96.8558     2.5162     0.0982     7.7141
  512.5000   -42.7984     7.6260     7.4186     0.0496    94.0283     2.5134     0.1010     7.6850
  513.0000   -41.4873     7.7180     7.5552     0.0511    95.0735     2.5103     0.1025     7.6557
  513.5000   -40.5352     7.8388     7.8388     0.0515    96.4523     2.5059     0.1036     7.6704
  514.0000   -39.8573     8.1347     8.3529     0.0462    96.8982     2.5013     0.1076     7.7169
  514.5000   -39.2083     8.4319     8.8826     0.0409    97.1239     2.4955     0.1134     7.7034
  515.0000   -38.3660     8.7400     9.4464     0.0399    96.6419     2.4852     0.1196     7.6851
  515.5000   -37.5060     9.0592    10.0457     0.0426    86.8649     2.4754     0.1304     7.7031
  516.0000   -36.3966     9.3902    10.6830     0.0405    76.2023     2.4554     0.1449     7.7219
  516.5000   -35.2015     9.7333    11.3608     0.0310    65.6668     2.4200     0.1625     7.6753
  517.0000   -34.2736    10.0889    11.9095     0.0266    64.8712     2.3833     0.1839     7.6157
  517.5000   -34.1306    10.4574    12.1009     0.0331    65.5339     2.3639     0.1902     7.6349
  518.0000   -33.9732    10.6751    12.2954     0.0521    63.1600     2.3697     0.1850     7.6780
  518.5000   -33.3158    10.7756    12.4066     0.0670    61.6402     2.3792     0.1766     7.6359
  519.0000   -32.2713    10.8806    12.2598     0.0768    60.8617     2.3831     0.1769     7.5763
