~VERSION INFORMATION
 VERS.                2.0:   CWLS LOG ASCII STANDARD - VERSION 2.0
 WRAP.                 NO:   ONE LINE PER DEPTH STEP
~WELL INFORMATION
#MNEM.UNIT      DATA TYPE    INFORMATION
#----------   ------------   ------------------------------
 STRT.F           34.0000:   START DEPTH
 STOP.F          582.0000:   STOP DEPTH
 STEP.F            0.5000:   STEP LENGTH
 NULL.          -999.2500:   NO VALUE
 COMP. FENIX & SCISSON INC:   COMPANY
 WELL. NPR 3 SX-33 #88-33:   WELL
 FLD .             TEAPOT:   FIELD
 LOC .      S33 T39N R78W:   LOCATION
 CNTY.            NATRONA:   COUNTY
 STAT.            WYOMING:   STATE
 CTRY. UNITED STATES OF AMERICA:   COUNTRY
 SRVC.           BIRDWELL:   SERVICE COMPANY
 DATE.        04-AUG-1978:   LOGDATE
 API .       490251068000:   API NUMBER
~CURVE INFORMATION
#MNEM.UNIT       API CODE    CURVE DESCRIPTION
#----------   ------------   ------------------------------
 DEPT.F                  :   
 SPR .MV     05 010 01 00:   SPONTANEOUS POTENTIAL FROM RES.
 ILD .OHMM   05 120 46 00:   INDUCTION LOG DEEP
 SN  .OHMM   05 040 16 00:   SHORT NORMAL 16"
 CALD.IN     45 280 60 00:   CALIPER
 GRD .GAPI   45 310 01 00:   GAMMA RAY FROM DENSITY LOG
 DEN .G/C3   45 350 01 00:   COMPENSATED BULK DENSTIY
 CORR.G/C3   45 356 01 00:   DENSITY CORRECTION
 DPHI.DEC    45 890 12 00:   DENSITY POROSITY SANDSTONE
~PARAMETER INFORMATION
#MNEM.UNIT          VALUE    DESCRIPTION
#----------   ------------   ------------------------------
 PD  .                 GL:   PERMANENT DATUM
 EPD .F              5146:   ELEVATION PERMANENT DATUM
 LMF .                 KB:   LOG MEASURED FROM
 DAPD.F                 4:   FEET ABOVE PERMANENT DATUM
 DMF .                 KB:   DRILLING MEASURED FROM
 EKB .F              5150:   KELLING BUSHING
 EGL .F              5146:   GROUND LEVEL
 DATE.             8-4-78:   RUN DATE
 RUN .                  1:   RUN NUMBER
 DD  .F               570:   DEPTH DRILLER
 DL  .F               588:   DEPTH LOGGER
 BLI .F               582:   BOTTOM LOG INTERVAL
 TLI .F                50:   TOP LOG INTERVAL
 CS  .IN            8.625:   CASING SIZE
 CBD .F                40:   CASING BOTTOM DRILLER
 BS  .IN            7.875:   BIT SIZE
 BSD .F               570:   BIT SIZE AT DEPTH
 DFT .                KCL:   DRILLING FLUID TYPE
 DFD .                8.7:   DRILLING FLUID DENSITY
 DFV .                 34:   DRILLING FLUID VISCOSITY
 DFPH.                  9:   DRILLING FLUID PH
 DFL .                9.6:   DRILLING FLUID LOSS
 MSS .          FLOW LINE:   MUD SAMPLE SOURCE
 RMS .OHMM            .24:   RESISTIVITY MUD SAMPLE
 MST .F                70:   MUD SAMPLE TEMPERATURE
 RMF .OHMM            .24:   RESISTIVITY MUD FILTRATE SAMPLE
 MFST.F                80:   MUD FILTRATE SAMPLE TEMPERATURE
 RMC .OHMM             .3:   RESISTIVITY MUD CAKE
 MCST.F                75:   MUD CAKE SAMPLE TEMPERATURE
 MFSS.               MEAS:   MUD FILTRATE SAMPLE SOURCE
 TCS .HRS               2:   TIME CURCULATED STOPPED
 LUN .               3006:   LOGGING UNIT NUMBER
 LUL .               CASP:   LOGGING UNIT LOCATION
 ENGI.             MILLER:   RECORDING ENGINEER
 WITN.           MCGINLEY:   WITNESSED BY
 CLNT.            A2DTECH:   CLIENT CODE
 ORIG.        2" 5" PRINT:   ORIGIN OF DATA
 UWI .       490251068000:   UNIQUE WELL ID
 DICO. A2D Technologies, Inc.:   DIGITIZING COMPANY
~OTHER INFORMATION
~A   DEPT      SPR        ILD         SN       CALD         GRD       DEN       CORR       DPHI   
# ...
  277.0000   -25.5831     8.6344     8.3238     7.8594    97.2177     2.4747     0.0107     0.1206
  277.5000   -25.7003     8.7514     8.3525     7.9527    99.4550     2.4770     0.0133     0.1186
  278.0000   -25.8652     8.7453     8.3814     7.9512    97.3961     2.4797     0.0159     0.1188
  278.5000   -26.0027     8.7392     8.4103     7.9055    94.7724     2.4805     0.0142     0.1191
  279.0000   -26.0192     8.7331     8.4349     7.8428    94.7057     2.4805     0.0117     0.1181
  279.5000   -26.0377     8.7271     8.4206     7.7803    96.1727     2.4804     0.0091     0.1113
  280.0000   -26.0565     8.7210     8.4063     7.7621    97.5867     2.4873     0.0111     0.1045
  280.5000   -26.0754     8.7149     8.3920     7.7496    99.9478     2.5145     0.0168     0.0977
  281.0000   -26.0942     8.7089     8.3777     7.7372    98.8766     2.5214     0.0226     0.0937
  281.5000   -26.1130     8.7028     8.3635     7.7246   100.8384     2.5215     0.0261     0.0948
  282.0000   -26.1318     8.6968     8.3493     7.7121   101.1543     2.5084     0.0171     0.1144
  282.5000   -26.1506     8.6907     8.3351     7.7060    96.9425     2.4920     0.0012     0.1150
  283.0000   -26.1699     8.6845     8.3210     7.7013    94.4654     2.4867    -0.0126     0.1146
  283.5000   -26.1855     8.6783     8.3068     7.6965    92.6114     2.4986     0.0005     0.1055
  284.0000   -26.4093     8.6721     8.2927     7.6917    90.8722     2.5130     0.0170     0.0886
  284.5000   -26.7385     8.5534     8.2407     7.6870    93.2165     2.5275     0.0231     0.0787
  285.0000   -27.0299     8.4235     8.1017     7.6822    97.3059     2.5344     0.0210     0.1072
  285.5000   -27.1828     8.2955     7.9651     7.6775    97.5316     2.5158     0.0102     0.1085
  286.0000   -27.3365     8.1695     7.8308     7.6724    94.3138     2.4902    -0.0152     0.1092
  286.5000   -27.4529     8.0454     7.6988     7.6520    91.3839     2.4889     0.0027     0.1101
  287.0000   -27.5494     7.9232     7.5690     7.6051    93.5209     2.4879     0.0334     0.1110
  287.5000   -27.6459     7.7597     7.3846     7.5487    97.7065     2.4869     0.0366     0.1119
  288.0000   -27.7425     7.5015     7.1986     7.5266    99.0881     2.4860     0.0379     0.1158
  288.5000   -27.8390     7.2520     7.0173     7.5181    98.8078     2.4798     0.0391     0.1262
  289.0000   -27.9356     7.0107     6.7989     7.5099    98.6380     2.4709     0.0382     0.1365
  289.5000   -28.0322     6.7286     6.4938     7.5018   101.3257     2.4534     0.0308     0.1468
  290.0000   -28.1288     6.4111     6.1885     7.4936    99.2771     2.4306     0.0181     0.1576
  290.5000   -28.2254     6.1094     5.7807     7.4854    96.0041     2.4077     0.0064     0.1683
  291.0000   -28.3221     5.8218     5.3997     7.4772    95.2196     2.3905     0.0039     0.1789
  291.5000   -28.4193     5.3122     5.0439     7.4690    98.4595     2.3747     0.0046     0.1915
  292.0000   -28.5148     4.5188     4.7115     7.4607    95.6726     2.3529     0.0049     0.2056
  292.5000   -28.5425     3.7602     4.4010     7.4523    94.3545     2.3302     0.0053     0.2251
  293.0000   -28.3316     3.3370     4.1109     7.4530    96.3048     2.3076     0.0057     0.2401
  293.5000   -28.0200     3.0443     3.7755     7.5277    97.7735     2.2855     0.0071     0.2528
  294.0000   -27.2940     2.8028     3.4093     7.6458    95.2566     2.2617     0.0126     0.2595
  294.5000   -26.6342     2.7276     3.2759     7.5381    92.8112     2.2406     0.0178     0.2603
  295.0000   -26.5268     2.7353     3.2758     7.3888    94.2094     2.2389     0.0232     0.2483
  295.5000   -26.4597     2.7450     3.2480     7.4013    96.3579     2.2574     0.0313     0.2258
  296.0000   -26.3866     2.7518     3.3426     7.4188    97.4168     2.3166     0.0430     0.1915
  296.5000   -26.2151     2.9191     3.5438     7.4464    94.5952     2.3589     0.0545     0.1953
  297.0000   -26.0462     3.2222     3.7949     7.4801    92.3407     2.3491     0.0491     0.2009
  297.5000   -25.9729     3.6785     4.1597     7.7078    92.1950     2.3405     0.0126     0.2010
  298.0000   -25.9388     4.1994     4.5598     7.5378    94.2123     2.3579     0.0010     0.1475
  298.5000   -25.9052     4.7746     4.9985     7.8610    96.1906     2.4349     0.0612     0.1243
  299.0000   -25.8715     5.2340     5.4792     7.6617    98.1567     2.4582     0.0500     0.1207
  299.5000   -25.8377     5.7367     5.9679     7.6297   100.1247     2.4706     0.0391     0.1203
  300.0000   -25.8039     6.2884     6.4824     7.6611   101.9162     2.4786     0.0351     0.1199
  300.5000   -25.7701     6.4544     6.6754     7.7047   103.4936     2.4772     0.0338     0.1192
  301.0000   -25.7364     6.5256     6.7372     7.7489   105.1825     2.4793     0.0325     0.1177
  301.5000   -25.7026     6.5977     6.7996     7.7930   107.1453     2.4893     0.0344     0.1159
  302.0000   -25.6688     6.6705     6.8572     7.8371   108.3078     2.4977     0.0391     0.1142
  302.5000   -25.6350     6.7059     6.8931     7.8807   105.7672     2.4945     0.0432     0.1134
  303.0000   -25.6013     6.6199     6.8685     7.9105   102.8642     2.4849     0.0399     0.1159
  303.5000   -25.5675     6.5440     6.8502     7.9099   102.9991     2.4775     0.0369     0.1195
  304.0000   -25.5337     6.4690     6.8304     7.9100   107.0342     2.4708     0.0340     0.1249
  304.5000   -25.5000     6.3949     6.7333     7.9100   103.0700     2.4620     0.0311     0.1336
  305.0000   -25.4662     6.2264     6.6310     7.9100   103.1007     2.4496     0.0301     0.1423
  305.5000   -25.4324     5.8853     6.4401     7.9100   103.9163     2.4373     0.0310     0.1511
  306.0000   -25.3987     5.5635     6.1829     7.9100   106.1077     2.4249     0.0320     0.1599
  306.5000   -25.3649     5.2558     5.9356     7.9100   106.0892     2.4124     0.0358     0.1625
  307.0000   -25.3311     5.1127     5.6983     7.9101   104.0016     2.4081     0.0455     0.1491
  307.5000   -25.2973     5.0154     5.4688     7.9096   103.8836     2.4337     0.0684     0.1330
  308.0000   -25.2636     4.9215     5.3278     7.9121   105.9183     2.4578     0.0891     0.1295
  308.5000   -25.2298     4.8626     5.3308     8.2967   104.4533     2.4671     0.0718     0.1285
  309.0000   -25.1960     4.9514     5.5163     7.8337   107.3080     2.4658     0.0637     0.1205
  309.5000   -25.1623     5.1990     5.7601     7.8239   104.8145     2.4777     0.0694     0.1128
  310.0000   -25.1285     5.4591     6.0148     7.8016   102.1280     2.4999     0.0759     0.1056
  310.5000   -25.0947     5.7366     6.2804     7.7872   103.3221     2.5216     0.0825     0.0985
  311.0000   -25.0607     6.0419     6.5578     7.7813   101.0868     2.5241     0.0880     0.0930
  311.5000   -25.0271     6.3687     6.8474     7.7754   103.3011     2.5183     0.0881     0.0938
  312.0000   -25.0126     6.7167     7.1513     7.7695   106.4116     2.5144     0.0771     0.0967
  312.5000   -25.0899     7.0987     7.4884     7.7635   104.9311     2.5148     0.0659     0.0972
  313.0000   -25.1656     7.4870     7.8388     7.7576   106.5485     2.5164     0.0645     0.0966
  313.5000   -25.2411     7.6258     7.8469     7.7517   109.3935     2.5176     0.0632     0.0994
  314.0000   -25.3166     7.6766     7.8603     7.7457   102.4074     2.5135     0.0619     0.1033
  314.5000   -25.3921     7.6962     7.8738     7.7398   102.1352     2.5080     0.0566     0.1072
  315.0000   -25.4676     7.6771     7.8872     7.7338   104.1530     2.5024     0.0508     0.1103
  315.5000   -25.5430     7.6464     7.9007     7.7203   105.8285     2.4969     0.0450     0.1112
  316.0000   -25.6185     7.6158     7.9111     7.6913   102.3334     2.4913     0.0391     0.1134
  316.5000   -25.6939     7.5854     7.8768     7.6626   103.4373     2.4857     0.0381     0.1158
  317.0000   -25.7704     7.5561     7.8489     7.6214   105.0277     2.4841     0.0391     0.1158
