~VERSION INFORMATION
 VERS.                2.0:   CWLS LOG ASCII STANDARD - VERSION 2.0
 WRAP.                 NO:   ONE LINE PER DEPTH STEP
~WELL INFORMATION
#MNEM.UNIT      DATA TYPE    INFORMATION
#----------   ------------   ------------------------------
 STRT.F           46.0000:   START DEPTH
 STOP.F          472.0000:   STOP DEPTH
 STEP.F            0.5000:   STEP LENGTH
 NULL.          -999.2500:   NO VALUE
 COMP. BROWN JOHN E&C INC:   COMPANY
 WELL. NPR 3 SX10 1 #63-10:   WELL
 FLD .             TEAPOT:   FIELD
 LOC .      S10 T38N R78W:   LOCATION
 CNTY.            NATRONA:   COUNTY
 STAT.            WYOMING:   STATE
 CTRY. UNITED STATES OF AMERICA:   COUNTRY
 SRVC.       Schlumberger:   SERVICE COMPANY
 DATE.        01-OCT-1990:   LOGDATE
 API .       490251132000:   API NUMBER
~CURVE INFORMATION
#MNEM.UNIT       API CODE    CURVE DESCRIPTION
#----------   ------------   ------------------------------
 DEPT.F                  :   
 GRR .GAPI   07 310 01 00:   GAMMA RAY
 ILD .OHMM   07 120 46 00:   INDUCTION LOG DEEP
 ILM .OHMM   07 120 44 00:   INDUCTION LOG MEDIUM
~PARAMETER INFORMATION
#MNEM.UNIT          VALUE    DESCRIPTION
#----------   ------------   ------------------------------
 PD  .                 GL:   PERMANENT DATUM
 EPD .F            5182.0:   ELEVATION PERMANENT DATUM
 LMF .                 KB:   LOG MEASURED FROM
 DAPD.F              10.0:   FEET ABOVE PERMANENT DATUM
 DMF .                 KB:   DRILLING MEASURED FROM
 EKB .F            5192.0:   KELLING BUSHING
 EDF .F            5191.0:   DRILLING FLOOR
 EGL .F            5182.0:   GROUND LEVEL
 DATE.        01-OCT-1990:   RUN DATE
 RUN .                  1:   RUN NUMBER
 DD  .F               477:   DEPTH DRILLER
 DL  .F               478:   DEPTH LOGGER
 BLI .F               472:   BOTTOM LOG INTERVAL
 TLI .F                50:   TOP LOG INTERVAL
 CS  .IN            8.625:   CASING SIZE
 CBL .F                53:   CASING BOTTOM LOGGER
 BS  .IN            7.875:   BIT SIZE
 BSD .F               477:   BIT SIZE AT DEPTH
 DFT .                AIR:   DRILLING FLUID TYPE
 TLAB.HRS            1758:   TIME LOGGER AT BOTTOM
 LUN .               5882:   LOGGING UNIT NUMBER
 LUL .               CODY:   LOGGING UNIT LOCATION
 ENGI.        MIKE FISHER:   RECORDING ENGINEER
 WITN.       GARRY STRONG:   WITNESSED BY
 CLNT.            A2DTECH:   CLIENT CODE
 ORIG.           5" PRINT:   ORIGIN OF DATA
 UWI .       490251132000:   UNIQUE WELL ID
 DICO. A2D Technologies, Inc.:   DIGITIZING COMPANY
~OTHER INFORMATION
~A   DEPT      GRR        ILD        ILM   
# ...
  228.0000   163.8978     5.4431     5.0618
  228.5000   160.5687     5.5192     5.3495
  229.0000   155.7335     5.5963     5.5393
  229.5000   152.7082     5.7141     5.7758
  230.0000   149.6830     6.0824     6.1492
  230.5000   146.6134     6.3852     6.4564
  231.0000   143.6324     6.7210     6.8263
  231.5000   145.4315     7.4386     7.1732
  232.0000   149.6461     7.9181     7.5257
  232.5000   151.1457     8.3123     7.7927
  233.0000   149.6287     8.5463     8.0692
  233.5000   147.1554     8.6058     8.2402
  234.0000   144.4810     8.6058     8.3566
  234.5000   142.6623     8.6058     8.4169
  235.0000   141.4470     8.6058     8.5349
  235.5000   142.3433     8.6058     8.5957
  236.0000   144.7479     8.6657     8.5969
  236.5000   145.6442     8.6657     8.5980
  237.0000   142.6168     8.7261     8.5992
  237.5000   141.0998     8.7869     8.6003
  238.0000   140.1861     8.7869     8.6015
  238.5000   142.2891     8.7869     8.6029
  239.0000   144.6937     8.8481     8.6041
  239.5000   145.6189     8.8481     8.6052
  240.0000   146.1824     8.8481     8.6064
  240.5000   142.8555     8.8481     8.6675
  241.0000   143.4501     8.9097     8.7291
  241.5000   143.4415     9.0342     8.7983
  242.0000   142.5278     9.2885     9.0403
  242.5000   140.1056     9.6166     9.3611
  243.0000   141.6033     9.6166     9.2975
  243.5000   142.8034     9.5500     9.1067
  244.0000   140.3793     9.2243     8.6759
  244.5000   139.7695     7.0368     8.3154
  245.0000   143.6802     6.4745     6.2709
  245.5000   153.9145     6.1248     5.3376
  246.0000   165.3801     6.0403     5.0496
  246.5000   165.9769     6.0824     5.5277
  247.0000   155.1063     6.2972     6.1355
  247.5000   147.9366     6.4745     6.6697
  248.0000   136.9840     7.0858     7.3147
  248.5000   135.2664     7.7549     8.2174
  249.0000   136.4625     8.8497     8.9952
  249.5000   137.9598    10.0255     9.7784
  250.0000   139.1581    10.8964    10.7784
  250.5000   138.5470    11.0502    11.0828
  251.0000   139.4397    11.0779    11.0836
  251.5000   139.7322    11.1910    11.0076
  252.0000   138.2153    11.2874    11.0085
  252.5000   138.2066    11.6067    11.0860
  253.0000   137.2942    12.0182    11.3991
  253.5000   133.6711    12.5394    12.5938
  254.0000   125.8310    13.3409    14.3377
  254.5000   113.6741    15.3296    16.8225
  255.0000    94.3373    18.1105    18.2860
  255.5000    85.1401    19.9614    20.1549
  256.0000    80.0109    22.3088    22.5255
  256.5000    80.6046    23.9402    25.1750
  257.0000    83.6079    27.1024    28.1940
  257.5000    90.5269    29.4604    30.3727
  258.0000    91.1206    30.2938    31.6673
  258.5000    84.7844    30.5089    31.8902
  259.0000    79.9565    30.5129    32.1146
  259.5000    79.9477    30.7296    33.0216
  260.0000    80.5414    31.6284    34.7016
  260.5000    82.0388    33.4086    38.2131
  261.0000    82.9337    35.5669    40.1197
  261.5000    82.8895    36.3201    40.1224
  262.0000    80.6027    36.8327    39.2976
  262.5000    79.8849    36.8376    38.2233
  263.0000    79.1834    36.3346    37.4376
  263.5000    79.1834    35.8397    36.3789
  264.0000    80.3280    35.1059    35.4193
  264.5000    82.0219    34.3859    34.6906
  265.0000    86.8155    33.6829    34.2143
  265.5000    90.4237    33.4542    33.9798
  266.0000    93.1299    33.2274    33.5138
  266.5000    92.5120    33.4645    33.2841
  267.0000    89.7855    33.7020    33.0559
  267.5000    86.1488    33.7065    33.0586
  268.0000    84.9351    34.1823    33.2913
  268.5000    85.4719    34.4249    33.9946
  269.0000    88.9351    35.1540    35.1983
  269.5000    90.6283    36.4282    35.9418
  270.0000    90.0133    37.9544    36.7353
  270.5000    90.3034    39.5736    38.0013
  271.0000    91.1967    40.6932    39.0745
  271.5000    96.0116    41.2675    39.3495
  272.0000   100.2232    41.2730    39.6264
  272.5000   100.5132    40.9788    39.6291
  273.0000    98.3870    40.1550    39.3574
  273.5000    95.9621    39.6054    38.8177
  274.0000    95.9504    38.5274    38.0197
  274.5000    95.9388    36.9608    36.4702
  275.0000    97.7371    35.9536    35.2277
  275.5000    99.2337    35.4627    34.0276
  276.0000   102.3107    33.7173    31.9676
  276.5000   103.1320    31.0907    30.6380
  277.0000   103.4191    30.2434    30.8811
  277.5000   105.2174    29.2158    30.0369
  278.0000   107.3174    28.8159    29.0136
  278.5000   106.0991    28.4234    27.8311
  279.0000   104.5791    28.2138    26.8830
  279.5000   103.9638    27.2722    25.4152
  280.0000   101.5363    26.3455    24.0590
  280.5000    99.1114    25.4503    23.4013
  281.0000    99.7031    24.2466    22.7616
  281.5000   106.6296    23.4227    22.6052
  282.0000   111.1428    23.2638    22.6071
  282.5000   111.4329    23.7573    22.6086
  283.0000   111.4208    24.0926    22.4536
  283.5000   110.8033    24.2636    22.6120
  284.0000   111.9983    24.0982    23.0896
  284.5000   111.6850    23.9347    23.2521
  285.0000   109.2601    23.9387    23.4158
  285.5000   107.1368    24.1295    23.4173
  286.0000   107.7285    24.7915    23.5822
  286.5000   109.8673    25.4929    24.0807
  287.0000   111.9255    26.2140    25.1072
  287.5000   111.6122    26.9556    26.1774
  288.0000   105.2657    27.1470    26.7304
  288.5000   104.0474    27.3398    26.5467
  289.0000   103.1308    26.9673    26.3651
  289.5000   101.6108    26.4151    25.9828
  290.0000   102.9663    26.0536    25.4690
  290.5000   107.3161    25.5201    25.1189
  291.0000   108.8128    24.8255    24.6030
  291.5000   108.4995    24.6571    24.4339
  292.0000   105.4712    24.1522    23.9320
  292.5000   103.3480    23.6585    22.6347
  293.0000   105.4479    23.0137    21.8690
  293.5000   107.6711    22.3866    21.2712
  294.0000   110.8516    21.7765    20.8339
  294.5000   112.6499    21.4792    20.4057
  295.0000   113.8449    21.0394    20.2654
  295.5000   114.4395    21.0429    19.9875
  296.0000   113.2183    20.8994    19.9889
  296.5000   110.1900    21.1951    20.2702
  297.0000   109.2730    21.6440    20.5551
  297.5000   109.5634    22.2563    20.8440
  298.0000   110.4538    22.7276    21.2844
  298.5000   111.6488    22.2622    21.4342
  299.0000   113.1455    21.8071    21.2872
  299.5000   115.2454    21.6584    21.1416
  300.0000   115.5354    21.3627    21.4393
  300.5000   113.3695    21.2167    21.2941
  301.0000   112.4860    21.0714    21.1510
  301.5000   112.4714    20.9271    20.7190
  302.0000   112.7621    20.6403    20.2969
  302.5000   111.5372    20.2163    19.8824
  303.0000   110.9193    19.9262    19.6120
  303.5000   111.5080    19.6653    19.4802
  304.0000   111.7950    19.3959    19.2154
  304.5000   109.8672    19.1298    19.0862
  305.0000   108.4439    18.8673    18.9580
  305.5000   108.7309    18.4798    18.9628
  306.0000   109.3197    18.3532    18.8353
  306.5000   110.2100    18.2275    18.4506
  307.0000   110.5007    18.1026    17.9486
  307.5000   110.4825    17.8543    17.5781
  308.0000   109.7675    17.6093    17.2057
  308.5000   105.0197    17.4887    16.8721
  309.0000   105.6085    17.1297    16.7579
  309.5000   108.3088    16.7694    16.6453
  310.0000   110.7074    16.6630    16.8824
  310.5000   110.9981    17.1335    17.0035
  311.0000   110.9799    17.7397    17.2449
  311.5000   112.7752    17.8642    17.4896
  312.0000   114.2689    17.4975    17.1324
  312.5000   111.8374    17.2575    17.0173
  313.0000   109.7112    17.0207    16.6697
  313.5000   108.7916    16.6711    16.2171
  314.0000   108.4790    16.3289    15.8859
  314.5000   112.0806    15.9935    15.6691
  315.0000   112.9710    15.7738    15.4560
  315.5000   113.2580    15.4501    15.4600
  316.0000   112.9412    15.3440    15.3561
  316.5000   113.2252    15.5598    15.0424
  317.0000   116.2271    15.3463    14.8379
  317.5000   116.8195    15.1253    14.5356
  318.0000   115.8963    14.9281    14.4379
  318.5000   114.3734    14.8259    14.4408
