~VERSION INFORMATION
 VERS.                2.0:   CWLS LOG ASCII STANDARD - VERSION 2.0
 WRAP.                 NO:   ONE LINE PER DEPTH STEP
~WELL INFORMATION
#MNEM.UNIT      DATA TYPE    INFORMATION
#----------   ------------   ------------------------------
 STRT.F           20.0000:   START DEPTH
 STOP.F          565.0000:   STOP DEPTH
 STEP.F            0.5000:   STEP LENGTH
 NULL.          -999.2500:   NO VALUE
 COMP. FENIX & SCISSON INC:   COMPANY
 WELL.     NPR-3 #12-SX-3:   WELL
 FLD .        TEAPOT DOME:   FIELD
 LOC .       S3 T38N R78W:   LOCATION
 CNTY.            NATRONA:   COUNTY
 STAT.            WYOMING:   STATE
 CTRY. UNITED STATES OF AMERICA:   COUNTRY
 SRVC.           BIRDWELL:   SERVICE COMPANY
 DATE.        29-JUL-1978:   LOGDATE
 API .       490251067000:   API NUMBER
~CURVE INFORMATION
#MNEM.UNIT       API CODE    CURVE DESCRIPTION
#----------   ------------   ------------------------------
 DEPT.F                  :   
 SPR .MV     05 010 01 00:   SPONTANEOUS POTENTIAL FROM RES.
 SN  .OHMM   05 040 16 00:   SHORT NORMAL 16"
 IL  .OHMM   05 120 00 00:   INDUCTION LOG
 GRD .GAPI   45 310 01 00:   GAMMA RAY FROM DENSITY LOG
 CALD.IN     45 280 60 00:   CALIPER
 CORR.G/C3   45 356 01 00:   DENSITY CORRECTION
 RHOB.G/C3   45 350 01 00:   BULK DENSITY
 DPHI.DEC    45 890 12 00:   DENSITY POROSITY SANDSTONE
~PARAMETER INFORMATION
#MNEM.UNIT          VALUE    DESCRIPTION
#----------   ------------   ------------------------------
 PD  .                 GL:   PERMANENT DATUM
 EPD .F              5191:   ELEVATION PERMANENT DATUM
 LMF .                 KB:   LOG MEASURED FROM
 DAPD.F                 4:   FEET ABOVE PERMANENT DATUM
 DMF .                 KB:   DRILLING MEASURED FROM
 EKB .F              5195:   KELLING BUSHING
 EGL .F              5191:   GROUND LEVEL
 DATE.            7-29-78:   RUN DATE
 RUN .                  1:   RUN NUMBER
 DD  .F               565:   DEPTH DRILLER
 DL  .F               571:   DEPTH LOGGER
 BLI .F               565:   BOTTOM LOG INTERVAL
 TLI .F                40:   TOP LOG INTERVAL
 CS  .IN            8.625:   CASING SIZE
 CBD .F                40:   CASING BOTTOM DRILLER
 CBL .F                40:   CASING BOTTOM LOGGER
 BS  .IN            7.875:   BIT SIZE
 BSD .F               565:   BIT SIZE AT DEPTH
 DFT .                KCL:   DRILLING FLUID TYPE
 DFD .                8.6:   DRILLING FLUID DENSITY
 DFV .                 31:   DRILLING FLUID VISCOSITY
 DFPH.                  9:   DRILLING FLUID PH
 RMS .OHMM            .32:   RESISTIVITY MUD SAMPLE
 MST .F                70:   MUD SAMPLE TEMPERATURE
 TCS .HRS               1:   TIME CURCULATED STOPPED
 LUN .               2958:   LOGGING UNIT NUMBER
 LUL .               CASP:   LOGGING UNIT LOCATION
 ENGI.              HONEA:   RECORDING ENGINEER
 WITN.              AMEND:   WITNESSED BY
 CLNT.            A2DTECH:   CLIENT CODE
 ORIG.           5" PRINT:   ORIGIN OF DATA
 UWI .       490251067000:   UNIQUE WELL ID
 DICO. A2D Technologies, Inc.:   DIGITIZING COMPANY
~OTHER INFORMATION
~A   DEPT      SPR         SN         IL         GRD      CALD       CORR       RHOB       DPHI   
# ...
  182.0000   -36.2363    10.0402     8.3233    79.0626     7.6476     0.0418     2.4665     0.1209
  182.5000   -36.2428    10.0115     8.2777    82.7141     7.6449     0.0402     2.4769     0.1177
  183.0000   -36.2493     9.9752     8.2324    84.7632     7.6423     0.0379     2.4857     0.1189
  183.5000   -36.2559     9.9820     8.1873    85.3019     7.6397     0.0357     2.4904     0.1229
  184.0000   -36.2624     9.8817     8.1424    86.4536     7.6371     0.0358     2.4858     0.1260
  184.5000   -36.2689     9.9059     8.0976    87.6004     7.6345     0.0358     2.4760     0.1260
  185.0000   -36.2754     9.9198     8.0729    88.7482     7.6319     0.0357     2.4727     0.1257
  185.5000   -36.2819     9.9338     8.0728    89.8561     7.6293     0.0333     2.4697     0.1255
  186.0000   -36.2884     9.9477     8.0759    88.7803     7.6267     0.0305     2.4750     0.1252
  186.5000   -36.2950     9.9616     8.0808    85.3989     7.6241     0.0279     2.4806     0.1280
  187.0000   -36.3015     9.9756     8.0857    85.8147     7.6214     0.0274     2.4711     0.1281
  187.5000   -36.3080     9.9895     8.0906    88.8693     7.6187     0.0269     2.4707     0.1283
  188.0000   -36.3145    10.0035     8.0954    91.3700     7.6158     0.0264     2.4719     0.1286
  188.5000   -36.3210    10.0175     8.1003    90.5230     7.6192     0.0259     2.4728     0.1296
  189.0000   -36.3276    10.0315     8.1051    89.3234     7.6328     0.0255     2.4693     0.1304
  189.5000   -36.3341    10.0456     8.1100    89.2558     7.6323     0.0250     2.4652     0.1293
  190.0000   -36.3406    10.0596     8.1148    89.6412     7.6310     0.0245     2.4611     0.1270
  190.5000   -36.3471    10.0737     8.1197    89.5606     7.6298     0.0240     2.4614     0.1247
  191.0000   -36.3536    10.0878     8.1246    88.4245     7.6286     0.0233     2.4686     0.1229
  191.5000   -36.3605    10.1019     8.1294    88.8168     7.6274     0.0225     2.4756     0.1217
  192.0000   -36.3651    10.1160     8.1343    90.3076     7.6262     0.0218     2.4829     0.1213
  192.5000   -36.3631    10.1302     8.1392    89.3685     7.6250     0.0335     2.4826     0.1207
  193.0000   -36.1662    10.1444     8.1439    86.6423     7.6238     0.0303     2.4799     0.1186
  193.5000   -35.7408    10.1586     8.1481    84.5249     7.6226     0.0257     2.4785     0.1180
  194.0000   -35.7333    10.1728     8.1469    83.6779     7.6214     0.0210     2.4935     0.1230
  194.5000   -35.6579    10.1870     8.2135    84.4154     7.6202     0.0189     2.4992     0.1272
  195.0000   -35.5806    10.2013     8.2752    87.1015     7.6190     0.0218     2.4739     0.1254
  195.5000   -35.5041    10.2155     8.3373    90.2162     7.6178     0.0247     2.4670     0.1229
  196.0000   -35.4227    10.2298     8.3999    89.1457     7.6167     0.0258     2.4726     0.1205
  196.5000   -35.2476    10.2442     8.4631    87.7235     7.6154     0.0258     2.4787     0.1181
  197.0000   -35.1731    10.2575     8.5266    86.8427     7.6143     0.0258     2.4853     0.1177
  197.5000   -35.1824    10.2556     8.5906    85.5743     7.6131     0.0258     2.4917     0.1179
  198.0000   -34.9760    10.2659     8.6105    84.2764     7.6119     0.0258     2.4926     0.1181
  198.5000   -34.9717    10.1446     8.5316    84.1504     7.6107     0.0271     2.4926     0.1183
  199.0000   -34.9696    10.0816     8.4785    85.1835     7.6095     0.0290     2.4927     0.1185
  199.5000   -34.9699    10.0190     8.3723    86.7897     7.6083     0.0309     2.4875     0.1185
  200.0000   -34.9699     9.9568     8.2674    88.9054     7.6071     0.0318     2.4848     0.1125
  200.5000   -34.9699     9.8950     8.1639    88.4355     7.6059     0.0313     2.4989     0.1140
  201.0000   -34.9699     9.8336     8.0729    87.1382     7.6047     0.0307     2.4985     0.1161
  201.5000   -34.9699     9.7725     7.9989    84.7254     7.6035     0.0300     2.4979     0.1241
  202.0000   -34.9700     9.7118     7.8917    83.4137     7.6023     0.0298     2.4814     0.1294
  202.5000   -34.9701     9.6515     7.7759    85.7369     7.6011     0.0304     2.4720     0.1310
  203.0000   -34.9697     9.5913     7.6617    88.0194     7.5999     0.0349     2.4655     0.1320
  203.5000   -34.9495     9.5280     7.5500    89.9602     7.5987     0.0393     2.4617     0.1322
  204.0000   -34.9273     9.5289     7.4995    88.6466     7.5975     0.0436     2.4637     0.1349
  204.5000   -34.9050     9.5286     7.4995    87.1292     7.5963     0.0454     2.4626     0.1370
  205.0000   -34.8829     9.5286     7.5153    86.9830     7.5951     0.0480     2.4570     0.1385
  205.5000   -34.8607     9.5279     7.6154    88.1680     7.5945     0.0507     2.4513     0.1375
  206.0000   -34.8385     9.6213     7.7169    89.4301     7.5950     0.0513     2.4453     0.1280
  206.5000   -34.8163     9.7182     7.8045    88.7492     7.5956     0.0503     2.4606     0.1277
  207.0000   -34.7941     9.8160     7.8676    86.2225     7.5961     0.0497     2.4716     0.1271
  207.5000   -34.7719     9.9148     7.9313    83.7272     7.5966     0.0507     2.4691     0.1264
  208.0000   -34.7497    10.0147     7.9954    82.1148     7.5971     0.0518     2.4696     0.1194
  208.5000   -34.7275    10.1157     8.0601    83.1043     7.5976     0.0470     2.4785     0.1147
  209.0000   -34.7053    10.2171     8.1253    82.9574     7.5981     0.0414     2.4873     0.1125
  209.5000   -34.6831    10.2572     8.1910    80.0794     7.5986     0.0377     2.4998     0.1172
  210.0000   -34.6609    10.2572     8.2573    80.0085     7.5991     0.0385     2.5058     0.1292
  210.5000   -34.6387    10.2555     8.3241    84.0921     7.5996     0.0416     2.4825     0.1352
  211.0000   -34.6166    10.2477     8.4058    86.6964     7.6001     0.0417     2.4664     0.1352
  211.5000   -34.5944    10.2399     8.4534    87.1296     7.6006     0.0417     2.4589     0.1352
  212.0000   -34.5722    10.2321     8.5316    87.6135     7.6011     0.0442     2.4595     0.1368
  212.5000   -34.5500    10.2244     8.5317    87.7422     7.6016     0.0623     2.4543     0.1364
  213.0000   -34.5278    10.2166     8.5319    85.7495     7.6021     0.0779     2.4481     0.1335
  213.5000   -34.5056    10.2088     8.5183    84.3036     7.6026     0.0765     2.4519     0.1336
  214.0000   -34.4834    10.2011     8.5029    84.8790     7.6031     0.0779     2.4605     0.1346
  214.5000   -34.4612    10.1934     8.4874    85.6431     7.6036     0.0921     2.4558     0.1328
  215.0000   -34.4390    10.1856     8.4720    84.4464     7.6041     0.1035     2.4503     0.1277
  215.5000   -34.4168    10.1776     8.4566    81.8928     7.6046     0.0989     2.4656     0.1237
  216.0000   -34.3946    10.1689     8.4413    82.4550     7.6051     0.0942     2.4782     0.1233
  216.5000   -34.3722    10.1553     8.4260    88.5905     7.6056     0.0934     2.4803     0.1233
  217.0000   -34.3687    10.2640     8.4107    89.8375     7.6061     0.0951     2.4742     0.1217
  217.5000   -34.3687    10.3521     8.3956    83.0465     7.6066     0.0926     2.4752     0.1197
  218.0000   -34.3689    10.4166     8.3790    83.6634     7.6071     0.0787     2.4861     0.1233
  218.5000   -34.3688    10.4878     8.3797    86.0967     7.6076     0.0653     2.4794     0.1169
  219.0000   -34.3673    10.5595     8.3717    87.2400     7.6081     0.0519     2.4899     0.1149
  219.5000   -34.2863    10.6316     8.5761    84.6050     7.6086     0.0385     2.4981     0.1180
  220.0000   -34.1024    10.7043     8.7129    83.3835     7.6091     0.0297     2.4807     0.1246
  220.5000   -33.9199    10.7775     8.8509    84.5331     7.6096     0.0340     2.4789     0.1240
  221.0000   -33.7369    10.8610     8.9909    84.3893     7.6101     0.0388     2.4754     0.1227
  221.5000   -33.5539    11.0005     9.1331    84.3095     7.6106     0.0435     2.4736     0.1223
  222.0000   -33.3707    11.1421     9.2775    84.5201     7.6111     0.0457     2.4807     0.1229
