~VERSION INFORMATION
 VERS.                2.0:   CWLS LOG ASCII STANDARD - VERSION 2.0
 WRAP.                 NO:   ONE LINE PER DEPTH STEP
~WELL INFORMATION
#MNEM.UNIT      DATA TYPE    INFORMATION
#----------   ------------   ------------------------------
 STRT.F           32.0000:   START DEPTH
 STOP.F          517.0000:   STOP DEPTH
 STEP.F            0.5000:   STEP LENGTH
 NULL.          -999.2500:   NO VALUE
 COMP.    FENIX & SCISSON:   COMPANY
 WELL.        NPR #75-S-3:   WELL
 FLD .             TEAPOT:   FIELD
 LOC .       S3 T38N R78W:   LOCATION
 CNTY.            NATRONA:   COUNTY
 STAT.            WYOMING:   STATE
 CTRY. UNITED STATES OF AMERICA:   COUNTRY
 SRVC.              Welex:   SERVICE COMPANY
 DATE.        08-MAR-1977:   LOGDATE
 API .       490251030900:   API NUMBER
~CURVE INFORMATION
#MNEM.UNIT       API CODE    CURVE DESCRIPTION
#----------   ------------   ------------------------------
 DEPT.F                  :   
 SPR .MV     07 010 01 00:   SPONTANEOUS POTENTIAL
 ILD .OHMM   07 120 46 00:   INDUCTION LOG DEEP RES
 ILM .OHMM   07 120 44 00:   INDUCTION LOG MEDIUM RES
 SGRD.OHMM   07 220 05 00:   SHALLOW  GUARD RESISTIVITY
 CALD.IN     45 280 60 00:   CALIPER FROM DENSITY
 GRD .GAPI   45 310 01 00:   GAMMA RAY FROM DENSITY LOG
 CORR.G/C3   45 356 01 00:   DENSITY CORRECTION
 DPHI.DEC    45 890 12 00:   DENSITY POROSITY SANDSTONE
 RHOB.G/C3   45 350 01 00:   BULK DENSITY
~PARAMETER INFORMATION
#MNEM.UNIT          VALUE    DESCRIPTION
#----------   ------------   ------------------------------
 PD  .                 GL:   PERMANENT DATUM
 EPD .F              5141:   ELEVATION PERMANENT DATUM
 LMF .                 GL:   LOG MEASURED FROM
 DMF .                 GL:   DRILLING MEASURED FROM
 EGL .F              5141:   GROUND LEVEL
 DATE.         03-08-1977:   RUN DATE
 RUN .                  1:   RUN NUMBER
 DD  .F               521:   DEPTH DRILLER
 DL  .F               521:   DEPTH LOGGER
 BLI .F               519:   BOTTOM LOG INTERVAL
 TLI .F                35:   TOP LOG INTERVAL
 CS  .IN            8.625:   CASING SIZE
 CBD .F                40:   CASING BOTTOM DRILLER
 CBL .F                42:   CASING BOTTOM LOGGER
 BS  .IN            7.875:   BIT SIZE
 BSD .F               521:   BIT SIZE AT DEPTH
 DFT .            KCL MUD:   DRILLING FLUID TYPE
 DFD .                8.5:   DRILLING FLUID DENSITY
 DFV .                 32:   DRILLING FLUID VISCOSITY
 DFPH.                  8:   DRILLING FLUID PH
 DFL .                8.5:   DRILLING FLUID LOSS
 MSS .            MUD PIT:   MUD SAMPLE SOURCE
 RMS .OHMM            .65:   RESISTIVITY MUD SAMPLE
 MST .F                53:   MUD SAMPLE TEMPERATURE
 RMF .OHMM            .51:   RESISTIVITY MUD FILTRATE SAMPLE
 MFST.F                58:   MUD FILTRATE SAMPLE TEMPERATURE
 RMC .OHMM            .67:   RESISTIVITY MUD CAKE
 MCST.F                54:   MUD CAKE SAMPLE TEMPERATURE
 MFSS.           FANN KIT:   MUD FILTRATE SAMPLE SOURCE
 MCSS.           FANN KIT:   MUD CAKE SAMPLE SOURCE
 RMB .OHMM            .53:   RESISTIVITY MUD AT BHT
 BHT .F                64:   BOTTOM HOLE TEMPERATURE
 TCS .HRS             1.5:   TIME CURCULATED STOPPED
 MRT .F                64:   MAXIMUM RECORDED TEMPERATURE
 LUN .               8611:   LOGGING UNIT NUMBER
 LUL .           GILLETTE:   LOGGING UNIT LOCATION
 ENGI.               DOAK:   RECORDING ENGINEER
 WITN.           S. BURKE:   WITNESSED BY
 CLNT.            A2DTECH:   CLIENT CODE
 ORIG.           5" PRINT:   ORIGIN OF DATA
 UWI .       490251030900:   UNIQUE WELL ID
 DICO. A2D Technologies, Inc.:   DIGITIZING COMPANY
~OTHER INFORMATION
~A   DEPT      SPR        ILD        ILM       SGRD       CALD        GRD        CORR        DPHI       RHOB 
# ...
  397.0000   -34.7493    29.7906    31.2643    50.5613     7.8977    75.2022     0.0632     0.1950     2.3248
  397.5000   -34.8820    29.6084    30.2138    53.4578     7.8980    72.8347     0.0633     0.2010     2.3159
  398.0000   -35.1622    28.6276    28.7982    45.9604     7.8982    71.3588     0.0620     0.1907     2.3265
  398.5000   -35.2950    27.6793    28.2176    40.3402     7.8985    71.2176     0.0621     0.1784     2.3491
  399.0000   -35.4277    26.7623    27.6486    35.1640     7.8987    72.8645     0.0608     0.1669     2.3567
  399.5000   -35.5605    25.8758    26.9047    33.7578     7.8989    77.3320     0.0609     0.1555     2.3808
  400.0000   -35.6932    24.6762    26.3600    34.0102     7.8992    80.5442     0.0611     0.1545     2.3907
  400.5000   -35.8007    23.5291    25.8307    34.4982     7.9002    83.0074     0.0593     0.1581     2.3810
  401.0000   -35.9397    21.8257    25.4830    37.2367     7.9012    83.3179     0.0570     0.1650     2.3728
  401.5000   -36.0786    20.9592    24.9714    38.3042     7.9022    80.9628     0.0511     0.1728     2.3654
  402.0000   -36.2176    20.5501    24.6374    34.3181     7.9033    77.5630     0.0423     0.1839     2.3452
  402.5000   -36.2388    20.4167    24.3058    33.1736     7.9043    76.5363     0.0395     0.1887     2.3318
  403.0000   -36.2299    20.1512    24.1468    32.7372     7.9054    81.0162     0.0397     0.1838     2.3363
  403.5000   -36.3685    20.0267    24.2216    38.6492     7.9064    80.1424     0.0414     0.1805     2.3424
  404.0000   -36.3596    20.0441    24.5622    36.8487     7.9075    76.7427     0.0417     0.1829     2.3395
  404.5000   -36.3507    20.0579    24.5983    30.8190     7.9085    77.5034     0.0434     0.1801     2.3456
  405.0000   -36.3418    19.9305    24.7786    29.9973     7.9096    79.7501     0.0451     0.1759     2.3532
  405.5000   -36.3329    19.9450    25.4814    30.8530     7.9106    80.2092     0.0498     0.1714     2.3593
  406.0000   -36.3240    19.9587    26.0243    33.5325     7.9117    77.4083     0.0531     0.1677     2.3639
  406.5000   -36.3152    19.8348    24.8094    33.5708     7.9127    79.6549     0.0564     0.1662     2.3677
  407.0000   -36.1588    19.8490    24.3118    32.8824     7.9137    81.1541     0.0625     0.1650     2.3708
  407.5000   -36.1499    19.8627    25.0016    30.0799     7.9148    79.3933     0.0627     0.1641     2.3739
  408.0000   -35.9935    19.8764    26.0674    33.8392     7.9158    78.2224     0.0614     0.1624     2.3732
  408.5000   -35.8371    19.6176    26.4400    34.5654     7.9169    78.2402     0.0570     0.1690     2.3643
  409.0000   -35.8282    19.4964    26.2694    34.3469     7.9179    80.0411     0.0527     0.1735     2.3569
  409.5000   -35.6719    19.5101    25.7427    34.1292     7.9190    84.8137     0.0515     0.1738     2.3600
  410.0000   -35.5155    19.5236    25.7060    32.7649     7.9202    86.9117     0.0502     0.1683     2.3698
  410.5000   -35.5066    19.5368    26.1215    29.9728     7.9213    86.3352     0.0519     0.1632     2.3688
  411.0000   -35.4977    19.4109    24.9020    29.5781     7.9227    84.3450     0.0522     0.1604     2.3711
  411.5000   -35.6363    19.2927    24.4024    30.2135     7.9240    78.6427     0.0507     0.1595     2.3750
  412.0000   -35.7760    19.0453    25.4431    31.0754     7.9254    83.4153     0.0463     0.1598     2.3788
  412.5000   -35.9146    18.7977    25.4825    31.0926     7.9268    81.6501     0.0405     0.1657     2.3676
  413.0000   -36.2008    18.5532    24.7721    30.4730     7.9281    77.5074     0.0364     0.1711     2.3616
  413.5000   -36.3393    18.3121    24.1088    29.8657     7.9295    76.3131     0.0366     0.1630     2.3707
  414.0000   -36.4780    18.3247    23.6254    28.8697     7.9309    79.6232     0.0415     0.1491     2.3926
  414.5000   -36.6903    18.3374    23.6034    27.1479     7.9322    83.6529     0.0477     0.1368     2.4077
  415.0000   -36.9026    18.3501    23.9730    26.4262     7.9336    84.2651     0.0538     0.1265     2.4258
  415.5000   -36.8938    18.2367    24.4837    34.3568     7.9349    82.4998     0.0586     0.1190     2.4484
  416.0000   -36.8849    17.9996    23.0214    37.8537     7.9363    80.5855     0.0603     0.1150     2.4642
  416.5000   -36.8760    17.5225    21.3502    25.0477     7.9377    82.6840     0.0605     0.1162     2.4598
  417.0000   -36.8675    17.4139    21.0646    24.3765     7.9390    86.8623     0.0560     0.1357     2.4103
  417.5000   -36.8582    17.4263    21.3679    24.5621     7.9404    90.5948     0.0470     0.1450     2.3870
  418.0000   -36.8489    17.4383    21.5245    25.2628     7.9418    90.7886     0.0382     0.1663     2.3721
  418.5000   -36.8416    17.4504    21.3834    26.7100     7.9431    87.3615     0.0310     0.1690     2.3654
  419.0000   -36.8327    17.4624    21.2454    28.0460     7.9445    83.9617     0.0269     0.1711     2.3564
  419.5000   -36.8238    17.4745    21.1082    28.8461     7.9458    81.8993     0.0271     0.1774     2.3460
  420.0000   -36.8149    17.2467    20.8302    25.3187     7.9472    83.2544     0.0273     0.1821     2.3385
  420.5000   -36.8060    16.4467    20.4126    22.2226     7.9486    87.4327     0.0275     0.1720     2.3522
  421.0000   -36.7971    15.7917    19.5942    22.3887     7.9499    91.0166     0.0322     0.1634     2.3696
  421.5000   -36.9357    15.2676    18.8086    23.8350     7.9513    93.4118     0.0357     0.1520     2.3832
  422.0000   -37.0743    14.8629    17.8075    20.7766     7.9526    94.7669     0.0389     0.1448     2.3953
  422.5000   -37.3604    14.3696    16.7439    19.0061     7.9540    93.5960     0.0419     0.1397     2.4029
  423.0000   -37.4990    13.9887    16.4082    18.6247     7.9554    90.6420     0.0437     0.1362     2.4066
  423.5000   -37.6376    13.6179    16.0792    20.3851     7.9567    87.0937     0.0423     0.1409     2.4049
  424.0000   -37.6288    13.3486    15.7568    20.5374     7.9581    85.3284     0.0410     0.1447     2.3892
  424.5000   -37.6199    13.1728    15.4409    20.2646     7.9595    83.4146     0.0430     0.1457     2.3880
  425.0000   -37.6110    12.9123    15.1314    19.7270     7.9608    81.7979     0.0478     0.1402     2.3983
  425.5000   -37.6021    12.8325    14.8265    19.2011     7.9622    80.1813     0.0522     0.1343     2.4105
  426.0000   -37.7407    12.6656    14.5307    18.6892     7.9635    83.7754     0.0540     0.1308     2.4220
  426.5000   -37.8793    12.5896    14.5367    18.3167     7.9649    86.4726     0.0557     0.1277     2.4303
  427.0000   -38.3129    12.5983    14.5428    18.1984     7.9663    89.4668     0.0559     0.1242     2.4372
  427.5000   -38.4515    12.5183    14.4489    17.8382     7.9676    92.0011     0.0561     0.1212     2.4455
  428.0000   -38.5901    12.4409    14.0606    17.3626     7.9690    90.8854     0.0533     0.1175     2.4523
  428.5000   -38.7287    12.2813    13.4056    17.2505     7.9703    88.1632     0.0505     0.1130     2.4584
  429.0000   -38.8673    12.2898    12.4324    17.2624     7.9716    91.0524     0.0492     0.1084     2.4645
  429.5000   -38.8584    12.2118    12.6101    17.3914     7.9729    94.0209     0.0494     0.1045     2.4713
  430.0000   -38.8496    12.1363    12.9678    17.0448     7.9743    92.7540     0.0497     0.1030     2.4781
  430.5000   -38.8407    12.0613    13.4278    16.5904     7.9756    88.6258     0.0499     0.1077     2.4812
  431.0000   -38.8318    11.9868    13.7138    16.3700     7.9769    87.3607     0.0501     0.1119     2.4775
  431.5000   -38.9704    11.9972    13.6239    16.3813     7.9782    87.9861     0.0503     0.1158     2.4633
  432.0000   -38.9615    12.0055    13.0791    16.5037     7.9796    89.2076     0.0505     0.1176     2.4574
  432.5000   -38.9526    12.0138    12.5547    16.5129     7.9809    90.7133     0.0552     0.1151     2.4740
  433.0000   -38.9437    12.0221    12.9108    16.4062     7.9822    92.0545     0.0600     0.1064     2.4861
