~VERSION INFORMATION
 VERS.                2.0:   CWLS LOG ASCII STANDARD - VERSION 2.0
 WRAP.                 NO:   ONE LINE PER DEPTH STEP
~WELL INFORMATION
#MNEM.UNIT      DATA TYPE    INFORMATION
#----------   ------------   ------------------------------
 STRT.F            4.0000:   START DEPTH
 STOP.F          572.0000:   STOP DEPTH
 STEP.F            0.5000:   STEP LENGTH
 NULL.          -999.2500:   NO VALUE
 COMP. FENIX & SCISSON INC:   COMPANY
 WELL.       NPR#3 #33-10:   WELL
 FLD .             TEAPOT:   FIELD
 LOC .      S10 T38N R78W:   LOCATION
 CNTY.            NATRONA:   COUNTY
 STAT.            WYOMING:   STATE
 CTRY. UNITED STATES OF AMERICA:   COUNTRY
 SRVC.              Welex:   SERVICE COMPANY
 DATE.        05-MAY-1980:   LOGDATE
 API .       490251080800:   API NUMBER
~CURVE INFORMATION
#MNEM.UNIT       API CODE    CURVE DESCRIPTION
#----------   ------------   ------------------------------
 DEPT.F                  :   
 SGRD.OHMM   07 220 05 00:   SHALLOW GUARD RESISTIVITY
 ILD .OHMM   07 120 46 00:   INDUCTION LOG DEEP RESISTIVITY
 ILM .OHMM   07 120 44 00:   INDUCTION LOG MEDIUM
 SPR .MV     07 010 01 00:   SPONTANEOUS POTENTIAL
 CALD.IN     45 280 60 00:   CALIPER
 GRD .GAPI   45 310 01 00:   GAMMA RAY FROM DENSITY LOG
 RHOB.G/C3   45 350 01 00:   BULK DENSITY
 CORR.G/C3   45 356 01 00:   DENSITY CORRECTION
 DPHI.DEC    45 890 12 00:   DENSITY POROSITY SANDSTONE
~PARAMETER INFORMATION
#MNEM.UNIT          VALUE    DESCRIPTION
#----------   ------------   ------------------------------
 PD  .                 GL:   PERMANENT DATUM
 EPD .F              5228:   ELEVATION PERMANENT DATUM
 LMF .                 KB:   LOG MEASURED FROM
 DAPD.F                 5:   FEET ABOVE PERMANENT DATUM
 DMF .                 KB:   DRILLING MEASURED FROM
 EKB .F              5233:   KELLING BUSHING
 EGL .F              5228:   GROUND LEVEL
 DATE.             5-5-80:   RUN DATE
 RUN .                  1:   RUN NUMBER
 DD  .F               572:   DEPTH DRILLER
 DL  .F               572:   DEPTH LOGGER
 BLI .F               570:   BOTTOM LOG INTERVAL
 TLI .F                30:   TOP LOG INTERVAL
 BS  .IN            7.875:   BIT SIZE
 BSD .F               572:   BIT SIZE AT DEPTH
 DFT .            KCL MUD:   DRILLING FLUID TYPE
 DFD .                8.9:   DRILLING FLUID DENSITY
 DFV .                 36:   DRILLING FLUID VISCOSITY
 DFL .               12.6:   DRILLING FLUID LOSS
 MSS .           FLOWLINE:   MUD SAMPLE SOURCE
 RMS .OHMM           1.08:   RESISTIVITY MUD SAMPLE
 MST .F                60:   MUD SAMPLE TEMPERATURE
 RMF .OHMM            .86:   RESISTIVITY MUD FILTRATE SAMPLE
 MFST.F                60:   MUD FILTRATE SAMPLE TEMPERATURE
 RMC .OHMM           1.29:   RESISTIVITY MUD CAKE
 MCST.F                60:   MUD CAKE SAMPLE TEMPERATURE
 MFSS.           MEASURED:   MUD FILTRATE SAMPLE SOURCE
 MCSS.           MEASURED:   MUD CAKE SAMPLE SOURCE
 TCS .HRS               2:   TIME CURCULATED STOPPED
 MRT .F               100:   MAXIMUM RECORDED TEMPERATURE
 LUN .               1892:   LOGGING UNIT NUMBER
 LUL .             CASPER:   LOGGING UNIT LOCATION
 ENGI.               REIN:   RECORDING ENGINEER
 WITN.              AMEND:   WITNESSED BY
 CLNT.            A2DTECH:   CLIENT CODE
 ORIG.           5" PRINT:   ORIGIN OF DATA
 UWI .       490251080800:   UNIQUE WELL ID
 DICO. A2D Technologies, Inc.:   DIGITIZING COMPANY
~OTHER INFORMATION
~A    DEPT    SGRD        ILD        ILM        SPR       CALD         GRD        RHOB       CORR     DPHI   
# ...
   77.0000     8.7521     6.1184     6.1196   -33.3605     7.9634    91.6636     2.4686    -0.0183     0.1301
   77.5000     9.2192     6.1897     6.1343   -32.4770     7.9608    92.2270     2.4567    -0.0301     0.1377
   78.0000     8.4118     6.2361     6.1491   -32.4627     7.9583    92.7072     2.4644    -0.0225     0.1416
   78.5000     7.8886     6.2775     6.1640   -34.4883     7.9558    92.4946     2.4810    -0.0079     0.1288
   79.0000     7.8095     6.3193     6.1789   -34.0707     7.9533    92.4122     2.4975     0.0065     0.1151
   79.5000     8.6547     6.3758     6.1937   -33.6199     7.9507    93.1470     2.5141     0.0208     0.1024
   80.0000     9.0508     6.3686     6.2014   -34.4337     7.9482    93.8502     2.5287     0.0355     0.1005
   80.5000     8.3562     6.3577     6.1874   -35.4268     7.9469    93.7499     2.5248     0.0443     0.0989
   81.0000     7.9548     6.3468     6.1775   -34.3817     7.9370    93.6105     2.5231     0.0516     0.0972
   81.5000     8.4851     6.3358     6.1677   -33.2807     7.9247    93.4911     2.5321     0.0514     0.0949
   82.0000     8.3301     6.3247     6.1579   -33.2272     7.9124    93.9001     2.5406     0.0473     0.0914
   82.5000     9.1420     6.3173     6.1480   -33.3374     7.9003    94.4023     2.5492     0.0437     0.0865
   83.0000     8.9698     6.3923     6.1449   -33.4863     7.8878    95.1355     2.5619     0.0620     0.0804
   83.5000     9.4801     6.4775     6.2802   -33.8214     7.9125    95.8731     2.5996     0.0825     0.0713
   84.0000     8.8854     6.5639     6.4062   -34.1624     7.9322    96.5889     2.5901     0.0961     0.0738
   84.5000     8.9677     6.6515     6.5349   -34.3283     7.9535    96.6184     2.5689     0.0637     0.0790
   85.0000     8.7231     6.6785     6.6660   -34.4527     7.9750    96.6356     2.5464     0.0448     0.0841
   85.5000     8.5637     6.6948     6.7991   -34.5629     7.9965    96.6440     2.5525     0.0532     0.0845
   86.0000     9.0508     6.7112     6.8653   -34.6731     8.0057    96.6348     2.5602     0.0648     0.0819
   86.5000     8.8291     6.7276     6.8493   -34.7896     8.0050    96.6318     2.5669     0.0654     0.0793
   87.0000     8.6462     6.8038     6.8383   -34.4967     8.0043    95.7006     2.5670     0.0567     0.0782
   87.5000     8.9989     6.8031     6.8274   -33.9493     8.0035    94.2487     2.5655     0.0305     0.0846
   88.0000     9.5027     6.9396     6.8165   -32.9306     8.0027    93.5333     2.5524     0.0052     0.0923
   88.5000     9.8338     7.0628     6.8012   -32.2834     8.0019    93.8338     2.5382    -0.0129     0.0984
   89.0000     9.5296     7.1882     6.8181   -33.8002     8.0012    94.1181     2.5234    -0.0043     0.0935
   89.5000     9.3046     7.3157     6.8491   -33.1083     8.0004    93.8275     2.5209    -0.0025     0.0865
   90.0000     9.9249     7.4456     6.8802   -34.3768     7.9996    92.3239     2.5311     0.0101     0.0795
   90.5000     9.7380     7.5940     6.9114   -34.3329     7.9988    90.8794     2.5473     0.0250     0.0732
   91.0000    10.2925     7.7378     6.9427   -33.3652     7.9980    89.7529     2.5629     0.0250     0.0703
   91.5000     9.2998     7.7289     6.9742   -32.2945     7.9973    89.2817     2.5728     0.0159     0.0637
   92.0000     9.5366     7.8096     7.0058   -31.2423     7.9965    88.1736     2.6032     0.0205     0.0482
   92.5000    11.1405     7.8917     7.0376   -30.6072     7.9957    88.5904     2.6348     0.0305     0.0341
   93.0000    14.9137     8.0285     7.0681   -31.5786     7.9949    90.3254     2.5897     0.0375     0.0479
   93.5000    10.0969     8.2312     7.0966   -32.4379     7.9942    91.8048     2.5657     0.0203     0.0648
   94.0000    10.4280     8.4358     7.1253   -31.7708     7.9934    91.9392     2.5511     0.0210     0.0752
   94.5000    10.9893     8.6455     7.1541   -30.9740     7.9926    91.2875     2.5432     0.0275     0.0792
   95.0000    11.0860     8.8039     7.1830   -30.2899     7.9918    90.6225     2.5575     0.0268     0.0828
   95.5000    10.2977     8.7442     7.2326   -31.1486     7.9910    89.9578     2.5529     0.0216     0.0864
   96.0000    10.6652     8.6519     7.2865   -31.2965     7.9903    90.8247     2.5443     0.0258     0.0912
   96.5000    10.9906     8.5607     7.3407   -30.7326     7.9895    91.8575     2.5351     0.0320     0.0890
   97.0000    10.6242     8.4705     7.3953   -30.2881     7.9887    92.1644     2.5364     0.0372     0.0876
   97.5000     9.9249     8.3812     7.4510   -31.1736     7.9879    92.7447     2.5483     0.0312     0.0891
   98.0000    10.0807     8.2928     7.4973   -32.0593     7.9872    93.6473     2.5598     0.0359     0.0861
   98.5000    10.3172     8.2053     7.5566   -32.9522     7.9864    93.4780     2.5704     0.0516     0.0798
   99.0000    10.4894     8.1091     7.6164   -32.0121     7.9862    94.1085     2.5761     0.0653     0.0716
   99.5000     9.9238     8.0095     7.6767   -30.5769     7.9862    95.0271     2.5808     0.0655     0.0736
  100.0000    10.0410     7.9106     7.7375   -31.3876     7.9862    94.7683     2.5727     0.0654     0.0776
  100.5000    10.3010     7.8477     7.7987   -31.3446     7.9862    94.3398     2.5635     0.0625     0.0812
  101.0000    10.2977     7.7984     7.8604   -30.8356     7.9862    93.8914     2.5561     0.0599     0.0804
  101.5000     9.8338     7.7497     7.9226   -31.3700     7.9862    93.8220     2.5597     0.0558     0.0792
  102.0000    10.0956     7.7014     7.9548   -32.0625     7.9862    94.0742     2.5572     0.0405     0.0852
  102.5000    10.2977     7.6634     7.9477   -31.9499     7.9862    94.5055     2.5355     0.0251     0.0938
  103.0000     9.9249     7.6515     7.9396   -31.0937     7.9862    95.2116     2.5182     0.0147     0.0988
  103.5000    10.0798     7.6396     7.9314   -31.2984     7.9862    95.6609     2.5275     0.0090     0.0964
  104.0000    10.1096     7.6277     7.9233   -30.7082     7.9862    95.1852     2.5373     0.0074     0.0917
  104.5000     9.8310     7.6159     7.9153   -29.9556     7.9862    95.6547     2.5407     0.0065     0.0874
  105.0000     9.9276     7.6040     7.9072   -30.2989     7.9862    96.5292     2.5300     0.0055     0.0873
  105.5000     9.6862     7.5922     7.8991   -31.2891     7.9862    97.5155     2.5180    -0.0003     0.1038
  106.0000     9.4664     7.5804     7.8911   -31.5820     7.9862    98.5081     2.5062    -0.0067     0.1124
  106.5000     9.3908     7.5686     7.8834   -30.4069     7.9862    98.3224     2.4987    -0.0094     0.1059
  107.0000     9.7281     7.5568     7.8610   -30.4282     7.9862    97.4346     2.5171    -0.0074     0.1010
  107.5000    10.0069     7.5451     7.8364   -30.6221     7.9862    96.7670     2.5317    -0.0054     0.0963
  108.0000    10.1096     7.5334     7.8119   -30.1434     7.9862    96.9560     2.5465    -0.0019     0.0920
  108.5000     9.5655     7.5231     7.7874   -29.0514     7.9888    97.6410     2.5534     0.0074     0.0878
  109.0000     9.7499     7.5149     7.7631   -28.6895     7.9940    98.2791     2.5602     0.0163     0.0836
  109.5000     9.9249     7.5067     7.7388   -28.7517     7.9991    98.2999     2.5670     0.0255     0.0798
  110.0000     9.6497     7.4985     7.7147   -28.4749     8.0046    97.0557     2.5730     0.0233     0.0777
  110.5000     9.4298     7.4903     7.6905   -27.5777     8.0078    97.9366     2.5714     0.0177     0.0772
  111.0000     9.3028     7.4821     7.6668   -27.2511     8.0151    97.8560     2.5693     0.0212     0.0771
  111.5000     9.3364     7.4740     7.6144   -27.2449     8.0222    96.6891     2.5670     0.0156     0.0776
  112.0000     9.3910     7.4658     7.5503   -27.2435     8.0292    97.1822     2.5619     0.0093     0.0809
  112.5000     9.4451     7.4576     7.4867   -27.1521     8.0363    98.2458     2.5565     0.0031     0.0852
  113.0000     9.4778     7.2952     7.4236   -26.9135     8.0436    98.6715     2.5508    -0.0032     0.0896
