~VERSION INFORMATION
 VERS.                2.0:   CWLS LOG ASCII STANDARD - VERSION 2.0
 WRAP.                 NO:   ONE LINE PER DEPTH STEP
~WELL INFORMATION
#MNEM.UNIT      DATA TYPE    INFORMATION
#----------   ------------   ------------------------------
 STRT.F            0.0000:   START DEPTH
 STOP.F          635.0000:   STOP DEPTH
 STEP.F            0.1000:   STEP LENGTH
 NULL.          -999.2500:   NO VALUE
 COMP.   FLUOR DANIEL INC:   COMPANY
 WELL. NAVAL PETROLEUM RESERVE 3 SX-3 #72-7-3:   WELL
 FLD .             TEAPOT:   FIELD
 LOC .       S3 T38N R78W:   LOCATION
 CNTY.            NATRONA:   COUNTY
 STAT.            WYOMING:   STATE
 CTRY. UNITED STATES OF AMERICA:   COUNTRY
 SRVC.      Western Atlas:   SERVICE COMPANY
 DATE.        11-JAN-1995:   LOGDATE
 API .       490252264900:   API NUMBER
~CURVE INFORMATION
#MNEM.UNIT       API CODE    CURVE DESCRIPTION
#----------   ------------   ------------------------------
 DEPT.F                  :   
 GRR .GAPI   07 310 01 00:   GAMMA RAY
 RILD.OHMM   07 120 46 00:   INDUCTION LOG DEEP RESISTIVITY
 RILM.OHMM   07 120 44 00:   RESITIVITY LONG MEDIUM
~PARAMETER INFORMATION
#MNEM.UNIT          VALUE    DESCRIPTION
#----------   ------------   ------------------------------
 PD  .                 GL:   PERMANENT DATUM
 EPD .F              5144:   ELEVATION PERMANENT DATUM
 LMF .                 KB:   LOG MEASURED FROM
 DAPD.F                10:   FEET ABOVE PERMANENT DATUM
 DMF .                 KB:   DRILLING MEASURED FROM
 EKB .F              5154:   KELLING BUSHING
 EDF .F              5153:   DRILLING FLOOR
 EGL .F              5144:   GROUND LEVEL
 DATE.        11-JAN-1995:   RUN DATE
 RUN .                  1:   RUN NUMBER
 DD  .F               641:   DEPTH DRILLER
 DL  .F               642:   DEPTH LOGGER
 BLI .F               635:   BOTTOM LOG INTERVAL
 CS  .IN            9.625:   CASING SIZE
 CBD .F                97:   CASING BOTTOM DRILLER
 CBL .F                97:   CASING BOTTOM LOGGER
 BS  .IN             8.75:   BIT SIZE
 BSD .F               641:   BIT SIZE AT DEPTH
 DFT .                AIR:   DRILLING FLUID TYPE
 MRT .F                89:   MAXIMUM RECORDED TEMPERATURE
 LUN .            HL 6530:   LOGGING UNIT NUMBER
 LUL .             CASPER:   LOGGING UNIT LOCATION
 ENGI.      PAT RASMUSSEN:   RECORDING ENGINEER
 WITN.        STEVE HARDY:   WITNESSED BY
 CLNT.            A2DTECH:   CLIENT CODE
 ORIG.           5" PRINT:   ORIGIN OF DATA
 UWI .       490252264900:   UNIQUE WELL ID
 DICO. A2D Technologies, Inc.:   DIGITIZING COMPANY
~OTHER INFORMATION
~A    DEPT      GRR      RILD       RILM   
# ...
  618.8000  -999.2500     8.5204     8.8104
  618.9000  -999.2500     8.6316     8.8619
  619.0000  -999.2500     8.7318     8.9270
  619.1000  -999.2500     8.8331     9.0283
  619.2000  -999.2500     8.9354     9.0887
  619.3000  -999.2500     9.0450     9.1343
  619.4000  -999.2500     9.1441     9.2229
  619.5000  -999.2500     9.2106     9.3058
  619.6000  -999.2500     9.2639     9.3602
  619.7000  -999.2500     9.3175     9.4149
  619.8000  -999.2500     9.3639     9.4775
  619.9000  -999.2500     9.3639     9.5255
  620.0000  -999.2500     9.4146     9.5443
  620.1000  -999.2500     9.4690     9.5707
  620.2000  -999.2500     9.4946     9.6266
  620.3000  -999.2500     9.5128     9.6790
  620.4000  -999.2500     9.5678     9.6795
  620.5000  -999.2500     9.6272     9.6799
  620.6000  -999.2500     9.6272     9.7182
  620.7000  -999.2500     9.6272     9.7481
  620.8000  -999.2500     9.6563     9.7486
  620.9000  -999.2500     9.6941     9.7535
  621.0000  -999.2500     9.7009     9.8174
  621.1000  -999.2500     9.7615     9.8178
  621.2000  -999.2500     9.7615     9.8182
  621.3000  -999.2500     9.7615     9.8187
  621.4000  -999.2500     9.7615     9.8354
  621.5000  -999.2500     9.7615     9.8929
  621.6000  -999.2500     9.7615     9.9573
  621.7000  -999.2500     9.7615     9.9577
  621.8000  -999.2500     9.7615     9.9581
  621.9000  -999.2500     9.8016     9.9870
  622.0000  -999.2500     9.8294    10.0454
  622.1000  -999.2500     9.8294    10.0986
  622.2000  -999.2500     9.8353    10.0992
  622.3000  -999.2500     9.8978    10.1521
  622.4000  -999.2500     9.8978    10.1703
  622.5000  -999.2500     9.8978    10.2003
  622.6000  -999.2500     9.8978    10.2421
  622.7000  -999.2500     9.8978    10.2425
  622.8000  -999.2500     9.8978    10.2431
  622.9000  -999.2500     9.8978    10.2435
  623.0000  -999.2500     9.8978    10.2440
  623.1000  -999.2500     9.8978    10.2444
  623.2000  -999.2500     9.8978    10.2449
  623.3000  -999.2500     9.8978    10.2454
  623.4000  -999.2500     9.8978    10.2459
  623.5000  -999.2500     9.8978    10.2463
  623.6000  -999.2500     9.8978    10.2468
  623.7000  -999.2500     9.8978    10.2473
  623.8000  -999.2500     9.8978    10.2477
  623.9000  -999.2500     9.8978    10.2482
  624.0000  -999.2500     9.8978    10.2487
  624.1000  -999.2500     9.8978    10.2492
  624.2000  -999.2500     9.8978    10.2496
  624.3000  -999.2500     9.8978    10.2501
  624.4000  -999.2500     9.8978    10.2506
  624.5000  -999.2500     9.8978    10.2511
  624.6000  -999.2500     9.8978    10.2516
  624.7000  -999.2500     9.8978    10.2520
  624.8000  -999.2500     9.8978    10.2525
  624.9000  -999.2500     9.8978    10.2530
  625.0000  -999.2500     9.8712    10.2534
  625.1000  -999.2500     9.8294    10.2539
  625.2000  -999.2500     9.8258    10.2544
  625.3000  -999.2500     9.7615    10.2549
  625.4000  -999.2500     9.7131    10.2553
  625.5000  -999.2500     9.6573    10.2558
  625.6000  -999.2500     9.6017    10.2563
  625.7000  -999.2500     9.5465    10.2568
  625.8000  -999.2500     9.4916    10.2573
  625.9000  -999.2500     9.4291    10.2577
  626.0000  -999.2500     9.3828    10.2582
  626.1000  -999.2500     9.3639    10.2586
  626.2000  -999.2500     9.3397    10.2591
  626.3000  -999.2500     9.2859    10.2507
  626.4000  -999.2500     9.2351    10.1892
  626.5000  -999.2500     9.2351    10.1896
  626.6000  -999.2500     9.1901    10.1901
  626.7000  -999.2500     9.1373    10.1906
  626.8000  -999.2500     9.1079    10.1910
  626.9000  -999.2500     9.1079    10.1915
  627.0000  -999.2500     9.1059    10.1920
  627.1000  -999.2500     9.0450    10.1925
  627.2000  -999.2500     9.0014    10.1481
  627.3000  -999.2500     8.9826    10.1230
  627.4000  -999.2500     8.9826    10.1234
  627.5000  -999.2500     8.9826    10.1142
  627.6000  -999.2500     8.9826    10.0544
  627.7000  -999.2500     8.9826    10.0548
  627.8000  -999.2500     8.9397    10.0553
  627.9000  -999.2500     8.9205    10.0558
  628.0000  -999.2500     8.9205    10.0562
  628.1000  -999.2500     8.9205    10.0567
  628.2000  -999.2500     8.9205    10.0572
  628.3000  -999.2500     8.9205    10.0576
  628.4000  -999.2500     8.8784    10.0581
  628.5000  -999.2500     8.8589    10.0586
  628.6000  -999.2500     8.8589    10.0370
  628.7000  -999.2500     8.8589     9.9899
  628.8000  -999.2500     8.8581     9.9904
  628.9000  -999.2500     8.7977     9.9909
  629.0000  -999.2500     8.7977     9.9461
  629.1000  -999.2500     8.7668     9.9228
  629.2000  -999.2500     8.7370     9.9010
  629.3000  -999.2500     8.7370     9.8550
  629.4000  -999.2500     8.7370     9.8555
  629.5000  -999.2500     8.7370     9.8560
  629.6000  -999.2500     8.6965     9.8113
  629.7000  -999.2500     8.6766     9.7552
  629.8000  -999.2500     8.6565     9.6993
  629.9000  -999.2500     8.6167     9.6438
  630.0000  -999.2500     8.6167     9.5885
  630.1000  -999.2500     8.5672     9.5891
  630.2000  -999.2500     8.5179     9.5451
  630.3000  -999.2500     8.4981     9.4905
  630.4000  -999.2500     8.4788     9.4361
  630.5000  -999.2500     8.4394     9.3821
  630.6000  -999.2500     8.4394     9.3280
  630.7000  -999.2500     8.3913     9.2008
  630.8000  -999.2500     8.3811     9.2011
  630.9000  -999.2500     8.3528     9.1369
  631.0000  -999.2500     8.3479     9.0536
  631.1000  -999.2500     8.3344     9.0018
  631.2000  -999.2500     8.2888     8.9502
  631.3000  -999.2500     8.2432     8.8897
  631.4000  -999.2500     8.1975     8.8481
  631.5000  -999.2500     8.1519     8.7661
  631.6000  -999.2500     8.1063     8.7077
  631.7000  -999.2500     8.0607     8.6859
  631.8000  -999.2500     8.0151     8.5886
  631.9000  -999.2500     7.9695     8.5891
  632.0000  -999.2500     7.9238     8.5079
  632.1000  -999.2500  -999.2500     8.4408
  632.2000  -999.2500  -999.2500     8.3925
  632.3000  -999.2500  -999.2500     8.3444
  632.4000  -999.2500  -999.2500     8.2966
  632.5000  -999.2500  -999.2500     8.2413
  632.6000  -999.2500  -999.2500     8.2019
  632.7000  -999.2500  -999.2500     8.1550
  632.8000  -999.2500  -999.2500     8.1083
  632.9000  -999.2500  -999.2500     8.0619
  633.0000  -999.2500  -999.2500     8.0175
  633.1000  -999.2500  -999.2500     8.0180
  633.2000  -999.2500  -999.2500     7.9794
  633.3000  -999.2500  -999.2500     7.9337
  633.4000  -999.2500  -999.2500     7.8883
  633.5000  -999.2500  -999.2500     7.8431
  633.6000  -999.2500  -999.2500     7.7982
  633.7000  -999.2500  -999.2500     7.7469
  633.8000  -999.2500  -999.2500     7.7092
  633.9000  -999.2500  -999.2500     7.6364
  634.0000  -999.2500  -999.2500     7.5685
  634.1000  -999.2500  -999.2500     7.5252
  634.2000  -999.2500  -999.2500     7.4797
  634.3000  -999.2500  -999.2500     7.3818
  634.4000  -999.2500  -999.2500     7.2733
  634.5000  -999.2500  -999.2500     7.1485
  634.6000  -999.2500  -999.2500     7.0444
  634.7000  -999.2500  -999.2500     6.9636
  634.8000  -999.2500  -999.2500     6.8862
  634.9000  -999.2500  -999.2500     6.8415
  635.0000  -999.2500  -999.2500     6.8075
