~VERSION INFORMATION
 VERS.                2.0:   CWLS LOG ASCII STANDARD - VERSION 2.0
 WRAP.                 NO:   ONE LINE PER DEPTH STEP
~WELL INFORMATION
#MNEM.UNIT      DATA TYPE    INFORMATION
#----------   ------------   ------------------------------
 STRT.F            5.0000:   START DEPTH
 STOP.F          640.0000:   STOP DEPTH
 STEP.F            0.5000:   STEP LENGTH
 NULL.          -999.2500:   NO VALUE
 COMP. BROWN JOHN E&C INC:   COMPANY
 WELL.     85-1 X 3 #85-3:   WELL
 FLD .             TEAPOT:   FIELD
 LOC .       S3 T38N R78W:   LOCATION
 CNTY.            NATRONA:   COUNTY
 STAT.            WYOMING:   STATE
 CTRY. UNITED STATES OF AMERICA:   COUNTRY
 SRVC.     Atlas Wireline:   SERVICE COMPANY
 DATE.        30-DEC-1991:   LOGDATE
 API .       490252249400:   API NUMBER
~CURVE INFORMATION
#MNEM.UNIT       API CODE    CURVE DESCRIPTION
#----------   ------------   ------------------------------
 DEPT.F                  :   
 GRR .GAPI   06 310 01 00:   GAMMA RAY FROM RESISTIVITY
 RFOC.OHMM   06 220 04 00:   RESISTIVITY FOCUSED LOG RES.
 RILD.OHMM   06 120 46 00:   DEEP INDUCTION RESISTIVITY
 RILM.OHMM   06 120 44 00:   INDUCTION LOG MEDIUM RESISTIVITY
 SPR .MV     06 010 01 00:   SPONTANEOUS POTENTIAL FROM RES.
 CALD.IN     45 280 60 00:   CALIPER FROM DENSITY LOG
 CORR.G/C3   45 356 01 00:   DENSITY CORRECTION
 DEN .G/C3   45 350 01 00:   COMPENSATED BULK DENSTIY
 PORD.DEC    45 890 12 00:   POROSITY DENSITY SANDSTONE
 CNC .DEC    42 890 03 00:   NEUTRON POROSITY SANDSTONE
~PARAMETER INFORMATION
#MNEM.UNIT          VALUE    DESCRIPTION
#----------   ------------   ------------------------------
 PD  .                 GL:   PERMANENT DATUM
 EPD .F              5156:   ELEVATION PERMANENT DATUM
 LMF .                 KB:   LOG MEASURED FROM
 DAPD.F                10:   FEET ABOVE PERMANENT DATUM
 DMF .                 KB:   DRILLING MEASURED FROM
 EKB .F              5166:   KELLING BUSHING
 EGL .F              5156:   GROUND LEVEL
 DATE.        30-DEC-1991:   RUN DATE
 RUN .                  1:   RUN NUMBER
 DD  .F               641:   DEPTH DRILLER
 DL  .F               642:   DEPTH LOGGER
 BLI .F               261:   BOTTOM LOG INTERVAL
 TLI .F               172:   TOP LOG INTERVAL
 CS  .IN            8.625:   CASING SIZE
 CBD .F               163:   CASING BOTTOM DRILLER
 CBL .F               172:   CASING BOTTOM LOGGER
 BS  .IN            7.875:   BIT SIZE
 BSD .F               641:   BIT SIZE AT DEPTH
 DFT .               CHEM:   DRILLING FLUID TYPE
 DFD .               17.1:   DRILLING FLUID DENSITY
 DFV .                 47:   DRILLING FLUID VISCOSITY
 DFPH.                9.0:   DRILLING FLUID PH
 DFL .                6.8:   DRILLING FLUID LOSS
 MSS .                PIT:   MUD SAMPLE SOURCE
 RMS .OHMM           1.40:   RESISTIVITY MUD SAMPLE
 MST .F               100:   MUD SAMPLE TEMPERATURE
 RMF .OHMM           1.12:   RESISTIVITY MUD FILTRATE SAMPLE
 MFST.F               100:   MUD FILTRATE SAMPLE TEMPERATURE
 RMC .OHMM           1.75:   RESISTIVITY MUD CAKE
 MCST.F               100:   MUD CAKE SAMPLE TEMPERATURE
 MFSS.               MEAS:   MUD FILTRATE SAMPLE SOURCE
 MCSS.               CALC:   MUD CAKE SAMPLE SOURCE
 RMB .OHMM           .536:   RESISTIVITY MUD AT BHT
 BHT .F               261:   BOTTOM HOLE TEMPERATURE
 TCS .HRS               4:   TIME CURCULATED STOPPED
 MRT .F               261:   MAXIMUM RECORDED TEMPERATURE
 LUN .            HL-6387:   LOGGING UNIT NUMBER
 LUL .          CASPER/WT:   LOGGING UNIT LOCATION
 ENGI.             ZIEGER:   RECORDING ENGINEER
 WITN.         LOFRENIERI:   WITNESSED BY
 CLNT.            A2DTECH:   CLIENT CODE
 ORIG.           5" PRINT:   ORIGIN OF DATA
 UWI .       490252249400:   UNIQUE WELL ID
 DICO. A2D Technologies, Inc.:   DIGITIZING COMPANY
~OTHER INFORMATION
~A    DEPT      GRR      RFOC       RILD       RILM        SPR       CALD       CORR        DEN       PORD        CNC   
# ...
  474.0000    70.6307    11.8113    10.8992    10.8634   -59.9027     9.0510    -0.0015     2.4290     0.1535     0.2535
  474.5000    70.0363    11.7308    10.8234    10.8649   -59.7472     9.0520    -0.0015     2.4313     0.1517     0.2529
  475.0000    69.7428    11.7324    10.7481    10.7905   -59.5918     9.0530    -0.0030     2.4335     0.1495     0.2517
  475.5000    70.6939    11.7340    10.6734    10.6425   -59.4363     9.0541    -0.0030     2.4344     0.1476     0.2507
  476.0000    71.2755    11.5735    10.5923    10.4969   -59.1298     9.0553    -0.0015     2.4381     0.1462     0.2498
  476.5000    70.3766    11.4147    10.4523    10.3530   -58.8233     9.0564     0.0016     2.4404     0.1456     0.2495
  477.0000    69.1752    11.1800    10.3074    10.2824   -58.6677     9.0574     0.0047     2.4434     0.1441     0.2495
  477.5000    68.5767    10.9500    10.1646    10.2124   -58.3603     9.0584     0.0076     2.4449     0.1411     0.2492
  478.0000    70.7057    10.7248    10.0939    10.2141   -58.2048     9.0595     0.0061     2.4374     0.1401     0.2477
  478.5000    69.8068    10.7178    10.0237    10.1441   -58.0494     9.0605     0.0016     2.4328     0.1435     0.2462
  479.0000    68.3028    10.8038    10.0237    10.0750   -57.8939     9.0464    -0.0044     2.4321     0.1475     0.2453
  479.5000    68.0090    11.0435    10.0237    10.0064   -57.7385     9.0626    -0.0014     2.4458     0.1480     0.2447
  480.0000    67.7153    11.2677    10.0237     9.9385   -57.4319     9.0790     0.0077     2.4556     0.1368     0.2440
  480.5000    68.3315    11.1909     9.9540     9.8022   -57.1254     9.0800     0.0122     2.4647     0.1320     0.2428
  481.0000    68.9454    11.0375     9.8848     9.7283   -56.8178     9.0656     0.0138     2.4692     0.1295     0.2416
  481.5000    70.7697    10.7353     9.7478     9.6691   -56.5113     9.0063     0.0123     2.4685     0.1274     0.2395
  482.0000    72.5939    10.4415     9.7478     9.6708   -56.2048     9.0225     0.0032     2.4668     0.1268     0.2398
  482.5000    75.3259    10.3703     9.6801     9.6045   -55.8983     9.0690    -0.0073     2.4587     0.1272     0.2407
  483.0000    76.8476    10.3718     9.7478     9.6062   -55.7429     9.1003    -0.0088     2.4519     0.1307     0.2416
  483.5000    76.5539    10.4458     9.7478     9.6075   -55.7385     9.1014    -0.0058     2.4466     0.1349     0.2425
  484.0000    74.7232    10.4475     9.8161     9.6088   -55.7341     9.0872    -0.0027     2.4429     0.1377     0.2422
  484.5000    71.6380    10.5220     9.8848     9.6773   -56.3449     9.0579     0.0003     2.4414     0.1398     0.2398
  485.0000    69.6234    10.5971    10.0237     9.7464   -56.7827     9.0287     0.0003     2.4414     0.1419     0.2379
  485.5000    68.4219    10.7473    10.0939     9.8162   -56.7772     8.9842    -0.0027     2.4429     0.1425     0.2373
  486.0000    68.7333    10.8997    10.1646     9.9554   -56.6218     8.9401    -0.0027     2.4444     0.1415     0.2376
  486.5000    68.4396    11.0543    10.2358    10.0264   -56.4663     8.9411    -0.0027     2.4407     0.1406     0.2382
  487.0000    68.4484    11.1331    10.3074    10.0979   -56.1598     8.9270    -0.0027     2.4316     0.1422     0.2394
  487.5000    68.1543    11.0445    10.3074    10.0291   -56.1554     8.9280    -0.0026     2.4264     0.1473     0.2415
  488.0000    69.0712    10.8298    10.2358    10.0305   -56.6042     8.9293    -0.0026     2.4309     0.1500     0.2427
  488.5000    70.2905    10.9074    10.1646    10.0318   -57.0530     8.9303    -0.0011     2.4387     0.1467     0.2436
  489.0000    70.2471    11.0621    10.0237    10.0332   -56.8964     8.9313     0.0004     2.4460     0.1439     0.2449
  489.5000    69.4003    10.9867     9.9540     9.9648   -56.7410     8.9324     0.0035     2.4513     0.1397     0.2494
  490.0000    69.4113    10.7608     9.8161     9.8285   -56.2834     8.9180     0.0065     2.4559     0.1367     0.2521
  490.5000    70.3279    10.3935     9.7478     9.6934   -55.9769     8.9193     0.0063     2.4604     0.1349     0.2530
  491.0000    71.5470    10.1760     9.7478     9.4280   -55.5193     8.9203     0.0005     2.4635     0.1327     0.2494
  491.5000    73.3712    10.0401     9.6801     9.2344   -55.0618     8.9216    -0.0010     2.4666     0.1297     0.2454
  492.0000    74.5903    10.0418     9.5459     9.1712   -54.9063     8.9226     0.0020     2.4703     0.1276     0.2430
  492.5000    74.2966    10.0432     9.5459     9.1090   -54.5997     8.9236     0.0051     2.4711     0.1267     0.2448
  493.0000    73.0951    10.0445     9.4795     9.1103   -54.4433     8.9247     0.0066     2.4718     0.1276     0.2505
  493.5000    73.4087    10.0459     9.4795     9.0482   -54.4389     8.9256     0.0066     2.4703     0.1258     0.2502
  494.0000    76.1407    10.0472     9.4795     8.9244   -54.7377     8.9267     0.0051     2.4658     0.1255     0.2490
  494.5000    76.7547    10.1189     9.4795     8.8636   -55.1854     8.9277     0.0051     2.4606     0.1282     0.2481
  495.0000    75.2507    10.1959     9.4795     8.8029   -55.3331     8.9288     0.0021     2.4559     0.1318     0.2478
  495.5000    72.2338    10.3359     9.4795     8.8044   -55.3276     8.9301    -0.0024     2.4523     0.1342     0.2475
  496.0000    71.3327    10.4097     9.5459     8.8672   -55.3232     8.9311    -0.0024     2.4478     0.1354     0.2478
  496.5000    75.8823    10.5573     9.8161     9.2473   -55.4699     8.9321    -0.0009     2.4380     0.1357     0.2497
  497.0000    77.4040    10.8573    10.1646    10.1260   -55.6166     8.9331    -0.0008     2.3934     0.1517     0.2532
  497.5000    77.3828    11.4019    10.5992    10.6389   -55.9143     8.9188    -0.0054     2.3390     0.1852     0.2568
  498.0000    75.3058    12.1419    11.2077    11.3244   -56.5130     8.9200    -0.0114     2.3162     0.2203     0.2586
  498.5000    72.5915    13.1116    12.3577    12.3144   -58.6234     8.9211    -0.0159     2.2802     0.2296     0.2580
  499.0000    68.6669    14.3982    13.5521    13.2978   -61.0360     8.9221    -0.0174     2.2636     0.2363     0.2583
  499.5000    64.7423    16.6241    15.4493    14.4602   -61.4849     8.9234    -0.0174     2.2507     0.2456     0.2616
  500.0000    61.4228    18.3311    16.5658    15.7242   -62.5378     8.9395    -0.0143     2.2455     0.2574     0.2647
  500.5000    60.2214    19.1169    18.0126    17.0987   -63.1566     8.9248    -0.0111     2.2455     0.2571     0.2680
  501.0000    60.2302    20.3576    19.3143    18.4642   -64.0385     8.9257    -0.0052     2.2463     0.2571     0.2701
  501.5000    55.7109    22.1372    21.0011    19.5333   -64.9594     8.9263    -0.0007     2.2538     0.2580     0.2713
  502.0000    50.8814    23.4102    21.8990    20.3630   -66.0183     8.9270     0.0008     2.2727     0.2565     0.2637
  502.5000    49.3394    25.4657    21.8990    20.5089   -66.3218     8.9428     0.0008     2.2955     0.2450     0.2595
  503.0000    49.9970    27.8873    21.7649    19.9387   -66.1722     8.9436    -0.0051     2.3235     0.2317     0.2565
  503.5000    51.2216    31.6718    21.6056    19.6412   -66.1737     8.9443    -0.0111     2.3415     0.2117     0.2546
  504.0000    53.9564    32.7528    21.0251    18.9918   -66.1755     8.9449    -0.0156     2.3408     0.2045     0.2543
  504.5000    57.2963    28.8956    20.7358    18.6000   -66.1770     8.9456    -0.0050     2.3393     0.2029     0.2543
  505.0000    60.3336    25.4926    20.1685    18.3433   -66.0274     8.9463    -0.0005     2.3461     0.2026     0.2543
  505.5000    62.1606    22.4905    19.6160    17.8403   -66.0288     8.9317    -0.0065     2.3589     0.1993     0.2540
  506.0000    62.7776    21.7241    18.8142    17.3508   -65.7282     8.9324    -0.0170     2.3582     0.1932     0.2531
  506.5000    62.7919    22.0338    18.2989    16.7381   -65.4275     8.9331    -0.0230     2.3511     0.1911     0.2525
  507.0000    63.4086    22.0384    17.6738    16.4117   -64.8026     8.9339    -0.0184     2.3333     0.1965     0.2525
