~VERSION INFORMATION
 VERS.                2.0:   CWLS LOG ASCII STANDARD - VERSION 2.0
 WRAP.                 NO:   ONE LINE PER DEPTH STEP
~WELL INFORMATION
#MNEM.UNIT      DATA TYPE    INFORMATION
#----------   ------------   ------------------------------
 STRT.F           28.0000:   START DEPTH
 STOP.F          546.5000:   STOP DEPTH
 STEP.F            0.5000:   STEP LENGTH
 NULL.          -999.2500:   NO VALUE
 COMP. LAWRENCE/ALLISON INC:   COMPANY
 WELL.    55-66 SX #10-10:   WELL
 FLD .            WILDCAT:   FIELD
 LOC .      S10 T38N R78W:   LOCATION
 CNTY.            NATRONA:   COUNTY
 STAT.            WYOMING:   STATE
 CTRY. UNITED STATES OF AMERICA:   COUNTRY
 SRVC.            Unknown:   SERVICE COMPANY
 DATE.        20-AUG-1984:   LOGDATE
 API .       490251098000:   API NUMBER
~CURVE INFORMATION
#MNEM.UNIT       API CODE    CURVE DESCRIPTION
#----------   ------------   ------------------------------
 DEPT.F                  :   
 CNC .DEC    42 890 03 00:   NEUTRON POROSITY SANDSTONE
 CALD.IN     45 280 60 00:   CALIPER FROM DENSITY LOG
 DEN .G/C3   45 350 01 00:   COMPENSATED BULK DENSTIY
 PORD.DEC    45 890 12 00:   POROSITY DENSITY STONESTONE
 CORR.G/C3   45 356 01 00:   DENSITY CORRECTION
 SPR .MV     07 010 01 00:   SPONTANEOUS POTENTIAL
 RFOC.OHMM   07 220 04 00:   RESISTIVITY FOCUSED LOG
 RILD.OHMM   07 120 46 00:   INDUCTION LOG DEEP RESISTIVITY
 RILM.OHMM   07 120 44 00:   INDUCTION LOG MEDIUM RESISTIVITY
 AC  .US/F   60 520 00 00:   ACCOUSTIC
 GRD .GAPI   45 310 01 00:   GAMMA RAY FROM DENSITY LOG
~PARAMETER INFORMATION
#MNEM.UNIT          VALUE    DESCRIPTION
#----------   ------------   ------------------------------
 PD  .                 GL:   PERMANENT DATUM
 EPD .F              5200:   ELEVATION PERMANENT DATUM
 LMF .                 GL:   LOG MEASURED FROM
 DMF .                 GL:   DRILLING MEASURED FROM
 EGL .F              5200:   GROUND LEVEL
 DATE.        20-AUG-1984:   RUN DATE
 RUN .                  1:   RUN NUMBER
 DD  .F               554:   DEPTH DRILLER
 DL  .F               548:   DEPTH LOGGER
 BLI .F               546:   BOTTOM LOG INTERVAL
 TLI .F                30:   TOP LOG INTERVAL
 CS  .IN            9.625:   CASING SIZE
 CBD .F                46:   CASING BOTTOM DRILLER
 CBL .F                41:   CASING BOTTOM LOGGER
 BS  .IN            7.875:   BIT SIZE
 BSD .F               554:   BIT SIZE AT DEPTH
 DFT .          KCL WATER:   DRILLING FLUID TYPE
 MSS .           FLOWLINE:   MUD SAMPLE SOURCE
 RMS .OHMM           .691:   RESISTIVITY MUD SAMPLE
 MST .F                82:   MUD SAMPLE TEMPERATURE
 MRT .F               100:   MAXIMUM RECORDED TEMPERATURE
 LUN .               6307:   LOGGING UNIT NUMBER
 LUL .               GLTE:   LOGGING UNIT LOCATION
 ENGI.           FAHLSING:   RECORDING ENGINEER
 WITN.           JENNINGS:   WITNESSED BY
 CLNT.            A2DTECH:   CLIENT CODE
 ORIG.       2", 5" PRINT:   ORIGIN OF DATA
 UWI .       490251098000:   UNIQUE WELL ID
 DICO. A2D Technologies, Inc.:   DIGITIZING COMPANY
~OTHER INFORMATION
~A   DEPT      CNC       CALD        DEN       PORD       CORR        SPR       RFOC       RILD       RILM         AC        GRD   
# ...
  119.5000     0.0501     7.9020     2.4590     0.1350     0.0220   -30.8930    53.6780    11.0630    13.9450  -999.2500   183.9040
  120.0000     0.0535     7.9020     2.4540     0.1360     0.0250   -29.1500    64.8000    10.8320    13.8240  -999.2500   179.6290
  120.5000     0.0525     7.9020     2.4520     0.1350     0.0310   -30.0240    75.9220    10.7540    13.7830  -999.2500   176.1590
  121.0000     0.0521     7.9020     2.4550     0.1330     0.0270   -31.5880    90.7230    10.7930    13.7830  -999.2500   174.1710
  121.5000     0.0487     7.9020     2.4580     0.1320     0.0260   -32.2560    81.0400    10.8530    13.7830  -999.2500   173.6370
  122.0000     0.0496     7.9020     2.4620     0.1380     0.0280   -32.1580    66.5730    10.7330    13.7830  -999.2500   171.8760
  122.5000     0.0504     7.9020     2.4510     0.1440     0.0190   -30.9990    52.1060    10.5540    13.7830  -999.2500   169.3910
  123.0000     0.0495     7.9020     2.4370     0.1510     0.0020   -28.8130    49.1650    10.3760    13.7270  -999.2500   168.8040
  123.5000     0.0488     7.9020     2.4260     0.1500    -0.0140   -26.6400    49.0060    10.1770    13.6450  -999.2500   173.5820
  124.0000     0.0491     7.9020     2.4320     0.1470    -0.0080   -24.4770    47.9410    10.2280    13.5620  -999.2500   179.1470
  124.5000     0.0506     7.9020     2.4380     0.1460     0.0040   -22.8870    45.7660    10.3010    13.4800  -999.2500   181.0100
  125.0000     0.0514     7.9020     2.4350     0.1480     0.0000   -22.9170    43.5920    10.3750    13.3970  -999.2500   181.0910
  125.5000     0.0508     7.9020     2.4320     0.1500    -0.0090   -23.2970    40.7770    10.4480    13.3150  -999.2500   183.5960
  126.0000     0.0492     7.9020     2.4350     0.1470    -0.0120   -24.0450    43.4250    10.5580    13.2320  -999.2500   186.4380
  126.5000     0.0485     7.9020     2.4440     0.1390     0.0090   -24.7950    47.1800    10.4090    13.1500  -999.2500   184.7660
  127.0000     0.0481     7.9020     2.4570     0.1300     0.0290   -25.6020    50.9350    10.2410    13.0440  -999.2500   179.3850
  127.5000     0.0481     7.9020     2.4670     0.1250     0.0490   -26.6700    54.2210    10.0720    13.1640  -999.2500   174.1520
  128.0000     0.0490     7.9020     2.4590     0.1340     0.0450   -27.7160    52.7460     9.9400    12.9430  -999.2500   169.5910
  128.5000     0.0492     7.9020     2.4480     0.1400     0.0370   -28.7720    49.1800     9.8400    12.7970  -999.2500   171.6540
  129.0000     0.0492     7.9020     2.4430     0.1410     0.0280   -28.6710    44.2930     9.7400    12.6510  -999.2500   174.2770
  129.5000     0.0491     7.9020     2.4460     0.1400     0.0200   -27.5550    45.0470     9.6410    12.5060  -999.2500   176.8120
  130.0000     0.0491     7.9020     2.4450     0.1440     0.0110   -27.0510    46.4580     9.5410    12.3600  -999.2500   179.3240
  130.5000     0.0497     7.9020     2.4360     0.1500     0.0030   -26.9890    47.8690     9.4420    12.2140  -999.2500   178.6840
  131.0000     0.0502     7.9020     2.4270     0.1540    -0.0060   -26.9200    49.2800     9.3420    12.0680  -999.2500   175.2730
  131.5000     0.0508     7.9020     2.4190     0.1560    -0.0140   -26.8550    49.9160     9.2430    11.9220  -999.2500   171.8940
  132.0000     0.0507     7.9020     2.4200     0.1550    -0.0090   -25.1420    49.6220     9.1890    11.7770  -999.2500   170.8050
  132.5000     0.0498     7.9020     2.4230     0.1540    -0.0030   -22.9440    49.4590     9.1630    11.6310  -999.2500   172.0460
  133.0000     0.0487     7.9020     2.4260     0.1510     0.0040   -19.8540    53.2430     9.1370    11.4850  -999.2500   173.7360
  133.5000     0.0481     7.9010     2.4290     0.1490     0.0110   -16.7670    65.0680     9.1110    11.3640  -999.2500   175.4120
  134.0000     0.0471     7.9000     2.4310     0.1470     0.0180   -13.7380    76.8940     9.0850    11.3640  -999.2500   177.1160
  134.5000     0.0474     7.9000     2.4380     0.1440     0.0250   -13.3150    84.2910     9.0590    11.4010  -999.2500   175.6680
  135.0000     0.0492     7.8990     2.4450     0.1400     0.0320   -13.2480    82.7550     9.0330    11.4660  -999.2500   171.9230
  135.5000     0.0504     7.8990     2.4520     0.1360     0.0390   -13.7860    79.0380     9.0070    11.5300  -999.2500   168.2120
  136.0000     0.0507     7.8980     2.4550     0.1350     0.0460   -14.8450    74.7970     8.9810    11.5950  -999.2500   165.1730
  136.5000     0.0497     7.8970     2.4500     0.1380     0.0520   -16.7320    68.8260     8.9550    11.6600  -999.2500   170.6120
  137.0000     0.0490     7.8970     2.4440     0.1420     0.0560   -19.1460    62.7830     8.9290    11.7250  -999.2500   176.0650
  137.5000     0.0486     7.8960     2.4390     0.1460     0.0370   -21.5560    56.7400     8.9020    11.7890  -999.2500   178.5200
  138.0000     0.0486     7.8950     2.4370     0.1470     0.0180   -23.9710    50.6970     8.8760    11.5280  -999.2500   171.7840
  138.5000     0.0485     7.8950     2.4350     0.1470    -0.0010   -26.6340    44.7020     8.7890    11.1480  -999.2500   167.0450
  139.0000     0.0475     7.8940     2.4340     0.1480    -0.0110   -27.8750    44.2930     8.6000    10.7680  -999.2500   171.5940
  139.5000     0.0466     7.8940     2.4320     0.1510    -0.0020   -27.9990    47.7050     8.4100    10.3880  -999.2500   176.1740
  140.0000     0.0456     7.8930     2.4270     0.1540     0.0060   -29.0950    53.8790     8.2210    10.0080  -999.2500   178.8760
  140.5000     0.0443     7.8920     2.4190     0.1540     0.0140   -33.8000    60.0530     8.0310     9.6270  -999.2500   179.4800
  141.0000     0.0437     7.8920     2.4210     0.1510     0.0200   -40.3500    66.2270     7.8420     9.2470  -999.2500   178.4340
  141.5000     0.0464     7.8910     2.4270     0.1470     0.0150   -46.8920    72.4010     7.6520     9.0310  -999.2500   178.8230
  142.0000     0.0479     7.8900     2.4340     0.1440     0.0190   -51.7780    82.3890     7.4630     9.1470  -999.2500   179.3810
  142.5000     0.0485     7.8900     2.4400     0.1410     0.0300   -54.2040    93.1430     7.2430     9.2420  -999.2500   179.9480
  143.0000     0.0475     7.8890     2.4460     0.1380     0.0400   -53.9730   103.8970     7.2930     9.3370  -999.2500   180.1640
  143.5000     0.0468     7.8890     2.4460     0.1430     0.0400   -54.0910   116.2790     7.3710     9.4320  -999.2500   179.6600
  144.0000     0.0471     7.8880     2.4380     0.1490     0.0320   -57.9590   106.0890     7.4480     9.5270  -999.2500   179.1980
  144.5000     0.0473     7.8870     2.4330     0.1470     0.0230   -65.1040    82.2160     7.5260     9.6220  -999.2500   177.8500
  145.0000     0.0476     7.8870     2.4370     0.1420     0.0150   -67.0680    58.3420     7.6040     9.7170  -999.2500   176.4510
  145.5000     0.0482     7.8860     2.4440     0.1380     0.0080   -67.1030    34.4690     7.6820     9.8120  -999.2500   175.0580
  146.0000     0.0484     7.8860     2.4510     0.1360     0.0020   -66.4000    30.9490     7.7600     9.9000  -999.2500   173.6520
  146.5000     0.0493     7.8850     2.4470     0.1390    -0.0040   -65.6780    53.0830     7.8370    10.0180  -999.2500   172.8010
  147.0000     0.0496     7.8840     2.4430     0.1420     0.0020   -64.6680    77.2320     7.9150    10.1140  -999.2500   179.0510
  147.5000     0.0495     7.8840     2.4390     0.1450     0.0070   -62.6420   100.3760     7.9930    10.2110  -999.2500   183.0240
  148.0000     0.0482     7.8830     2.4340     0.1480     0.0130   -60.6460    93.2160     8.0710    10.3070  -999.2500   180.2520
  148.5000     0.0476     7.8820     2.4300     0.1500     0.0190   -58.6570    80.2700     8.1490    10.4030  -999.2500   176.1870
  149.0000     0.0481     7.8650     2.4260     0.1520     0.0240   -56.6690    67.3230     8.2270    10.5000  -999.2500   178.5500
  149.5000     0.0484     7.8500     2.4240     0.1510     0.0250   -54.6660    54.3770     8.3040    10.5960  -999.2500   182.7790
