~VERSION INFORMATION
 VERS.                2.0:   CWLS LOG ASCII STANDARD - VERSION 2.0
 WRAP.                 NO:   ONE LINE PER DEPTH STEP
~WELL INFORMATION
#MNEM.UNIT      DATA TYPE    INFORMATION
#----------   ------------   ------------------------------
 STRT.F          598.0000:   START DEPTH
 STOP.F         2552.0000:   STOP DEPTH
 STEP.F            0.5000:   STEP LENGTH
 NULL.          -999.2500:   NO VALUE
 COMP. FENIX & SCISSON INC:   COMPANY
 WELL.     15-SHX-2 #15-2:   WELL
 FLD .             TEAPOT:   FIELD
 LOC .       S2 T38N R78W:   LOCATION
 CNTY.            NATRONA:   COUNTY
 STAT.            WYOMING:   STATE
 CTRY. UNITED STATES OF AMERICA:   COUNTRY
 SRVC.              Welex:   SERVICE COMPANY
 DATE.        03-JUN-1979:   LOGDATE
 API .       490251002100:   API NUMBER
~CURVE INFORMATION
#MNEM.UNIT       API CODE    CURVE DESCRIPTION
#----------   ------------   ------------------------------
 DEPT.F                  :   
 CALD.IN     45 280 60 00:   CALIPER
 GRD .GAPI   45 310 01 00:   GAMMA RAY FROM DENSITY LOG
 RHOB.G/C3   45 350 01 00:   BULK DENSITY
 DPHI.DEC    45 890 12 00:   DENSITY POROSITY SANDSTONE
 CORR.G/C3   45 356 01 00:   DENSITY CORRECTION
~PARAMETER INFORMATION
#MNEM.UNIT          VALUE    DESCRIPTION
#----------   ------------   ------------------------------
 PD  .                 GL:   PERMANENT DATUM
 EPD .F              5118:   ELEVATION PERMANENT DATUM
 LMF .                 KB:   LOG MEASURED FROM
 DAPD.F                10:   FEET ABOVE PERMANENT DATUM
 DMF .                 KB:   DRILLING MEASURED FROM
 EKB .F              5128:   KELLING BUSHING
 EGL .F              5118:   GROUND LEVEL
 DATE.             6-3-79:   RUN DATE
 RUN .                  1:   RUN NUMBER
 DD  .F              2569:   DEPTH DRILLER
 DL  .F              2554:   DEPTH LOGGER
 BLI .F              2552:   BOTTOM LOG INTERVAL
 TLI .F               622:   TOP LOG INTERVAL
 CS  .IN            9.625:   CASING SIZE
 CBD .F               622:   CASING BOTTOM DRILLER
 BS  .IN             8.75:   BIT SIZE
 BSD .F              2569:   BIT SIZE AT DEPTH
 DFT .        AIR DRILLED:   DRILLING FLUID TYPE
 TCS .HRS             2.5:   TIME CURCULATED STOPPED
 MRT .F               124:   MAXIMUM RECORDED TEMPERATURE
 ENGI.               REIN:   RECORDING ENGINEER
 WITN.              AMEND:   WITNESSED BY
 CLNT.            A2DTECH:   CLIENT CODE
 ORIG.           5" PRINT:   ORIGIN OF DATA
 UWI .       490251002100:   UNIQUE WELL ID
 DICO. A2D Technologies, Inc.:   DIGITIZING COMPANY
~OTHER INFORMATION
~A   DEPT     CALD         GRD      RHOB       DPHI       CORR   
# ...
 1757.0000     8.8146    94.0723     2.6009    -0.0287     0.0542
 1757.5000     8.7848    92.8401     2.6134    -0.0350     0.0530
 1758.0000     8.7550    91.2287     2.6161    -0.0421     0.0518
 1758.5000     8.7389    91.0960     2.6043    -0.0341     0.0491
 1759.0000     8.7391    92.7196     2.5897    -0.0248     0.0465
 1759.5000     8.7385    92.0829     2.5735    -0.0161     0.0439
 1760.0000     8.7694    91.6105     2.5828    -0.0241     0.0430
 1760.5000     8.8141    92.4205     2.5973    -0.0309     0.0430
 1761.0000     8.8592    93.2252     2.5924    -0.0271     0.0430
 1761.5000     8.9042    93.9591     2.5853    -0.0234     0.0430
 1762.0000     8.9446    93.7900     2.5851    -0.0221     0.0430
 1762.5000     8.9789    93.8551     2.5849    -0.0225     0.0430
 1763.0000     8.9786    98.0483     2.5821    -0.0208     0.0443
 1763.5000     8.9781   101.9705     2.5829    -0.0197     0.0456
 1764.0000     8.9781   101.6239     2.5916    -0.0222     0.0468
 1764.5000     8.9781   101.5559     2.6001    -0.0317     0.0481
 1765.0000     8.9781   104.0105     2.6071    -0.0337     0.0493
 1765.5000     8.9780   106.0364     2.6132    -0.0384     0.0505
 1766.0000     8.9784   105.8481     2.6193    -0.0426     0.0518
 1766.5000     8.9923   104.3795     2.6156    -0.0445     0.0529
 1767.0000     9.1223   105.4501     2.6087    -0.0352     0.0502
 1767.5000     9.2416   106.6749     2.6015    -0.0341     0.0474
 1768.0000     9.1548   106.6519     2.6063    -0.0373     0.0479
 1768.5000     9.0548   104.3161     2.6082    -0.0409     0.0490
 1769.0000     8.9610   101.9743     2.5933    -0.0302     0.0477
 1769.5000     8.9715   102.3842     2.5827    -0.0226     0.0444
 1770.0000     8.9857   102.6877     2.5827    -0.0213     0.0413
 1770.5000     8.9994   101.6606     2.5847    -0.0245     0.0381
 1771.0000     9.0131   102.8982     2.5865    -0.0240     0.0349
 1771.5000     9.0267   103.6734     2.5958    -0.0237     0.0330
 1772.0000     9.0404   102.6739     2.6030    -0.0302     0.0326
 1772.5000     9.0540   101.7127     2.5965    -0.0298     0.0321
 1773.0000     9.0677   101.1596     2.5904    -0.0287     0.0317
 1773.5000     9.0814   101.8674     2.5929    -0.0293     0.0313
 1774.0000     9.0950   103.6542     2.5954    -0.0278     0.0309
 1774.5000     9.0834   105.2764     2.5860    -0.0252     0.0304
 1775.0000     9.0474   105.3118     2.5747    -0.0188     0.0298
 1775.5000     9.0117   106.4132     2.5631    -0.0099     0.0293
 1776.0000     8.9759   107.7701     2.5608    -0.0071     0.0297
 1776.5000     8.9400   107.5616     2.5603    -0.0058     0.0339
 1777.0000     8.8998   104.9389     2.5573    -0.0040     0.0380
 1777.5000     8.8524   102.4139     2.5477     0.0005     0.0422
 1778.0000     8.8049   103.4864     2.5381     0.0051     0.0405
 1778.5000     8.7576   104.4008     2.5381     0.0079     0.0338
 1779.0000     8.7170   103.4905     2.5356     0.0091     0.0271
 1779.5000     8.7639   102.9444     2.5264     0.0126     0.0205
 1780.0000     8.8213   103.7756     2.5207     0.0203     0.0138
 1780.5000     8.8788   106.0420     2.5319     0.0124     0.0110
 1781.0000     8.9360   108.2434     2.5404     0.0055     0.0106
 1781.5000     8.9937   107.4652     2.5333     0.0043     0.0100
 1782.0000     9.0175   105.9853     2.5264     0.0137     0.0095
 1782.5000     9.0180   105.0090     2.5222     0.0207     0.0095
 1783.0000     9.0180   106.0085     2.5304     0.0144     0.0168
 1783.5000     9.0179   107.7032     2.5360     0.0103     0.0227
 1784.0000     9.0179   109.4079     2.5309     0.0142     0.0285
 1784.5000     9.0180   111.1008     2.5255     0.0183     0.0346
 1785.0000     9.0179   112.4304     2.5092     0.0276     0.0342
 1785.5000     9.0164   113.0086     2.4923     0.0375     0.0329
 1786.0000     9.0246   113.2153     2.4939     0.0375     0.0368
 1786.5000     8.9837   111.8720     2.5030     0.0310     0.0417
 1787.0000     8.9442   110.9108     2.5249     0.0193     0.0450
 1787.5000     8.9044   108.8689     2.5473     0.0076     0.0438
 1788.0000     8.8646   106.8419     2.5685    -0.0041     0.0430
 1788.5000     8.8248   107.0045     2.5724    -0.0141     0.0430
 1789.0000     8.7854   108.1723     2.5604    -0.0061     0.0426
 1789.5000     8.7587   104.6953     2.5483     0.0025     0.0355
 1790.0000     8.7738   102.5767     2.5363     0.0110     0.0287
 1790.5000     8.8191   104.7287     2.5252     0.0187     0.0279
 1791.0000     8.8640   107.3793     2.5214     0.0196     0.0271
 1791.5000     8.9089   108.8447     2.5178     0.0211     0.0262
 1792.0000     8.9540   107.3082     2.5259     0.0216     0.0253
 1792.5000     8.9988   104.8378     2.5367     0.0187     0.0231
 1793.0000     9.0389   102.3864     2.5475     0.0108     0.0234
 1793.5000     9.0334   100.5542     2.5583     0.0011     0.0265
 1794.0000     9.0282   103.3870     2.5691    -0.0086     0.0295
 1794.5000     9.0231   102.3997     2.5800    -0.0183     0.0326
 1795.0000     9.0181   100.6105     2.5907    -0.0268     0.0357
 1795.5000     9.0131    99.5907     2.6003    -0.0325     0.0388
 1796.0000     9.0080   103.0218     2.6072    -0.0365     0.0373
 1796.5000     9.0030   106.6629     2.6048    -0.0373     0.0355
 1797.0000     8.9980   109.7979     2.5970    -0.0328     0.0336
 1797.5000     8.9930   109.2347     2.5893    -0.0278     0.0318
 1798.0000     8.9880   108.5941     2.5816    -0.0228     0.0299
 1798.5000     8.9829   107.8872     2.5739    -0.0178     0.0294
 1799.0000     8.9779   106.8681     2.5669    -0.0128     0.0308
 1799.5000     8.9729   105.6957     2.5698    -0.0113     0.0321
 1800.0000     8.9678   103.8165     2.5753    -0.0155     0.0335
 1800.5000     8.9628   101.8224     2.5810    -0.0197     0.0349
 1801.0000     8.9578   102.2068     2.5865    -0.0217     0.0350
 1801.5000     8.9528   103.6816     2.5841    -0.0184     0.0344
 1802.0000     8.9477   105.1894     2.5646    -0.0085     0.0292
 1802.5000     8.9427   106.6915     2.5447     0.0014     0.0239
 1803.0000     8.9375   108.2589     2.5385     0.0083     0.0185
 1803.5000     8.9323   108.5932     2.5425     0.0071     0.0149
 1804.0000     8.9269   106.5699     2.5410     0.0071     0.0154
 1804.5000     8.9215   104.3208     2.5444     0.0064     0.0166
 1805.0000     8.9161   102.2016     2.5492     0.0049     0.0193
 1805.5000     8.9107   102.4339     2.5540     0.0018     0.0223
 1806.0000     8.9053   102.9775     2.5588    -0.0014     0.0273
 1806.5000     8.9005   102.6363     2.5635    -0.0046     0.0322
 1807.0000     8.8584   101.5192     2.5636    -0.0062     0.0371
 1807.5000     8.8037   101.2702     2.5632    -0.0074     0.0419
 1808.0000     8.7488   101.6603     2.5648    -0.0080     0.0468
 1808.5000     8.6922   101.5074     2.5724    -0.0087     0.0517
 1809.0000     8.6743    99.7391     2.5801    -0.0100     0.0567
 1809.5000     8.6597   100.5062     2.5771    -0.0116     0.0611
 1810.0000     8.6676   103.0755     2.5564    -0.0050     0.0546
 1810.5000     8.7302   105.6943     2.5343     0.0085     0.0474
 1811.0000     8.7928   108.3340     2.5102     0.0220     0.0403
 1811.5000     8.8554   108.2946     2.5200     0.0277     0.0332
 1812.0000     8.9176   106.1678     2.5359     0.0136     0.0290
 1812.5000     8.9797   104.8717     2.5519     0.0035     0.0290
 1813.0000     8.9770   106.0256     2.5667    -0.0066     0.0295
 1813.5000     8.9974   107.2163     2.5784    -0.0167     0.0340
 1814.0000     8.9980   105.8976     2.5883    -0.0233     0.0385
 1814.5000     8.9926   105.0079     2.5867    -0.0229     0.0431
 1815.0000     8.9855   106.9617     2.5816    -0.0193     0.0477
 1815.5000     8.9784   109.4823     2.5766    -0.0157     0.0507
 1816.0000     8.9714   111.6661     2.5754    -0.0144     0.0536
 1816.5000     8.9640   111.6661     2.5696    -0.0098     0.0587
 1817.0000     8.9413   109.1860     2.5636    -0.0053     0.0638
 1817.5000     8.8585   105.6712     2.5577    -0.0008     0.0690
