~VERSION INFORMATION
 VERS.                2.0:   CWLS LOG ASCII STANDARD - VERSION 2.0
 WRAP.                 NO:   ONE LINE PER DEPTH STEP
~WELL INFORMATION
#MNEM.UNIT      DATA TYPE    INFORMATION
#----------   ------------   ------------------------------
 STRT.F           14.5000:   START DEPTH
 STOP.F          750.0000:   STOP DEPTH
 STEP.F            0.5000:   STEP LENGTH
 NULL.          -999.2500:   NO VALUE
 COMP. FENIX & SCISSON INC:   COMPANY
 WELL.       NPR 3 #24-14:   WELL
 FLD .             TEAPOT:   FIELD
 LOC .      S14 T38N R78W:   LOCATION
 CNTY.            NATRONA:   COUNTY
 STAT.            WYOMING:   STATE
 CTRY. UNITED STATES OF AMERICA:   COUNTRY
 SRVC.           BIRDWELL:   SERVICE COMPANY
 DATE.        27-DEC-1978:   LOGDATE
 API .       490251075900:   API NUMBER
~CURVE INFORMATION
#MNEM.UNIT       API CODE    CURVE DESCRIPTION
#----------   ------------   ------------------------------
 DEPT.F                  :   
 SPR .MV     05 010 01 00:   SPONTANEOUS POTENTIAL FROM RES.
 SN  .OHMM   05 040 16 00:   SHORT NORMAL 16"
 IL  .OHMM   05 120 00 00:   INDUCTION LOG
 GRD .GAPI   45 310 01 00:   GAMMA RAY FROM DENSITY LOG
 CALD.IN     45 280 60 00:   CALIPER
 RHOB.G/C3   45 350 01 00:   BULK DENSITY
 DPHI.DEC    45 890 12 00:   DENSITY POROSITY SANDSTONE
 CORR.G/C3   45 356 01 00:   DENSITY CORRECTION
~PARAMETER INFORMATION
#MNEM.UNIT          VALUE    DESCRIPTION
#----------   ------------   ------------------------------
 PD  .                 GL:   PERMANENT DATUM
 EPD .F              5209:   ELEVATION PERMANENT DATUM
 LMF .                 KB:   LOG MEASURED FROM
 DAPD.F                 4:   FEET ABOVE PERMANENT DATUM
 DMF .                 KB:   DRILLING MEASURED FROM
 EKB .F              5212:   KELLING BUSHING
 EGL .F              5209:   GROUND LEVEL
 DATE.           12-27-78:   RUN DATE
 RUN .                  1:   RUN NUMBER
 DD  .F               750:   DEPTH DRILLER
 DL  .F               742:   DEPTH LOGGER
 BLI .F               735:   BOTTOM LOG INTERVAL
 TLI .F                35:   TOP LOG INTERVAL
 CS  .IN            8.625:   CASING SIZE
 CBD .F                40:   CASING BOTTOM DRILLER
 CBL .F                32:   CASING BOTTOM LOGGER
 BS  .IN            7.875:   BIT SIZE
 BSD .F               750:   BIT SIZE AT DEPTH
 DFT .                KCL:   DRILLING FLUID TYPE
 DFD .                8.6:   DRILLING FLUID DENSITY
 DFV .                 35:   DRILLING FLUID VISCOSITY
 DFPH.                9.4:   DRILLING FLUID PH
 DFL .               12.4:   DRILLING FLUID LOSS
 MSS .           FLOWLINE:   MUD SAMPLE SOURCE
 RMS .OHMM            .38:   RESISTIVITY MUD SAMPLE
 MST .F                58:   MUD SAMPLE TEMPERATURE
 RMF .OHMM            .38:   RESISTIVITY MUD FILTRATE SAMPLE
 MFST.F                58:   MUD FILTRATE SAMPLE TEMPERATURE
 RMC .OHMM            .36:   RESISTIVITY MUD CAKE
 MCST.F                60:   MUD CAKE SAMPLE TEMPERATURE
 MFSS.           MEASURED:   MUD FILTRATE SAMPLE SOURCE
 MCSS.           MEASURED:   MUD CAKE SAMPLE SOURCE
 RMB .OHMM            .37:   RESISTIVITY MUD AT BHT
 BHT .F                59:   BOTTOM HOLE TEMPERATURE
 TCS .HRS               2:   TIME CURCULATED STOPPED
 MRT .F                59:   MAXIMUM RECORDED TEMPERATURE
 LUN .               2958:   LOGGING UNIT NUMBER
 LUL .             CASPER:   LOGGING UNIT LOCATION
 ENGI.         B. ROLLINS:   RECORDING ENGINEER
 WITN.           DINSMORE:   WITNESSED BY
 CLNT.            A2DTECH:   CLIENT CODE
 ORIG.           5" PRINT:   ORIGIN OF DATA
 UWI .       490251075900:   UNIQUE WELL ID
 DICO. A2D Technologies, Inc.:   DIGITIZING COMPANY
~OTHER INFORMATION
~A   DEPT      SPR         SN         IL         GRD      CALD       RHOB       DPHI       CORR   
# ...
  419.5000   -52.3000     8.7380     7.1360   100.3110     8.1000     2.4710     0.1460     0.0200
  420.0000   -52.3000     8.5170     7.0610   100.4170     8.0780     2.4480     0.1600     0.0320
  420.5000   -52.3000     8.2680     6.9800   100.4180     8.0230     2.4230     0.1650     0.0530
  421.0000   -52.3000     8.1840     6.8980   100.4290     7.8580     2.4000     0.1510     0.0740
  421.5000   -52.3000     8.0940     6.8780    99.7400     7.7040     2.4110     0.1370     0.0840
  422.0000   -52.3000     8.0050     6.8280    99.2410     7.5520     2.4500     0.1310     0.0850
  422.5000   -52.3000     7.9150     6.5200   100.5950     7.5310     2.4570     0.1290     0.0850
  423.0000   -52.2990     7.8260     6.3580   100.8190     7.5300     2.4630     0.1260     0.0900
  423.5000   -52.2760     7.7020     6.3170   100.8820     7.5300     2.4680     0.1240     0.1130
  424.0000   -52.1380     7.4260     6.2970   100.9440     7.5300     2.4750     0.1200     0.1430
  424.5000   -52.0000     7.1920     6.2780   101.0230     7.5450     2.4830     0.1100     0.1620
  425.0000   -51.8640     7.1360     6.2590   100.4250     7.6120     2.4910     0.1060     0.1630
  425.5000   -51.7380     7.1550     6.2390    99.8620     7.8200     2.4990     0.1020     0.1610
  426.0000   -51.2620     7.1730     6.2160   100.7610     7.8460     2.5070     0.0980     0.1590
  426.5000   -50.7310     7.1920     6.2790   102.7370     7.8640     2.5190     0.0940     0.1540
  427.0000   -50.1980     7.3360     6.3570   103.8420     7.8810     2.5290     0.0910     0.1270
  427.5000   -49.9620     7.6540     6.4340   102.7830     7.9340     2.5230     0.0960     0.1100
  428.0000   -50.0100     7.9100     6.5090   100.5270     7.9970     2.5010     0.1040     0.0980
  428.5000   -50.2660     7.9650     6.4840    97.4840     8.0230     2.4790     0.1110     0.1020
  429.0000   -50.6440     8.0210     6.4600    95.7200     8.0200     2.4630     0.1180     0.1050
  429.5000   -51.0190     8.0760     6.4370    96.4200     8.0160     2.4750     0.1120     0.1090
  430.0000   -51.3500     8.1170     6.4130    97.6960     8.0120     2.4940     0.1080     0.1100
  430.5000   -51.5300     8.1170     6.3900    98.2740     8.0080     2.5140     0.1070     0.1010
  431.0000   -51.6960     8.1170     6.4330    99.8900     7.9860     2.5160     0.1100     0.0910
  431.5000   -51.7000     8.1170     6.4730   101.1220     7.9080     2.5020     0.1130     0.0850
  432.0000   -51.7000     8.1170     6.5090   101.3720     7.7990     2.4920     0.1130     0.0900
  432.5000   -51.7000     8.0660     6.4820   100.9860     7.6510     2.4930     0.1120     0.0950
  433.0000   -51.7000     7.9610     6.4570    98.8230     7.5150     2.4950     0.1120     0.1000
  433.5000   -51.7000     7.8550     6.4320    96.1150     7.5330     2.4960     0.1150     0.1010
  434.0000   -51.7000     7.8240     6.4070    94.9270     7.5790     2.4960     0.1210     0.0920
  434.5000   -51.7000     7.8240     6.3220    94.5010     7.7180     2.4870     0.1320     0.0760
  435.0000   -51.7000     7.7900     6.1770    95.0990     7.8540     2.4710     0.1430     0.0610
  435.5000   -51.7000     7.5060     6.1020    98.3710     7.9670     2.4490     0.1540     0.0580
  436.0000   -51.7010     7.2020     6.0270    99.1680     7.9470     2.4260     0.1630     0.0650
  436.5000   -51.7080     7.1480     5.8710    99.3950     8.0240     2.4080     0.1650     0.0850
  437.0000   -51.8400     7.0900     5.6460    99.6170     8.0740     2.4030     0.1460     0.0950
  437.5000   -52.3140     7.0320     5.4210    99.7970     8.0910     2.4200     0.1320     0.0930
  438.0000   -52.9170     6.8030     4.8940    98.6290     8.1030     2.4440     0.1170     0.0940
  438.5000   -54.2080     6.4340     4.9050    95.6430     8.0880     2.4680     0.1080     0.1100
  439.0000   -54.7270     6.1570     4.9260    93.7720     8.0740     2.4900     0.1020     0.1310
  439.5000   -55.0400     5.9510     4.9470    93.5720     8.0590     2.5050     0.0960     0.1520
  440.0000   -55.2870     5.7450     4.9680    96.5690     8.0440     2.5100     0.0950     0.1650
  440.5000   -55.1670     5.6180     4.9890    99.8760     8.0290     2.5310     0.0950     0.1650
  441.0000   -55.0510     5.6180     5.0100   104.7460     8.0150     2.5400     0.0990     0.1600
  441.5000   -54.9400     5.7940     5.0310   106.5420     8.0000     2.5270     0.1060     0.1560
  442.0000   -54.5390     6.1650     5.1240   107.2170     7.9820     2.5080     0.1080     0.1650
  442.5000   -53.6870     6.6300     5.6260   107.5540     7.8980     2.5050     0.1010     0.1850
  443.0000   -51.6600     6.9870     6.1250   107.5610     7.8140     2.5130     0.0910     0.2050
  443.5000   -50.4370     7.3410     6.3980   107.4840     7.7300     2.5270     0.0840     0.2000
  444.0000   -50.4080     7.6950     6.5730   105.4470     7.6470     2.5400     0.0860     0.1800
  444.5000   -50.5190     7.8960     6.5890   103.4910     7.5620     2.5390     0.0940     0.1570
  445.0000   -50.6350     7.8960     6.6050   102.5150     7.5430     2.5310     0.1010     0.1340
  445.5000   -50.7520     7.8960     6.6210   103.4610     7.5620     2.5230     0.1000     0.1320
  446.0000   -50.8710     8.1180     6.6840   106.5840     7.5820     2.5270     0.0930     0.1400
  446.5000   -50.9890     8.3290     6.8050   107.0350     7.6010     2.5320     0.0920     0.1480
  447.0000   -51.0910     8.5410     6.9260   107.4800     7.6800     2.5350     0.0930     0.1480
  447.5000   -50.9670     8.7380     6.9540   108.1120     7.8020     2.5300     0.0920     0.1500
  448.0000   -50.8400     8.8180     6.9670   109.2840     7.9230     2.5220     0.0850     0.1560
  448.5000   -50.7140     8.8180     6.9800   110.4110     8.0070     2.5310     0.0780     0.1610
  449.0000   -50.5850     8.8180     6.9930   111.5210     8.0060     2.5430     0.0710     0.1640
  449.5000   -50.4000     8.8180     7.0060   112.0540     8.0120     2.5550     0.0630     0.1640
  450.0000   -50.0200     8.8180     7.0200   110.7760     8.0610     2.5650     0.0650     0.1580
  450.5000   -49.6470     8.8180     7.0330   109.4770     8.1110     2.5690     0.0680     0.1490
  451.0000   -49.2780     8.8180     7.0460   107.8730     8.1290     2.5640     0.0710     0.1400
  451.5000   -48.6340     8.8180     7.0590   106.4590     8.1350     2.5590     0.0740     0.1360
  452.0000   -47.7280     8.8180     7.0700   106.0600     8.1410     2.5540     0.0720     0.1430
  452.5000   -47.2730     8.8180     7.0620   105.8730     8.1390     2.5540     0.0690     0.1520
  453.0000   -47.2140     8.8180     7.0540   105.5170     8.1260     2.5640     0.0740     0.1480
  453.5000   -47.1530     8.8180     7.0460   104.8940     8.1140     2.5650     0.0810     0.1390
  454.0000   -47.1090     8.8180     7.0380   102.8000     8.0990     2.5520     0.0890     0.1320
  454.5000   -47.1780     8.7940     7.0300   100.9020     8.0510     2.5390     0.1000     0.1280
  455.0000   -47.2470     8.7690     7.0220   101.5270     7.9010     2.5260     0.0890     0.1370
  455.5000   -47.3150     8.7440     7.0140   103.3010     7.7550     2.5190     0.0830     0.1430
  456.0000   -47.3830     8.7190     7.0060   105.5050     7.6530     2.5290     0.0800     0.1450
  456.5000   -47.4510     8.6930     6.9330   104.8930     7.6870     2.5430     0.0820     0.1380
  457.0000   -47.5190     8.6680     6.8590   101.7710     7.7240     2.5410     0.0900     0.1300
  457.5000   -47.5870     8.5740     6.7840    98.9210     7.7610     2.5360     0.1000     0.1220
  458.0000   -47.6560     8.4310     6.6910    98.5840     7.7980     2.5240     0.1140     0.1270
  458.5000   -47.7240     8.3190     6.5860    99.7190     7.8420     2.5050     0.1070     0.1400
  459.0000   -47.7930     8.2560     6.4810   102.9870     7.9490     2.4930     0.1020     0.1530
  459.5000   -47.8620     8.1930     6.3770   106.2640     8.0890     2.5100     0.0980     0.1460
