~VERSION INFORMATION
 VERS.                2.0:   CWLS LOG ASCII STANDARD - VERSION 2.0
 WRAP.                 NO:   ONE LINE PER DEPTH STEP
~WELL INFORMATION
#MNEM.UNIT      DATA TYPE    INFORMATION
#----------   ------------   ------------------------------
 STRT.F            0.1000:   START DEPTH
 STOP.F          550.8000:   STOP DEPTH
 STEP.F            0.1000:   STEP LENGTH
 NULL.          -999.2500:   NO VALUE
 COMP.       F D SERV INC:   COMPANY
 WELL.  82-1 SX 10 #82-10:   WELL
 FLD .             TEAPOT:   FIELD
 LOC .      S10 T38N R78W:   LOCATION
 CNTY.            NATRONA:   COUNTY
 STAT.            WYOMING:   STATE
 CTRY. UNITED STATES OF AMERICA:   COUNTRY
 SRVC.     Atlas Wireline:   SERVICE COMPANY
 DATE.        11-DEC-1992:   LOGDATE
 API .       490252257600:   API NUMBER
~CURVE INFORMATION
#MNEM.UNIT       API CODE    CURVE DESCRIPTION
#----------   ------------   ------------------------------
 DEPT.F                  :   
 GRR .GAPI   07 310 01 00:   GAMMA RAY
 RILD.OHMM   07 120 46 00:   INDUCTION LOG DEEP RESISTIVITY
 RILM.OHMM   07 120 44 00:   INDUCTION LOG MEDIUM RESISTIVITY
~PARAMETER INFORMATION
#MNEM.UNIT          VALUE    DESCRIPTION
#----------   ------------   ------------------------------
 PD  .                 GL:   PERMANENT DATUM
 EPD .F              5136:   ELEVATION PERMANENT DATUM
 LMF .                 KB:   LOG MEASURED FROM
 DAPD.F                10:   FEET ABOVE PERMANENT DATUM
 DMF .                 KB:   DRILLING MEASURED FROM
 EKB .F              5146:   KELLING BUSHING
 EDF .F              5145:   DRILLING FLOOR
 EGL .F              5136:   GROUND LEVEL
 DATE.        11-DEC-1992:   RUN DATE
 RUN .                  1:   RUN NUMBER
 DD  .F               560:   DEPTH DRILLER
 DL  .F               560:   DEPTH LOGGER
 BLI .F               551:   BOTTOM LOG INTERVAL
 CS  .IN            8.625:   CASING SIZE
 CBD .F                53:   CASING BOTTOM DRILLER
 CBL .F                54:   CASING BOTTOM LOGGER
 BS  .IN            7.875:   BIT SIZE
 BSD .F               560:   BIT SIZE AT DEPTH
 DFT .           AIR FOAM:   DRILLING FLUID TYPE
 BHT .F                60:   BOTTOM HOLE TEMPERATURE
 MRT .F                60:   MAXIMUM RECORDED TEMPERATURE
 LUN .           HL- 6274:   LOGGING UNIT NUMBER
 LUL .             CASPER:   LOGGING UNIT LOCATION
 ENGI.       P. RASMUSSEN:   RECORDING ENGINEER
 WITN.          G. STRONG:   WITNESSED BY
 CLNT.            A2DTECH:   CLIENT CODE
 ORIG.           5" PRINT:   ORIGIN OF DATA
 UWI .       490252257600:   UNIQUE WELL ID
 DICO. A2D Technologies, Inc.:   DIGITIZING COMPANY
~OTHER INFORMATION
~A    DEPT      GRR      RILD       RILM   
# ...
  236.7000   111.1046     2.5362     2.5915
  236.8000   110.9149     2.5444     2.5998
  236.9000   110.8848     2.5533     2.6214
  237.0000   110.6104     2.5839     2.6669
  237.1000   110.6087     2.6157     2.7620
  237.2000   110.8090     2.6522     2.8356
  237.3000   111.2255     2.6779     2.8973
  237.4000   112.0931     2.7100     2.9542
  237.5000   113.5340     2.7830     3.0182
  237.6000   115.3413     2.8956     3.0912
  237.7000   117.1486     2.9949     3.1863
  237.8000   118.9559     3.0671     3.3374
  237.9000   121.3836     3.1532     3.4659
  238.0000   124.4592     3.2169     3.6470
  238.1000   127.2675     3.2945     3.7764
  238.2000   129.4626     3.3845     3.8909
  238.3000   131.7139     3.5018     4.0088
  238.4000   134.3446     3.6421     4.1301
  238.5000   135.2448     3.7513     4.2512
  238.6000   135.6660     3.8541     4.3551
  238.7000   135.8430     3.9758     4.4774
  238.8000   135.8412     4.1032     4.5901
  238.9000   135.7550     4.2553     4.7293
  239.0000   135.5368     4.4158     4.8575
  239.1000   135.5350     4.5613     4.9749
  239.2000   135.2322     4.7567     5.0891
  239.3000   135.2307     5.0138     5.1820
  239.4000   135.0553     5.1497     5.3233
  239.5000   134.9263     5.2822     5.4075
  239.6000   134.9245     5.4096     5.4818
  239.7000   135.0162     5.5263     5.5663
  239.8000   135.5268     5.6175     5.6670
  239.9000   135.8211     5.6847     5.7611
  240.0000   136.4813     5.7581     5.8304
  240.1000   138.3241     5.8218     5.9063
  240.2000   140.1045     5.8915     5.9716
  240.3000   141.3014     5.9621     6.0434
  240.4000   142.2821     6.0654     6.0942
  240.5000   143.0466     6.2012     6.1308
  240.6000   143.6280     6.3042     6.1781
  240.7000   143.8516     6.3437     6.2478
  240.8000   144.1083     6.4160     6.2867
  240.9000   144.2243     6.4623     6.3305
  241.0000   144.2225     6.4766     6.3611
  241.1000   144.1648     6.4945     6.3994
  241.2000   143.9182     6.5332     6.4378
  241.3000   143.9162     6.5722     6.4765
  241.4000   143.6848     6.6122     6.5089
  241.5000   143.4246     6.6121     6.5094
  241.6000   143.0192     6.5799     6.5545
  241.7000   142.3976     6.5663     6.5546
  241.8000   141.6204     6.5662     6.5548
  241.9000   140.8798     6.5531     6.5550
  242.0000   140.5953     6.5207     6.5552
  242.1000   140.5937     6.5206     6.5554
  242.2000   140.7840     6.5205     6.5535
  242.3000   141.1903     6.4876     6.5106
  242.4000   141.7054     6.4753     6.5107
  242.5000   142.2205     6.4752     6.5109
  242.6000   142.7357     6.4613     6.4889
  242.7000   143.2895     6.4304     6.4664
  242.8000   143.7658     6.4303     6.4567
  242.9000   144.0842     6.4302     6.4222
  243.0000   144.4953     6.3635     6.4224
  243.1000   145.0104     6.3147     6.3867
  243.2000   145.5255     6.2977     6.3489
  243.3000   145.9858     6.2976     6.2882
  243.4000   145.9837     6.2890     6.2308
  243.5000   145.7384     6.2467     6.1939
  243.6000   145.4781     6.1253     6.1572
  243.7000   145.0588     6.0924     6.1201
  243.8000   144.5401     6.0561     6.0781
  243.9000   143.8727     6.0200     6.0485
  244.0000   142.8049     5.9693     6.0127
  244.1000   141.4598     5.9074     5.9771
  244.2000   140.7134     5.8690     5.9175
  244.3000   140.1422     5.7946     5.8254
  244.4000   139.6235     5.7625     5.7890
  244.5000   138.8622     5.7020     5.6732
  244.6000   137.9056     5.6547     5.6440
  244.7000   137.2385     5.6062     5.6106
  244.8000   137.2367     5.5490     5.5592
  244.9000   136.9338     5.5160     5.5061
  245.0000   137.1429     5.4818     5.4586
  245.1000   137.5677     5.4194     5.3641
  245.2000   138.0828     5.3551     5.2951
  245.3000   138.7652     5.2916     5.2096
  245.4000   139.8797     5.2288     5.1635
  245.5000   141.4346     5.1764     5.1148
  245.6000   143.5377     5.1409     5.0673
  245.7000   145.4725     5.0793     5.0373
  245.8000   147.6240     5.0441     5.0075
  245.9000   149.2981     5.0193     4.9766
  246.0000   150.5003     4.9894     4.9484
  246.1000   151.4404     4.9596     4.9191
  246.2000   151.9519     4.9301     4.8900
  246.3000   152.2469     4.9007     4.8750
  246.4000   152.4651     4.8715     4.8658
  246.5000   152.3669     4.8384     4.8370
  246.6000   152.1067     4.8137     4.8084
  246.7000   151.7536     4.8048     4.8086
  246.8000   151.2349     4.7896     4.8087
  246.9000   150.7080     4.7716     4.7893
  247.0000   149.8283     4.7715     4.7758
  247.1000   148.9292     4.7714     4.7864
  247.2000   147.8937     4.7714     4.8092
  247.3000   146.7184     4.7966     4.8094
  247.4000   145.4245     4.8044     4.8095
  247.5000   144.1855     4.8043     4.8352
  247.6000   143.1049     4.8042     4.8643
  247.7000   141.4834     4.8042     4.8769
  247.8000   140.7346     4.8041     4.8770
  247.9000   140.1882     4.9021     4.8845
  248.0000   139.6972     4.9021     4.9111
  248.1000   139.3808     4.9022     4.9113
  248.2000   139.1206     4.9172     4.9114
  248.3000   138.7426     4.9364     4.9343
  248.4000   138.2993     4.9409     4.9639
  248.5000   138.0061     4.9708     4.9938
  248.6000   137.4688     4.9993     5.0238
  248.7000   137.1660     5.0288     5.0540
  248.8000   136.9576     5.0584     5.0850
  248.9000   136.6973     5.0882     5.1205
  249.0000   136.3148     5.1181     5.1457
  249.1000   135.8761     5.1502     5.1766
  249.2000   135.6535     5.2182     5.2234
  249.3000   135.6517     5.2453     5.2754
  249.4000   135.3488     5.2762     5.3071
  249.5000   135.3474     5.3073     5.3390
  249.6000   135.3456     5.3385     5.3754
  249.7000   135.5976     5.3700     5.4313
  249.8000   136.1127     5.4025     5.4736
  249.9000   136.6277     5.4334     5.5245
  250.0000   137.1429     5.4654     5.5909
  250.1000   137.5287     5.4976     5.6504
  250.2000   137.9146     5.5300     5.6844
  250.3000   138.2136     5.5705     5.7217
  250.4000   138.4702     5.6362     5.7843
  250.5000   138.7606     5.7108     5.8277
  250.6000   139.1149     5.7404     5.8835
  250.7000   139.4693     5.7979     5.9543
  250.8000   139.8237     5.8486     6.0259
  250.9000   140.1780     5.8945     6.0983
  251.0000   140.5324     5.9588     6.1750
  251.1000   140.8867     5.9950     6.2105
  251.2000   141.2411     6.0635     6.2776
  251.3000   141.5168     6.1351     6.3531
  251.4000   141.6204     6.2075     6.4480
  251.5000   141.7193     6.2965     6.5520
  251.6000   141.9709     6.3899     6.6558
  251.7000   142.2225     6.4319     6.7101
  251.8000   142.5127     6.5604     6.7097
  251.9000   142.7258     6.5942     6.7093
  252.0000   142.9774     6.6602     6.7360
  252.1000   143.2291     6.7185     6.7559
  252.2000   143.4807     6.7581     6.7684
  252.3000   143.7043     6.8038     6.8081
  252.4000   143.7015     6.8868     6.8503
  252.5000   143.6992     6.9653     6.9652
  252.6000   143.8857     7.0152     7.0254
  252.7000   144.1374     7.0815     7.1151
  252.8000   144.3890     7.1474     7.2072
  252.9000   144.6893     7.1996     7.2587
  253.0000   145.1949     7.2821     7.3427
  253.1000   145.7896     7.3304     7.3924
  253.2000   146.2063     7.3681     7.4293
  253.3000   146.7120     7.4417     7.4729
  253.4000   147.3335     7.5295     7.5168
  253.5000   147.9549     7.6036     7.5610
  253.6000   148.2065     7.6419     7.6002
  253.7000   148.4822     7.6420     7.6003
  253.8000   148.4800     7.6854     7.6421
  253.9000   148.4776     7.6953     7.6533
  254.0000   148.2025     7.7225     7.6534
  254.1000   147.6920     7.7490     7.6535
  254.2000   147.0528     7.7491     7.6536
  254.3000   145.7612     7.7492     7.6537
  254.4000   143.0516     7.7494     7.6538
  254.5000   142.2356     7.7100     7.6166
  254.6000   141.0602     7.6961     7.6013
  254.7000   139.8977     7.6962     7.5806
  254.8000   138.8793     7.6963     7.5491
