~VERSION INFORMATION
 VERS.                2.0:   CWLS LOG ASCII STANDARD - VERSION 2.0
 WRAP.                 NO:   ONE LINE PER DEPTH STEP
~WELL INFORMATION
#MNEM.UNIT      DATA TYPE    INFORMATION
#----------   ------------   ------------------------------
 STRT.F           28.0000:   START DEPTH
 STOP.F          546.5000:   STOP DEPTH
 STEP.F            0.5000:   STEP LENGTH
 NULL.          -999.2500:   NO VALUE
 COMP. LAWRENCE/ALLISON INC:   COMPANY
 WELL.    55-66 SX #10-10:   WELL
 FLD .            WILDCAT:   FIELD
 LOC .      S10 T38N R78W:   LOCATION
 CNTY.            NATRONA:   COUNTY
 STAT.            WYOMING:   STATE
 CTRY. UNITED STATES OF AMERICA:   COUNTRY
 SRVC.            Unknown:   SERVICE COMPANY
 DATE.        20-AUG-1984:   LOGDATE
 API .       490251098000:   API NUMBER
~CURVE INFORMATION
#MNEM.UNIT       API CODE    CURVE DESCRIPTION
#----------   ------------   ------------------------------
 DEPT.F                  :   
 CNC .DEC    42 890 03 00:   NEUTRON POROSITY SANDSTONE
 CALD.IN     45 280 60 00:   CALIPER FROM DENSITY LOG
 DEN .G/C3   45 350 01 00:   COMPENSATED BULK DENSTIY
 PORD.DEC    45 890 12 00:   POROSITY DENSITY STONESTONE
 CORR.G/C3   45 356 01 00:   DENSITY CORRECTION
 SPR .MV     07 010 01 00:   SPONTANEOUS POTENTIAL
 RFOC.OHMM   07 220 04 00:   RESISTIVITY FOCUSED LOG
 RILD.OHMM   07 120 46 00:   INDUCTION LOG DEEP RESISTIVITY
 RILM.OHMM   07 120 44 00:   INDUCTION LOG MEDIUM RESISTIVITY
 AC  .US/F   60 520 00 00:   ACCOUSTIC
 GRD .GAPI   45 310 01 00:   GAMMA RAY FROM DENSITY LOG
~PARAMETER INFORMATION
#MNEM.UNIT          VALUE    DESCRIPTION
#----------   ------------   ------------------------------
 PD  .                 GL:   PERMANENT DATUM
 EPD .F              5200:   ELEVATION PERMANENT DATUM
 LMF .                 GL:   LOG MEASURED FROM
 DMF .                 GL:   DRILLING MEASURED FROM
 EGL .F              5200:   GROUND LEVEL
 DATE.        20-AUG-1984:   RUN DATE
 RUN .                  1:   RUN NUMBER
 DD  .F               554:   DEPTH DRILLER
 DL  .F               548:   DEPTH LOGGER
 BLI .F               546:   BOTTOM LOG INTERVAL
 TLI .F                30:   TOP LOG INTERVAL
 CS  .IN            9.625:   CASING SIZE
 CBD .F                46:   CASING BOTTOM DRILLER
 CBL .F                41:   CASING BOTTOM LOGGER
 BS  .IN            7.875:   BIT SIZE
 BSD .F               554:   BIT SIZE AT DEPTH
 DFT .          KCL WATER:   DRILLING FLUID TYPE
 MSS .           FLOWLINE:   MUD SAMPLE SOURCE
 RMS .OHMM           .691:   RESISTIVITY MUD SAMPLE
 MST .F                82:   MUD SAMPLE TEMPERATURE
 MRT .F               100:   MAXIMUM RECORDED TEMPERATURE
 LUN .               6307:   LOGGING UNIT NUMBER
 LUL .               GLTE:   LOGGING UNIT LOCATION
 ENGI.           FAHLSING:   RECORDING ENGINEER
 WITN.           JENNINGS:   WITNESSED BY
 CLNT.            A2DTECH:   CLIENT CODE
 ORIG.       2", 5" PRINT:   ORIGIN OF DATA
 UWI .       490251098000:   UNIQUE WELL ID
 DICO. A2D Technologies, Inc.:   DIGITIZING COMPANY
~OTHER INFORMATION
~A   DEPT      CNC       CALD        DEN       PORD       CORR        SPR       RFOC       RILD       RILM         AC        GRD   
# ...
  363.5000     0.2447     7.7030     2.5220     0.1040     0.0650   -35.6280    23.0620    25.6990    29.4350    83.6140    80.2350
  364.0000     0.2459     7.7030     2.4900     0.1130     0.0720   -35.7830    22.9940    24.7200    28.5210    85.3430    79.8930
  364.5000     0.2455     7.7030     2.4880     0.1180     0.0600   -35.9380    22.9280    24.2700    27.6080    85.9920    79.5320
  365.0000     0.2495     7.7030     2.4910     0.1150     0.0490   -36.0940    22.8630    24.1140    27.0860    85.3820    79.1760
  365.5000     0.2497     7.7030     2.4940     0.1130     0.0370   -36.2490    22.7970    23.9580    26.6380    84.7730    78.8230
  366.0000     0.2434     7.7030     2.4920     0.1150     0.0300   -36.4020    22.7320    23.8020    26.1900    84.4610    78.4700
  366.5000     0.2369     7.7030     2.4870     0.1170     0.0360   -36.3490    22.6660    23.6450    25.7420    84.7630    78.4700
  367.0000     0.2368     7.7030     2.4860     0.1170     0.0430   -36.2440    22.6420    23.4890    25.2930    85.1980    79.4570
  367.5000     0.2370     7.7030     2.4920     0.1140     0.0470   -36.1390    22.4350    23.3330    24.8450    85.6330    80.8560
  368.0000     0.2410     7.7030     2.4980     0.1130     0.0300   -36.0350    21.9110    23.0340    24.3970    85.7390    82.2280
  368.5000     0.2480     7.7030     2.4940     0.1150     0.0110   -35.8510    21.2780    22.6510    23.9490    85.7000    83.4690
  369.0000     0.2492     7.7030     2.4890     0.1160     0.0220   -35.5630    20.6460    22.2670    23.5010    85.6590    83.8840
  369.5000     0.2531     7.7030     2.4890     0.1140     0.0390   -35.2760    20.0140    21.8830    23.0520    85.9880    84.2630
  370.0000     0.2606     7.7030     2.4940     0.1120     0.0500   -34.9870    19.3810    21.5000    22.6040    86.3420    84.6410
  370.5000     0.2598     7.7030     2.4940     0.1130     0.0380   -34.6940    19.0140    21.1160    22.1560    86.6960    85.0620
  371.0000     0.2597     7.7030     2.4840     0.1190     0.0450   -34.6010    19.1900    20.7330    21.7080    86.8560    86.6550
  371.5000     0.2584     7.7030     2.4750     0.1260     0.0500   -34.5650    19.1900    20.3490    21.6010    86.1670    88.1760
  372.0000     0.2571     7.7030     2.4670     0.1300     0.0360   -34.5300    19.1900    20.1370    21.5710    85.2510    87.3350
  372.5000     0.2682     7.7030     2.4720     0.1260     0.0230   -34.4960    19.1300    19.9070    21.5410    84.3360    86.4930
  373.0000     0.2709     7.7030     2.4830     0.1200     0.0090   -34.4610    18.8490    19.6780    21.5110    83.9620    85.6530
  373.5000     0.2693     7.7030     2.4940     0.1120     0.0210   -34.4210    18.5670    19.4480    21.4810    86.1930    85.0080
  374.0000     0.2655     7.7030     2.4950     0.1130     0.0370   -34.6800    18.2860    19.2190    21.4510    88.1710    86.9090
  374.5000     0.2697     7.7030     2.4880     0.1170     0.0540   -35.0310    18.0040    18.9890    21.4270    90.1500    89.4940
  375.0000     0.2703     7.7030     2.4810     0.1200     0.0620   -35.3840    17.6660    18.6680    21.1820    91.0810    91.6720
  375.5000     0.2678     7.7030     2.4800     0.1210     0.0500   -35.7380    17.7330    18.6730    20.9370    91.1480    89.2900
  376.0000     0.2581     7.7030     2.4830     0.1190     0.0380   -36.0920    17.8160    18.6860    20.6920    90.0350    86.8570
  376.5000     0.2589     7.7030     2.4860     0.1180     0.0280   -36.4460    17.8990    18.6990    20.4480    88.7800    87.6530
  377.0000     0.2604     7.7030     2.4890     0.1160     0.0340   -36.8000    17.9830    18.7120    20.2030    87.8600    89.5180
  377.5000     0.2590     7.7030     2.4920     0.1140     0.0420   -37.1540    18.0660    18.7250    19.9580    87.4000    91.4100
  378.0000     0.2544     7.7030     2.4940     0.1130     0.0350   -37.5080    18.1490    18.7380    19.7130    86.9560    93.3030
  378.5000     0.2506     7.7030     2.4970     0.1120     0.0280   -37.8620    18.2320    18.7510    19.3670    85.9740    94.9450
  379.0000     0.2586     7.7030     2.4980     0.1110     0.0200   -38.2150    18.3160    18.7640    19.3790    85.1670    94.0290
  379.5000     0.2613     7.7030     2.4980     0.1120     0.0130   -38.5690    18.3990    18.7770    19.4000    84.9440    93.1230
  380.0000     0.2572     7.7030     2.4930     0.1150     0.0060   -38.9210    18.4820    18.7900    19.4220    84.8810    93.2630
  380.5000     0.2485     7.7030     2.4840     0.1190     0.0060   -39.2140    18.5660    18.8030    19.4430    84.8190    95.6720
  381.0000     0.2462     7.7030     2.4780     0.1220     0.0120   -39.3000    18.6680    18.8160    19.4640    84.7600    98.0250
  381.5000     0.2496     7.7030     2.4880     0.1200     0.0170   -39.3890    18.6040    18.8290    19.4850    84.7600    94.3450
  382.0000     0.2517     7.7030     2.4980     0.1150     0.0220   -39.4790    18.3280    18.8400    19.5060    84.1620    90.0910
  382.5000     0.2507     7.7030     2.5070     0.1090     0.0260   -39.5680    18.6030    18.4970    19.5290    83.1170    87.1640
  383.0000     0.2463     7.7030     2.5110     0.1050     0.0200   -39.6570    18.9610    17.9940    19.5410    82.1540    90.4640
  383.5000     0.2437     7.7030     2.5220     0.1020     0.0120   -39.7560    19.3190    17.5300    18.8330    81.1900    93.5900
  384.0000     0.2430     7.7030     2.5350     0.0950     0.0210   -39.5630    19.5460    17.0020    18.2230    80.2260    95.7060
  384.5000     0.2479     7.7030     2.5480     0.0840     0.0350   -39.5210    19.3670    16.4740    17.6140    79.3710    95.0210
  385.0000     0.2602     7.7030     2.5570     0.0750     0.0500   -39.4700    18.8400    15.9460    17.0040    79.6710    96.7590
  385.5000     0.2629     7.7030     2.5500     0.0770     0.0500   -39.4150    17.8290    15.4180    16.3940    81.7640    99.2960
  386.0000     0.2494     7.7030     2.5400     0.0840     0.0480   -39.3590    16.8990    14.9720    15.7840    84.0370    98.2110
  386.5000     0.2439     7.7030     2.5290     0.0910     0.0460   -39.3030    15.8130    13.9410    15.2020    86.3110    97.0310
  387.0000     0.2621     7.7030     2.5190     0.0970     0.0490   -39.2480    15.1100    12.8630    13.9820    88.3330    97.8810
  387.5000     0.2821     7.7030     2.5190     0.0980     0.0540   -39.1920    15.1100    11.7840    12.7610    89.4760    98.5500
  388.0000     0.2910     7.7030     2.5220     0.0990     0.0480   -39.1360    14.6990    10.7060    11.5400    90.0690    97.6260
  388.5000     0.2993     7.7030     2.5110     0.1020     0.0360   -39.0810    13.9850     9.6270    10.3200    91.9740    96.6370
  389.0000     0.3043     7.7030     2.4970     0.1100     0.0240   -39.0250    12.9720     8.7050     9.0310    96.2140    98.3690
  389.5000     0.3143     7.7030     2.4820     0.1220     0.0190   -38.9700    10.7940     8.6250     8.9480   100.8720   106.9430
  390.0000     0.3223     7.7030     2.4430     0.1470     0.0380   -38.9140     8.6170     8.5460     9.5190   105.8460   114.9560
  390.5000     0.3105     7.7030     2.4020     0.1710     0.0550   -38.8580     7.1770     8.5460    10.1250   109.1050   124.0330
  391.0000     0.2844     7.7030     2.3820     0.1780     0.0470   -38.7990     9.3460     8.8660    10.7300   108.7760   120.4850
  391.5000     0.2738     7.7030     2.4110     0.1640     0.0330   -38.8800    11.8260     9.4550    11.3360   104.3150   110.6110
  392.0000     0.2543     7.7030     2.4380     0.1480     0.0240   -38.9940    14.3060    10.1580    11.9420    99.6040   101.2560
  392.5000     0.2471     7.7030     2.4660     0.1310     0.0300   -39.1090    15.1350    10.9330    12.5480    94.9400    97.4300
  393.0000     0.2516     7.7030     2.4920     0.1140     0.0230   -39.2240    15.1810    11.7080    13.1540    92.6950    99.0430
  393.5000     0.2655     7.7030     2.5120     0.1000     0.0160   -39.3400    15.2280    12.4830    13.7600    90.2430    99.6810
