~VERSION INFORMATION
 VERS.                2.0:   CWLS LOG ASCII STANDARD - VERSION 2.0
 WRAP.                 NO:   ONE LINE PER DEPTH STEP
~WELL INFORMATION
#MNEM.UNIT      DATA TYPE    INFORMATION
#----------   ------------   ------------------------------
 STRT.F         1379.5000:   START DEPTH
 STOP.F         2168.0000:   STOP DEPTH
 STEP.F            0.5000:   STEP LENGTH
 NULL.          -999.2500:   NO VALUE
 COMP.   FLUOR DANIEL INC:   COMPANY
 WELL. NAVAL PETROLEUM RESERVE 3  83-5-STX-10 #83-5-10:   WELL
 FLD .            WILDCAT:   FIELD
 LOC .      S10 T38N R78W:   LOCATION
 CNTY.            NATRONA:   COUNTY
 STAT.            WYOMING:   STATE
 CTRY. UNITED STATES OF AMERICA:   COUNTRY
 SRVC.            Unknown:   SERVICE COMPANY
 DATE.        20-JAN-1995:   LOGDATE
 API .       490252265500:   API NUMBER
~CURVE INFORMATION
#MNEM.UNIT       API CODE    CURVE DESCRIPTION
#----------   ------------   ------------------------------
 DEPT.F                  :   
 C1  .VF     91 831 01 00:   METHANE
 C2  .VF     91 832 01 00:   ETHANE
 ROP .FT/HR  91 810 01 00:   RAT OF DRILLING PENETRATION
 TGAS.TC/CC  91 830 01 00:   TOTAL GAS UNIT
~PARAMETER INFORMATION
#MNEM.UNIT          VALUE    DESCRIPTION
#----------   ------------   ------------------------------
 DATE.        20-JAN-1995:   RUN DATE
 BLI .F              2165:   BOTTOM LOG INTERVAL
 TLI .F              1380:   TOP LOG INTERVAL
 CLNT.            A2DTECH:   CLIENT CODE
 ORIG.         2.5" PRINT:   ORIGIN OF DATA
 UWI .       490252265500:   UNIQUE WELL ID
 DICO. A2D Technologies, Inc.:   DIGITIZING COMPANY
~OTHER INFORMATION
~A  DEPT        C1         C2        ROP        TGAS  
# ...
 1452.5000  -999.2500  -999.2500     0.5215   985.9476
 1453.0000  -999.2500  -999.2500     0.5214   985.6005
 1453.5000  -999.2500  -999.2500     0.5213   985.2535
 1454.0000  -999.2500  -999.2500     0.5212   984.9064
 1454.5000  -999.2500  -999.2500     0.5211   984.4976
 1455.0000  -999.2500  -999.2500     0.5210  1795.9376
 1455.5000  -999.2500  -999.2500     0.6675  1796.0795
 1456.0000  -999.2500  -999.2500     0.7773  1796.2435
 1456.5000  -999.2500  -999.2500     0.7955  1796.4076
 1457.0000  -999.2500  -999.2500     0.7954  1796.5715
 1457.5000  -999.2500  -999.2500     0.7953  1796.7356
 1458.0000  -999.2500  -999.2500     0.8136  1796.8997
 1458.5000  -999.2500  -999.2500     0.8135  1797.0637
 1459.0000  -999.2500  -999.2500     0.8134  1797.2278
 1459.5000  -999.2500  -999.2500     0.7400  1797.3918
 1460.0000  -999.2500  -999.2500     0.6667  1797.5559
 1460.5000  -999.2500  -999.2500     0.6482  1797.7200
 1461.0000  -999.2500  -999.2500     0.6482  1797.8840
 1461.5000  -999.2500  -999.2500     0.6481  1798.0481
 1462.0000  -999.2500  -999.2500     0.6480  1798.2122
 1462.5000  -999.2500  -999.2500     0.6479  1798.3762
 1463.0000  -999.2500  -999.2500     0.6478  1798.5403
 1463.5000  -999.2500  -999.2500     0.6477  1798.7043
 1464.0000  -999.2500  -999.2500     0.6476  1798.8684
 1464.5000  -999.2500  -999.2500     0.6475  1799.0325
 1465.0000  -999.2500  -999.2500     0.6474  1799.1965
 1465.5000  -999.2500  -999.2500     0.6473  1799.3606
 1466.0000  -999.2500  -999.2500     0.6472  1799.5247
 1466.5000  -999.2500  -999.2500     0.6471  1799.6887
 1467.0000  -999.2500  -999.2500     0.6471  1799.8528
 1467.5000  -999.2500  -999.2500     0.6470  1800.0000
 1468.0000  -999.2500  -999.2500     0.6469  1800.0000
 1468.5000  -999.2500  -999.2500     0.6468  1800.0000
 1469.0000  -999.2500  -999.2500     0.6467  1800.0000
 1469.5000  -999.2500  -999.2500     0.6466  1800.0000
 1470.0000  -999.2500  -999.2500     0.6465  1800.0000
 1470.5000  -999.2500  -999.2500     0.6464  1800.0000
 1471.0000  -999.2500  -999.2500     0.6463  1800.0000
 1471.5000  -999.2500  -999.2500     0.6462  1800.0000
 1472.0000  -999.2500  -999.2500     0.6461  1800.0000
 1472.5000  -999.2500  -999.2500     0.6460  1800.0000
 1473.0000  -999.2500  -999.2500     0.6460  1800.0000
 1473.5000  -999.2500  -999.2500     0.6459  1794.5718
 1474.0000  -999.2500  -999.2500     0.5725  1706.0118
 1474.5000  -999.2500  -999.2500     0.5175  1587.9437
 1475.0000  -999.2500  -999.2500     0.5174  1528.8861
 1475.5000  -999.2500  -999.2500     0.5173  1499.3427
 1476.0000  -999.2500  -999.2500     0.5172  1469.7990
 1476.5000  -999.2500  -999.2500     0.4988  1462.3867
 1477.0000  -999.2500  -999.2500     0.4987  1447.5913
 1477.5000  -999.2500  -999.2500     0.4986  1447.5560
 1478.0000  -999.2500  -999.2500     0.4985  1447.5208
 1478.5000  -999.2500  -999.2500     0.4984  1447.4854
 1479.0000  -999.2500  -999.2500     0.4983  1440.0671
 1479.5000  -999.2500  -999.2500     0.4983  1440.0317
 1480.0000  -999.2500  -999.2500     0.4982  1439.9965
 1480.5000  -999.2500  -999.2500     0.4981  1439.9611
 1481.0000  -999.2500  -999.2500     0.4980  1439.9199
 1481.5000  -999.2500  -999.2500     0.4979  1439.8845
 1482.0000  -999.2500  -999.2500     0.4978  1432.4722
 1482.5000  -999.2500  -999.2500     0.4977  1432.4369
 1483.0000  -999.2500  -999.2500     0.4976  1425.0187
 1483.5000  -999.2500  -999.2500     0.4975  1424.9834
 1484.0000  -999.2500  -999.2500     0.4974  1424.9480
 1484.5000  -999.2500  -999.2500     0.4973  1432.2955
 1485.0000  -999.2500  -999.2500     0.4972  1439.6373
 1485.5000  -999.2500  -999.2500     0.4971  1439.5902
 1486.0000  -999.2500  -999.2500     0.7169  1446.9379
 1486.5000  -999.2500  -999.2500     0.7168  1461.6508
 1487.0000  -999.2500  -999.2500     0.7167  1461.6096
 1487.5000  -999.2500  -999.2500     0.7166  1446.8201
 1488.0000  -999.2500  -999.2500     0.7165  1424.6537
 1488.5000  -999.2500  -999.2500     0.7164  1409.8583
 1489.0000  -999.2500  -999.2500     0.7346  1365.5607
 1489.5000  -999.2500  -999.2500     0.9360  1321.2631
 1490.0000  -999.2500  -999.2500     0.9542  1269.5884
 1490.5000  -999.2500  -999.2500     0.9541  1225.2848
 1491.0000  -999.2500  -999.2500     0.9907  1180.9873
 1491.5000  -999.2500  -999.2500     0.8074  1144.0668
 1492.0000  -999.2500  -999.2500     0.7707  1099.7632
 1492.5000  -999.2500  -999.2500     0.7889  1070.2197
 1493.0000  -999.2500  -999.2500     0.7888  1055.4302
 1493.5000  -999.2500  -999.2500     0.7887  1055.3949
 1494.0000  -999.2500  -999.2500     0.5872  1047.9767
 1494.5000  -999.2500  -999.2500     0.5871  1047.9414
 1495.0000  -999.2500  -999.2500     0.5870  1047.9061
 1495.5000  -999.2500  -999.2500     0.6052  1047.8707
 1496.0000  -999.2500  -999.2500     0.5868  1055.2064
 1496.5000  -999.2500  -999.2500     0.7149  1055.1711
 1497.0000  -999.2500  -999.2500     0.7332  1055.1359
 1497.5000  -999.2500  -999.2500     0.7330  1062.4775
 1498.0000  -999.2500  -999.2500     0.7146  1062.4364
 1498.5000  -999.2500  -999.2500     0.9160  1055.0239
 1499.0000  -999.2500  -999.2500     0.9343  1054.9886
 1499.5000  -999.2500  -999.2500     0.9342  1054.9534
 1500.0000  -999.2500  -999.2500     2.2527  1054.9004
 1500.5000  -999.2500  -999.2500     2.2527  1054.7942
 1501.0000  -999.2500  -999.2500     2.2527  1054.6879
 1501.5000  -999.2500  -999.2500     2.2527  1054.5640
 1502.0000  -999.2500  -999.2500     0.6593  1054.4578
 1502.5000  -999.2500  -999.2500     0.6593  1054.3516
 1503.0000  -999.2500  -999.2500     0.6593  1054.2454
 1503.5000  -999.2500  -999.2500     0.6593  1061.5337
 1504.0000  -999.2500  -999.2500     0.4762  1061.3921
 1504.5000  -999.2500  -999.2500     0.4396  1061.2859
 1505.0000  -999.2500  -999.2500     0.4396  1061.1797
 1505.5000  -999.2500  -999.2500     0.4396  1061.0557
 1506.0000  -999.2500  -999.2500     0.4396  1060.9495
 1506.5000  -999.2500  -999.2500     0.4396  1060.8433
 1507.0000  -999.2500  -999.2500     0.4396  1082.8860
 1507.5000  -999.2500  -999.2500     0.4396  1112.2524
 1508.0000  -999.2500  -999.2500     0.4396  1126.9003
 1508.5000  -999.2500  -999.2500     0.4402  1148.9430
 1509.0000  -999.2500  -999.2500     0.4413  1156.1962
 1509.5000  -999.2500  -999.2500     0.4424  1163.4491
 1510.0000  -999.2500  -999.2500     0.4434  1178.1147
 1510.5000  -999.2500  -999.2500     0.4445  1177.9908
 1511.0000  -999.2500  -999.2500     0.4456  1177.8846
 1511.5000  -999.2500  -999.2500     0.4467  1185.1731
 1512.0000  -999.2500  -999.2500     0.4477  1185.0315
 1512.5000  -999.2500  -999.2500     0.4488  1184.9253
 1513.0000  -999.2500  -999.2500     0.4499  1199.5908
 1513.5000  -999.2500  -999.2500     0.4510  1206.8262
 1514.0000  -999.2500  -999.2500     0.4521  1206.7200
 1514.5000  -999.2500  -999.2500     0.4531  1206.6138
 1515.0000  -999.2500  -999.2500     0.4542  1206.5076
 1515.5000  -999.2500  -999.2500     0.4553  1206.4014
 1516.0000  -999.2500  -999.2500     0.4564  1206.2950
 1516.5000  -999.2500  -999.2500     0.4574  1206.1711
 1517.0000  -999.2500  -999.2500     0.4585  1206.0739
 1517.5000  -999.2500  -999.2500     0.4596  1213.3358
 1518.0000  -999.2500  -999.2500     0.4607  1213.2118
 1518.5000  -999.2500  -999.2500     0.4617  1213.1056
 1519.0000  -999.2500  -999.2500     0.4628  1212.9994
 1519.5000  -999.2500  -999.2500     0.4639  1212.8755
 1520.0000  -999.2500  -999.2500     0.4650  1212.7692
 1520.5000  -999.2500  -999.2500     0.4660  1212.6763
 1521.0000  -999.2500  -999.2500     0.4671  1212.5656
 1521.5000  -999.2500  -999.2500     0.4682  1212.4506
 1522.0000  -999.2500  -999.2500     0.4693  1212.3265
 1522.5000  -999.2500  -999.2500     0.4703  1212.2336
 1523.0000  -999.2500  -999.2500     0.4714  1212.1141
 1523.5000  -999.2500  -999.2500     0.4725  1211.9902
 1524.0000  -999.2500  -999.2500     0.4736  1211.8839
 1524.5000  -999.2500  -999.2500     0.4746  1211.7777
 1525.0000  -999.2500  -999.2500     0.4757  1211.6715
