~VERSION INFORMATION
 VERS.                2.0:   CWLS LOG ASCII STANDARD - VERSION 2.0
 WRAP.                 NO:   ONE LINE PER DEPTH STEP
~WELL INFORMATION
#MNEM.UNIT      DATA TYPE    INFORMATION
#----------   ------------   ------------------------------
 STRT.F           27.0000:   START DEPTH
 STOP.F          713.0000:   STOP DEPTH
 STEP.F            0.5000:   STEP LENGTH
 NULL.          -999.2500:   NO VALUE
 COMP. FENIX & SCISSON INC:   COMPANY
 WELL.       NPR 3 #44-34:   WELL
 FLD .        TEAPOT DOME:   FIELD
 LOC .      S34 T39N R78W:   LOCATION
 CNTY.            NATRONA:   COUNTY
 STAT.            WYOMING:   STATE
 CTRY. UNITED STATES OF AMERICA:   COUNTRY
 SRVC.           BIRDWELL:   SERVICE COMPANY
 DATE.        24-AUG-1978:   LOGDATE
 API .       490251070000:   API NUMBER
~CURVE INFORMATION
#MNEM.UNIT       API CODE    CURVE DESCRIPTION
#----------   ------------   ------------------------------
 DEPT.F                  :   
 SPR .MV     05 010 01 00:   SPONTANEOUS POTENTIAL FROM RES.
 ILD .OHMM   05 120 46 00:   INDUCTION LOG DEEP
 SN  .OHMM   05 040 16 00:   SHORT NORMAL 16"
 CALD.IN     45 280 60 00:   CALIPER
 GRD .GAPI   45 310 01 00:   GAMMA RAY FROM DENSITY LOG
 DEN .G/C3   45 350 01 00:   COMPENSATED BULK DENSTIY
 DPHI.DEC    45 890 12 00:   DENSITY POROSITY SANDSTONE
 CORR.G/C3   45 356 01 00:   DENSITY CORRECTION
~PARAMETER INFORMATION
#MNEM.UNIT          VALUE    DESCRIPTION
#----------   ------------   ------------------------------
 PD  .                 GL:   PERMANENT DATUM
 EPD .F              5124:   ELEVATION PERMANENT DATUM
 LMF .                 KB:   LOG MEASURED FROM
 DAPD.F                 4:   FEET ABOVE PERMANENT DATUM
 DMF .                 KB:   DRILLING MEASURED FROM
 EKB .F              5128:   KELLING BUSHING
 EGL .F              5124:   GROUND LEVEL
 DATE.            8-24-78:   RUN DATE
 RUN .                  1:   RUN NUMBER
 DD  .F               716:   DEPTH DRILLER
 DL  .F               713:   DEPTH LOGGER
 BLI .F               707:   BOTTOM LOG INTERVAL
 TLI .F                50:   TOP LOG INTERVAL
 CS  .IN            8.625:   CASING SIZE
 CBD .F                40:   CASING BOTTOM DRILLER
 BS  .IN            7.875:   BIT SIZE
 BSD .F               716:   BIT SIZE AT DEPTH
 DFT .            MUD KCL:   DRILLING FLUID TYPE
 DFD .                8.6:   DRILLING FLUID DENSITY
 DFV .                 34:   DRILLING FLUID VISCOSITY
 DFL .                7.4:   DRILLING FLUID LOSS
 MSS .          FLOW LINE:   MUD SAMPLE SOURCE
 RMS .OHMM            .18:   RESISTIVITY MUD SAMPLE
 MST .F                76:   MUD SAMPLE TEMPERATURE
 RMF .OHMM            .16:   RESISTIVITY MUD FILTRATE SAMPLE
 MFST.F                92:   MUD FILTRATE SAMPLE TEMPERATURE
 RMC .OHMM             .3:   RESISTIVITY MUD CAKE
 MCST.F                86:   MUD CAKE SAMPLE TEMPERATURE
 MFSS.               MEAS:   MUD FILTRATE SAMPLE SOURCE
 TCS .HRS               3:   TIME CURCULATED STOPPED
 MRT .F                72:   MAXIMUM RECORDED TEMPERATURE
 LUN .               2958:   LOGGING UNIT NUMBER
 LUL .               CASP:   LOGGING UNIT LOCATION
 ENGI.           REYNOLDS:   RECORDING ENGINEER
 WITN.              AMEND:   WITNESSED BY
 CLNT.            A2DTECH:   CLIENT CODE
 ORIG.           5" PRINT:   ORIGIN OF DATA
 UWI .       490251070000:   UNIQUE WELL ID
 DICO. A2D Technologies, Inc.:   DIGITIZING COMPANY
~OTHER INFORMATION
~A   DEPT      SPR        ILD         SN       CALD         GRD       DEN       DPHI       CORR   
# ...
  270.0000   -66.0081     8.5317     8.7790     8.9128    95.5618     2.4942     0.1224     0.0201
  270.5000   -66.0134     8.5185     8.7639     8.9115    97.4927     2.4930     0.1224     0.0210
  271.0000   -65.9863     8.5053     8.7489     8.9102    99.2059     2.4954     0.1209     0.0208
  271.5000   -65.9595     8.4921     8.7339     8.9089    99.2194     2.4989     0.1192     0.0194
  272.0000   -65.9332     8.4790     8.7189     8.9076    99.1579     2.4997     0.1180     0.0180
  272.5000   -65.9069     8.4658     8.7039     8.9063   101.0217     2.5052     0.1084     0.0177
  273.0000   -65.8806     8.4527     8.6889     8.9050   103.1720     2.5136     0.1068     0.0181
  273.5000   -65.8543     8.4397     8.6740     8.9037   107.2627     2.5179     0.1129     0.0185
  274.0000   -65.8280     8.4266     8.6582     8.9024   113.9447     2.5131     0.1173     0.0189
  274.5000   -65.8017     8.3504     8.5974     8.9011   114.6054     2.4994     0.1180     0.0193
  275.0000   -65.7754     8.2000     8.5108     8.8998   114.8441     2.4983     0.1188     0.0227
  275.5000   -65.7491     8.0427     8.4195     8.8987   115.7899     2.4948     0.1235     0.0312
  276.0000   -65.7227     8.0427     8.3872     8.9073   115.9812     2.4896     0.1282     0.0378
  276.5000   -65.6963     8.0427     8.3528     8.9282   113.6717     2.4850     0.1287     0.0313
  277.0000   -65.6697     8.0427     8.3186     8.9174   111.2746     2.4870     0.1200     0.0242
  277.5000   -65.6377     8.0427     8.2845     8.8802   106.8717     2.5025     0.1082     0.0169
  278.0000   -65.8639     7.8802     8.2151     8.8585   102.5241     2.5184     0.1016     0.0149
  278.5000   -66.1625     7.6962     8.1080     8.8610   102.3359     2.5207     0.1079     0.0142
  279.0000   -66.4629     7.4747     8.0023     8.8633   104.4897     2.5114     0.1142     0.0135
  279.5000   -66.7630     7.4931     7.8968     8.8656   105.7934     2.5020     0.1205     0.0141
  280.0000   -67.0307     7.5161     7.8968     8.8679   106.3938     2.4927     0.1272     0.0153
  280.5000   -67.0332     7.5400     7.8968     8.8702   107.0361     2.4852     0.1296     0.0166
  281.0000   -67.0321     7.5638     7.8968     8.8725   108.8399     2.4788     0.1310     0.0178
  281.5000   -67.0319     7.5877     7.9383     8.8748   114.2950     2.4785     0.1325     0.0191
  282.0000   -67.0319     7.6128     7.9986     8.8770   116.8780     2.4781     0.1327     0.0188
  282.5000   -67.0319     7.7111     8.0593     8.8899   113.8384     2.4788     0.1324     0.0177
  283.0000   -67.0319     7.8158     8.1205     8.9064   109.0271     2.4801     0.1220     0.0167
  283.5000   -67.0319     7.9220     8.1819     8.9229   105.7232     2.4884     0.1230     0.0156
  284.0000   -67.0319     8.0297     8.2232     8.9377   104.6242     2.4922     0.1240     0.0145
  284.5000   -67.0319     8.0427     8.2609     8.9370   101.4144     2.4942     0.1217     0.0135
  285.0000   -67.0319     8.0427     8.2987     8.9360    99.4206     2.5000     0.1180     0.0135
  285.5000   -67.0319     8.0428     8.3368     8.9351    98.6592     2.5058     0.1155     0.0135
  286.0000   -67.0319     8.0427     8.3750     8.9342    96.8666     2.5059     0.1206     0.0135
  286.5000   -67.0319     8.0427     8.4195     8.9333    98.3381     2.4959     0.1269     0.0151
  287.0000   -67.0318     8.0427     8.4071     8.9324   100.7459     2.4851     0.1332     0.0197
  287.5000   -67.0314     8.0427     8.3924     8.9315   100.6191     2.4779     0.1332     0.0242
  288.0000   -67.0337     8.0427     8.3777     8.9306    99.3921     2.4818     0.1265     0.0275
  288.5000   -67.1088     8.0428     8.3631     8.9297    99.5565     2.4923     0.1250     0.0270
  289.0000   -67.1881     8.0407     8.3485     8.9288    99.2898     2.4931     0.1233     0.0266
  289.5000   -67.2672     8.0371     8.3392     8.9278    97.7934     2.4962     0.1187     0.0262
  290.0000   -67.3473     8.0335     8.3334     8.9270    96.8107     2.5021     0.1162     0.0258
  290.5000   -67.4254     8.0299     8.3276     8.9261    98.4271     2.5027     0.1172     0.0261
  291.0000   -67.3038     8.0263     8.3218     8.9251   101.2630     2.5022     0.1180     0.0293
  291.5000   -67.1643     8.0228     8.3161     8.9242   103.3621     2.5037     0.1156     0.0323
  292.0000   -67.0402     8.0192     8.3103     8.9233   100.2587     2.5069     0.1146     0.0353
  292.5000   -67.1911     8.0156     8.3045     8.9224    97.1631     2.5073     0.1159     0.0298
  293.0000   -67.3491     8.0120     8.2987     8.9215    94.8538     2.5076     0.1155     0.0270
  293.5000   -67.3623     8.0085     8.2930     8.9206    94.0094     2.5078     0.1112     0.0260
  294.0000   -67.2257     8.0049     8.2872     8.9197    94.5126     2.5146     0.1069     0.0251
  294.5000   -67.0885     8.0013     8.2815     8.9189    98.0171     2.5197     0.1056     0.0242
  295.0000   -67.0467     7.9978     8.2757     8.9177    99.4352     2.5083     0.1203     0.0234
  295.5000   -67.0694     7.9942     8.2700     8.8973   103.5654     2.4936     0.1242     0.0219
  296.0000   -67.0934     7.9907     8.2670     8.8750   108.7234     2.4921     0.1244     0.0202
  296.5000   -67.1173     7.9871     8.2739     8.8573   109.8876     2.4949     0.1194     0.0186
  297.0000   -67.1412     7.9835     8.2789     8.8577   105.9379     2.4977     0.1193     0.0169
  297.5000   -67.1650     7.9800     8.2839     8.8577   105.0373     2.4971     0.1212     0.0154
  298.0000   -67.1888     7.9764     8.2890     8.8577   105.1898     2.4939     0.1224     0.0148
  298.5000   -67.2127     7.9728     8.2940     8.8577   106.1167     2.4920     0.1225     0.0143
  299.0000   -67.2477     7.9698     8.2991     8.8577   107.2113     2.4920     0.1226     0.0137
  299.5000   -67.3289     7.9769     8.3041     8.8577   104.5875     2.4920     0.1228     0.0139
  300.0000   -67.4083     7.9843     8.3092     8.8577   101.4766     2.4916     0.1244     0.0161
  300.5000   -67.4877     7.9916     8.3142     8.8577   103.9300     2.4880     0.1264     0.0182
  301.0000   -67.5663     7.9989     8.3193     8.8577   104.0467     2.4843     0.1293     0.0202
  301.5000   -67.6345     8.0062     8.3243     8.8577   103.9889     2.4820     0.1302     0.0213
  302.0000   -67.7401     8.0135     8.3294     8.8577   106.1380     2.4820     0.1304     0.0207
  302.5000   -67.8499     8.0209     8.3345     8.8577   107.4777     2.4837     0.1279     0.0202
  303.0000   -67.9577     8.0282     8.3394     8.8577   103.2603     2.4887     0.1214     0.0197
  303.5000   -68.0162     8.0356     8.3421     8.8577   102.2779     2.5023     0.1120     0.0191
  304.0000   -67.9798     8.0434     8.3109     8.8577   102.1285     2.5164     0.1063     0.0186
  304.5000   -67.9449     7.8968     8.2876     8.8577    98.9137     2.5206     0.1045     0.0181
  305.0000   -67.9097     7.9122     8.2671     8.8577    96.1542     2.5226     0.1035     0.0175
  305.5000   -67.8746     7.9350     8.2747     8.8575    96.3291     2.5241     0.1032     0.0170
  306.0000   -67.8395     7.9580     8.2817     8.8563    96.5224     2.5152     0.1147     0.0165
  306.5000   -67.8044     7.9809     8.2889     8.8550   101.3804     2.5047     0.1151     0.0159
  307.0000   -67.7693     8.0040     8.2961     8.8537   105.8598     2.5066     0.1088     0.0155
  307.5000   -67.7342     8.0271     8.3033     8.8524   108.4660     2.5142     0.1124     0.0160
  308.0000   -67.6989     8.0427     8.3104     8.8511   109.0211     2.5086     0.1182     0.0164
  308.5000   -67.6633     8.0427     8.3176     8.8498   105.0217     2.5004     0.1200     0.0168
  309.0000   -67.6321     8.0428     8.3248     8.8485   106.4443     2.5020     0.1131     0.0172
  309.5000   -67.6886     8.0427     8.3321     8.8472   108.3835     2.5085     0.1120     0.0176
  310.0000   -67.7478     8.0427     8.3392     8.8460   110.1951     2.5090     0.1184     0.0181
