~VERSION INFORMATION
 VERS.                2.0:   CWLS LOG ASCII STANDARD - VERSION 2.0
 WRAP.                 NO:   ONE LINE PER DEPTH STEP
~WELL INFORMATION
#MNEM.UNIT      DATA TYPE    INFORMATION
#----------   ------------   ------------------------------
 STRT.F           10.0000:   START DEPTH
 STOP.F          485.0000:   STOP DEPTH
 STEP.F            0.5000:   STEP LENGTH
 NULL.          -999.2500:   NO VALUE
 COMP. FENIX & SCISSON INC:   COMPANY
 WELL.    56 S 3 SX #56-3:   WELL
 FLD .             TEAPOT:   FIELD
 LOC .       S3 T38N R78W:   LOCATION
 CNTY.            NATRONA:   COUNTY
 STAT.            WYOMING:   STATE
 CTRY. UNITED STATES OF AMERICA:   COUNTRY
 SRVC.            Unknown:   SERVICE COMPANY
 DATE.        09-OCT-1978:   LOGDATE
 API .       490251071900:   API NUMBER
~CURVE INFORMATION
#MNEM.UNIT       API CODE    CURVE DESCRIPTION
#----------   ------------   ------------------------------
 DEPT.F                  :   
 SPR .MV     05 010 01 00:   SPONTANEOUS POTENTIAL FROM RES.
 SN  .OHMM   05 040 16 00:   SHORT NORMAL 16"
 ILD .OHMM   05 120 46 00:   INDUCTION LOG DEEP
 CALD.IN     45 280 60 00:   CALIPER
 GRD .GAPI   45 310 01 00:   GAMMA RAY FROM DENSITY LOG
 CORR.G/C3   45 356 01 00:   DENSITY CORRECTION
 RHOB.G/C3   45 350 01 00:   BULK DENSITY
 DPHI.DEC    45 890 12 00:   DENSITY POROSITY SANDSTONE
~PARAMETER INFORMATION
#MNEM.UNIT          VALUE    DESCRIPTION
#----------   ------------   ------------------------------
 PD  .                 GL:   PERMANENT DATUM
 EPD .F              5188:   ELEVATION PERMANENT DATUM
 LMF .                 KB:   LOG MEASURED FROM
 DAPD.F                 4:   FEET ABOVE PERMANENT DATUM
 DMF .                 KB:   DRILLING MEASURED FROM
 EKB .F              5192:   KELLING BUSHING
 EGL .F              5188:   GROUND LEVEL
 DATE.            10-9-78:   RUN DATE
 RUN .                  1:   RUN NUMBER
 DD  .F               485:   DEPTH DRILLER
 DL  .F               485:   DEPTH LOGGER
 BLI .F               479:   BOTTOM LOG INTERVAL
 TLI .F                32:   TOP LOG INTERVAL
 CS  .IN            8.625:   CASING SIZE
 BS  .IN            7.875:   BIT SIZE
 BSD .F               485:   BIT SIZE AT DEPTH
 DFT .                KCL:   DRILLING FLUID TYPE
 DFD .                8.8:   DRILLING FLUID DENSITY
 DFV .                 41:   DRILLING FLUID VISCOSITY
 DFPH.                  9:   DRILLING FLUID PH
 DFL .                7.6:   DRILLING FLUID LOSS
 MSS .          FLOW LINE:   MUD SAMPLE SOURCE
 RMS .OHMM            .18:   RESISTIVITY MUD SAMPLE
 MST .F                60:   MUD SAMPLE TEMPERATURE
 RMF .OHMM            .16:   RESISTIVITY MUD FILTRATE SAMPLE
 MFST.F                70:   MUD FILTRATE SAMPLE TEMPERATURE
 RMC .OHMM            .26:   RESISTIVITY MUD CAKE
 MCST.F                70:   MUD CAKE SAMPLE TEMPERATURE
 MFSS.               MEAS:   MUD FILTRATE SAMPLE SOURCE
 MCSS.               MEAS:   MUD CAKE SAMPLE SOURCE
 TCS .HRS             1.5:   TIME CURCULATED STOPPED
 LUN .               2958:   LOGGING UNIT NUMBER
 LUL .               CASP:   LOGGING UNIT LOCATION
 ENGI.             MILLER:   RECORDING ENGINEER
 WITN.              AMEND:   WITNESSED BY
 CLNT.            A2DTECH:   CLIENT CODE
 ORIG.           5" PRINT:   ORIGIN OF DATA
 UWI .       490251071900:   UNIQUE WELL ID
 DICO. A2D Technologies, Inc.:   DIGITIZING COMPANY
~OTHER INFORMATION
~A   DEPT      SPR         SN        ILD       CALD         GRD      CORR       RHOB       DPHI   
# ...
  415.0000   -35.4157     8.9059    10.0258     8.0424    89.8076     0.0264     2.5056     0.1115
  415.5000   -35.4111     8.8228     9.8251     8.0421    89.8174     0.0266     2.5098     0.1090
  416.0000   -35.5760     8.7406     9.6285     8.0417    89.6685     0.0268     2.5120     0.1071
  416.5000   -35.7737     8.6464     9.4358     8.0414    91.2725     0.0270     2.5066     0.1050
  417.0000   -35.7269     8.5329     9.2469     8.0411    92.9035     0.0272     2.5017     0.1032
  417.5000   -35.6225     8.4209     9.0618     8.0407    91.9707     0.0274     2.5000     0.1046
  418.0000   -35.8694     8.3000     8.8805     8.0404    91.2481     0.0276     2.5000     0.1059
  418.5000   -35.9029     8.2193     8.7027     8.0401    91.1880     0.0278     2.4999     0.1072
  419.0000   -35.6759     8.1312     8.4777     8.0398    91.4793     0.0280     2.4964     0.1085
  419.5000   -35.8478     8.0440     8.2038     8.0394    93.1994     0.0282     2.4924     0.1098
  420.0000   -36.1886     7.9577     7.9389     8.0391    96.1701     0.0284     2.4883     0.1111
  420.5000   -36.1505     7.8724     7.6824     8.0388    99.1951     0.0286     2.4842     0.1128
  421.0000   -35.6020     7.6522     7.4343     8.0385   101.2441     0.0288     2.4802     0.1155
  421.5000   -36.0651     7.4042     7.1723     8.0381   101.7506     0.0289     2.4760     0.1181
  422.0000   -37.3517     7.1642     6.8166     8.0378   102.6444     0.0289     2.4718     0.1208
  422.5000   -37.4104     6.9320     6.4788     8.0375   103.5158     0.0325     2.4685     0.1235
  423.0000   -37.4026     6.7073     6.1846     8.0372   107.6316     0.0376     2.4585     0.1262
  423.5000   -37.4004     6.4899     6.1857     8.0368   110.4303     0.0428     2.4419     0.1343
  424.0000   -37.4008     6.4173     6.1857     8.0365   112.7217     0.0474     2.4265     0.1485
  424.5000   -37.4008     6.4173     6.1857     8.0362   114.8728     0.0522     2.4310     0.1485
  425.0000   -37.4008     6.6575     6.4388     8.0359   117.4837     0.0453     2.4721     0.1379
  425.5000   -37.4008     6.9935     6.7622     8.0356   113.5628     0.0384     2.5136     0.1202
  426.0000   -37.4008     7.4815     7.2317     8.0352   104.3032     0.0356     2.5237     0.0992
  426.5000   -37.4011     8.0037     7.8409     8.0349    97.6215     0.0413     2.5284     0.0914
  427.0000   -37.4000     8.3245     8.3428     8.0346    97.2950     0.0383     2.5266     0.0917
  427.5000   -37.3939     8.5659     8.7262     8.0343    96.7064     0.0363     2.5262     0.0920
  428.0000   -37.4217     8.8170     9.1272     8.0339    95.5286     0.0341     2.5260     0.0924
  428.5000   -37.7921     8.8883     9.3832     8.0336    93.6078     0.0318     2.5259     0.0927
  429.0000   -37.8045     8.9312     9.6203     8.0333    93.1474     0.0296     2.5258     0.0924
  429.5000   -37.8147     8.9743     9.8658     8.0330    93.3090     0.0274     2.5262     0.0917
  430.0000   -37.8214     9.0176    10.0691     8.0326    98.3394     0.0250     2.5276     0.0919
  430.5000   -37.8281     9.0611    10.2569     8.0323   100.7439     0.0234     2.5245     0.0943
  431.0000   -37.8349     9.1107    10.4516     8.0320   100.5778     0.0217     2.5166     0.0966
  431.5000   -37.8417     9.1973    10.6518     8.0317    99.8504     0.0201     2.5096     0.0990
  432.0000   -37.8486     9.2847    10.8558     8.0313    99.3261     0.0183     2.5096     0.1016
  432.5000   -37.8554     9.3730    11.0637     8.0310    99.4785     0.0169     2.5151     0.0994
  433.0000   -37.8622     9.4786    11.2756     8.0307    99.6222     0.0155     2.5214     0.0970
  433.5000   -37.8691     9.6347    11.4915     8.0304    99.5546     0.0142     2.5280     0.0946
  434.0000   -37.8759     9.7928    11.7116     8.0300    99.3590     0.0130     2.5326     0.0921
  434.5000   -37.8827     9.7928    11.9359     8.0297    99.1028     0.0117     2.5268     0.0938
  435.0000   -37.8896     9.7927    12.0358     8.0294    94.3983     0.0105     2.5161     0.0957
  435.5000   -37.8964     9.7928    12.0996     8.0291    90.6073     0.0093     2.5079     0.0975
  436.0000   -37.9032     9.7928    12.1637     8.0287    90.7261     0.0105     2.5042     0.0993
  436.5000   -37.9101     9.7927    12.2087     8.0284    90.9408     0.0127     2.5040     0.1008
  437.0000   -37.9169     9.7934    12.2087     8.0281    91.1981     0.0149     2.5073     0.1003
  437.5000   -37.9237     9.7707    12.2087     8.0278    91.4506     0.0170     2.5117     0.0989
  438.0000   -37.9306     9.7237    12.2087     8.0274    91.6983     0.0192     2.5162     0.0976
  438.5000   -37.9374     9.6765    12.1531     8.0264    91.9350     0.0206     2.5182     0.0979
  439.0000   -37.9442     9.6295    12.0640     8.0250    92.1618     0.0196     2.5160     0.0993
  439.5000   -37.9510     9.5829    11.9754     8.0235    91.9222     0.0187     2.5113     0.1008
  440.0000   -37.9579     9.5365    11.8876     8.0221    91.7018     0.0176     2.5072     0.1022
  440.5000   -37.9647     9.4902    11.8003     8.0207    90.4351     0.0177     2.5021     0.1037
  441.0000   -37.9715     9.4443    11.7137     8.0193    89.2963     0.0207     2.5050     0.1051
  441.5000   -37.9784     9.4299    11.6278     8.0179    88.1441     0.0236     2.5123     0.1049
  442.0000   -37.9854     9.4193    11.5424     8.0165    86.9637     0.0267     2.5197     0.1038
  442.5000   -37.9925     9.4087    11.4577     8.0151    87.7537     0.0292     2.5206     0.1027
  443.0000   -38.0362     9.3982    11.3737     8.0137    89.3839     0.0304     2.5154     0.1016
  443.5000   -38.1337     9.3876    11.2902     8.0123    90.0737     0.0317     2.5118     0.1005
  444.0000   -38.2306     9.3771    11.2073     8.0109    90.3452     0.0329     2.5137     0.0994
  444.5000   -38.3270     9.3665    11.1318     8.0095    91.2039     0.0342     2.5176     0.0983
  445.0000   -38.3941     9.3554    11.0962     8.0081    92.9959     0.0354     2.5214     0.0971
  445.5000   -38.3928     9.3288    11.0606     8.0067    94.7005     0.0367     2.5257     0.0960
  446.0000   -38.3928     9.2830    10.9838     8.0053    96.4778     0.0372     2.5259     0.0949
  446.5000   -38.3929     9.2369    10.8038     8.0039    96.5237     0.0376     2.5249     0.0936
  447.0000   -38.3929     9.1911    10.6267     8.0025    96.0786     0.0380     2.5217     0.0934
  447.5000   -38.3929     9.1454    10.4525     8.0011    95.4315     0.0384     2.5195     0.0931
  448.0000   -38.3929     9.1000    10.2812     7.9997    94.8247     0.0388     2.5215     0.0929
  448.5000   -38.3929     9.0548    10.1127     7.9983    94.9215     0.0393     2.5225     0.0913
  449.0000   -38.3929     9.0099     9.9470     7.9968    96.1618     0.0397     2.5241     0.0897
  449.5000   -38.3929     8.9651     9.7840     7.9954    97.2966     0.0401     2.5257     0.0921
  450.0000   -38.3929     8.9206     9.6236     7.9940    98.4340     0.0406     2.5260     0.0948
  450.5000   -38.3929     8.8763     9.4659     7.9926    99.6838     0.0401     2.5253     0.0938
  451.0000   -38.3928     8.8322     9.3107     7.9912    99.0447     0.0382     2.5323     0.0882
  451.5000   -38.3925     8.7884     9.1581     7.9898    94.5182     0.0364     2.5433     0.0890
  452.0000   -38.3933     8.7447     9.0988     7.9884    94.0498     0.0346     2.5394     0.0907
  452.5000   -38.4400     8.7013     9.0765     7.9883    95.5149     0.0327     2.5320     0.0924
  453.0000   -38.7601     8.6581     9.0540     7.9882    96.6282     0.0311     2.5249     0.0941
  453.5000   -39.0906     8.6151     9.0315     7.9883    98.9727     0.0290     2.5177     0.0958
  454.0000   -39.3137     8.5723     9.0091     7.9883   102.3743     0.0304     2.5139     0.0968
  454.5000   -39.5096     8.5320     8.9868     7.9883   104.7604     0.0322     2.5193     0.0950
  455.0000   -39.5998     8.5320     8.9645     7.9883   104.7164     0.0342     2.5236     0.0932
