~VERSION INFORMATION
 VERS.                2.0:   CWLS LOG ASCII STANDARD - VERSION 2.0
 WRAP.                 NO:   ONE LINE PER DEPTH STEP
~WELL INFORMATION
#MNEM.UNIT      DATA TYPE    INFORMATION
#----------   ------------   ------------------------------
 STRT.F           16.5000:   START DEPTH
 STOP.F          640.0000:   STOP DEPTH
 STEP.F            0.5000:   STEP LENGTH
 NULL.          -999.2500:   NO VALUE
 COMP. FENIX & SCISSON INC:   COMPANY
 WELL.     11 SX 14 #3-14:   WELL
 FLD .             TEAPOT:   FIELD
 LOC .      S14 T38N R78W:   LOCATION
 CNTY.            NATRONA:   COUNTY
 STAT.            WYOMING:   STATE
 CTRY. UNITED STATES OF AMERICA:   COUNTRY
 SRVC.            Unknown:   SERVICE COMPANY
 DATE.        18-DEC-1978:   LOGDATE
 API .       490251075700:   API NUMBER
~CURVE INFORMATION
#MNEM.UNIT       API CODE    CURVE DESCRIPTION
#----------   ------------   ------------------------------
 DEPT.F                  :   
 SPR .MV     05 010 01 00:   SPONTANEOUS POTENTIAL FROM RES.
 SN  .OHMM   05 040 16 00:   SHORT NORMAL 16"
 IL  .OHMM   05 120 00 00:   INDUCTION LOG
 GRD .GAPI   45 310 01 00:   GAMMA RAY FROM DENSITY LOG
 CALD.IN     45 280 60 00:   CALIPER
 RHOB.G/C3   45 350 01 00:   BULK DENSITY
 DPHI.DEC    45 890 12 00:   DENSITY POROSITY SANDSTONE
 CORR.G/C3   45 356 01 00:   DENSITY CORRECTION
~PARAMETER INFORMATION
#MNEM.UNIT          VALUE    DESCRIPTION
#----------   ------------   ------------------------------
 PD  .                 GL:   PERMANENT DATUM
 EPD .F              5217:   ELEVATION PERMANENT DATUM
 LMF .                 KB:   LOG MEASURED FROM
 DAPD.F                 4:   FEET ABOVE PERMANENT DATUM
 DMF .                 KB:   DRILLING MEASURED FROM
 EKB .F              5221:   KELLING BUSHING
 EGL .F              5217:   GROUND LEVEL
 DATE.           12-18-78:   RUN DATE
 RUN .                  1:   RUN NUMBER
 DD  .F               653:   DEPTH DRILLER
 DL  .F               640:   DEPTH LOGGER
 BLI .F               634:   BOTTOM LOG INTERVAL
 TLI .F                32:   TOP LOG INTERVAL
 CS  .IN            8.625:   CASING SIZE
 CBD .F                40:   CASING BOTTOM DRILLER
 CBL .F                30:   CASING BOTTOM LOGGER
 BS  .IN            7.875:   BIT SIZE
 BSD .F               653:   BIT SIZE AT DEPTH
 DFT .                KCL:   DRILLING FLUID TYPE
 DFD .                8.3:   DRILLING FLUID DENSITY
 DFV .                 36:   DRILLING FLUID VISCOSITY
 DFPH.               12.5:   DRILLING FLUID PH
 DFL .               12.3:   DRILLING FLUID LOSS
 MSS .           FLOWLINE:   MUD SAMPLE SOURCE
 MST .F                56:   MUD SAMPLE TEMPERATURE
 RMF .OHMM            .44:   RESISTIVITY MUD FILTRATE SAMPLE
 MFST.F                58:   MUD FILTRATE SAMPLE TEMPERATURE
 RMC .OHMM            .58:   RESISTIVITY MUD CAKE
 MCST.F                66:   MUD CAKE SAMPLE TEMPERATURE
 MFSS.           MEASURED:   MUD FILTRATE SAMPLE SOURCE
 MCSS.           MEASURED:   MUD CAKE SAMPLE SOURCE
 BHT .F                58:   BOTTOM HOLE TEMPERATURE
 TCS .HRS               4:   TIME CURCULATED STOPPED
 MRT .F                58:   MAXIMUM RECORDED TEMPERATURE
 LUL .             CASPER:   LOGGING UNIT LOCATION
 ENGI.         B. ROLLINS:   RECORDING ENGINEER
 WITN.              AMEND:   WITNESSED BY
 CLNT.            A2DTECH:   CLIENT CODE
 ORIG.           5" PRINT:   ORIGIN OF DATA
 UWI .       490251075700:   UNIQUE WELL ID
 DICO. A2D Technologies, Inc.:   DIGITIZING COMPANY
~OTHER INFORMATION
~A   DEPT      SPR         SN         IL         GRD      CALD       RHOB       DPHI       CORR   
# ...
  543.0000   -62.2450    20.2090    22.2920    70.0530     7.9080     2.2900     0.2350     0.0050
  543.5000   -62.0670    20.2370    22.1160    65.9010     8.0610     2.2940     0.2320     0.0060
  544.0000   -61.8900    20.2650    21.9400    62.9620     8.1020     2.2990     0.2290     0.0080
  544.5000   -61.6990    20.2930    21.7650    62.7590     7.9360     2.2970     0.2240     0.0090
  545.0000   -61.2270    20.3210    21.5890    64.0340     7.7820     2.3080     0.2150     0.0110
  545.5000   -60.7240    20.3500    21.4140    64.2960     7.8170     2.3200     0.2080     0.0120
  546.0000   -60.1980    20.3720    21.2380    64.2310     7.8780     2.3310     0.2070     0.0120
  546.5000   -59.9670    20.2290    21.0630    64.1720     7.9390     2.3350     0.2100     0.0120
  547.0000   -59.7290    20.1050    20.8870    65.0840     8.0060     2.3310     0.2140     0.0120
  547.5000   -59.4890    19.9820    20.7120    66.1410     7.8020     2.3270     0.2190     0.0120
  548.0000   -59.3030    19.8590    20.5360    67.2240     7.7130     2.3220     0.2190     0.0120
  548.5000   -59.3430    19.7360    20.3600    67.8590     7.6090     2.3210     0.2150     0.0130
  549.0000   -59.3790    19.6130    20.1850    68.0260     7.6780     2.3230     0.2070     0.0130
  549.5000   -59.4120    19.4900    20.0090    67.5250     7.7500     2.3350     0.1990     0.0130
  550.0000   -59.4440    19.3660    19.8160    66.7180     7.8020     2.3470     0.1920     0.0130
  550.5000   -59.4800    19.2430    19.7080    66.1320     7.7880     2.3590     0.1850     0.0130
  551.0000   -59.1720    19.1200    19.5870    66.1460     7.7320     2.3710     0.1810     0.0130
  551.5000   -58.5580    18.9970    19.4660    66.1430     7.6780     2.3810     0.1860     0.0140
  552.0000   -57.9450    18.8740    19.3450    66.4320     7.6430     2.3770     0.1930     0.0180
  552.5000   -57.3310    18.7510    19.2240    67.7770     7.6140     2.3650     0.1950     0.0220
  553.0000   -56.7150    18.6280    19.1030    70.0600     7.5850     2.3570     0.1940     0.0260
  553.5000   -56.0990    18.5050    18.9830    72.3780     7.5640     2.3570     0.1920     0.0300
  554.0000   -55.5180    18.3820    18.8620    72.2190     7.5650     2.3620     0.1880     0.0360
  554.5000   -55.4990    18.2580    18.7410    71.4090     7.5650     2.3700     0.1800     0.0460
  555.0000   -55.5000    18.1350    18.6200    70.3730     7.5770     2.3790     0.1750     0.0530
  555.5000   -55.5010    18.0120    18.4990    70.7760     7.6400     2.3870     0.1740     0.0530
  556.0000   -55.4840    17.8890    18.3670    71.6660     7.7730     2.3940     0.1800     0.0520
  556.5000   -55.1760    17.7660    18.1980    72.3300     7.9040     2.3900     0.1850     0.0520
  557.0000   -54.8760    17.6430    18.0300    72.3550     8.0340     2.3810     0.1880     0.0520
  557.5000   -54.5760    17.4720    17.8610    72.3920     8.1350     2.3730     0.1910     0.0560
  558.0000   -54.2790    17.2480    17.6930    72.4310     8.0930     2.3630     0.2030     0.0600
  558.5000   -53.9820    17.0240    17.5240    72.4660     8.0980     2.3510     0.1980     0.0740
  559.0000   -53.6860    16.8010    17.3550    72.4760     8.2540     2.3470     0.1900     0.0900
  559.5000   -53.5670    16.5770    17.1870    71.9710     8.2660     2.3600     0.1860     0.1020
  560.0000   -53.7390    16.3530    17.0180    70.2750     8.0710     2.3690     0.1850     0.1090
  560.5000   -53.9080    16.1290    16.7190    68.4120     8.0120     2.3720     0.1830     0.1160
  561.0000   -54.0800    16.0160    16.3110    67.9470     7.9960     2.3750     0.1750     0.1300
  561.5000   -53.9300    15.9900    15.9030    68.2780     7.9820     2.3840     0.1640     0.1470
  562.0000   -53.7370    15.9650    15.4950    70.5550     7.9670     2.4090     0.1540     0.1580
  562.5000   -53.5430    15.9390    15.1500    71.4140     7.9530     2.4240     0.1520     0.1510
  563.0000   -53.3470    15.9140    15.0650    73.6890     7.9410     2.4270     0.1580     0.1420
  563.5000   -53.1480    15.8880    14.9790    75.6970     7.9410     2.4260     0.1650     0.1390
  564.0000   -53.0600    15.8620    14.8930    76.4920     7.9410     2.4140     0.1680     0.1410
  564.5000   -53.0010    15.8370    14.8080    76.4830     7.9500     2.4010     0.1600     0.1660
  565.0000   -52.9400    15.8110    14.7220    76.4860     7.9670     2.4140     0.1510     0.1930
  565.5000   -52.7500    15.7860    14.6370    76.7820     7.9850     2.4300     0.1430     0.2200
  566.0000   -51.9520    15.7600    14.5510    77.9110     8.0030     2.4420     0.1270     0.2550
  566.5000   -51.1570    15.7370    14.4650    79.6090     8.0200     2.4580     0.0860     0.2780
  567.0000   -50.3610    15.6070    14.3800    79.9000     8.0390     2.5100     0.0590     0.2790
  567.5000   -49.5400    15.4890    14.2940    78.7790     8.0950     2.5700     0.0710     0.2050
  568.0000   -49.1540    15.3700    14.2000    75.7270     8.1590     2.5890     0.0910     0.1010
  568.5000   -48.9120    15.2520    14.0490    72.5750     8.1410     2.5500     0.1110     0.0370
  569.0000   -48.7000    15.1340    13.8990    69.8490     8.0420     2.5120     0.1320     0.0120
  569.5000   -48.6300    15.0150    13.7480    68.2390     8.0820     2.4740     0.1510     0.0080
  570.0000   -48.5670    14.8970    13.5980    67.9720     8.1170     2.4390     0.1680     0.0080
  570.5000   -48.5030    14.7780    13.4470    69.4200     8.0950     2.4060     0.1650     0.0110
  571.0000   -48.4390    14.6600    13.2970    71.9280     8.0180     2.4040     0.1650     0.0170
  571.5000   -48.3760    14.5410    13.2080    74.2680     7.9430     2.4060     0.1670     0.0190
  572.0000   -48.3120    14.4230    13.2080    74.2980     7.8660     2.4050     0.1680     0.0180
  572.5000   -48.2490    14.3040    13.2080    74.2920     7.9100     2.4040     0.1710     0.0170
  573.0000   -48.1850    14.1860    13.2080    74.2930     7.9660     2.4010     0.1760     0.0160
  573.5000   -48.1220    14.0670    13.1810    74.2980     7.9770     2.3970     0.1800     0.0140
  574.0000   -48.0580    13.9490    13.1380    74.2360     7.9730     2.3840     0.1840     0.0130
  574.5000   -47.9950    13.8300    13.0960    73.1030     7.9700     2.3770     0.1830     0.0120
  575.0000   -47.9310    13.7120    13.0530    72.5330     7.9660     2.3750     0.1780     0.0110
  575.5000   -47.8620    13.5930    13.0110    74.1330     7.9620     2.3800     0.1710     0.0100
  576.0000   -47.7870    13.4750    12.9690    75.4510     7.9580     2.3910     0.1720     0.0090
  576.5000   -47.7130    13.3560    12.9260    75.1280     7.9540     2.3970     0.1730     0.0090
  577.0000   -47.6380    13.2380    12.8840    74.7740     7.9500     2.3940     0.1750     0.0080
  577.5000   -47.5630    13.1690    12.8330    75.0120     7.9470     2.3910     0.1740     0.0080
  578.0000   -47.4890    13.1170    12.7340    75.4590     7.9430     2.3930     0.1720     0.0080
  578.5000   -47.4140    13.0660    12.6360    75.5900     7.9530     2.3950     0.1710     0.0080
  579.0000   -47.3390    13.0140    12.5380    75.4040     7.9780     2.3970     0.1680     0.0100
  579.5000   -47.2640    12.9620    12.4400    75.2230     8.0030     2.3990     0.1630     0.0110
  580.0000   -47.1900    12.9100    12.3240    75.1350     8.0270     2.4080     0.1600     0.0130
  580.5000   -47.1150    12.8580    12.1810    75.3200     8.0850     2.4140     0.1560     0.0210
  581.0000   -47.0400    12.8060    12.0450    75.4980     8.1750     2.4200     0.1440     0.0310
  581.5000   -46.9660    12.7540    12.0280    75.6750     8.2210     2.4330     0.1400     0.0290
  582.0000   -46.8940    12.7020    12.0110    75.8530     8.0040     2.4460     0.1390     0.0140
  582.5000   -46.8400    12.6500    11.9950    76.0360     7.9940     2.4490     0.1400     0.0120
  583.0000   -46.7870    12.6110    11.9780    76.0220     8.0950     2.4500     0.1410     0.0080
