~VERSION INFORMATION
 VERS.                2.0:   CWLS LOG ASCII STANDARD - VERSION 2.0
 WRAP.                 NO:   ONE LINE PER DEPTH STEP
~WELL INFORMATION
#MNEM.UNIT      DATA TYPE    INFORMATION
#----------   ------------   ------------------------------
 STRT.F           39.0000:   START DEPTH
 STOP.F          590.0000:   STOP DEPTH
 STEP.F            0.5000:   STEP LENGTH
 NULL.          -999.2500:   NO VALUE
 COMP. FENIX & SCISSON INC:   COMPANY
 WELL.    NPR-3 SX #41-34:   WELL
 FLD .             TEAPOT:   FIELD
 LOC .      S34 T39N R78W:   LOCATION
 CNTY.            NATRONA:   COUNTY
 STAT.            WYOMING:   STATE
 CTRY. UNITED STATES OF AMERICA:   COUNTRY
 SRVC.           BIRDWELL:   SERVICE COMPANY
 DATE.        28-AUG-1978:   LOGDATE
 API .       490251069800:   API NUMBER
~CURVE INFORMATION
#MNEM.UNIT       API CODE    CURVE DESCRIPTION
#----------   ------------   ------------------------------
 DEPT.F                  :   
 SPR .MV     05 010 01 00:   SPONTANEOUS POTENTIAL FROM RES.
 SN  .OHMM   05 040 16 00:   SHORT NORMAL 16"
 ILD .OHMM   05 120 46 00:   INDUCTION LOG DEEP
 CALD.IN     45 280 60 00:   CALIPER
 GRD .GAPI   45 310 01 00:   GAMMA RAY FROM DENSITY LOG
 RHOB.G/C3   45 350 01 00:   BULK DENSITY
 DPHI.DEC    45 890 12 00:   DENSITY POROSITY SANDSTONE
 CORR.G/C3   45 356 01 00:   DENSITY CORRECTION
~PARAMETER INFORMATION
#MNEM.UNIT          VALUE    DESCRIPTION
#----------   ------------   ------------------------------
 PD  .                 GL:   PERMANENT DATUM
 EPD .F              5064:   ELEVATION PERMANENT DATUM
 LMF .                 KB:   LOG MEASURED FROM
 DAPD.F                 4:   FEET ABOVE PERMANENT DATUM
 DMF .                 KB:   DRILLING MEASURED FROM
 EKB .F              5068:   KELLING BUSHING
 EGL .F              5064:   GROUND LEVEL
 DATE.          8-28-1978:   RUN DATE
 RUN .                  1:   RUN NUMBER
 DD  .F               600:   DEPTH DRILLER
 DL  .F               596:   DEPTH LOGGER
 BLI .F               590:   BOTTOM LOG INTERVAL
 TLI .F                50:   TOP LOG INTERVAL
 CS  .IN            8.625:   CASING SIZE
 CBD .F                40:   CASING BOTTOM DRILLER
 BS  .IN            7.875:   BIT SIZE
 BSD .F               600:   BIT SIZE AT DEPTH
 DFT .                KCL:   DRILLING FLUID TYPE
 DFD .                8.7:   DRILLING FLUID DENSITY
 DFV .                 35:   DRILLING FLUID VISCOSITY
 DFPH.                  9:   DRILLING FLUID PH
 DFL .                 10:   DRILLING FLUID LOSS
 MSS .          FLOW LINE:   MUD SAMPLE SOURCE
 RMS .OHMM             .4:   RESISTIVITY MUD SAMPLE
 MST .F                76:   MUD SAMPLE TEMPERATURE
 RMF .OHMM             .3:   RESISTIVITY MUD FILTRATE SAMPLE
 MFST.F                80:   MUD FILTRATE SAMPLE TEMPERATURE
 RMC .OHMM             .4:   RESISTIVITY MUD CAKE
 MCST.F                80:   MUD CAKE SAMPLE TEMPERATURE
 MFSS.               MEAS:   MUD FILTRATE SAMPLE SOURCE
 MCSS.               MEAS:   MUD CAKE SAMPLE SOURCE
 TCS .HRS               3:   TIME CURCULATED STOPPED
 LUN .               2958:   LOGGING UNIT NUMBER
 LUL .               CASP:   LOGGING UNIT LOCATION
 ENGI.             MILLER:   RECORDING ENGINEER
 WITN.              AMEND:   WITNESSED BY
 CLNT.            A2DTECH:   CLIENT CODE
 ORIG.           5" PRINT:   ORIGIN OF DATA
 UWI .       490251069800:   UNIQUE WELL ID
 DICO. A2D Technologies, Inc.:   DIGITIZING COMPANY
~OTHER INFORMATION
~A   DEPT      SPR         SN        ILD       CALD        GRD         RHOB       DPHI      CORR  
# ...
  403.5000   -16.2678    14.5892    13.2856     6.8753    59.3195     2.3482     0.1982     0.0204
  404.0000   -16.2673    14.5389    13.0551     6.9747    58.8525     2.3559     0.1928     0.0206
  404.5000   -16.2678    14.4891    12.8305     6.7919    58.9908     2.3636     0.1924     0.0209
  405.0000   -16.2660    14.4402    12.6109     6.5960    59.5457     2.3651     0.1922     0.0212
  405.5000   -16.4254    14.3858    12.5194     6.5642    62.8100     2.3656     0.1920     0.0214
  406.0000   -16.6884    14.2107    12.5210     6.5863    66.9040     2.3633     0.1957     0.0217
  406.5000   -16.9534    14.0893    12.4972     6.6095    65.4320     2.3585     0.1996     0.0220
  407.0000   -17.2185    13.9797    12.4604     6.6327    63.0489     2.3536     0.2016     0.0213
  407.5000   -17.4851    13.8519    12.4242     6.6543    60.5844     2.3517     0.1971     0.0205
  408.0000   -17.7355    13.8519    12.4060     6.6949    61.3268     2.3561     0.1905     0.0197
  408.5000   -18.0781    13.5830    12.4065     6.7338    62.3374     2.3681     0.1896     0.0188
  409.0000   -18.2107    13.3328    12.4066     6.7727    63.3317     2.3683     0.1924     0.0180
  409.5000   -18.2785    13.0872    12.4066     6.8116    64.3298     2.3656     0.1924     0.0173
  410.0000   -18.0577    12.8461    12.7122     6.8506    64.0110     2.3628     0.1955     0.0166
  410.5000   -18.2178    12.6094    13.0158     6.8895    63.3702     2.3556     0.2023     0.0159
  411.0000   -18.2499    12.3771    13.3266     6.9286    62.7118     2.3480     0.2047     0.0151
  411.5000   -18.1828    12.1808    13.4828     6.9470    62.5261     2.3444     0.2069     0.0144
  412.0000   -18.1200    12.1808    13.5048     6.9525    62.7095     2.3431     0.2069     0.0147
  412.5000   -18.0578    12.1619    13.5268     6.9576    64.1366     2.3461     0.1998     0.0169
  413.0000   -17.9956    12.1377    13.5488     6.9634    65.5592     2.3588     0.1927     0.0191
  413.5000   -17.9332    12.1135    13.5709     6.9458    66.9739     2.3705     0.1892     0.0213
  414.0000   -17.8708    12.0894    13.5930     6.9214    68.3825     2.3684     0.1906     0.0215
  414.5000   -17.8642    12.0653    13.6151     6.8972    69.5029     2.3665     0.1918     0.0206
  415.0000   -17.8669    12.0412    13.6373     6.8830    69.6603     2.3661     0.1899     0.0210
  415.5000   -18.1261    12.0173    13.6595     6.9053    69.8302     2.3699     0.1880     0.0241
  416.0000   -18.2588    11.9933    13.6818     6.9039    70.0149     2.3736     0.1861     0.0272
  416.5000   -18.2995    11.9694    13.7042     6.9043    69.0669     2.3772     0.1844     0.0299
  417.0000   -18.6743    11.9456    13.7248     6.9040    67.4678     2.3824     0.1798     0.0300
  417.5000   -18.8113    11.9218    13.6289     6.9027    67.3798     2.3896     0.1737     0.0305
  418.0000   -18.8592    11.8980    13.5360     6.9234    67.8527     2.3976     0.1677     0.0323
  418.5000   -19.3002    11.8743    13.4755     6.9241    68.3480     2.3998     0.1696     0.0341
  419.0000   -19.5356    11.8497    13.5098     6.9242    68.6376     2.3985     0.1716     0.0358
  419.5000   -19.7761    11.8522    13.5402     6.9242    68.8061     2.3972     0.1735     0.0376
  420.0000   -20.0176    11.8547    13.5705     6.9241    67.6886     2.3958     0.1738     0.0393
  420.5000   -20.2590    11.8572    13.6032     6.9234    63.8980     2.3947     0.1719     0.0411
  421.0000   -20.5004    11.8597    13.7314     6.9027    59.6400     2.3969     0.1701     0.0428
  421.5000   -20.7418    11.8622    13.7202     6.9040    58.2942     2.4039     0.1631     0.0446
  422.0000   -20.9833    11.8647    13.7201     6.9042    59.4135     2.4114     0.1525     0.0464
  422.5000   -21.2252    11.8672    13.7315     6.9042    62.1328     2.4272     0.1508     0.0476
  423.0000   -21.4664    11.8697    13.5858     6.9042    62.2058     2.4368     0.1544     0.0450
  423.5000   -21.6614    11.8722    13.5486     6.9036    62.3175     2.4299     0.1570     0.0424
  424.0000   -21.6577    11.8747    13.5224     6.9020    62.3873     2.4245     0.1555     0.0400
  424.5000   -21.6726    11.8772    13.4964     6.9004    64.2426     2.4241     0.1549     0.0412
  425.0000   -21.6880    11.8797    13.4704     6.8988    66.5088     2.4236     0.1611     0.0400
  425.5000   -21.7033    11.8822    13.4445     6.8972    66.8596     2.4154     0.1685     0.0359
  426.0000   -21.7186    11.8848    13.4186     6.8956    66.6500     2.4063     0.1761     0.0319
  426.5000   -21.7339    11.8872    13.3928     6.8940    66.7036     2.3971     0.1761     0.0281
  427.0000   -21.7492    11.8898    13.3670     6.8924    66.7617     2.3961     0.1700     0.0293
  427.5000   -21.7645    11.8923    13.3413     6.8908    66.8218     2.3996     0.1640     0.0308
  428.0000   -21.7798    11.8948    13.3156     6.8892    66.5718     2.4102     0.1633     0.0322
  428.5000   -21.7952    11.8973    13.2900     6.8876    65.5705     2.4111     0.1639     0.0336
  429.0000   -21.8105    11.8998    13.2644     6.8860    63.6715     2.4115     0.1619     0.0344
  429.5000   -21.8258    11.9023    13.2389     6.8845    61.7809     2.4147     0.1574     0.0350
  430.0000   -21.8409    11.9048    13.2134     6.8805    59.8820     2.4223     0.1528     0.0356
  430.5000   -21.8524    11.9073    13.1880     6.8751    58.0542     2.4276     0.1524     0.0346
  431.0000   -21.9863    11.9098    13.1626     6.8694    58.0550     2.4271     0.1549     0.0318
  431.5000   -22.1465    11.9123    13.1373     6.8653    58.9436     2.4267     0.1536     0.0291
  432.0000   -22.3072    11.9148    13.1120     6.8273    62.5837     2.4285     0.1514     0.0285
  432.5000   -22.4676    11.9173    13.1093     6.7924    66.3185     2.4309     0.1505     0.0294
  433.0000   -22.6279    11.9199    13.1093     6.7562    66.4523     2.4293     0.1542     0.0303
  433.5000   -22.7882    11.9224    13.1093     6.7197    66.1059     2.4259     0.1585     0.0312
  434.0000   -22.9485    11.9249    13.1093     6.6847    66.8106     2.4225     0.1585     0.0321
  434.5000   -23.1088    11.9274    13.1094     6.6630    68.0714     2.4194     0.1525     0.0330
  435.0000   -23.2691    11.9299    13.1093     6.6644    69.3493     2.4266     0.1447     0.0339
  435.5000   -23.4295    11.9324    13.1072     6.6737    70.6269     2.4350     0.1369     0.0348
  436.0000   -23.5901    11.9349    13.0980     6.6909    70.8902     2.4536     0.1297     0.0357
  436.5000   -23.7488    11.9375    13.0892     6.7082    71.1480     2.4679     0.1321     0.0342
  437.0000   -23.8536    11.9400    13.0804     6.7257    71.4121     2.4614     0.1394     0.0317
  437.5000   -23.8525    11.9425    13.0716     6.7433    71.3081     2.4532     0.1459     0.0292
  438.0000   -23.8369    11.9450    13.0627     6.7604    69.1085     2.4449     0.1521     0.0267
  438.5000   -23.8174    11.9475    13.0539     6.7823    65.6890     2.4365     0.1527     0.0242
  439.0000   -23.7980    11.9500    13.0451     6.8044    64.8362     2.4281     0.1532     0.0261
  439.5000   -23.7786    11.9526    13.0363     6.8265    65.1084     2.4330     0.1489     0.0286
  440.0000   -23.7593    11.9551    13.0275     6.8486    68.1305     2.4392     0.1441     0.0310
  440.5000   -23.7399    11.9576    13.0188     6.8706    68.5007     2.4401     0.1455     0.0335
  441.0000   -23.7206    11.9576    13.0100     6.8927    67.8560     2.4378     0.1472     0.0341
  441.5000   -23.7012    11.9533    13.0013     6.9149    67.1861     2.4359     0.1480     0.0344
  442.0000   -23.6818    11.9491    12.9906     6.9365    66.4925     2.4407     0.1421     0.0347
  442.5000   -23.6625    11.9449    13.0051     6.9803    67.7599     2.4453     0.1445     0.0350
  443.0000   -23.6431    11.9406    13.0282     6.9857    69.2876     2.4407     0.1478     0.0353
  443.5000   -23.6238    11.9364    13.0516     6.9880    70.8292     2.4355     0.1511     0.0355
