~VERSION INFORMATION
 VERS.                2.0:   CWLS LOG ASCII STANDARD - VERSION 2.0
 WRAP.                 NO:   ONE LINE PER DEPTH STEP
~WELL INFORMATION
#MNEM.UNIT      DATA TYPE    INFORMATION
#----------   ------------   ------------------------------
 STRT.F           34.0000:   START DEPTH
 STOP.F          582.0000:   STOP DEPTH
 STEP.F            0.5000:   STEP LENGTH
 NULL.          -999.2500:   NO VALUE
 COMP. FENIX & SCISSON INC:   COMPANY
 WELL. NPR 3 SX-33 #88-33:   WELL
 FLD .             TEAPOT:   FIELD
 LOC .      S33 T39N R78W:   LOCATION
 CNTY.            NATRONA:   COUNTY
 STAT.            WYOMING:   STATE
 CTRY. UNITED STATES OF AMERICA:   COUNTRY
 SRVC.           BIRDWELL:   SERVICE COMPANY
 DATE.        04-AUG-1978:   LOGDATE
 API .       490251068000:   API NUMBER
~CURVE INFORMATION
#MNEM.UNIT       API CODE    CURVE DESCRIPTION
#----------   ------------   ------------------------------
 DEPT.F                  :   
 SPR .MV     05 010 01 00:   SPONTANEOUS POTENTIAL FROM RES.
 ILD .OHMM   05 120 46 00:   INDUCTION LOG DEEP
 SN  .OHMM   05 040 16 00:   SHORT NORMAL 16"
 CALD.IN     45 280 60 00:   CALIPER
 GRD .GAPI   45 310 01 00:   GAMMA RAY FROM DENSITY LOG
 DEN .G/C3   45 350 01 00:   COMPENSATED BULK DENSTIY
 CORR.G/C3   45 356 01 00:   DENSITY CORRECTION
 DPHI.DEC    45 890 12 00:   DENSITY POROSITY SANDSTONE
~PARAMETER INFORMATION
#MNEM.UNIT          VALUE    DESCRIPTION
#----------   ------------   ------------------------------
 PD  .                 GL:   PERMANENT DATUM
 EPD .F              5146:   ELEVATION PERMANENT DATUM
 LMF .                 KB:   LOG MEASURED FROM
 DAPD.F                 4:   FEET ABOVE PERMANENT DATUM
 DMF .                 KB:   DRILLING MEASURED FROM
 EKB .F              5150:   KELLING BUSHING
 EGL .F              5146:   GROUND LEVEL
 DATE.             8-4-78:   RUN DATE
 RUN .                  1:   RUN NUMBER
 DD  .F               570:   DEPTH DRILLER
 DL  .F               588:   DEPTH LOGGER
 BLI .F               582:   BOTTOM LOG INTERVAL
 TLI .F                50:   TOP LOG INTERVAL
 CS  .IN            8.625:   CASING SIZE
 CBD .F                40:   CASING BOTTOM DRILLER
 BS  .IN            7.875:   BIT SIZE
 BSD .F               570:   BIT SIZE AT DEPTH
 DFT .                KCL:   DRILLING FLUID TYPE
 DFD .                8.7:   DRILLING FLUID DENSITY
 DFV .                 34:   DRILLING FLUID VISCOSITY
 DFPH.                  9:   DRILLING FLUID PH
 DFL .                9.6:   DRILLING FLUID LOSS
 MSS .          FLOW LINE:   MUD SAMPLE SOURCE
 RMS .OHMM            .24:   RESISTIVITY MUD SAMPLE
 MST .F                70:   MUD SAMPLE TEMPERATURE
 RMF .OHMM            .24:   RESISTIVITY MUD FILTRATE SAMPLE
 MFST.F                80:   MUD FILTRATE SAMPLE TEMPERATURE
 RMC .OHMM             .3:   RESISTIVITY MUD CAKE
 MCST.F                75:   MUD CAKE SAMPLE TEMPERATURE
 MFSS.               MEAS:   MUD FILTRATE SAMPLE SOURCE
 TCS .HRS               2:   TIME CURCULATED STOPPED
 LUN .               3006:   LOGGING UNIT NUMBER
 LUL .               CASP:   LOGGING UNIT LOCATION
 ENGI.             MILLER:   RECORDING ENGINEER
 WITN.           MCGINLEY:   WITNESSED BY
 CLNT.            A2DTECH:   CLIENT CODE
 ORIG.        2" 5" PRINT:   ORIGIN OF DATA
 UWI .       490251068000:   UNIQUE WELL ID
 DICO. A2D Technologies, Inc.:   DIGITIZING COMPANY
~OTHER INFORMATION
~A   DEPT      SPR        ILD         SN       CALD         GRD       DEN       CORR       DPHI   
# ...
  439.0000   -14.7032    15.3350    12.5383     7.3698    79.3601     2.4127     0.0655     0.1616
  439.5000   -14.7312    15.4437    12.4904     7.4883    80.3044     2.4134     0.0578     0.1562
  440.0000   -14.7593    15.5532    12.3883     7.5263    79.2549     2.4149     0.0578     0.1484
  440.5000   -14.7872    15.6636    12.2871     7.5640    77.1474     2.4304     0.0624     0.1397
  441.0000   -14.8152    15.7745    12.1868     7.6107    76.0982     2.4493     0.0681     0.1337
  441.5000   -14.8483    15.8910    12.0872     7.6818    77.3728     2.4598     0.0698     0.1351
  442.0000   -14.9226    15.8392    11.9606     7.7527    79.5301     2.4582     0.0603     0.1350
  442.5000   -14.9975    15.7747    11.9709     7.8227    78.3264     2.4565     0.0303     0.1341
  443.0000   -15.0722    15.7105    11.9883     7.8302    77.0113     2.4548     0.0308     0.1397
  443.5000   -15.1469    15.6465    12.0055     7.8235    76.0825     2.4533     0.0324     0.1349
  444.0000   -15.2216    15.5828    12.0228     7.8000    78.6851     2.4519     0.0340     0.1341
  444.5000   -15.2965    15.5193    12.0400     7.7771    76.2605     2.4504     0.0355     0.1395
  445.0000   -15.3714    15.4561    12.0573     7.7466    75.1701     2.4489     0.0352     0.1401
  445.5000   -15.4336    15.3931    12.0746     7.7132    76.9425     2.4476     0.0320     0.1355
  446.0000   -15.3931    15.3304    12.0920     7.6797    79.2555     2.4515     0.0289     0.1319
  446.5000   -15.3512    15.4726    12.1093     7.6852    80.7443     2.4632     0.0298     0.1285
  447.0000   -15.3095    15.6393    12.1267     7.7388    79.7157     2.4646     0.0364     0.1300
  447.5000   -15.2682    15.8077    12.1441     7.7920    82.2253     2.4646     0.0414     0.1313
  448.0000   -15.2385    15.9781    12.1615     7.8443    80.7490     2.4646     0.0464     0.1304
  448.5000   -15.2390    16.1504    12.1790     7.8592    79.7555     2.4654     0.0514     0.1284
  449.0000   -15.2390    16.3241    12.1965     7.8700    78.9599     2.4662     0.0564     0.1269
  449.5000   -15.2390    16.3771    12.2140     7.8310    78.1867     2.4666     0.0614     0.1274
  450.0000   -15.2390    16.4167    12.2315     7.7782    77.8455     2.4669     0.0658     0.1281
  450.5000   -15.2390    16.4564    12.2491     7.5836    77.4870     2.4672     0.0677     0.1285
  451.0000   -15.2390    16.4923    12.2667     7.3172    77.1215     2.4675     0.0702     0.1213
  451.5000   -15.2390    16.2456    12.2839     7.2108    77.2480     2.4718     0.0772     0.1154
  452.0000   -15.2390    16.0238    12.2921     7.2085    77.7517     2.4815     0.0846     0.1162
  452.5000   -15.2390    15.8051    12.2600     7.0530    77.8872     2.4807     0.0899     0.1266
  453.0000   -15.2391    15.6082    12.2379     6.8727    75.8808     2.4755     0.0858     0.1397
  453.5000   -15.2388    14.9015    12.2157     6.8353    74.9197     2.4608     0.0784     0.1398
  454.0000   -15.2510    14.2736    12.1937     6.8742    74.9630     2.4487     0.0725     0.1399
  454.5000   -15.2679    13.7184    12.1716     6.9043    75.0374     2.4478     0.0791     0.1401
  455.0000   -15.2851    13.7304    12.1496     6.8485    75.0684     2.4483     0.0857     0.1372
  455.5000   -15.3022    13.5429    12.1277     6.7930    72.8186     2.4495     0.0924     0.1334
  456.0000   -15.3193    13.4987    12.1058     6.8979    70.7095     2.4555     0.0941     0.1318
  456.5000   -15.3365    13.4545    12.0839     7.0694    70.8208     2.4617     0.0951     0.1245
  457.0000   -15.3536    13.4106    12.0621     7.2421    71.8192     2.4656     0.0952     0.1258
  457.5000   -15.3708    13.3523    12.0403     7.2695    71.9045     2.4603     0.0895     0.1341
  458.0000   -15.3879    13.5884    12.0185     7.2905    70.6679     2.4498     0.0636     0.1341
  458.5000   -15.4054    13.9489    11.9968     7.3738    70.0953     2.4621     0.0559     0.1274
  459.0000   -15.4205    14.3189    11.9753     7.4642    70.8376     2.4653     0.0573     0.1269
  459.5000   -15.4460    14.3961    11.9608     7.5551    71.8351     2.4687     0.0591     0.1245
  460.0000   -14.8689    14.4954    12.0896     7.6460    72.8401     2.4685     0.0581     0.1291
  460.5000   -14.2233    14.5954    12.1939     7.6537    73.8404     2.4536     0.0473     0.1457
  461.0000   -14.0667    14.6977    12.2932     7.6564    74.8503     2.4350     0.0366     0.1558
  461.5000   -13.9122    14.9156    12.6830     7.6595    75.3104     2.4164     0.0263     0.1662
  462.0000   -13.0923    15.5253    13.0636     7.6627    74.4211     2.3980     0.0276     0.1767
  462.5000   -11.9672    16.1590    13.4555     7.6659    73.1668     2.3846     0.0379     0.1792
  463.0000   -10.8303    17.0995    13.8593     7.6696    71.6506     2.3798     0.0480     0.1851
  463.5000    -9.6925    19.1070    14.2751     7.6909    68.7857     2.3742     0.0576     0.1920
  464.0000    -8.8668    20.1935    14.7034     7.7526    67.0266     2.3541     0.0559     0.2072
  464.5000    -8.7512    21.2930    14.7907     7.8135    65.6635     2.3333     0.0508     0.2220
  465.0000    -8.6461    22.4533    14.8340     7.8746    66.4349     2.3110     0.0458     0.2275
  465.5000    -8.5401    23.5947    14.8774     7.9373    67.7383     2.2995     0.0550     0.2303
  466.0000    -8.4328    24.3097    14.9210     7.9502    67.8931     2.2976     0.0661     0.2303
  466.5000    -8.3281    24.9169    14.9647     7.9522    65.2490     2.2959     0.0773     0.2331
  467.0000    -8.3442    25.3933    15.0085     7.8629    64.6821     2.2964     0.0880     0.2245
  467.5000    -8.7361    25.2180    15.0525     7.7494    66.1846     2.3036     0.0973     0.2047
  468.0000    -9.1297    25.0087    15.0966     7.6328    67.8438     2.3394     0.1065     0.1964
  468.5000    -9.4097    24.0860    15.1408     7.6101    68.3740     2.3523     0.1082     0.2017
  469.0000    -9.4978    22.7973    15.1841     7.6024    66.7005     2.3447     0.0999     0.2081
  469.5000    -9.5332    21.5776    15.1486     7.5902    67.1162     2.3370     0.0937     0.2079
  470.0000    -9.5702    20.7483    15.1139     7.5778    68.9413     2.3356     0.0957     0.1952
  470.5000    -9.6084    20.6958    15.0793     7.5652    70.4811     2.3488     0.1021     0.1848
  471.0000    -9.6466    20.5940    15.0448     7.5523    70.1146     2.3684     0.1094     0.1883
  471.5000    -9.6849    20.4872    15.0103     7.5539    70.0732     2.3672     0.1127     0.1899
  472.0000    -9.7231    20.3801    14.9760     7.5589    71.0122     2.3604     0.1142     0.1958
  472.5000    -9.7613    20.2737    14.9417     7.5641    71.9252     2.3538     0.1154     0.2000
  473.0000    -9.7996    20.1678    14.9075     7.5697    72.1631     2.3512     0.1217     0.1865
  473.5000    -9.8378    20.0624    14.8734     7.5408    71.2510     2.3602     0.1277     0.1883
  474.0000    -9.8760    19.9785    14.8393     7.5042    70.3526     2.3653     0.1248     0.1927
  474.5000    -9.9143    19.9255    14.8053     7.4901    69.4616     2.3545     0.1046     0.2004
  475.0000    -9.9525    19.8727    14.7715     7.4759    68.6592     2.3391     0.0831     0.2074
  475.5000    -9.9908    19.8199    14.7516     7.4614    67.1423     2.3378     0.0604     0.2071
  476.0000   -10.0290    19.7673    14.7318     7.4360    68.2267     2.3381     0.0577     0.2052
  476.5000   -10.0605    19.7149    14.7119     7.3596    66.2850     2.3385     0.0586     0.2033
  477.0000   -10.0599    19.6626    14.6921     7.2836    65.3037     2.3389     0.0591     0.2032
  477.5000   -10.0598    19.6105    14.6723     7.2497    67.4040     2.3393     0.0596     0.2004
  478.0000   -10.0598    19.5584    14.6525     7.2246    69.8006     2.3397     0.0580     0.2136
  478.5000   -10.0598    19.5065    14.6328     7.1994    70.6680     2.3297     0.0543     0.2198
  479.0000   -10.0598    19.4548    14.6131     7.1901    70.0275     2.3188     0.0518     0.2165
