~VERSION INFORMATION
 VERS.                2.0:   CWLS LOG ASCII STANDARD - VERSION 2.0
 WRAP.                 NO:   ONE LINE PER DEPTH STEP
~WELL INFORMATION
#MNEM.UNIT      DATA TYPE    INFORMATION
#----------   ------------   ------------------------------
 STRT.F            0.0000:   START DEPTH
 STOP.F          547.0000:   STOP DEPTH
 STEP.F            0.1000:   STEP LENGTH
 NULL.          -999.2500:   NO VALUE
 COMP.     BROWN JOHN E&C:   COMPANY
 WELL.    NPR 3 #86-1-X-3:   WELL
 FLD .             TEAPOT:   FIELD
 LOC .       S3 T38N R78W:   LOCATION
 CNTY.            NATRONA:   COUNTY
 STAT.            WYOMING:   STATE
 CTRY. UNITED STATES OF AMERICA:   COUNTRY
 SRVC.     Atlas Wireline:   SERVICE COMPANY
 DATE.        09-FEB-1992:   LOGDATE
 API .       490252249800:   API NUMBER
~CURVE INFORMATION
#MNEM.UNIT       API CODE    CURVE DESCRIPTION
#----------   ------------   ------------------------------
 DEPT.F                  :   
 GRR .GAPI   07 310 01 00:   GAMMA RAY
 RFOC.OHMM   07 220 04 00:   RESISTIVITY FOCUSED LOG
 RILD.OHMM   07 120 46 00:   INDUCTION LOG DEEP RESISTIVITY
 RILM.OHMM   07 120 44 00:   INDUCTION LOG MEDIUM RESISTIVITY
 SPR .MV     07 010 01 00:   SPONTANEOUS POTENTIAL
~PARAMETER INFORMATION
#MNEM.UNIT          VALUE    DESCRIPTION
#----------   ------------   ------------------------------
 PD  .                 GL:   PERMANENT DATUM
 EPD .F              5145:   ELEVATION PERMANENT DATUM
 LMF .                 KB:   LOG MEASURED FROM
 DAPD.F                10:   FEET ABOVE PERMANENT DATUM
 DMF .                 KB:   DRILLING MEASURED FROM
 EKB .F              5155:   KELLING BUSHING
 EDF .F              5154:   DRILLING FLOOR
 EGL .F              5145:   GROUND LEVEL
 DATE.        09-FEB-1992:   RUN DATE
 RUN .                  1:   RUN NUMBER
 DD  .F               562:   DEPTH DRILLER
 DL  .F               550:   DEPTH LOGGER
 BLI .F               547:   BOTTOM LOG INTERVAL
 CS  .IN            8.625:   CASING SIZE
 CBD .F               183:   CASING BOTTOM DRILLER
 CBL .F               181:   CASING BOTTOM LOGGER
 BS  .IN            7.875:   BIT SIZE
 BSD .F               562:   BIT SIZE AT DEPTH
 DFT .            GEL BAR:   DRILLING FLUID TYPE
 DFD .               17.8:   DRILLING FLUID DENSITY
 DFV .                 52:   DRILLING FLUID VISCOSITY
 DFPH.                  9:   DRILLING FLUID PH
 DFL .                5.2:   DRILLING FLUID LOSS
 MSS .           FLOWLINE:   MUD SAMPLE SOURCE
 RMS .OHMM           1.78:   RESISTIVITY MUD SAMPLE
 MST .F                68:   MUD SAMPLE TEMPERATURE
 RMF .OHMM          1.335:   RESISTIVITY MUD FILTRATE SAMPLE
 MFST.F                68:   MUD FILTRATE SAMPLE TEMPERATURE
 RMC .OHMM          2.225:   RESISTIVITY MUD CAKE
 MCST.F                68:   MUD CAKE SAMPLE TEMPERATURE
 MFSS.               MEAS:   MUD FILTRATE SAMPLE SOURCE
 MCSS.               MEAS:   MUD CAKE SAMPLE SOURCE
 TCS .HRS               3:   TIME CURCULATED STOPPED
 LUN .            HL 6274:   LOGGING UNIT NUMBER
 LUL .             CASPER:   LOGGING UNIT LOCATION
 ENGI.       P. RASMUSSEN:   RECORDING ENGINEER
 WITN.          G. STRONG:   WITNESSED BY
 CLNT.            A2DTECH:   CLIENT CODE
 ORIG.           5" PRINT:   ORIGIN OF DATA
 UWI .       490252249800:   UNIQUE WELL ID
 DICO. A2D Technologies, Inc.:   DIGITIZING COMPANY
~OTHER INFORMATION
~A    DEPT      GRR      RFOC       RILD       RILM        SPR   
# ...
  463.6000    78.4676    13.6614    15.4329    13.4717   -31.5367
  463.7000    78.2124    13.6610    15.3483    13.4709   -31.4673
  463.8000    77.7207    13.6202    15.3284    13.4508   -31.3432
  463.9000    76.4372    13.5651    15.3299    13.3757   -31.2384
  464.0000    75.2216    13.5559    15.3001    13.3748   -31.2399
  464.1000    74.4066    13.4699    15.2259    13.3742   -31.2410
  464.2000    73.9052    13.4695    15.2277    13.3734   -31.1485
  464.3000    73.3895    13.4517    15.2291    13.3727   -31.0926
  464.4000    72.9025    13.4270    15.2306    13.3719   -31.0938
  464.5000    72.4012    13.4022    15.1847    13.3712   -31.0779
  464.6000    72.1846    13.3774    15.1275    13.3703   -30.9455
  464.7000    72.1852    13.3526    15.1290    13.3697   -30.9466
  464.8000    72.1858    13.3279    15.1306    13.3690   -30.9478
  464.9000    72.1865    13.3031    15.0509    13.3369   -30.8833
  465.0000    72.1870    13.2783    15.0280    13.2744   -30.7592
  465.1000    72.3783    13.2536    14.9844    13.2737   -30.6351
  465.2000    72.6299    13.2288    14.8992    13.2730   -30.5003
  465.3000    72.9707    13.2040    14.8143    13.2722   -30.3869
  465.4000    73.4733    13.1793    14.7222    13.2265   -30.3517
  465.5000    74.0000    13.1545    14.7235    13.1494   -30.3529
  465.6000    74.4784    13.1297    14.7249    13.0860   -30.3163
  465.7000    74.9810    13.1050    14.6838    13.0852   -30.1923
  465.8000    75.4836    13.0802    14.6252    13.0110   -30.0550
  465.9000    75.8992    13.0554    14.6267    12.9927   -30.0561
  466.0000    76.1508    13.0307    14.6283    12.9920   -30.0573
  466.1000    76.4169    13.0059    14.5544    12.9645   -30.0585
  466.2000    76.4175    12.9811    14.4716    12.9002   -30.0597
  466.3000    76.4181    12.9563    14.4293    12.8994   -30.0609
  466.4000    76.4187    12.9316    14.4307    12.8987   -30.0623
  466.5000    76.3348    12.9068    14.4261    12.8426   -30.0633
  466.6000    76.1182    12.8820    14.3332    12.7677   -30.0646
  466.7000    76.1189    12.8573    14.3344    12.7177   -30.0658
  466.8000    75.8854    12.8325    14.3358    12.7075   -30.0670
  466.9000    75.4516    12.8077    14.3372    12.6277   -30.0682
  467.0000    75.2157    12.7830    14.3173    12.6271   -30.0696
  467.1000    75.0522    12.7582    14.2401    12.6264   -30.0706
  467.2000    74.6135    12.7334    14.2418    12.5882   -30.0718
  467.3000    74.6142    12.7087    14.2430    12.5371   -30.0730
  467.4000    74.1514    12.6839    14.1912    12.5364   -30.0742
  467.5000    74.0121    12.6591    14.1104    12.5356   -30.0754
  467.6000    73.8823    12.6344    14.0301    12.4699   -30.0768
  467.7000    73.6320    12.6096    13.9529    12.4471   -30.0778
  467.8000    73.4105    12.5848    13.9545    12.4112   -30.0790
  467.9000    73.4112    12.5600    13.8887    12.3591   -30.0802
  468.0000    73.1826    12.5470    13.8097    12.3584   -30.0814
  468.1000    73.1107    12.5266    13.7311    12.3576   -30.0827
  468.2000    73.2393    12.4590    13.6529    12.2946   -30.0841
  468.3000    73.4136    12.4586    13.5763    12.2704   -30.0851
  468.4000    73.4674    12.4583    13.5779    12.2697   -30.0863
  468.5000    74.0182    12.4579    13.5789    12.2690   -30.0362
  468.6000    74.4724    12.4246    13.5803    12.2643   -29.9379
  468.7000    75.3272    12.3705    13.5816    12.1821   -29.9391
  468.8000    76.4572    12.3701    13.5829    12.1816   -29.8148
  468.9000    77.5632    12.3697    13.5843    12.1809   -29.7906
  469.0000    78.3411    12.3091    13.5856    12.1802   -29.7919
  469.1000    79.4516    12.2376    13.5247    12.1795   -29.7931
  469.2000    80.3499    12.1971    13.4936    12.1788   -29.7943
  469.3000    80.8332    12.1967    13.4949    12.1780   -29.7955
  469.4000    81.0848    12.1964    13.4963    12.1775   -29.7967
  469.5000    81.2639    12.1960    13.4976    12.1768   -29.7979
  469.6000    81.3080    12.1957    13.4227    12.1468   -29.7991
  469.7000    81.8686    12.1954    13.4062    12.0907   -29.8003
  469.8000    81.8691    12.1950    13.4075    12.0895   -29.8015
  469.9000    81.8697    12.1947    13.4088    12.0051   -29.8028
  470.0000    81.8703    12.1944    13.4101    12.0046   -29.8039
  470.1000    81.8709    12.1940    13.4115    11.9624   -29.8051
  470.2000    81.8522    12.1937    13.4128    11.9197   -29.8063
  470.3000    81.5705    12.1933    13.4141    11.9190   -29.8075
  470.4000    81.3515    12.1930    13.4154    11.9184   -29.8087
  470.5000    81.2700    12.1799    13.4167    11.9177   -29.8100
  470.6000    81.2706    12.1074    13.4071    11.9170   -29.8112
  470.7000    81.1361    12.1071    13.3260    11.9164   -29.8124
  470.8000    80.6684    12.0528    13.3272    11.8903   -29.8807
  470.9000    80.6692    12.0221    13.3285    11.8321   -29.9656
  471.0000    80.2353    12.0218    13.3298    11.8315   -29.9829
  471.1000    80.0670    12.0105    13.3060    11.8308   -30.1189
  471.2000    79.8359    11.9374    13.2394    11.8302   -30.1201
  471.3000    79.2695    11.8714    13.2410    11.8295   -30.1213
  471.4000    78.5172    11.8536    13.2422    11.8288   -30.1225
  471.5000    77.6562    11.8532    13.1887    11.8282   -30.1237
  471.6000    77.0124    11.8298    13.1525    11.8275   -30.1249
  471.7000    76.2599    11.7700    13.1538    11.7629   -30.1262
  471.8000    75.6211    11.7697    13.1551    11.7439   -30.2407
  471.9000    75.1198    11.7063    13.1565    11.7432   -30.2793
  472.0000    74.6185    11.6871    13.1577    11.7426   -30.2805
  472.1000    74.0399    11.6868    13.2122    11.7419   -30.2450
  472.2000    73.6158    11.6864    13.2525    11.7412   -30.1320
  472.3000    73.1144    11.6861    13.2760    11.7406   -30.1335
  472.4000    72.8350    11.6858    13.3481    11.7400   -30.1345
  472.5000    72.9563    11.6855    13.3495    11.7053   -30.1357
  472.6000    73.4588    11.6851    13.3507    11.6570   -30.0770
  472.7000    74.0435    11.6848    13.3520    11.6563   -29.9529
  472.8000    74.4639    11.6845    13.3533    11.6556   -29.8376
  472.9000    74.9665    11.6842    13.3339    11.6550   -29.8391
  473.0000    75.5777    11.6838    13.2628    11.6544   -29.7315
  473.1000    76.2153    11.6835    13.2644    11.6537   -29.6074
  473.2000    76.4812    11.6832    13.2655    11.6531   -29.5409
  473.3000    77.3654    11.6829    13.2668    11.6524   -29.5421
  473.4000    77.7810    11.6825    13.2333    11.6517   -29.5433
  473.5000    78.2836    11.6822    13.1770    11.6511   -29.5447
  473.6000    78.6800    11.6818    13.1783    11.6505   -29.4395
  473.7000    78.9870    11.6815    13.1798    11.6498   -29.3961
  473.8000    79.4847    11.6812    13.1809    11.6492   -29.3973
  473.9000    79.7823    11.6809    13.1821    11.6485   -29.3689
  474.0000    79.7828    11.6806    13.1834    11.6478   -29.2488
  474.1000    79.9379    11.6802    13.1847    11.6472   -29.2503
  474.2000    80.0857    11.6799    13.1860    11.6466   -29.2513
  474.3000    80.0863    11.6796    13.1875    11.6459   -29.2525
  474.4000    80.0869    11.7218    13.1886    11.6453   -29.2537
  474.5000    80.0876    11.7608    13.1899    11.6446   -29.2549
  474.6000    80.0881    11.7605    13.1912    11.6438   -29.2561
  474.7000    79.9367    11.7602    13.1925    11.6433   -29.2575
  474.8000    79.7876    11.7598    13.1938    11.6427   -29.2585
  474.9000    79.7376    11.7595    13.1953    11.6420   -29.2597
  475.0000    79.4872    11.7592    13.1963    11.6414   -29.2609
  475.1000    79.4878    11.7589    13.1976    11.6407   -29.2621
  475.2000    79.2881    11.7585    13.1989    11.6401   -29.2634
  475.3000    79.0377    11.7582    13.2002    11.5862   -29.3891
  475.4000    78.7873    11.7579    13.2015    11.5578   -29.4166
  475.5000    78.5370    11.7575    13.2787    11.5828   -29.4178
  475.6000    78.2842    11.7572    13.2967    11.6376   -29.4190
  475.7000    78.0362    11.7569    13.2980    11.6368   -29.4202
