~VERSION INFORMATION
 VERS.                2.0:   CWLS LOG ASCII STANDARD - VERSION 2.0
 WRAP.                 NO:   ONE LINE PER DEPTH STEP
~WELL INFORMATION
#MNEM.UNIT      DATA TYPE    INFORMATION
#----------   ------------   ------------------------------
 STRT.F           14.5000:   START DEPTH
 STOP.F          750.0000:   STOP DEPTH
 STEP.F            0.5000:   STEP LENGTH
 NULL.          -999.2500:   NO VALUE
 COMP. FENIX & SCISSON INC:   COMPANY
 WELL.       NPR 3 #24-14:   WELL
 FLD .             TEAPOT:   FIELD
 LOC .      S14 T38N R78W:   LOCATION
 CNTY.            NATRONA:   COUNTY
 STAT.            WYOMING:   STATE
 CTRY. UNITED STATES OF AMERICA:   COUNTRY
 SRVC.           BIRDWELL:   SERVICE COMPANY
 DATE.        27-DEC-1978:   LOGDATE
 API .       490251075900:   API NUMBER
~CURVE INFORMATION
#MNEM.UNIT       API CODE    CURVE DESCRIPTION
#----------   ------------   ------------------------------
 DEPT.F                  :   
 SPR .MV     05 010 01 00:   SPONTANEOUS POTENTIAL FROM RES.
 SN  .OHMM   05 040 16 00:   SHORT NORMAL 16"
 IL  .OHMM   05 120 00 00:   INDUCTION LOG
 GRD .GAPI   45 310 01 00:   GAMMA RAY FROM DENSITY LOG
 CALD.IN     45 280 60 00:   CALIPER
 RHOB.G/C3   45 350 01 00:   BULK DENSITY
 DPHI.DEC    45 890 12 00:   DENSITY POROSITY SANDSTONE
 CORR.G/C3   45 356 01 00:   DENSITY CORRECTION
~PARAMETER INFORMATION
#MNEM.UNIT          VALUE    DESCRIPTION
#----------   ------------   ------------------------------
 PD  .                 GL:   PERMANENT DATUM
 EPD .F              5209:   ELEVATION PERMANENT DATUM
 LMF .                 KB:   LOG MEASURED FROM
 DAPD.F                 4:   FEET ABOVE PERMANENT DATUM
 DMF .                 KB:   DRILLING MEASURED FROM
 EKB .F              5212:   KELLING BUSHING
 EGL .F              5209:   GROUND LEVEL
 DATE.           12-27-78:   RUN DATE
 RUN .                  1:   RUN NUMBER
 DD  .F               750:   DEPTH DRILLER
 DL  .F               742:   DEPTH LOGGER
 BLI .F               735:   BOTTOM LOG INTERVAL
 TLI .F                35:   TOP LOG INTERVAL
 CS  .IN            8.625:   CASING SIZE
 CBD .F                40:   CASING BOTTOM DRILLER
 CBL .F                32:   CASING BOTTOM LOGGER
 BS  .IN            7.875:   BIT SIZE
 BSD .F               750:   BIT SIZE AT DEPTH
 DFT .                KCL:   DRILLING FLUID TYPE
 DFD .                8.6:   DRILLING FLUID DENSITY
 DFV .                 35:   DRILLING FLUID VISCOSITY
 DFPH.                9.4:   DRILLING FLUID PH
 DFL .               12.4:   DRILLING FLUID LOSS
 MSS .           FLOWLINE:   MUD SAMPLE SOURCE
 RMS .OHMM            .38:   RESISTIVITY MUD SAMPLE
 MST .F                58:   MUD SAMPLE TEMPERATURE
 RMF .OHMM            .38:   RESISTIVITY MUD FILTRATE SAMPLE
 MFST.F                58:   MUD FILTRATE SAMPLE TEMPERATURE
 RMC .OHMM            .36:   RESISTIVITY MUD CAKE
 MCST.F                60:   MUD CAKE SAMPLE TEMPERATURE
 MFSS.           MEASURED:   MUD FILTRATE SAMPLE SOURCE
 MCSS.           MEASURED:   MUD CAKE SAMPLE SOURCE
 RMB .OHMM            .37:   RESISTIVITY MUD AT BHT
 BHT .F                59:   BOTTOM HOLE TEMPERATURE
 TCS .HRS               2:   TIME CURCULATED STOPPED
 MRT .F                59:   MAXIMUM RECORDED TEMPERATURE
 LUN .               2958:   LOGGING UNIT NUMBER
 LUL .             CASPER:   LOGGING UNIT LOCATION
 ENGI.         B. ROLLINS:   RECORDING ENGINEER
 WITN.           DINSMORE:   WITNESSED BY
 CLNT.            A2DTECH:   CLIENT CODE
 ORIG.           5" PRINT:   ORIGIN OF DATA
 UWI .       490251075900:   UNIQUE WELL ID
 DICO. A2D Technologies, Inc.:   DIGITIZING COMPANY
~OTHER INFORMATION
~A   DEPT      SPR         SN         IL         GRD      CALD       RHOB       DPHI       CORR   
# ...
  298.0000   -51.6150     9.6010     7.8240   117.8850     7.8300     2.5140     0.0960     0.0860
  298.5000   -51.6220     9.5420     7.6550   117.8800     7.9300     2.5220     0.0900     0.0930
  299.0000   -51.6300     9.4130     7.5010   117.8410     8.0360     2.5290     0.0870     0.0920
  299.5000   -51.6370     9.2840     7.2690   116.2930     8.0920     2.5360     0.0870     0.0800
  300.0000   -51.6450     9.1550     7.2950   114.5750     8.1050     2.5420     0.0920     0.0630
  300.5000   -51.6520     9.0650     7.3480   113.6370     8.1180     2.5240     0.0960     0.0580
  301.0000   -51.6600     9.0900     7.4000   112.8320     8.1100     2.5190     0.1010     0.0600
  301.5000   -51.6680     9.1090     7.4530   109.6100     8.0800     2.5150     0.1050     0.0610
  302.0000   -51.6750     9.1280     7.5060   106.8740     8.0530     2.5080     0.1100     0.0670
  302.5000   -51.6820     9.1490     7.5920   107.1430     7.9720     2.5000     0.1110     0.0770
  303.0000   -51.6890     9.3800     7.7490   107.2180     7.8980     2.4950     0.1090     0.1010
  303.5000   -51.6980     9.6300     7.8560   106.8800     7.8670     2.4980     0.1000     0.1360
  304.0000   -51.5730     9.8460     7.9020   107.0610     7.8210     2.5080     0.0890     0.1720
  304.5000   -51.1800     9.8350     7.9190   107.0730     7.7310     2.5230     0.0770     0.2070
  305.0000   -50.5920     9.8230     7.9360   106.2970     7.6140     2.5400     0.0710     0.2160
  305.5000   -50.0100     9.8120     7.9540   106.4380     7.6310     2.5570     0.0680     0.2180
  306.0000   -49.4890     9.8000     7.9710   107.3970     7.6460     2.5610     0.0720     0.2140
  306.5000   -49.5410     9.7880     7.9880   108.4080     7.6610     2.5610     0.0730     0.2030
  307.0000   -49.5820     9.7770     8.0050   108.4820     7.6760     2.5530     0.0770     0.1950
  307.5000   -49.6190     9.7650     8.0220   108.5840     7.6920     2.5300     0.0830     0.2100
  308.0000   -49.6540     9.7540     8.0430   108.6950     7.7070     2.5140     0.0900     0.2320
  308.5000   -49.6810     9.7420     7.9990   108.5610     7.6910     2.5310     0.0900     0.2340
  309.0000   -50.1300     9.7310     7.9410   108.1750     7.6710     2.5550     0.0680     0.2270
  309.5000   -50.6770     9.7190     7.8830   109.1190     7.6510     2.5650     0.0720     0.2020
  310.0000   -51.2290     9.7080     7.8240   110.2540     7.6760     2.5660     0.0770     0.1880
  310.5000   -51.7880     9.6960     7.8970   107.9660     7.8580     2.5520     0.0820     0.1890
  311.0000   -51.8420     9.6840     7.9710   106.4810     7.9930     2.5440     0.0900     0.1770
  311.5000   -51.7790     9.6680     8.0450   106.2950     8.0560     2.5390     0.1000     0.1480
  312.0000   -51.7130     9.6970     8.1190   105.7820     8.1200     2.5240     0.1120     0.1230
  312.5000   -51.7010     9.7470     8.1930   104.9050     8.1280     2.5050     0.1090     0.1110
  313.0000   -51.7000     9.7960     8.2030   104.6570     8.1010     2.4960     0.1040     0.1270
  313.5000   -51.7000     9.8450     8.2140   104.4090     8.0750     2.5050     0.0910     0.1780
  314.0000   -51.7010     9.8940     8.2250   104.6420     8.0480     2.5260     0.0730     0.2310
  314.5000   -51.6870     9.9430     8.2360   104.8670     8.0220     2.5530     0.0520     0.2840
  315.0000   -51.3300     9.9920     8.2470   106.7360     7.9950     2.5800     0.0490     0.3070
  315.5000   -50.9630    10.0310     8.2580   108.5160     7.9650     2.6000     0.0490     0.3040
  316.0000   -50.9150    10.0110     8.2680   107.5680     7.8390     2.6010     0.0510     0.2930
  316.5000   -50.9270     9.9960     7.8960   102.7980     7.7020     2.6010     0.0560     0.2540
  317.0000   -50.9410     9.9800     7.9080    98.9150     7.5670     2.5890     0.0630     0.2140
  317.5000   -50.9560     9.9640     7.9220    97.3790     7.5770     2.5760     0.0700     0.1740
  318.0000   -50.9700     9.9480     7.9370   101.2530     7.6060     2.5700     0.0740     0.1330
  318.5000   -50.9850     9.9330     7.9510   102.0580     7.6270     2.5610     0.0810     0.0960
  319.0000   -50.9990     9.9170     7.9650   103.3120     7.6160     2.5510     0.0910     0.0670
  319.5000   -51.0140     9.9010     7.9790   106.3000     7.6050     2.5410     0.0970     0.0480
  320.0000   -51.0280     9.8850     7.9930   107.6550     7.5950     2.5220     0.1000     0.0340
  320.5000   -51.0430     9.8700     8.0070   105.5460     7.5840     2.5180     0.1020     0.0280
  321.0000   -51.0570     9.8540     8.0220   103.8320     7.5730     2.5150     0.1040     0.0290
  321.5000   -51.0720     9.8380     8.0430   103.4870     7.5940     2.5100     0.1000     0.0370
  322.0000   -51.0870     9.8220     8.0200   105.9850     7.7570     2.5170     0.0960     0.0580
  322.5000   -51.0820     9.8070     7.9710   109.7220     7.8910     2.5330     0.0920     0.0860
  323.0000   -50.7230     9.7910     7.9230   110.6500     7.9510     2.5440     0.0900     0.0990
  323.5000   -50.3700     9.7750     7.8740   110.8600     8.0130     2.5430     0.1000     0.0930
  324.0000   -50.0180     9.7580     7.8260   111.5390     8.0750     2.5310     0.1190     0.0880
  324.5000   -49.7090     9.7380     7.7520   111.4620     8.0910     2.5010     0.1280     0.0860
  325.0000   -49.7660     9.7150     7.8610   109.1610     8.0650     2.4700     0.1240     0.0940
  325.5000   -49.8280     9.6930     7.9690   107.4460     8.0380     2.4730     0.1180     0.1010
  326.0000   -49.8890     9.6710     7.9690   108.2120     8.0120     2.4820     0.1120     0.0990
  326.5000   -49.9510     9.6480     7.6720   110.0080     7.9850     2.4930     0.1140     0.0950
  327.0000   -50.0140     9.6260     8.0430   112.3400     7.9500     2.5010     0.1150     0.0920
  327.5000   -50.0770     9.6040     8.0430   114.0450     7.8840     2.4940     0.1140     0.0910
  328.0000   -50.4210     9.5800     8.0430   113.5410     7.7310     2.4890     0.1020     0.0950
  328.5000   -51.2330     9.5720     8.0430   113.0820     7.5000     2.5020     0.0880     0.0940
  329.0000   -52.2270     9.5640     8.0430   112.7060     7.4910     2.5240     0.0740     0.0840
  329.5000   -52.9110     9.5560     8.0430   112.7160     7.5050     2.5450     0.0760     0.0690
  330.0000   -52.8980     9.5480     8.0430   112.7190     7.5100     2.5580     0.0930     0.0460
  330.5000   -52.8980     9.5390     8.0430   112.7250     7.5100     2.5420     0.1090     0.0230
  331.0000   -52.8990     9.5310     8.0430   112.4930     7.5100     2.5170     0.1170     0.0210
  331.5000   -52.9000     9.5230     8.0400   111.1150     7.5100     2.4960     0.1220     0.0260
  332.0000   -52.9000     9.5150     8.0210   109.5820     7.5100     2.4850     0.1140     0.0400
  332.5000   -52.9000     9.5070     8.0020   109.4530     7.5110     2.4800     0.1020     0.0560
  333.0000   -52.9000     9.4980     7.9820   109.2140     7.5310     2.4900     0.0900     0.0640
  333.5000   -52.9000     9.4920     7.7520   107.2710     7.6320     2.5130     0.0850     0.0580
  334.0000   -52.9000     9.5860     7.7650   106.7860     7.8440     2.5330     0.0850     0.0500
  334.5000   -52.9000     9.6680     7.8000   106.7680     7.8630     2.5410     0.0850     0.0430
  335.0000   -52.9000     9.7490     7.8340   106.7620     7.9090     2.5420     0.0840     0.0410
  335.5000   -52.9000     9.8300     7.8690   106.6690     7.9720     2.5430     0.0860     0.0390
  336.0000   -52.9000     9.8730     7.8960   105.8410     8.0360     2.5430     0.0910     0.0380
  336.5000   -52.9000     9.9040     7.8810   103.9730     8.0310     2.5350     0.1010     0.0370
  337.0000   -52.9000     9.9360     7.8680   103.7380     8.0140     2.5170     0.1100     0.0360
  337.5000   -52.8990     9.9680     7.8550   104.2070     7.9970     2.5100     0.1190     0.0340
  338.0000   -52.9360     9.9990     7.8420   105.5970     7.9920     2.4950     0.1250     0.0410
