~VERSION INFORMATION
 VERS.                2.0:   CWLS LOG ASCII STANDARD - VERSION 2.0
 WRAP.                 NO:   ONE LINE PER DEPTH STEP
~WELL INFORMATION
#MNEM.UNIT      DATA TYPE    INFORMATION
#----------   ------------   ------------------------------
 STRT.F            6.0000:   START DEPTH
 STOP.F          765.0000:   STOP DEPTH
 STEP.F            0.5000:   STEP LENGTH
 NULL.          -999.2500:   NO VALUE
 COMP. FENIX & SCISSON INC:   COMPANY
 WELL.      24 SX 2 #24-2:   WELL
 FLD .        TEAPOT DOME:   FIELD
 LOC .       S2 T38N R78W:   LOCATION
 CNTY.            NATRONA:   COUNTY
 STAT.            WYOMING:   STATE
 CTRY. UNITED STATES OF AMERICA:   COUNTRY
 SRVC.           BIRDWELL:   SERVICE COMPANY
 DATE.        20-JAN-1978:   LOGDATE
 API .       490251055700:   API NUMBER
~CURVE INFORMATION
#MNEM.UNIT       API CODE    CURVE DESCRIPTION
#----------   ------------   ------------------------------
 DEPT.F                  :   
 SPR .MV     05 010 01 00:   SPONTANEOUS POTENTIAL FROM RES.
 SN  .OHMM   05 040 16 00:   SHORT NORMAL 16"
 ILD .OHMM   05 120 46 00:   INDUCTION LOG DEEP
 CALD.IN     45 280 60 00:   CALIPER FROM DENSITY LOG
 CORR.G/C3   45 356 01 00:   DENSITY CORRECTION
 DEN .G/C3   45 350 01 00:   COMPENSATED BULK DENSTIY
 DPHI.DEC    45 890 12 00:   DENSITY POROSITY SANDSTONE
 GRD .GAPI   45 310 01 00:   GAMMA RAY FROM DENSITY LOG
~PARAMETER INFORMATION
#MNEM.UNIT          VALUE    DESCRIPTION
#----------   ------------   ------------------------------
 PD  .                 GL:   PERMANENT DATUM
 EPD .F              5131:   ELEVATION PERMANENT DATUM
 LMF .                 KB:   LOG MEASURED FROM
 DMF .                 KB:   DRILLING MEASURED FROM
 EKB .F              5134:   KELLING BUSHING
 EGL .F              5131:   GROUND LEVEL
 DATE.        20-JAN-1978:   RUN DATE
 RUN .                  1:   RUN NUMBER
 DD  .F               775:   DEPTH DRILLER
 DL  .F               770:   DEPTH LOGGER
 BLI .F               770:   BOTTOM LOG INTERVAL
 TLI .F                40:   TOP LOG INTERVAL
 CS  .IN            8.625:   CASING SIZE
 CBD .F                39:   CASING BOTTOM DRILLER
 CBL .F                39:   CASING BOTTOM LOGGER
 BS  .IN            7.875:   BIT SIZE
 BSD .F               775:   BIT SIZE AT DEPTH
 DFT .                KCL:   DRILLING FLUID TYPE
 DFD .                8.6:   DRILLING FLUID DENSITY
 DFV .                 33:   DRILLING FLUID VISCOSITY
 DFPH.                9.5:   DRILLING FLUID PH
 DFL .                  8:   DRILLING FLUID LOSS
 MSS .           FLOWLINE:   MUD SAMPLE SOURCE
 RMS .OHMM            .31:   RESISTIVITY MUD SAMPLE
 MST .F                54:   MUD SAMPLE TEMPERATURE
 RMF .OHMM            .28:   RESISTIVITY MUD FILTRATE SAMPLE
 MFST.F                64:   MUD FILTRATE SAMPLE TEMPERATURE
 RMC .OHMM             .8:   RESISTIVITY MUD CAKE
 MCST.F                64:   MUD CAKE SAMPLE TEMPERATURE
 MFSS.               MEAS:   MUD FILTRATE SAMPLE SOURCE
 MCSS.               MEAS:   MUD CAKE SAMPLE SOURCE
 RMB .OHMM            .22:   RESISTIVITY MUD AT BHT
 BHT .F                76:   BOTTOM HOLE TEMPERATURE
 TCS .HRS            0400:   TIME CURCULATED STOPPED
 MRT .F                76:   MAXIMUM RECORDED TEMPERATURE
 LUN .               2958:   LOGGING UNIT NUMBER
 LUL .             CASPER:   LOGGING UNIT LOCATION
 ENGI.            POINTER:   RECORDING ENGINEER
 WITN.           MCGINLEY:   WITNESSED BY
 CLNT.            A2DTECH:   CLIENT CODE
 ORIG.           5" PRINT:   ORIGIN OF DATA
 UWI .       490251055700:   UNIQUE WELL ID
 DICO. A2D Technologies, Inc.:   DIGITIZING COMPANY
~OTHER INFORMATION
~A    DEPT     SPR         SN        ILD       CALD       CORR        DEN       DPHI         GRD  
# ...
  168.0000   -30.5430    12.4518    12.5765     8.1308     0.0630     2.3831     0.1708    51.5638
  168.5000   -30.5506    12.6192    12.7485     8.1301     0.0690     2.3695     0.1841    51.2515
  169.0000   -30.2569    12.7068    12.8336     8.1293     0.0749     2.3536     0.1914    54.5461
  169.5000   -29.9613    12.8758    12.9308     8.1284     0.0779     2.3429     0.1965    57.5433
  170.0000   -29.8183    13.0512    13.1080     8.1277     0.0839     2.3303     0.1969    58.7369
  170.5000   -29.8277    13.2291    13.2750     8.0818     0.0898     2.3351     0.1917    58.7183
  171.0000   -29.6827    13.3245    13.3765     8.0811     0.0958     2.3453     0.1890    59.0046
  171.5000   -29.3910    13.5921    13.5464     8.0803     0.1018     2.3490     0.1891    61.0982
  172.0000   -29.2460    13.7874    13.7455     8.0948     0.1070     2.3497     0.1869    62.5893
  172.5000   -28.8017    13.9651    13.9195     8.1091     0.1115     2.3512     0.1809    61.0684
  173.0000   -28.3575    13.9724    14.0272     8.1234     0.1167     2.3572     0.1769    55.9330
  173.5000   -28.2144    14.1505    14.1059     8.0924     0.1189     2.3647     0.1738    49.8941
  174.0000   -28.2238    14.3433    14.2001     8.0616     0.1189     2.3684     0.1766    47.4695
  174.5000   -28.3820    14.4382    14.2949     8.0007     0.1211     2.3661     0.1790    54.9848
  175.0000   -28.3895    14.6350    14.3903     7.9398     0.1233     2.3668     0.1745    62.1988
  175.5000   -28.5476    14.8344    14.6886     7.8338     0.1240     2.3781     0.1709    62.7863
  176.0000   -28.5552    15.1413    14.7866     7.7729     0.1248     2.3893     0.1604    57.8956
  176.5000   -28.7133    15.4754    15.0931     7.7120     0.1240     2.3991     0.1424    54.7561
  177.0000   -28.8714    15.9933    15.5323     7.6661     0.1224     2.4306     0.1159    43.1827
  177.5000   -29.1802    16.9006    16.0758     7.6504     0.1142     2.4532     0.0915    36.8194
  178.0000   -29.3383    17.7359    17.0325     7.6496     0.0774     2.5344     0.0759    31.0817
  178.5000   -29.3459    18.3558    18.3779     7.6940     0.0384     2.5419     0.0987    22.3318
  179.0000   -29.3534    19.1298    19.9403     7.7383     0.0354     2.5388     0.1328    17.4977
  179.5000   -29.2085    19.9363    21.3370     7.8132     0.0353     2.4470     0.1332    16.2817
  180.0000   -29.0654    21.2141    21.5995     7.8732     0.0346     2.4409     0.1348    23.4920
  180.5000   -28.9223    21.3563    21.5921     7.9332     0.0330     2.4371     0.1441    29.5012
  181.0000   -28.7793    21.3470    21.5861     7.9781     0.0378     2.4273     0.1775    34.9080
  181.5000   -28.4875    20.8999    21.1361     8.0053     0.0485     2.3806     0.1932    41.5196
  182.0000   -28.3425    19.6275    19.8525     8.0196     0.0585     2.3338     0.2079    47.2276
  182.5000   -28.3519    18.0527    18.5182     8.0036     0.0654     2.3074     0.2167    49.6224
  183.0000   -28.3595    16.8364    17.7590     8.0029     0.0749     2.2992     0.2188    50.5111
  183.5000   -28.3670    16.3697    16.9134     8.0021     0.0921     2.2945     0.2188    50.8011
  184.0000   -28.2239    15.6966    15.5594     8.0014     0.0995     2.2932     0.2177    50.7825
  184.5000   -27.9303    15.0511    14.7161     8.0006     0.0920     2.3202     0.2002    47.4544
  185.0000   -27.9378    14.4322    14.3098     7.9999     0.0950     2.3292     0.1948    47.4395
  185.5000   -27.9454    14.0322    14.0115     7.9992     0.1009     2.3111     0.2114    45.0150
  186.0000   -28.4047    13.7383    13.8148     7.9984     0.1002     2.3096     0.1970    40.4820
  186.5000   -28.7134    13.5442    13.4334     7.9977     0.0979     2.3276     0.1958    46.2781
  187.0000   -28.8716    13.5395    13.3369     7.9969     0.0949     2.3298     0.1991    53.9940
  187.5000   -29.1803    13.5348    13.3332     7.9811     0.0918     2.3290     0.1986    64.1316
  188.0000   -29.6397    13.6256    13.3295     7.9804     0.0888     2.3290     0.1983    66.6273
  188.5000   -29.9484    13.6197    13.3258     7.9646     0.0880     2.3282     0.2007    65.4039
  189.0000   -30.2571    13.5208    13.4157     7.9639     0.0880     2.3274     0.2023    62.3769
  189.5000   -30.5659    13.4226    13.4111     7.9631     0.0887     2.3266     0.2029    54.2295
  190.0000   -31.1758    13.2330    13.2228     7.9774     0.0917     2.3258     0.2002    49.3954
  190.5000   -31.6352    12.8662    12.7689     7.9767     0.0947     2.3288     0.1968    49.6817
  191.0000   -32.6969    12.3371    12.0769     7.9759     0.0976     2.3333     0.1916    60.5102
  191.5000   -33.4575    11.7480    10.6576     7.9752     0.0991     2.3490     0.1837    76.1579
  192.0000   -34.5192    11.3434     9.3401     7.9744     0.0953     2.3836     0.1666    82.7695
  192.5000   -35.7316    10.9527     8.4156     7.9887     0.0915     2.3881     0.1522    88.1763
  193.0000   -37.6969    10.4296     7.6354     7.9880     0.0877     2.4031     0.1540    95.3904
  193.5000   -39.0599     9.2656     7.2216     7.9872     0.0832     2.4121     0.1552    97.7851
  194.0000   -39.8205     8.4047     6.8777     7.9865     0.0794     2.4128     0.1528   100.1799
  194.5000   -39.8280     7.8931     6.6878     7.9856     0.0764     2.4143     0.1507   101.3705
  195.0000   -39.6849     7.4125     6.6398     7.9999     0.0749     2.4157     0.1484   101.0537
  195.5000   -39.5419     7.2573     6.6379     8.0143     0.0726     2.4164     0.1481    96.5208
  196.0000   -39.7000     7.1547     6.6827     8.0286     0.0688     2.4157     0.1508    92.2890
  196.5000   -39.8581     7.1523     6.6804     8.0277     0.0651     2.4147     0.1545    88.9548
  197.0000   -40.3175     7.2002     6.6785     8.0270     0.0643     2.4101     0.1557    87.7089
  197.5000   -40.6262     7.1971     6.6767     8.0414     0.0635     2.4035     0.1557    86.5211
  198.0000   -40.6338     7.1946     6.6748     8.0405     0.0635     2.4035     0.1518    86.8078
  198.5000   -40.4888     7.1921     6.7199     8.0398     0.0634     2.4170     0.1470    88.8976
  199.0000   -40.3476     7.2403     6.7175     8.0390     0.0634     2.4244     0.1434    96.4128
  199.5000   -40.3552     7.2372     6.7157     8.0383     0.0634     2.4267     0.1414   100.0161
  200.0000   -40.3813     7.2353     6.7610     8.0348     0.0633     2.4282     0.1399    99.3997
  200.5000   -40.6266     7.2511     6.7153     8.0170     0.0621     2.4288     0.1390    94.8690
  201.0000   -40.8720     7.2647     6.6732     8.0067     0.0602     2.4296     0.1411    88.8360
  201.5000   -41.0166     7.2733     6.7086     8.0213     0.0602     2.4295     0.1463    83.1041
  202.0000   -41.3029     7.3700     6.7148     8.0207     0.0601     2.4204     0.1502    85.8059
  202.5000   -41.3118     7.4689     6.7980     8.0203     0.0608     2.4129     0.1535    92.4235
  203.0000   -41.3207     7.5178     6.7962     8.0198     0.0623     2.4083     0.1556    96.0289
  203.5000   -41.3297     7.5127     6.7943     8.0194     0.0697     2.4000     0.1536    97.5282
  204.0000   -41.6398     7.5086     6.7455     8.0189     0.0749     2.4090     0.1491    90.2881
  204.5000   -41.7993     7.5045     6.6509     8.0185     0.0786     2.4179     0.1484    83.9538
  205.0000   -42.1094     7.5004     6.6031     8.0180     0.0823     2.4164     0.1497    81.8364
  205.5000   -42.4195     7.4444     6.5557     8.0176     0.0875     2.4164     0.1497    83.9358
  206.0000   -42.2756     7.4404     6.5999     8.0171     0.0934     2.4178     0.1443    86.9389
  206.5000   -41.9855     7.3849     6.5977     8.0167     0.0979     2.4260     0.1377    92.9540
  207.0000   -41.8416     7.3808     6.5959     8.0162     0.0986     2.4373     0.1341    92.6438
  207.5000   -41.4006     7.3768     6.5485     8.0158     0.0993     2.4433     0.1344    92.0324
  208.0000   -41.2590     7.4241     6.5015     8.0153     0.1022     2.4455     0.1341    87.2042
