~VERSION INFORMATION
 VERS.                2.0:   CWLS LOG ASCII STANDARD - VERSION 2.0
 WRAP.                 NO:   ONE LINE PER DEPTH STEP
~WELL INFORMATION
#MNEM.UNIT      DATA TYPE    INFORMATION
#----------   ------------   ------------------------------
 STRT.F           23.0000:   START DEPTH
 STOP.F         2536.0000:   STOP DEPTH
 STEP.F            0.5000:   STEP LENGTH
 NULL.          -999.2500:   NO VALUE
 COMP. FENIX & SCISSON INC:   COMPANY
 WELL.     14 SHX 3 #14-3:   WELL
 FLD .             TEAPOT:   FIELD
 LOC .       S3 T38N R78W:   LOCATION
 CNTY.            NATRONA:   COUNTY
 STAT.            WYOMING:   STATE
 CTRY. UNITED STATES OF AMERICA:   COUNTRY
 SRVC.           BIRDWELL:   SERVICE COMPANY
 DATE.        20-MAR-1979:   LOGDATE
 API .       490251073900:   API NUMBER
~CURVE INFORMATION
#MNEM.UNIT       API CODE    CURVE DESCRIPTION
#----------   ------------   ------------------------------
 DEPT.F                  :   
 SPR .MV     07 010 01 00:   SPONTANEOUS POTENTIAL
 SN  .OHMM   07 040 16 00:   SHORT NORMAL 16'
 IL  .OHMM   07 120 00 00:   INDUCTION LOG
 GRD .GAPI   45 310 01 00:   GAMMA RAY FROM DENSITY LOG
 CALD.IN     45 280 60 00:   CALIPER
 CORR.G/C3   45 356 01 00:   DENSITY CORRECTION
 DEN .G/C3   45 350 01 00:   
 DPHI.DEC    45 890 12 00:   DENSITY POROSITY SANDSTONE
~PARAMETER INFORMATION
#MNEM.UNIT          VALUE    DESCRIPTION
#----------   ------------   ------------------------------
 PD  .                 GL:   PERMANENT DATUM
 EPD .F              5208:   ELEVATION PERMANENT DATUM
 LMF .                 KB:   LOG MEASURED FROM
 DAPD.F                10:   FEET ABOVE PERMANENT DATUM
 DMF .                 KB:   DRILLING MEASURED FROM
 EKB .F              5218:   KELLING BUSHING
 EGL .F              5208:   GROUND LEVEL
 DATE.            3-20-79:   RUN DATE
 RUN .                  1:   RUN NUMBER
 DD  .F              2580:   DEPTH DRILLER
 DL  .F              2536:   DEPTH LOGGER
 BLI .F              2536:   BOTTOM LOG INTERVAL
 TLI .F               400:   TOP LOG INTERVAL
 CS  .IN            9.625:   CASING SIZE
 CBL .F               680:   CASING BOTTOM LOGGER
 BS  .IN             8.75:   BIT SIZE
 BSD .F              2580:   BIT SIZE AT DEPTH
 DFT .                AIR:   DRILLING FLUID TYPE
 TCS .HRS               6:   TIME CURCULATED STOPPED
 LUN .               2959:   LOGGING UNIT NUMBER
 LUL .             CASPER:   LOGGING UNIT LOCATION
 ENGI.            ROLLINS:   RECORDING ENGINEER
 WITN.           DINSMORE:   WITNESSED BY
 CLNT.            A2DTECH:   CLIENT CODE
 ORIG. 1", 2", 2.5", 5" PRINT:   ORIGIN OF DATA
 UWI .       490251073900:   UNIQUE WELL ID
 DICO. A2D Technologies, Inc.:   DIGITIZING COMPANY
~OTHER INFORMATION
~A   DEPT      SPR         SN         IL        GRD       CALD       CORR        DEN       DPHI   
# ...
 2169.5000  -999.2500  -999.2500  -999.2500   148.7711     9.4557    -0.0044     2.4611     0.0425
 2170.0000  -999.2500  -999.2500  -999.2500   148.8370     9.4557    -0.0116     2.4541     0.0450
 2170.5000  -999.2500  -999.2500  -999.2500   152.8598     9.4556    -0.0186     2.4466     0.0476
 2171.0000  -999.2500  -999.2500  -999.2500   157.1836     9.4557    -0.0197     2.4396     0.0492
 2171.5000  -999.2500  -999.2500  -999.2500   161.6892     9.4553    -0.0140     2.4390     0.0430
 2172.0000  -999.2500  -999.2500  -999.2500   163.4110     9.4546    -0.0030     2.4620     0.0354
 2172.5000  -999.2500  -999.2500  -999.2500   161.1011     9.4539     0.0049     2.4770     0.0337
 2173.0000  -999.2500  -999.2500  -999.2500   157.2225     9.4533     0.0049     2.4754     0.0314
 2173.5000  -999.2500  -999.2500  -999.2500   154.5737     9.4526     0.0053     2.4832     0.0275
 2174.0000  -999.2500  -999.2500  -999.2500   158.3599     9.4519     0.0032     2.4871     0.0293
 2174.5000  -999.2500  -999.2500  -999.2500   159.4643     9.4512    -0.0021     2.4771     0.0328
 2175.0000  -999.2500  -999.2500  -999.2500   158.2971     9.4506    -0.0071     2.4682     0.0364
 2175.5000  -999.2500  -999.2500  -999.2500   156.7415     9.4499    -0.0109     2.4583     0.0399
 2176.0000  -999.2500  -999.2500  -999.2500   155.2404     9.4492    -0.0117     2.4546     0.0434
 2176.5000  -999.2500  -999.2500  -999.2500   153.6717     9.4486    -0.0053     2.4596     0.0397
 2177.0000  -999.2500  -999.2500  -999.2500   152.1725     9.4479     0.0050     2.4703     0.0336
 2177.5000  -999.2500  -999.2500  -999.2500   151.8354     9.4472     0.0160     2.4851     0.0265
 2178.0000  -999.2500  -999.2500  -999.2500   154.8378     9.4466     0.0107     2.4892     0.0285
 2178.5000  -999.2500  -999.2500  -999.2500   153.5652     9.4459     0.0019     2.4793     0.0334
 2179.0000  -999.2500  -999.2500  -999.2500   152.3376     9.4452     0.0010     2.4708     0.0362
 2179.5000  -999.2500  -999.2500  -999.2500   150.4421     9.4445     0.0014     2.4679     0.0342
 2180.0000  -999.2500  -999.2500  -999.2500   158.4755     9.4439     0.0075     2.4777     0.0312
 2180.5000  -999.2500  -999.2500  -999.2500   161.7017     9.4432     0.0162     2.4909     0.0281
 2181.0000  -999.2500  -999.2500  -999.2500   160.9405     9.4425     0.0088     2.4922     0.0257
 2181.5000  -999.2500  -999.2500  -999.2500   164.1879     9.4419    -0.0020     2.4738     0.0314
 2182.0000  -999.2500  -999.2500  -999.2500   167.5582     9.4412    -0.0060     2.4605     0.0434
 2182.5000  -999.2500  -999.2500  -999.2500   170.0034     9.4405    -0.0007     2.4684     0.0386
 2183.0000  -999.2500  -999.2500  -999.2500   169.4755     9.4398    -0.0001     2.4759     0.0337
 2183.5000  -999.2500  -999.2500  -999.2500   168.7069     9.4392    -0.0037     2.4817     0.0316
 2184.0000  -999.2500  -999.2500  -999.2500   165.2001     9.4385    -0.0066     2.4816     0.0297
 2184.5000  -999.2500  -999.2500  -999.2500   158.7556     9.4378    -0.0098     2.4812     0.0305
 2185.0000  -999.2500  -999.2500  -999.2500   152.7231     9.4372    -0.0130     2.4680     0.0358
 2185.5000  -999.2500  -999.2500  -999.2500   149.6291     9.4365    -0.0152     2.4490     0.0426
 2186.0000  -999.2500  -999.2500  -999.2500   148.0941     9.4358    -0.0120     2.4534     0.0426
 2186.5000  -999.2500  -999.2500  -999.2500   140.8502     9.4352    -0.0040     2.4629     0.0393
 2187.0000  -999.2500  -999.2500  -999.2500   133.7501     9.4345    -0.0145     2.4615     0.0378
 2187.5000  -999.2500  -999.2500  -999.2500   132.4254     9.4338    -0.0266     2.4536     0.0444
 2188.0000  -999.2500  -999.2500  -999.2500   136.4542     9.4332    -0.0400     2.4460     0.0475
 2188.5000  -999.2500  -999.2500  -999.2500   138.4169     9.4325    -0.0418     2.4404     0.0475
 2189.0000  -999.2500  -999.2500  -999.2500   136.9588     9.4318    -0.0386     2.4475     0.0441
 2189.5000  -999.2500  -999.2500  -999.2500   137.4649     9.4311    -0.0256     2.4609     0.0391
 2190.0000  -999.2500  -999.2500  -999.2500   140.8769     9.4305    -0.0154     2.4739     0.0342
 2190.5000  -999.2500  -999.2500  -999.2500   144.3967     9.4298    -0.0093     2.4867     0.0292
 2191.0000  -999.2500  -999.2500  -999.2500   144.7096     9.4291    -0.0070     2.4973     0.0248
 2191.5000  -999.2500  -999.2500  -999.2500   142.0071     9.4285    -0.0070     2.4962     0.0240
 2192.0000  -999.2500  -999.2500  -999.2500   139.5199     9.4278    -0.0070     2.4965     0.0232
 2192.5000  -999.2500  -999.2500  -999.2500   137.6883     9.4271     0.0054     2.5110     0.0170
 2193.0000  -999.2500  -999.2500  -999.2500   134.6835     9.4264     0.0232     2.5395     0.0086
 2193.5000  -999.2500  -999.2500  -999.2500   131.3881     9.4258     0.0410     2.5525    -0.0002
 2194.0000  -999.2500  -999.2500  -999.2500   130.4313     9.4251     0.0443     2.5383     0.0041
 2194.5000  -999.2500  -999.2500  -999.2500   133.4685     9.4244     0.0380     2.5314     0.0071
 2195.0000  -999.2500  -999.2500  -999.2500   135.8324     9.4238     0.0610     2.5423     0.0063
 2195.5000  -999.2500  -999.2500  -999.2500   138.3673     9.4231     0.0838     2.5623    -0.0027
 2196.0000  -999.2500  -999.2500  -999.2500   142.1730     9.4224     0.0851     2.5385    -0.0091
 2196.5000  -999.2500  -999.2500  -999.2500   140.7616     9.4218     0.0475     2.5115     0.0248
 2197.0000  -999.2500  -999.2500  -999.2500   134.8349     9.4211     0.0053     2.4969     0.0248
 2197.5000  -999.2500  -999.2500  -999.2500   134.2155     9.4204     0.0014     2.5015     0.0208
 2198.0000  -999.2500  -999.2500  -999.2500   136.0169     9.4197     0.0146     2.5094     0.0173
 2198.5000  -999.2500  -999.2500  -999.2500   137.7004     9.4191     0.0185     2.5169     0.0152
 2199.0000  -999.2500  -999.2500  -999.2500   139.3129     9.4184     0.0095     2.5018     0.0252
 2199.5000  -999.2500  -999.2500  -999.2500   140.5555     9.4177     0.0016     2.4865     0.0273
 2200.0000  -999.2500  -999.2500  -999.2500   141.5927     9.4171     0.0071     2.4814     0.0247
 2200.5000  -999.2500  -999.2500  -999.2500   144.1103     9.4164     0.0122     2.4958     0.0218
 2201.0000  -999.2500  -999.2500  -999.2500   146.2430     9.4157     0.0163     2.5091     0.0184
 2201.5000  -999.2500  -999.2500  -999.2500   144.5232     9.4156     0.0045     2.5014     0.0212
 2202.0000  -999.2500  -999.2500  -999.2500   142.1067     9.4166    -0.0033     2.4881     0.0281
 2202.5000  -999.2500  -999.2500  -999.2500   140.3267     9.4175    -0.0125     2.4741     0.0350
 2203.0000  -999.2500  -999.2500  -999.2500   138.9200     9.4184    -0.0154     2.4637     0.0390
 2203.5000  -999.2500  -999.2500  -999.2500   137.4554     9.4194    -0.0152     2.4628     0.0392
 2204.0000  -999.2500  -999.2500  -999.2500   135.7719     9.4203    -0.0139     2.4619     0.0389
 2204.5000  -999.2500  -999.2500  -999.2500   138.5638     9.4212    -0.0126     2.4662     0.0386
 2205.0000  -999.2500  -999.2500  -999.2500   148.5494     9.4221    -0.0038     2.4801     0.0331
 2205.5000  -999.2500  -999.2500  -999.2500   146.6368     9.4230     0.0108     2.5009     0.0254
 2206.0000  -999.2500  -999.2500  -999.2500   143.6482     9.4239     0.0210     2.5087     0.0192
 2206.5000  -999.2500  -999.2500  -999.2500   145.4357     9.4249     0.0202     2.5007     0.0218
 2207.0000  -999.2500  -999.2500  -999.2500   145.8958     9.4258     0.0071     2.4873     0.0285
 2207.5000  -999.2500  -999.2500  -999.2500   144.3456     9.4267    -0.0065     2.4744     0.0351
 2208.0000  -999.2500  -999.2500  -999.2500   142.9430     9.4276    -0.0112     2.4638     0.0374
 2208.5000  -999.2500  -999.2500  -999.2500   141.8448     9.4285    -0.0086     2.4683     0.0362
 2209.0000  -999.2500  -999.2500  -999.2500   144.4399     9.4294    -0.0016     2.4708     0.0345
 2209.5000  -999.2500  -999.2500  -999.2500   146.8611     9.4304     0.0052     2.4891     0.0278
