~VERSION INFORMATION
 VERS.                2.0:   CWLS LOG ASCII STANDARD - VERSION 2.0
 WRAP.                 NO:   ONE LINE PER DEPTH STEP
~WELL INFORMATION
#MNEM.UNIT      DATA TYPE    INFORMATION
#----------   ------------   ------------------------------
 STRT.F           44.0000:   START DEPTH
 STOP.F          462.0000:   STOP DEPTH
 STEP.F            0.5000:   STEP LENGTH
 NULL.          -999.2500:   NO VALUE
 COMP. FENIX & SCISSON INC:   COMPANY
 WELL.    35-SX-3F0 #55-3:   WELL
 FLD .             TEAPOT:   FIELD
 LOC .       S3 T38N R78W:   LOCATION
 CNTY.            NATRONA:   COUNTY
 STAT.            WYOMING:   STATE
 CTRY. UNITED STATES OF AMERICA:   COUNTRY
 SRVC.              Welex:   SERVICE COMPANY
 DATE.        11-JUL-1980:   LOGDATE
 API .       490251083300:   API NUMBER
~CURVE INFORMATION
#MNEM.UNIT       API CODE    CURVE DESCRIPTION
#----------   ------------   ------------------------------
 DEPT.F                  :   
 GRD .GAPI   45 310 01 00:   GAMMA RAY FROM DENSITY LOG
 CALD.IN     45 280 60 00:   CALIPER
 RHOB.G/C3   45 350 01 00:   BULK DENSITY
 CORR.G/C3   45 356 01 00:   DENSITY CORRECTION
 DPHI.DEC    45 890 12 00:   DENSITY POROSITY SANDSTONE
~PARAMETER INFORMATION
#MNEM.UNIT          VALUE    DESCRIPTION
#----------   ------------   ------------------------------
 PD  .                 GL:   PERMANENT DATUM
 EPD .F              5171:   ELEVATION PERMANENT DATUM
 LMF .                 KB:   LOG MEASURED FROM
 DAPD.F                 5:   FEET ABOVE PERMANENT DATUM
 DMF .                 KB:   DRILLING MEASURED FROM
 EKB .F              5176:   KELLING BUSHING
 EGL .F              5171:   GROUND LEVEL
 DATE.            7-11-80:   RUN DATE
 RUN .                  1:   RUN NUMBER
 DD  .F               470:   DEPTH DRILLER
 DL  .F               470:   DEPTH LOGGER
 BLI .F               462:   BOTTOM LOG INTERVAL
 TLI .F                48:   TOP LOG INTERVAL
 CS  .IN                7:   CASING SIZE
 CBD .F                48:   CASING BOTTOM DRILLER
 BS  .IN             6.25:   BIT SIZE
 BSD .F               470:   BIT SIZE AT DEPTH
 DFT .        AIR DRILLED:   DRILLING FLUID TYPE
 BHT .F                75:   BOTTOM HOLE TEMPERATURE
 TCS .HRS               2:   TIME CURCULATED STOPPED
 MRT .F                75:   MAXIMUM RECORDED TEMPERATURE
 ENGI.           PFRIMMER:   RECORDING ENGINEER
 WITN.              AMEND:   WITNESSED BY
 CLNT.            A2DTECH:   CLIENT CODE
 ORIG.           5" PRINT:   ORIGIN OF DATA
 UWI .       490251083300:   UNIQUE WELL ID
 DICO. A2D Technologies, Inc.:   DIGITIZING COMPANY
~OTHER INFORMATION
~A   DEPT       GRD        CALD     RHOB       CORR       DPHI   
# ...
  410.0000    81.0869     6.6026     2.4699     0.0751     0.1281
  410.5000    80.3615     6.5950     2.4663     0.0750     0.1293
  411.0000    80.8307     6.5855     2.4625     0.0771     0.1320
  411.5000    80.9421     6.5761     2.4675     0.0889     0.1320
  412.0000    80.5580     6.5667     2.4741     0.1005     0.1252
  412.5000    80.3417     6.5574     2.4768     0.1121     0.1234
  413.0000    81.2941     6.5479     2.4790     0.1238     0.1217
  413.5000    82.2163     6.5601     2.4879     0.1355     0.1159
  414.0000    83.1309     6.5892     2.4974     0.1467     0.1086
  414.5000    84.0455     6.6194     2.5040     0.1453     0.1044
  415.0000    84.9621     6.5903     2.4982     0.1371     0.1117
  415.5000    85.8634     6.5389     2.4938     0.1293     0.1136
  416.0000    86.4665     6.4866     2.4997     0.1213     0.1089
  416.5000    86.1251     6.5051     2.5045     0.1201     0.1056
  417.0000    86.3587     6.5290     2.5047     0.1193     0.1013
  417.5000    87.5868     6.5524     2.5152     0.1253     0.0967
  418.0000    87.5053     6.5760     2.5282     0.1355     0.0921
  418.5000    85.6354     6.5802     2.5380     0.1410     0.0880
  419.0000    85.1059     6.5729     2.5303     0.1410     0.0907
  419.5000    85.0938     6.5656     2.5239     0.1392     0.0935
  420.0000    85.0751     6.5582     2.5223     0.1258     0.0987
  420.5000    86.0381     6.5508     2.5114     0.1123     0.1038
  421.0000    87.2302     6.5440     2.5007     0.0989     0.1091
  421.5000    88.4293     6.5438     2.4886     0.0855     0.1149
  422.0000    89.8488     6.5438     2.4777     0.0716     0.1211
  422.5000    92.5721     6.5434     2.4779     0.0724     0.1259
  423.0000    94.1053     6.5619     2.4720     0.0754     0.1279
  423.5000    95.6895     6.5861     2.4655     0.0783     0.1301
  424.0000    97.7553     6.6101     2.4566     0.0807     0.1325
  424.5000    99.9054     6.6196     2.4462     0.0745     0.1400
  425.0000    99.6761     6.6107     2.4437     0.0681     0.1436
  425.5000    95.2206     6.6019     2.4598     0.0617     0.1332
  426.0000    84.8099     6.5931     2.4776     0.0554     0.1244
  426.5000    84.0148     6.5842     2.4850     0.0490     0.1164
  427.0000    83.6809     6.5755     2.4893     0.0438     0.1118
  427.5000    84.2498     6.5664     2.4996     0.0387     0.1072
  428.0000    84.9171     6.5735     2.5099     0.0376     0.1023
  428.5000    85.5153     6.5875     2.5202     0.0492     0.0970
  429.0000    85.4997     6.6019     2.5281     0.0603     0.0937
  429.5000    85.6599     6.6161     2.5282     0.0655     0.0941
  430.0000    86.6389     6.6304     2.5319     0.0665     0.0946
  430.5000    87.6027     6.6447     2.5294     0.0670     0.0945
  431.0000    88.3080     6.6592     2.5253     0.0639     0.0940
  431.5000    88.0838     6.6604     2.5212     0.0572     0.0938
  432.0000    87.6839     6.6563     2.5221     0.0504     0.0935
  432.5000    86.1331     6.6521     2.5251     0.0514     0.0932
  433.0000    84.5855     6.6480     2.5283     0.0545     0.0929
  433.5000    83.4892     6.6438     2.5316     0.0578     0.0927
  434.0000    83.0094     6.6396     2.5349     0.0609     0.0924
  434.5000    82.5289     6.6354     2.5382     0.0642     0.0898
  435.0000    83.5090     6.6313     2.5410     0.0639     0.0884
  435.5000    84.6342     6.6271     2.5410     0.0625     0.0882
  436.0000    85.7576     6.6230     2.5410     0.0611     0.0880
  436.5000    86.8783     6.6188     2.5419     0.0628     0.0869
  437.0000    87.7181     6.6146     2.5470     0.0646     0.0852
  437.5000    87.2430     6.6104     2.5520     0.0665     0.0836
  438.0000    85.3231     6.6063     2.5569     0.0713     0.0816
  438.5000    83.4680     6.6041     2.5619     0.0773     0.0794
  439.0000    82.7106     6.6059     2.5615     0.0806     0.0784
  439.5000    82.8526     6.6076     2.5525     0.0716     0.0817
  440.0000    83.6728     6.6093     2.5416     0.0595     0.0858
  440.5000    84.4742     6.6110     2.5308     0.0474     0.0899
  441.0000    85.2736     6.6128     2.5200     0.0353     0.0940
  441.5000    86.0749     6.6145     2.5092     0.0232     0.1041
  442.0000    86.8752     6.6162     2.4983     0.0114     0.1124
  442.5000    87.5028     6.6179     2.4931     0.0093     0.1117
  443.0000    87.1140     6.6196     2.4943     0.0074     0.1108
  443.5000    86.8074     6.6213     2.4956     0.0055     0.1108
  444.0000    86.9512     6.6230     2.4955     0.0035     0.1095
  444.5000   100.7436     6.6269     2.4945     0.0014     0.1118
  445.0000    97.0619     6.6316     2.4940     0.0010     0.1128
  445.5000    93.3340     6.6362     2.4965     0.0010     0.1106
  446.0000    89.6210     6.6409     2.4973     0.0010     0.1084
  446.5000    85.9384     6.6456     2.4884    -0.0009     0.1153
  447.0000    85.2542     6.6503     2.4839    -0.0050     0.1208
  447.5000    86.1818     6.6550     2.4918    -0.0043     0.1131
  448.0000    87.4240     6.6596     2.5026     0.0040     0.1021
  448.5000    88.6697     6.6626     2.5136     0.0122     0.1002
  449.0000    89.9346     6.6574     2.5236     0.0167     0.0980
  449.5000    89.4802     6.6524     2.5178     0.0159     0.0984
  450.0000    88.7375     6.6475     2.5117     0.0151     0.1017
  450.5000    88.1104     6.6425     2.5057     0.0142     0.1050
  451.0000    88.2747     6.6375     2.5022     0.0135     0.1080
  451.5000    87.7414     6.6326     2.5063     0.0139     0.1055
  452.0000    87.1721     6.6276     2.5100     0.0158     0.1052
  452.5000    88.1830     6.6227     2.5099     0.0178     0.1052
  453.0000    89.4325     6.6177     2.5101     0.0198     0.1034
  453.5000    87.0736     6.6127     2.5141     0.0217     0.1002
  454.0000    85.5487     6.6078     2.5178     0.0237     0.0970
  454.5000    86.4773     6.6028     2.5214     0.0256     0.0937
  455.0000    87.3847     6.5978     2.5251     0.0276     0.0925
  455.5000    88.2310     6.5929     2.5287     0.0295     0.0920
  456.0000    89.0005     6.5879     2.5310     0.0315     0.0916
  456.5000    89.7701     6.5838     2.5324     0.0337     0.0912
  457.0000    90.5405     6.5858     2.5370     0.0370     0.0898
  457.5000    91.3257     6.5877     2.5444     0.0402     0.0876
  458.0000    92.1981     6.5896     2.5490     0.0435     0.0855
  458.5000    92.1303     6.5915     2.5482     0.0466     0.0844
  459.0000    72.6995     6.5934     2.5466     0.0431     0.0844
  459.5000    60.6614     6.5953     2.5464     0.0386     0.0841
  460.0000    60.5260     6.5972     2.5491     0.0390     0.0825
  460.5000    60.5082     6.5992     2.5518     0.0421     0.0810
  461.0000    60.5000     6.6010     2.5544     0.0452     0.0795
  461.5000    60.5000     6.6030     2.5543     0.0469     0.0804
  462.0000    60.5000     6.6036     2.5501     0.0448     0.0820
