~VERSION INFORMATION
 VERS.                2.0:   CWLS LOG ASCII STANDARD - VERSION 2.0
 WRAP.                 NO:   ONE LINE PER DEPTH STEP
~WELL INFORMATION
#MNEM.UNIT      DATA TYPE    INFORMATION
#----------   ------------   ------------------------------
 STRT.F           28.0000:   START DEPTH
 STOP.F          856.0000:   STOP DEPTH
 STEP.F            0.5000:   STEP LENGTH
 NULL.          -999.2500:   NO VALUE
 COMP. FENIX & SCISSON INC:   COMPANY
 WELL. NPR 3  76 SX #76-27:   WELL
 FLD .             TEAPOT:   FIELD
 LOC .      S27 T39N R78W:   LOCATION
 CNTY.            NATRONA:   COUNTY
 STAT.            WYOMING:   STATE
 CTRY. UNITED STATES OF AMERICA:   COUNTRY
 SRVC.            Unknown:   SERVICE COMPANY
 DATE.        06-SEP-1978:   LOGDATE
 API .       490251069600:   API NUMBER
~CURVE INFORMATION
#MNEM.UNIT       API CODE    CURVE DESCRIPTION
#----------   ------------   ------------------------------
 DEPT.F                  :   
 SPR .MV     05 010 01 00:   SPONTANEOUS POTENTIAL FROM RES.
 SN  .OHMM   05 040 16 00:   SHORT NORMAL 16"
 ILD .OHMM   05 120 46 00:   INDUCTION LOG DEEP
 NPHI.DEC    42 890 03 00:   NEUTRON POROSITY SANDSTONE
 GRD .GAPI   45 310 01 00:   GAMMA RAY FROM DENSITY LOG
 CALD.IN     45 280 60 00:   CALIPER
 RHOB.G/C3   45 350 01 00:   BULK DENSITY
 DPHI.DEC    45 890 12 00:   DENSITY POROSITY SANDSTONE
 CORR.G/C3   45 356 01 00:   DENSITY CORRECTION
~PARAMETER INFORMATION
#MNEM.UNIT          VALUE    DESCRIPTION
#----------   ------------   ------------------------------
 PD  .                 GL:   PERMANENT DATUM
 EPD .F              5062:   ELEVATION PERMANENT DATUM
 LMF .                 KB:   LOG MEASURED FROM
 DAPD.F                 4:   FEET ABOVE PERMANENT DATUM
 DMF .                 KB:   DRILLING MEASURED FROM
 EKB .F              5066:   KELLING BUSHING
 EGL .F              5062:   GROUND LEVEL
 DATE.             9-6-78:   RUN DATE
 RUN .                  1:   RUN NUMBER
 DD  .F               865:   DEPTH DRILLER
 DL  .F               857:   DEPTH LOGGER
 BLI .F               851:   BOTTOM LOG INTERVAL
 TLI .F                40:   TOP LOG INTERVAL
 CS  .IN            8.625:   CASING SIZE
 CBD .F                43:   CASING BOTTOM DRILLER
 CBL .F                43:   CASING BOTTOM LOGGER
 BS  .IN            7.875:   BIT SIZE
 BSD .F               865:   BIT SIZE AT DEPTH
 DFT .                KCL:   DRILLING FLUID TYPE
 DFD .                8.4:   DRILLING FLUID DENSITY
 DFV .                 40:   DRILLING FLUID VISCOSITY
 DFPH.                  9:   DRILLING FLUID PH
 DFL .                  6:   DRILLING FLUID LOSS
 MSS .           FLOWLINE:   MUD SAMPLE SOURCE
 RMS .OHMM            .14:   RESISTIVITY MUD SAMPLE
 MST .F                84:   MUD SAMPLE TEMPERATURE
 RMF .OHMM             .1:   RESISTIVITY MUD FILTRATE SAMPLE
 MFST.F                94:   MUD FILTRATE SAMPLE TEMPERATURE
 RMC .OHMM            .18:   RESISTIVITY MUD CAKE
 MCST.F                92:   MUD CAKE SAMPLE TEMPERATURE
 MFSS.               MEAS:   MUD FILTRATE SAMPLE SOURCE
 MCSS.               MEAS:   MUD CAKE SAMPLE SOURCE
 RMB .OHMM           .145:   RESISTIVITY MUD AT BHT
 BHT .F                82:   BOTTOM HOLE TEMPERATURE
 TCS .HRS               3:   TIME CURCULATED STOPPED
 MRT .F                82:   MAXIMUM RECORDED TEMPERATURE
 LUN .               2958:   LOGGING UNIT NUMBER
 LUL .               CASP:   LOGGING UNIT LOCATION
 ENGI.           REYNOLDS:   RECORDING ENGINEER
 WITN.           MCGINLEY:   WITNESSED BY
 CLNT.            A2DTECH:   CLIENT CODE
 ORIG.           5" PRINT:   ORIGIN OF DATA
 UWI .       490251069600:   UNIQUE WELL ID
 DICO. A2D Technologies, Inc.:   DIGITIZING COMPANY
~OTHER INFORMATION
~A   DEPT      SPR         SN        ILD       NPHI         GRD      CALD       RHOB       DPHI       CORR   
# ...
  612.0000   -78.9312     5.9058     3.8915     0.4985    96.5729     7.7151     2.5020     0.1221     0.0039
  612.5000   -78.3140     6.0716     4.0026     0.4681    97.9234     7.6663     2.4940     0.1193     0.0035
  613.0000   -78.1640     6.3985     4.0719     0.4621    99.2664     7.5472     2.4866     0.1148     0.0028
  613.5000   -78.1602     6.7724     4.3023     0.4584    97.1880     7.4299     2.4868     0.1104     0.0096
  614.0000   -78.1619     7.0837     4.8755     0.4584    94.7574     7.3768     2.4926     0.1090     0.0195
  614.5000   -78.1628     7.1714     5.4178     0.4657    93.6353     7.4722     2.4983     0.1189     0.0297
  615.0000   -78.1703     7.2602     6.0967     0.4707    93.4386     7.5785     2.5011     0.1197     0.0372
  615.5000   -77.7915     7.3245     6.0619     0.4764    92.2653     7.6881     2.4948     0.1109     0.0534
  616.0000   -77.2962     7.4601     6.0113     0.4880    91.6019     7.7049     2.4902     0.1040     0.0689
  616.5000   -76.7943     7.6355     5.9858     0.4983    94.2757     7.6640     2.5016     0.0970     0.0769
  617.0000   -76.5847     7.7999     6.0413     0.5003    96.1725     7.6226     2.5129     0.0896     0.0732
  617.5000   -76.5807     7.8813     6.0967     0.4954    96.7581     7.5811     2.5240     0.1052     0.0600
  618.0000   -76.5837     7.8825     5.7367     0.4887    96.8434     7.5457     2.5357     0.1036     0.0459
  618.5000   -76.4482     7.8081     5.1687     0.4918    96.4753     7.5113     2.5370     0.1011     0.0459
  619.0000   -75.5822     7.7057     5.1828     0.4904    95.4031     7.4769     2.5198     0.0987     0.0534
  619.5000   -75.1772     7.5982     5.1954     0.4832    94.2199     7.4425     2.5120     0.0973     0.0609
  620.0000   -75.1231     7.6475     5.2080     0.4626    95.0881     7.4078     2.5261     0.0984     0.0609
  620.5000   -75.0771     7.7006     5.2207     0.4353    96.1864     7.3746     2.5314     0.0989     0.0586
  621.0000   -75.0318     7.7547     5.2334     0.4102    96.8000     7.4055     2.5193     0.0983     0.0567
  621.5000   -74.9858     7.8099     5.2461     0.4114    94.3138     7.4430     2.5226     0.0976     0.0543
  622.0000   -74.9399     7.7322     5.2589     0.4451    91.5517     7.4805     2.5260     0.1007     0.0498
  622.5000   -74.8939     7.6507     5.2644     0.4814    90.7051     7.5179     2.5270     0.1155     0.0443
  623.0000   -74.8479     7.5703     5.1374     0.4758    92.0310     7.5553     2.5192     0.1356     0.0407
  623.5000   -74.8019     7.4909     4.9826     0.4653    94.6801     7.5926     2.4960     0.1444     0.0442
  624.0000   -74.7560     7.4123     4.7023     0.4568    97.2609     7.6302     2.4721     0.1329     0.0417
  624.5000   -74.7099     7.3345     4.4179     0.4580    99.1853     7.6677     2.4534     0.1213     0.0350
  625.0000   -74.6636     7.2576     4.1511     0.4919   100.4693     7.6921     2.4636     0.1096     0.0291
  625.5000   -74.6109     6.9986     3.9004     0.4814   100.0819     7.7337     2.4817     0.1026     0.0231
  626.0000   -74.8589     6.7474     3.8502     0.4740    98.4749     7.7685     2.5000     0.1031     0.0190
  626.5000   -75.2162     6.5069     3.8413     0.4758    97.1777     8.0791     2.5184     0.1038     0.0169
  627.0000   -75.5741     6.3246     3.8324     0.4745    96.6254     8.0800     2.5215     0.1146     0.0150
  627.5000   -75.4417     6.4417     3.8236     0.4645    96.0453     7.6628     2.5209     0.1249     0.0149
  628.0000   -75.2729     6.5156     3.8186     0.4629    96.6656     7.6898     2.5068     0.1414     0.0153
  628.5000   -75.2445     6.5881     3.9037     0.4834    98.2531     7.7170     2.4905     0.1574     0.0189
  629.0000   -75.3773     6.6615     3.9643     0.4979    98.4847     7.7434     2.4746     0.1736     0.0209
  629.5000   -75.5099     6.7357     3.9978     0.5009    97.1809     7.7690     2.4468     0.1854     0.0230
  630.0000   -75.6431     6.8062     3.8186     0.4914    95.8582     7.7754     2.4173     0.1638     0.0214
  630.5000   -75.7759     6.5648     3.5198     0.4868    95.1462     7.7895     2.3876     0.1429     0.0155
  631.0000   -75.9073     6.2951     3.2592     0.4946    94.5675     7.7901     2.3835     0.1222     0.0129
  631.5000   -75.9600     6.0365     3.1495     0.5293    94.0539     7.7909     2.4171     0.1106     0.0130
  632.0000   -75.8846     5.7885     3.1495     0.5624    94.8189     7.8312     2.4477     0.1072     0.0129
  632.5000   -75.8111     5.6020     3.1207     0.5952    95.5164     7.9290     2.4781     0.1050     0.0130
  633.0000   -75.7376     5.5623     3.1284     0.5992    93.9155     7.8168     2.5075     0.1048     0.0130
  633.5000   -75.6653     5.5623     3.1395     0.5984    92.2386     7.7092     2.5175     0.1046     0.0130
  634.0000   -75.5818     5.6135     3.1785     0.5604    90.5719     7.7042     2.5159     0.1013     0.0141
  634.5000   -75.2698     5.9254     3.4191     0.5103    88.8879     7.6965     2.5143     0.0974     0.0164
  635.0000   -74.9557     6.2919     3.8738     0.5103    89.6288     7.6887     2.5188     0.0974     0.0185
  635.5000   -74.6436     6.6759     4.3890     0.5103    91.0474     7.6808     2.5249     0.0996     0.0206
  636.0000   -74.6348     6.9282     4.9003     0.4747    91.1089     7.6729     2.5309     0.1036     0.0228
  636.5000   -74.6705     7.0325     5.0336     0.4256    90.8721     7.6650     2.5270     0.1104     0.0234
  637.0000   -74.7067     7.1420     5.1219     0.4078    92.5839     7.6572     2.5167     0.1173     0.0262
  637.5000   -74.7424     7.2586     4.7231     0.4078    94.7859     7.6518     2.5062     0.1134     0.0281
  638.0000   -74.7779     7.2581     4.4465     0.4238    97.0113     7.6568     2.4960     0.1061     0.0220
  638.5000   -74.8135     7.2247     4.3726     0.4358    98.7476     7.6616     2.4960     0.0988     0.0165
  639.0000   -74.8491     7.1901     4.3558     0.4481    97.1404     7.6664     2.5064     0.0938     0.0124
  639.5000   -74.8847     7.1559     4.3419     0.4500    95.0381     7.6711     2.5168     0.0959     0.0110
  640.0000   -74.9204     7.1218     4.3645     0.4471    95.1451     7.6638     2.5269     0.0985     0.0094
  640.5000   -74.9568     7.0879     4.3878     0.4415    97.5885     7.6554     2.5313     0.1002     0.0083
  641.0000   -75.0018     7.0606     4.4112     0.4299    98.3470     7.6471     2.5255     0.0982     0.0077
  641.5000   -74.5920     7.1385     4.4348     0.4205    98.3724     7.6388     2.5199     0.0956     0.0071
  642.0000   -74.0581     7.2714     4.4585     0.4201    97.2759     7.6304     2.5156     0.0930     0.0069
  642.5000   -73.5726     7.4069     4.6808     0.4205    95.3874     7.6221     2.5254     0.0955     0.0071
  643.0000   -73.3715     7.5449     5.0267     0.4327    93.7790     7.6138     2.5303     0.0966     0.0049
  643.5000   -73.1232     7.6854     5.4001     0.4473    92.6436     7.6055     2.5287     0.0960     0.0050
  644.0000   -72.8727     7.8102     5.8003     0.4562    92.4418     7.5972     2.5274     0.0952     0.0050
  644.5000   -72.6367     7.9190     6.0410     0.4560    93.5598     7.5889     2.5277     0.0945     0.0071
  645.0000   -72.6797     8.0263     6.0293     0.4288    97.5087     7.5806     2.5285     0.0937     0.0070
  645.5000   -72.7341     8.1351     6.0179     0.4348    99.7008     7.5723     2.5292     0.0951     0.0070
  646.0000   -72.7861     8.2453     6.0066     0.4459    97.5016     7.5640     2.5299     0.0980     0.0073
  646.5000   -72.7918     8.3282     5.9953     0.4536    94.1710     7.5559     2.5287     0.0977     0.0088
  647.0000   -72.6193     8.3164     5.9840     0.4606    90.8723     7.5321     2.5249     0.0957     0.0102
  647.5000   -72.4506     8.2980     5.9728     0.4676    89.3413     7.5009     2.5250     0.0937     0.0114
  648.0000   -72.5265     8.2797     5.9615     0.4745    89.9919     7.4694     2.5278     0.0917     0.0129
