~VERSION INFORMATION
 VERS.                2.0:   CWLS LOG ASCII STANDARD - VERSION 2.0
 WRAP.                 NO:   ONE LINE PER DEPTH STEP
~WELL INFORMATION
#MNEM.UNIT      DATA TYPE    INFORMATION
#----------   ------------   ------------------------------
 STRT.F            0.0000:   START DEPTH
 STOP.F          633.0000:   STOP DEPTH
 STEP.F            0.5000:   STEP LENGTH
 NULL.          -999.2500:   NO VALUE
 COMP.       F D SERV INC:   COMPANY
 WELL.    82-1 SX-3 #82-3:   WELL
 FLD .          NPR NO. 3:   FIELD
 LOC .       S3 T38N R78W:   LOCATION
 CNTY.            NATRONA:   COUNTY
 STAT.            WYOMING:   STATE
 CTRY. UNITED STATES OF AMERICA:   COUNTRY
 SRVC.     Atlas Wireline:   SERVICE COMPANY
 DATE.        14-APR-1992:   LOGDATE
 API .       490252250600:   API NUMBER
~CURVE INFORMATION
#MNEM.UNIT       API CODE    CURVE DESCRIPTION
#----------   ------------   ------------------------------
 DEPT.F                  :   
 GRR .GAPI   07 310 01 00:   GAMMA RAY FROM RES
 RILD.OHMM   07 120 46 00:   INDUCTION LOG DEEP RESISTIVITY
 RILM.OHMM   07 120 44 00:   INDUCTION LOG MEDIUM RESISTIVITY
~PARAMETER INFORMATION
#MNEM.UNIT          VALUE    DESCRIPTION
#----------   ------------   ------------------------------
 PD  .                 GL:   PERMANENT DATUM
 EPD .F              5120:   ELEVATION PERMANENT DATUM
 LMF .                 KB:   LOG MEASURED FROM
 DAPD.F                 5:   FEET ABOVE PERMANENT DATUM
 DMF .                 KB:   DRILLING MEASURED FROM
 EKB .F              5125:   KELLING BUSHING
 EDF .F              5124:   DRILLING FLOOR
 EGL .F              5120:   GROUND LEVEL
 DATE.        14-APR-1992:   RUN DATE
 RUN .                  1:   RUN NUMBER
 DD  .F               640:   DEPTH DRILLER
 DL  .F               636:   DEPTH LOGGER
 BLI .F               633:   BOTTOM LOG INTERVAL
 CS  .IN            8.625:   CASING SIZE
 CBD .F                43:   CASING BOTTOM DRILLER
 CBL .F                42:   CASING BOTTOM LOGGER
 BS  .IN            7.875:   BIT SIZE
 BSD .F               640:   BIT SIZE AT DEPTH
 DFT .                AIR:   DRILLING FLUID TYPE
 LUN .           HL- 6321:   LOGGING UNIT NUMBER
 LUL .        RK. SPRINGS:   LOGGING UNIT LOCATION
 ENGI.            TRIBBLE:   RECORDING ENGINEER
 WITN.             STRONG:   WITNESSED BY
 CLNT.            A2DTECH:   CLIENT CODE
 ORIG.           5" PRINT:   ORIGIN OF DATA
 UWI .       490252250600:   UNIQUE WELL ID
 DICO. A2D Technologies, Inc.:   DIGITIZING COMPANY
~OTHER INFORMATION
~A    DEPT     GRR       RILD       RILM   
# ...
  273.0000   115.3850     8.1917     8.0518
  273.5000   112.6370     8.2498     8.1653
  274.0000   112.0154     8.3666     8.2226
  274.5000   115.0199     8.4852     8.2804
  275.0000   116.2121     8.4857     8.3386
  275.5000   114.9784     8.4863     8.3386
  276.0000   112.5092     8.4870     8.3386
  276.5000   111.6037     8.4876     8.3386
  277.0000   115.5172     8.4882     8.2804
  277.5000   115.1934     8.4294     8.2804
  278.0000   114.5667     8.3712     8.2735
  278.5000   114.8542     8.3134     8.1653
  279.0000   113.9192     8.2560     8.1084
  279.5000   111.4742     8.2567     8.1084
  280.0000   108.7262     8.1997     8.1084
  280.5000   108.4025     8.1430     8.0518
  281.0000   111.1091     8.0869     8.0518
  281.5000   114.1727     8.0875     7.9956
  282.0000   117.7291     8.0880     7.9956
  282.5000   118.3196     8.0886     8.0518
  283.0000   113.1422     8.0891     8.0518
  283.5000   109.7882     8.0897     8.0518
  284.0000   111.8887     8.0902     8.0518
  284.5000   117.0195     8.0908     8.0518
  285.0000   120.3321     8.0913     8.0518
  285.5000   120.6152     8.0919     8.0518
  286.0000   121.8059     8.0926     8.0518
  286.5000   123.3343     8.0931     8.0518
  287.0000   124.5374     8.0372     8.0518
  287.5000   124.1628     8.0378     7.9956
  288.0000   121.4148     7.9821     7.9399
  288.5000   117.1517     7.9828     7.9399
  289.0000   114.4037     7.9276     7.9399
  289.5000   113.7821     7.8729     7.7749
  290.0000   116.7865     7.8186     7.6668
  290.5000   118.8870     7.7050     7.5603
  291.0000   118.2602     7.4459     7.4032
  291.5000   114.5888     7.1903     7.1486
  292.0000   112.1212     6.9435     6.8062
  292.5000   111.2284     6.6585     6.5674
  293.0000   112.7177     6.4299     6.3025
  293.5000   114.2121     6.2968     6.1715
  294.0000   114.8026     6.2096     6.1285
  294.5000   112.9586     6.1668     6.1285
  295.0000   107.4833     6.1672     6.2149
  295.5000   106.8565     6.2153     6.2585
  296.0000   108.0479     6.3433     6.3467
  296.5000   113.4818     6.5238     6.4814
  297.0000   117.4263     6.7566     6.7144
  297.5000   115.8594     6.9489     6.9174
  298.0000   109.4751     7.1968     7.1486
  298.5000   107.0353     7.3501     7.3003
  299.0000   111.2518     7.4022     7.3516
  299.5000   113.0493     7.4027     7.3516
  300.0000   112.7885     7.3516     7.3003
  300.5000   110.5923     7.4032     7.3003
  301.0000   111.1866     7.3516     7.1988
  301.5000   114.8111     7.2494     7.1988
  302.0000   117.8296     7.1486     7.0988
  302.5000   119.9390     7.0988     7.0001
  303.0000   121.1394     7.0447     6.9028
  303.5000   120.1555     6.9513     6.8068
  304.0000   116.5674     6.8068     6.6654
  304.5000   115.9495     6.4362     6.4339
  305.0000   114.7256     6.0857     6.1572
  305.5000   115.0168     5.6348     5.7142
  306.0000   117.4293     5.2539     5.3280
  306.5000   121.0538     4.7970     4.8988
  307.0000   121.9515     4.6646     4.6320
  307.5000   120.1212     4.7303     4.6646
  308.0000   114.7314     4.8988     4.7970
  308.5000   106.1552     5.1089     5.0027
  309.0000   104.3252     5.2908     5.2246
  309.5000   106.7377     5.5955     5.5565
  310.0000   110.0592     5.9177     5.8355
  310.5000   112.4717     6.2585     6.1285
  311.0000   110.6417     6.6245     6.4362
  311.5000   106.9935     6.9028     6.7122
  312.0000   105.1636     7.0988     6.8546
  312.5000   110.1514     7.2494     7.0001
  313.0000   118.7734     7.4032     7.1486
  313.5000   122.3979     7.5075     7.2064
  314.0000   120.8710     7.6134     7.3516
  314.5000   118.7380     7.7211     7.4552
  315.0000   118.4232     7.8368     7.5603
  315.5000   119.3205     7.7749     7.6134
  316.0000   122.0359     7.8845     7.6668
  316.5000   126.8726     7.9956     7.7749
  317.0000   128.9820     8.0518     7.8295
  317.5000   126.5430     8.0518     7.8845
  318.0000   126.8343     8.1084     7.9399
  318.5000   127.4315     8.2226     7.9956
  319.0000   124.6895     8.2889     7.9956
  319.5000   116.7989     8.3971     8.1084
  320.0000   112.2416     8.3386     8.1653
  320.5000   111.5767     8.2804     8.2226
  321.0000   114.9453     8.2804     8.1653
  321.5000   118.9110     8.2804     8.1653
  322.0000   121.0869     8.2226     8.1084
  322.5000   123.3918     8.2226     8.1084
  323.0000   123.3800     8.2226     8.0518
  323.5000   122.1561     8.1653     8.0518
  324.0000   120.6292     8.1653     7.9956
  324.5000   119.1022     8.1084     7.9956
  325.0000   116.6662     8.0518     7.9399
  325.5000   113.6241     7.9956     7.8845
  326.0000   110.2788     7.8295     7.6633
  326.5000   112.2828     7.6134     7.4032
  327.0000   116.9191     7.4462     7.1988
  327.5000   116.6042     7.1988     7.0492
  328.0000   116.8955     6.9513     6.8068
  328.5000   119.6110     6.6189     6.4814
  329.0000   123.5386     6.2149     6.0433
  329.5000   125.0424     5.5955     5.4792
  330.0000   124.1210     4.8646     4.9332
  330.5000   123.5030     4.1023     4.1795
  331.0000   122.5354     3.4523     3.5010
  331.5000   119.2342     2.9185     3.0866
  332.0000   114.0709     2.5911     2.6093
  332.5000   112.2409     2.4160     2.4160
  333.0000   111.9261     2.3166     2.2844
  333.5000   111.3082     2.2527     2.2844
  334.0000   109.1752     2.2214     2.3493
  334.5000   103.4058     2.2381     2.4168
  335.0000    99.7577     2.3991     2.5109
  335.5000   106.1973     2.6277     2.7790
  336.0000   119.1251     2.8982     3.1521
  336.5000   125.4769     3.4766     3.6004
  337.0000   127.8894     4.0553     4.0838
  337.5000   130.9079     4.5997     4.5358
  338.0000   132.4112     5.1809     5.0732
  338.5000   131.1873     5.6058     5.6348
  339.0000   128.4482     6.1285     6.0475
  339.5000   126.9212     6.3467     6.2585
  340.0000   127.8990     6.4814     6.3025
  340.5000   130.2281     6.4814     6.3913
  341.0000   131.7314     6.4814     6.3913
  341.5000   132.3286     6.4362     6.3467
  342.0000   130.1927     6.2585     6.2149
  342.5000   127.1496     6.0773     5.9593
  343.0000   125.0166     5.7142     5.6718
  343.5000   124.7018     5.2908     5.2743
  344.0000   124.6900     5.0027     4.8988
  344.5000   125.8903     4.7303     4.6320
  345.0000   128.6058     4.5997     4.4727
  345.5000   130.1091     4.4727     4.4106
  346.0000   128.5818     4.4415     4.3798
  346.5000   129.7795     4.4106     4.3798
  347.0000   130.9828     4.4727     4.3798
  347.5000   129.4529     4.5997     4.4754
  348.0000   126.4108     4.7635     4.7303
  348.5000   127.0051     5.0027     5.0732
  349.0000   130.9327     5.2173     5.4031
  349.5000   134.5573     5.4031     5.6744
  350.0000   131.8182     5.7142     5.9378
  350.5000   128.7775     6.0045     6.2629
  351.0000   128.1626     6.3176     6.5269
  351.5000   127.2446     6.7107     6.7594
  352.0000   123.2963     6.9980     6.9513
  352.5000   119.3480     7.1962     7.0492
  353.0000   116.6119     7.2973     7.1486
  353.5000   115.3909     7.2967     7.1988
  354.0000   116.3394     7.2962     7.1988
  354.5000   121.4976     7.2448     7.1988
  355.0000   129.3014     7.0938     7.1486
  355.5000   132.3228     6.9947     6.9952
  356.0000   131.7079     6.7973     6.8068
  356.5000   130.4869     6.6051     6.5728
  357.0000   134.1144     6.4298     6.3913
  357.5000   137.1358     6.1650     6.1285
  358.0000   136.2178     5.8289     5.7948
  358.5000   134.6938     5.4345     5.4410
  359.0000   132.5596     5.1024     5.0027
  359.5000   131.3101     4.8581     4.5676
  360.0000   131.6346     4.6907     4.1997
  360.5000   134.9590     4.6577     4.0838
  361.0000   142.5259     4.6901     4.3493
  361.5000   145.8504     4.7227     4.6973
  362.0000   142.5081     4.7890     4.9678
  362.5000   142.1962     4.9246     5.2539
  363.0000   142.4926     5.2077     5.5955
  363.5000   140.9664     5.7434     5.9593
