~VERSION INFORMATION
 VERS.                2.0:   CWLS LOG ASCII STANDARD - VERSION 2.0
 WRAP.                 NO:   ONE LINE PER DEPTH STEP
~WELL INFORMATION
#MNEM.UNIT      DATA TYPE    INFORMATION
#----------   ------------   ------------------------------
 STRT.F            1.0000:   START DEPTH
 STOP.F          755.5000:   STOP DEPTH
 STEP.F            0.5000:   STEP LENGTH
 NULL.          -999.2500:   NO VALUE
 COMP. FENIX & SCISSON INC:   COMPANY
 WELL.       25-SX #25-14:   WELL
 FLD .        TEAPOT DOME:   FIELD
 LOC .      S14 T38N R78W:   LOCATION
 CNTY.            NATRONA:   COUNTY
 STAT.            WYOMING:   STATE
 CTRY. UNITED STATES OF AMERICA:   COUNTRY
 SRVC.           BIRDWELL:   SERVICE COMPANY
 DATE.        29-DEC-1978:   LOGDATE
 API .       490251076000:   API NUMBER
~CURVE INFORMATION
#MNEM.UNIT       API CODE    CURVE DESCRIPTION
#----------   ------------   ------------------------------
 DEPT.F                  :   
 SPR .MV     05 010 01 00:   SPONTANEOUS POTENTIAL FROM RES.
 SN  .OHMM   05 040 16 00:   SHORT NORMAL 16"
 IL  .OHMM   05 120 00 00:   INDUCTION LOG
 CALD.IN     45 280 60 00:   CALIPER
 GRD .GAPI   45 310 01 00:   GAMMA RAY FROM DENSITY LOG
 CORR.G/C3   45 356 01 00:   DENSITY CORRECTION
 DPHI.DEC    45 890 12 00:   DENSITY POROSITY SANDSTONE
 RHOB.G/C3   45 350 01 00:   BULK DENSITY
~PARAMETER INFORMATION
#MNEM.UNIT          VALUE    DESCRIPTION
#----------   ------------   ------------------------------
 PD  .                 GL:   PERMANENT DATUM
 EPD .F              5214:   ELEVATION PERMANENT DATUM
 LMF .                 KB:   LOG MEASURED FROM
 DAPD.F                 4:   FEET ABOVE PERMANENT DATUM
 DMF .                 KB:   DRILLING MEASURED FROM
 EKB .F              5218:   KELLING BUSHING
 EGL .F              5214:   GROUND LEVEL
 DATE.           12-29-79:   RUN DATE
 RUN .                  1:   RUN NUMBER
 DD  .F               765:   DEPTH DRILLER
 DL  .F               747:   DEPTH LOGGER
 BLI .F               740:   BOTTOM LOG INTERVAL
 TLI .F                40:   TOP LOG INTERVAL
 CS  .IN            8.625:   CASING SIZE
 CBD .F                40:   CASING BOTTOM DRILLER
 CBL .F                40:   CASING BOTTOM LOGGER
 BS  .IN            7.875:   BIT SIZE
 BSD .F               765:   BIT SIZE AT DEPTH
 DFT .                KCL:   DRILLING FLUID TYPE
 DFD .                8.8:   DRILLING FLUID DENSITY
 DFV .                 48:   DRILLING FLUID VISCOSITY
 DFPH.                9.2:   DRILLING FLUID PH
 MSS .           FLOWLINE:   MUD SAMPLE SOURCE
 RMS .OHMM            .17:   RESISTIVITY MUD SAMPLE
 MST .F                56:   MUD SAMPLE TEMPERATURE
 RMF .OHMM            .15:   RESISTIVITY MUD FILTRATE SAMPLE
 MFST.F                56:   MUD FILTRATE SAMPLE TEMPERATURE
 RMC .OHMM            .23:   RESISTIVITY MUD CAKE
 MCST.F                64:   MUD CAKE SAMPLE TEMPERATURE
 MFSS.           MEASURED:   MUD FILTRATE SAMPLE SOURCE
 MCSS.           MEASURED:   MUD CAKE SAMPLE SOURCE
 RMB .OHMM            .16:   RESISTIVITY MUD AT BHT
 BHT .F                59:   BOTTOM HOLE TEMPERATURE
 TCS .HRS              12:   TIME CURCULATED STOPPED
 MRT .F                59:   MAXIMUM RECORDED TEMPERATURE
 LUN .               2958:   LOGGING UNIT NUMBER
 LUL .             CASPER:   LOGGING UNIT LOCATION
 ENGI.            ROLLINS:   RECORDING ENGINEER
 WITN.         RICHARDSON:   WITNESSED BY
 CLNT.            A2DTECH:   CLIENT CODE
 ORIG.           5" PRINT:   ORIGIN OF DATA
 UWI .       490251076000:   UNIQUE WELL ID
 DICO. A2D Technologies, Inc.:   DIGITIZING COMPANY
~OTHER INFORMATION
~A    DEPT     SPR         SN         IL       CALD         GRD      CORR       DPHI       RHOB   
# ...
  689.5000   -76.2470     7.4330     6.7020     6.8990    89.8230     0.0170     0.1260     2.4690
  690.0000   -76.5280     7.4370     6.7020     6.8940    89.9920     0.0200     0.1240     2.4670
  690.5000   -76.6950     7.4410     6.7020     6.8900    89.9990     0.0230     0.1260     2.4620
  691.0000   -76.8640     7.4450     6.7020     6.8850    90.0000     0.0260     0.1290     2.4610
  691.5000   -77.0310     7.4490     6.7020     6.8810    90.0010     0.0290     0.1290     2.4630
  692.0000   -77.0540     7.4530     6.7020     6.8760    89.9960     0.0310     0.1280     2.4670
  692.5000   -77.0550     7.4570     6.7020     6.8680    90.3150     0.0280     0.1270     2.4680
  693.0000   -77.0500     7.4610     6.7020     6.8460    90.7860     0.0280     0.1250     2.4660
  693.5000   -77.3020     7.4650     6.7020     6.8240    91.0710     0.0300     0.1240     2.4640
  694.0000   -77.6640     7.4690     6.7020     6.8030    91.3610     0.0310     0.1200     2.4640
  694.5000   -77.9640     7.4730     6.7020     6.8060    91.6530     0.0300     0.1170     2.4680
  695.0000   -78.1920     7.4770     6.7020     6.8310    91.9480     0.0300     0.1140     2.4720
  695.5000   -78.4200     7.4810     6.7020     6.8550    92.2450     0.0290     0.1110     2.4760
  696.0000   -78.6490     7.4850     6.7020     6.8790    93.0210     0.0300     0.1090     2.4810
  696.5000   -78.8540     7.4880     6.7020     6.9040    94.5940     0.0330     0.1070     2.4850
  697.0000   -78.8610     7.4880     6.7020     6.9100    95.2270     0.0360     0.1040     2.4890
  697.5000   -78.9130     7.4880     6.7020     6.9050    95.0820     0.0380     0.1030     2.4970
  698.0000   -79.1270     7.4880     6.7020     6.8990    94.9490     0.0410     0.1020     2.4990
  698.5000   -79.3370     7.4840     6.7020     6.8940    94.8090     0.0410     0.1090     2.4990
  699.0000   -79.5450     7.4119     6.6980     6.8890    95.9810     0.0410     0.1160     2.4970
  699.5000   -79.7540     7.4119     6.6840     6.8830    97.2080     0.0410     0.1250     2.4910
  700.0000   -79.9120     7.4119     6.6690     6.8780    96.9180     0.0350     0.1240     2.4770
  700.5000   -80.0180     7.4119     6.6550     6.8720    96.2660     0.0270     0.1230     2.4680
  701.0000   -80.1240     7.4119     6.6410     6.8580    94.8240     0.0270     0.1210     2.4670
  701.5000   -80.2280     7.4119     6.6270     6.8440    93.9180     0.0300     0.1190     2.4700
  702.0000   -80.5100     7.4880     6.6130     6.8300    94.3640     0.0360     0.1170     2.4780
  702.5000   -80.8550     7.4880     6.5980     6.8150    93.3960     0.0430     0.1150     2.4920
  703.0000   -81.2020     7.4880     6.5820     6.8550    92.2890     0.0510     0.1140     2.4960
  703.5000   -81.5490     7.4880     6.5610     6.9100    93.0490     0.0540     0.1120     2.4930
  704.0000   -81.8960     7.4880     6.5400     6.9320    93.7800     0.0460     0.1120     2.4910
  704.5000   -82.2620     7.4880     6.5190     6.9130    94.3460     0.0390     0.1150     2.4920
  705.0000   -82.8860     7.4880     6.4980     6.8030    94.6430     0.0520     0.1190     2.4930
  705.5000   -83.4910     7.4540     6.4770     6.6920    94.9560     0.0650     0.1270     2.4950
  706.0000   -83.5070     7.4080     6.4560     6.6890    95.1540     0.0660     0.1340     2.4850
  706.5000   -83.5370     7.3610     6.4350     6.7320    94.7420     0.0670     0.1410     2.4700
  707.0000   -83.5720     7.3150     6.4140     6.8180    94.3460     0.0680     0.1470     2.4540
  707.5000   -83.6060     7.2680     6.3930     6.8620    94.1980     0.0720     0.1360     2.4390
  708.0000   -83.6400     7.2220     6.3720     6.8950    95.7480     0.0720     0.1330     2.4310
  708.5000   -83.6860     7.1750     6.3440     6.9250    97.9890     0.0720     0.1320     2.4410
  709.0000   -83.7860     7.1290     6.3140     6.9100    96.7150     0.0710     0.1330     2.4490
  709.5000   -83.9500     7.0820     6.2840     6.9020    95.4230     0.0630     0.1340     2.4540
  710.0000   -84.4060     7.0360     6.2540     6.8950    95.0120     0.0580     0.1350     2.4540
  710.5000   -84.8570     6.9900     6.2240     6.8890    93.9800     0.0550     0.1280     2.4530
  711.0000   -84.9850     6.9430     6.1940     6.8820    92.2880     0.0530     0.1190     2.4630
  711.5000   -85.1000     6.8970     6.1640     6.8750    92.2310     0.0520     0.1110     2.4740
  712.0000   -85.2170     6.8500     6.1340     6.8680    93.3400     0.0510     0.1110     2.4860
  712.5000   -85.3320     6.8040     6.1040     6.8610    93.7270     0.0500     0.1130     2.4940
  713.0000   -85.4390     6.7570     6.0740     6.8550    93.8860     0.0490     0.1140     2.4870
  713.5000   -85.8240     6.7110     6.0330     6.8410    94.1060     0.0480     0.1160     2.4810
  714.0000   -86.2530     6.6560     5.9530     6.7140    98.8250     0.0470     0.1170     2.4780
  714.5000   -86.6850     6.6000     5.8730     6.6420   104.1910     0.0480     0.1160     2.4770
  715.0000   -87.1180     6.5430     5.7930     6.6720   103.7440     0.0480     0.1160     2.4770
  715.5000   -87.5510     6.4870     5.7140     6.7020   100.6340     0.0490     0.1150     2.4770
  716.0000   -87.9840     6.4300     5.6340     6.6540    96.1460     0.0440     0.1140     2.4800
  716.5000   -88.4170     6.3740     5.5540     6.5590    97.3090     0.0370     0.1150     2.4840
  717.0000   -88.8500     6.3170     5.4740     6.4650    99.3960     0.0350     0.1160     2.4850
  717.5000   -89.2830     6.2610     5.4610     6.4740    98.8900     0.0370     0.1170     2.4860
  718.0000   -89.7160     6.2070     5.4610     6.5010    98.4450     0.0380     0.1180     2.4860
  718.5000   -90.1490     6.0980     5.4020     6.5280    98.4590     0.0400     0.1190     2.4850
  719.0000   -90.5820     5.9950     5.2770     6.5130    98.7480     0.0410     0.1200     2.4820
  719.5000   -91.0150     5.8970     4.9450     6.4230   100.0060     0.0400     0.1210     2.4800
  720.0000   -91.4480     5.7280     4.5560     6.3780   102.9350     0.0390     0.1220     2.4790
  720.5000   -91.8800     5.5670     4.1910     6.3200   104.2760     0.0440     0.1270     2.4800
  721.0000   -92.2760     5.4070     4.0570     6.2990   106.8640     0.0500     0.1330     2.4750
  721.5000   -92.2850     5.2470     4.0980     6.2800   109.2380     0.0570     0.1390     2.4680
  722.0000   -92.2840     5.0870     4.1520     6.2620   109.8320     0.0650     0.1510     2.4600
  722.5000   -92.2840     4.9710     4.2070     6.2430   115.4300     0.0730     0.1700     2.4540
  723.0000   -92.2850     5.2260     4.2610     6.2250   122.5040     0.0760     0.1720     2.4490
  723.5000   -92.2790     5.4350     4.3530     6.2040   129.1540     0.0760     0.1720     2.4240
  724.0000   -91.8360     5.7610     4.7080     6.1730   132.5350     0.0740     0.1680     2.3970
  724.5000   -91.3340     6.1820     5.0840     6.1410   128.4010     0.0730     0.1560     2.3900
  725.0000   -90.8310     6.6450     5.4600     6.1140   117.1070     0.0710     0.1450     2.4000
  725.5000   -90.3290     6.7890     5.7970     6.0900   105.8080     0.0750     0.1360     2.4200
  726.0000   -89.8300     6.9480     5.8640     6.0650    98.0980     0.0820     0.1320     2.4390
  726.5000   -89.2860     7.0660     5.9260     6.0410    99.1150     0.0870     0.1320     2.4590
  727.0000   -88.4240     7.1680     5.9870     6.0160   101.1350     0.0870     0.1330     2.4640
  727.5000   -88.0680     7.2700     6.0480     5.9920   103.3740     0.0900     0.1370     2.4560
  728.0000   -88.0500     7.3710     6.1090  -999.2500   106.0890     0.1000     0.1370     2.4540
  728.5000   -88.0280     7.4730     6.1700  -999.2500   107.3170     0.1080     0.1370     2.4540
  729.0000   -88.0050     7.5740     6.2310  -999.2500   107.1090     0.1150     0.1370     2.4540
  729.5000   -87.9840     7.6830     6.3070  -999.2500   106.3470     0.1230     0.1360     2.4530
