~VERSION INFORMATION
 VERS.                2.0:   CWLS LOG ASCII STANDARD - VERSION 2.0
 WRAP.                 NO:   ONE LINE PER DEPTH STEP
~WELL INFORMATION
#MNEM.UNIT      DATA TYPE    INFORMATION
#----------   ------------   ------------------------------
 STRT.F            4.0000:   START DEPTH
 STOP.F          584.0000:   STOP DEPTH
 STEP.F            0.1000:   STEP LENGTH
 NULL.          -999.2500:   NO VALUE
 COMP.       F D SERV INC:   COMPANY
 WELL. N P R 3 SX-3 #62-3:   WELL
 FLD .             TEAPOT:   FIELD
 LOC .       S3 T38N R78W:   LOCATION
 CNTY.            NATRONA:   COUNTY
 STAT.            WYOMING:   STATE
 CTRY. UNITED STATES OF AMERICA:   COUNTRY
 SRVC.     Atlas Wireline:   SERVICE COMPANY
 DATE.        17-APR-1992:   LOGDATE
 API .       490252251600:   API NUMBER
~CURVE INFORMATION
#MNEM.UNIT       API CODE    CURVE DESCRIPTION
#----------   ------------   ------------------------------
 DEPT.F                  :   
 GRR .GAPI   07 310 01 00:   GAMMA RAY
 RILD.OHMM   07 120 46 00:   INDUCTION LOG DEEP RESISTIVITY
 RILM.OHMM   07 120 44 00:   INDUCTION LOG MEDIUM RESISTIVITY
~PARAMETER INFORMATION
#MNEM.UNIT          VALUE    DESCRIPTION
#----------   ------------   ------------------------------
 PD  .                 GL:   PERMANENT DATUM
 EPD .F              5135:   ELEVATION PERMANENT DATUM
 LMF .                 KB:   LOG MEASURED FROM
 DAPD.F                 5:   FEET ABOVE PERMANENT DATUM
 DMF .                 KB:   DRILLING MEASURED FROM
 EKB .F              5140:   KELLING BUSHING
 EDF .F              5139:   DRILLING FLOOR
 EGL .F              5135:   GROUND LEVEL
 DATE.        17-APR-1992:   RUN DATE
 RUN .                  1:   RUN NUMBER
 DD  .F               589:   DEPTH DRILLER
 DL  .F               590:   DEPTH LOGGER
 BLI .F               584:   BOTTOM LOG INTERVAL
 TLI .F                48:   TOP LOG INTERVAL
 CS  .IN            8.625:   CASING SIZE
 CBD .F                48:   CASING BOTTOM DRILLER
 CBL .F                48:   CASING BOTTOM LOGGER
 BS  .IN            7.875:   BIT SIZE
 BSD .F               589:   BIT SIZE AT DEPTH
 DFT .                AIR:   DRILLING FLUID TYPE
 TCS .HRS               2:   TIME CURCULATED STOPPED
 MRT .F                85:   MAXIMUM RECORDED TEMPERATURE
 LUN .            HL-6274:   LOGGING UNIT NUMBER
 LUL .             CASPER:   LOGGING UNIT LOCATION
 ENGI.             RAUTIO:   RECORDING ENGINEER
 WITN.        GARY STRONG:   WITNESSED BY
 CLNT.            A2DTECH:   CLIENT CODE
 ORIG.           5" PRINT:   ORIGIN OF DATA
 UWI .       490252251600:   UNIQUE WELL ID
 DICO. A2D Technologies, Inc.:   DIGITIZING COMPANY
~OTHER INFORMATION
~A    DEPT      GRR      RILD       RILM   
# ...
  277.0000   120.2875     8.7768     8.6760
  277.1000   120.2862     8.7757     8.6313
  277.2000   120.2251     8.7746     8.6305
  277.3000   119.9713     8.7735     8.5854
  277.4000   119.9700     8.7724     8.5023
  277.5000   119.7656     8.7713     8.4494
  277.6000   119.5083     8.7701     8.4487
  277.7000   119.0708     8.7691     8.4480
  277.8000   118.3688     8.7680     8.4472
  277.9000   118.0886     8.7669     8.4466
  278.0000   117.6208     8.7657     8.4751
  278.1000   117.2844     8.7647     8.5044
  278.2000   117.0272     8.7634     8.5037
  278.3000   116.8338     8.7625     8.5029
  278.4000   116.8325     8.7614     8.5023
  278.5000   116.8310     8.7603     8.4658
  278.6000   117.0370     8.7591     8.4416
  278.7000   117.2919     8.7580     8.4264
  278.8000   117.6408     8.7570     8.3734
  278.9000   118.1515     8.7558     8.2643
  279.0000   118.6999     8.7547     8.2227
  279.1000   119.1733     8.7537     8.1749
  279.2000   119.6842     8.7477     8.1274
  279.3000   120.1950     8.6904     8.0903
  279.4000   120.7057     8.6895     8.0896
  279.5000   121.2167     8.6883     8.0889
  279.6000   121.8173     8.6872     8.0519
  279.7000   122.4495     8.6861     8.0312
  279.8000   123.0617     8.6851     8.0306
  279.9000   123.5725     8.6837     8.0237
  280.0000   124.0834     8.6828     7.9732
  280.1000   124.6237     8.6818     7.9726
  280.2000   124.8638     8.6617     7.9719
  280.3000   125.3033     8.6028     7.9713
  280.4000   125.6858     8.4984     7.9706
  280.5000   125.9407     8.4510     7.9700
  280.6000   126.1954     8.4371     7.9692
  280.7000   126.4911     8.4360     7.9305
  280.8000   126.7050     8.4201     7.9124
  280.9000   126.8012     8.3752     7.9117
  281.0000   126.9021     8.3740     7.9027
  281.1000   127.1568     8.3731     7.8553
  281.2000   127.4224     8.3402     7.8547
  281.3000   127.6664     8.2913     7.8202
  281.4000   127.9213     8.2426     7.7987
  281.5000   128.1761     8.1953     7.7838
  281.6000   128.4308     8.1941     7.7431
  281.7000   128.6857     8.1554     7.7424
  281.8000   128.9773     8.1352     7.7418
  281.9000   129.1953     8.0992     7.7114
  282.0000   129.4501     8.0128     7.6666
  282.1000   129.5988     7.9633     7.6117
  282.2000   129.5975     7.9624     7.5259
  282.3000   129.5962     7.9279     7.5251
  282.4000   129.3458     7.8581     7.4213
  282.5000   129.2813     7.7806     7.3431
  282.6000   129.1437     7.7351     7.3160
  282.7000   128.8065     7.6840     7.3153
  282.8000   128.3167     7.5684     7.3147
  282.9000   128.0261     7.5228     7.3141
  283.0000   127.3563     7.4836     7.2833
  283.1000   126.7533     7.3970     7.2620
  283.2000   126.2399     7.3120     7.2374
  283.3000   125.7267     7.2607     7.1570
  283.4000   125.2075     7.1606     7.1094
  283.5000   124.7000     7.0845     7.0741
  283.6000   124.3833     7.0131     7.0073
  283.7000   124.2662     6.8921     6.9434
  283.8000   124.2650     6.7665     6.8869
  283.9000   124.2911     6.6567     6.7673
  284.0000   124.5749     6.5420     6.6525
  284.1000   124.8007     6.4292     6.4813
  284.2000   125.2259     6.3291     6.3571
  284.3000   125.6227     6.2559     6.2840
  284.4000   125.8776     6.1741     6.2116
  284.5000   126.1323     6.0816     6.1334
  284.6000   126.3871     5.9993     6.1330
  284.7000   126.4412     5.9151     6.0842
  284.8000   126.4400     5.8056     5.9820
  284.9000   126.4388     5.6732     5.8039
  285.0000   126.4063     5.6077     5.5132
  285.1000   126.1236     5.4926     5.2936
  285.2000   126.1225     5.3494     5.1221
  285.3000   126.1213     5.2077     4.9368
  285.4000   126.1200     5.0840     4.7794
  285.5000   126.1801     4.9302     4.6480
  285.6000   126.4348     4.7223     4.5374
  285.7000   126.6898     4.5655     4.4385
  285.8000   126.9447     4.4102     4.3375
  285.9000   127.1994     4.2353     4.1890
  286.0000   127.3625     4.0634     4.0277
  286.1000   127.3612     3.8307     3.9357
  286.2000   127.3599     3.7735     3.8348
  286.3000   127.1241     3.7224     3.7585
  286.4000   126.8667     3.6702     3.6729
  286.5000   126.4873     3.6023     3.6072
  286.6000   126.0395     3.5195     3.5611
  286.7000   125.7823     3.3999     3.4973
  286.8000   125.4773     3.2118     3.1571
  286.9000   125.2677     3.0838     3.0171
  287.0000   125.1625     3.0195     2.9220
  287.1000   125.2568     2.9749     2.8340
  287.2000   125.4727     2.9745     2.7715
  287.3000   125.4712     2.9267     2.7204
  287.4000   125.4700     2.9001     2.6490
  287.5000   125.4687     2.8665     2.6053
  287.6000   125.4675     2.8264     2.5899
  287.7000   125.4663     2.8098     2.5856
  287.8000   125.4650     2.7911     2.5715
  287.9000   125.4635     2.7633     2.5712
  288.0000   125.4625     2.7415     2.5710
  288.1000   125.3053     2.7254     2.5708
  288.2000   125.0479     2.7094     2.5706
  288.3000   124.7473     2.6935     2.5704
  288.4000   124.2074     2.6777     2.5701
  288.5000   123.4784     2.6621     2.5844
  288.6000   122.7089     2.6465     2.5877
  288.7000   121.5501     2.6310     2.5875
  288.8000   119.9396     2.6156     2.5873
  288.9000   118.1623     2.5991     2.5871
  289.0000   116.3873     2.5988     2.5868
  289.1000   115.9533     2.5985     2.5867
  289.2000   115.6001     2.5981     2.5764
  289.3000   115.4463     2.5978     2.5682
  289.4000   115.4450     2.5986     2.5680
  289.5000   115.4437     2.6154     2.5682
  289.6000   115.4425     2.6281     2.5855
  289.7000   115.4413     2.6429     2.5854
  289.8000   115.5737     2.6513     2.5940
  289.9000   115.8285     2.6609     2.6087
  290.0000   116.1039     2.7067     2.6235
  290.1000   116.6861     2.7220     2.6392
  290.2000   116.9054     2.7750     2.6534
  290.3000   117.4880     2.8393     2.6797
  290.4000   118.0400     2.8989     2.7266
  290.5000   118.2947     2.9514     2.7946
  290.6000   118.5550     3.0246     2.8769
  290.7000   119.0549     3.0731     2.9915
  290.8000   119.3717     3.1393     3.0514
  290.9000   121.0848     3.2214     3.1104
  291.0000   121.3624     3.3039     3.1642
  291.1000   121.8275     3.3649     3.2229
  291.2000   122.5147     3.5000     3.2976
  291.3000   123.2816     3.5694     3.3545
  291.4000   124.0489     3.6658     3.4126
  291.5000   124.8309     3.7817     3.5178
  291.6000   126.3548     3.9089     3.6466
  291.7000   127.5954     4.0226     3.7551
  291.8000   129.1302     4.1155     3.8977
  291.9000   131.0402     4.2301     4.0016
  292.0000   133.3745     4.3676     4.2735
  292.1000   134.4737     4.5015     4.5254
  292.2000   134.4725     4.6019     4.6688
  292.3000   134.6518     4.6875     4.7754
  292.4000   134.7825     4.7879     4.8720
  292.5000   134.7813     4.8787     4.9422
  292.6000   134.7688     4.9774     5.0098
  292.7000   134.4660     5.0842     5.0556
  292.8000   134.4650     5.1739     5.0843
  292.9000   134.4638     5.3117     5.1142
  293.0000   134.4625     5.4165     5.1709
  293.1000   134.4198     5.5420     5.2529
  293.2000   134.1474     5.6703     5.3604
  293.3000   134.1462     5.8013     5.5256
  293.4000   134.1450     5.9365     5.7701
  293.5000   134.1438     6.0385     5.9195
  293.6000   134.0708     6.1153     6.0100
  293.7000   133.8136     6.2056     6.0905
  293.8000   133.5148     6.3000     6.1764
  293.9000   133.5138     6.3721     6.2662
  294.0000   133.1957     6.4508     6.3018
  294.1000   132.8862     6.5188     6.3375
  294.2000   132.7943     6.5934     6.4030
  294.3000   132.2587     6.6499     6.4547
  294.4000   132.0126     6.7089     6.4776
  294.5000   131.7552     6.8175     6.4827
  294.6000   131.6300     6.8165     6.5219
  294.7000   131.6287     6.8491     6.5565
  294.8000   131.6275     6.8877     6.5937
  294.9000   131.6261     6.9100     6.6121
  295.0000   131.8437     6.9091     6.6115
  295.1000   132.2608     6.9082     6.6110
