~VERSION INFORMATION
 VERS.                2.0:   CWLS LOG ASCII STANDARD - VERSION 2.0
 WRAP.                 NO:   ONE LINE PER DEPTH STEP
~WELL INFORMATION
#MNEM.UNIT      DATA TYPE    INFORMATION
#----------   ------------   ------------------------------
 STRT.F          598.0000:   START DEPTH
 STOP.F         2552.0000:   STOP DEPTH
 STEP.F            0.5000:   STEP LENGTH
 NULL.          -999.2500:   NO VALUE
 COMP. FENIX & SCISSON INC:   COMPANY
 WELL.     15-SHX-2 #15-2:   WELL
 FLD .             TEAPOT:   FIELD
 LOC .       S2 T38N R78W:   LOCATION
 CNTY.            NATRONA:   COUNTY
 STAT.            WYOMING:   STATE
 CTRY. UNITED STATES OF AMERICA:   COUNTRY
 SRVC.              Welex:   SERVICE COMPANY
 DATE.        03-JUN-1979:   LOGDATE
 API .       490251002100:   API NUMBER
~CURVE INFORMATION
#MNEM.UNIT       API CODE    CURVE DESCRIPTION
#----------   ------------   ------------------------------
 DEPT.F                  :   
 CALD.IN     45 280 60 00:   CALIPER
 GRD .GAPI   45 310 01 00:   GAMMA RAY FROM DENSITY LOG
 RHOB.G/C3   45 350 01 00:   BULK DENSITY
 DPHI.DEC    45 890 12 00:   DENSITY POROSITY SANDSTONE
 CORR.G/C3   45 356 01 00:   DENSITY CORRECTION
~PARAMETER INFORMATION
#MNEM.UNIT          VALUE    DESCRIPTION
#----------   ------------   ------------------------------
 PD  .                 GL:   PERMANENT DATUM
 EPD .F              5118:   ELEVATION PERMANENT DATUM
 LMF .                 KB:   LOG MEASURED FROM
 DAPD.F                10:   FEET ABOVE PERMANENT DATUM
 DMF .                 KB:   DRILLING MEASURED FROM
 EKB .F              5128:   KELLING BUSHING
 EGL .F              5118:   GROUND LEVEL
 DATE.             6-3-79:   RUN DATE
 RUN .                  1:   RUN NUMBER
 DD  .F              2569:   DEPTH DRILLER
 DL  .F              2554:   DEPTH LOGGER
 BLI .F              2552:   BOTTOM LOG INTERVAL
 TLI .F               622:   TOP LOG INTERVAL
 CS  .IN            9.625:   CASING SIZE
 CBD .F               622:   CASING BOTTOM DRILLER
 BS  .IN             8.75:   BIT SIZE
 BSD .F              2569:   BIT SIZE AT DEPTH
 DFT .        AIR DRILLED:   DRILLING FLUID TYPE
 TCS .HRS             2.5:   TIME CURCULATED STOPPED
 MRT .F               124:   MAXIMUM RECORDED TEMPERATURE
 ENGI.               REIN:   RECORDING ENGINEER
 WITN.              AMEND:   WITNESSED BY
 CLNT.            A2DTECH:   CLIENT CODE
 ORIG.           5" PRINT:   ORIGIN OF DATA
 UWI .       490251002100:   UNIQUE WELL ID
 DICO. A2D Technologies, Inc.:   DIGITIZING COMPANY
~OTHER INFORMATION
~A   DEPT     CALD         GRD      RHOB       DPHI       CORR   
# ...
 2245.0000     8.7887    80.4689     2.5131     0.0259     0.0106
 2245.5000     8.7879    81.7626     2.5079     0.0267     0.0113
 2246.0000     8.7871    83.3638     2.5028     0.0303     0.0120
 2246.5000     8.7863    86.5517     2.5024     0.0335     0.0127
 2247.0000     8.7854    89.5831     2.5089     0.0300     0.0134
 2247.5000     8.7846    92.4735     2.5153     0.0258     0.0141
 2248.0000     8.7838    94.9117     2.5201     0.0219     0.0148
 2248.5000     8.7829    97.2702     2.5202     0.0207     0.0155
 2249.0000     8.7821    97.0393     2.5146     0.0233     0.0162
 2249.5000     8.7813    96.0492     2.5090     0.0256     0.0170
 2250.0000     8.7805    97.0321     2.5095     0.0263     0.0177
 2250.5000     8.7796    97.4438     2.5194     0.0233     0.0184
 2251.0000     8.7789    95.4231     2.5300     0.0175     0.0200
 2251.5000     8.7796    93.8156     2.5342     0.0125     0.0222
 2252.0000     8.7807    96.2343     2.5259     0.0173     0.0240
 2252.5000     8.7817    98.6422     2.5142     0.0233     0.0258
 2253.0000     8.7828    98.9091     2.5008     0.0310     0.0262
 2253.5000     8.7838    97.0727     2.4871     0.0402     0.0233
 2254.0000     8.7849    95.2929     2.4735     0.0495     0.0204
 2254.5000     8.7860    93.7077     2.4642     0.0556     0.0175
 2255.0000     8.7870    93.9736     2.4769     0.0519     0.0150
 2255.5000     8.7881    92.6907     2.4893     0.0361     0.0128
 2256.0000     8.7891    93.0088     2.4910     0.0375     0.0130
 2256.5000     8.7902    93.9810     2.4891     0.0413     0.0130
 2257.0000     8.7913    92.8495     2.4879     0.0436     0.0136
 2257.5000     8.7923    93.8212     2.4890     0.0415     0.0145
 2258.0000     8.7934    93.8541     2.4994     0.0391     0.0150
 2258.5000     8.7944    90.5735     2.5162     0.0258     0.0150
 2259.0000     8.7955    88.9593     2.5332     0.0114     0.0152
 2259.5000     8.7965    90.4890     2.5375     0.0067     0.0183
 2260.0000     8.7976    96.8998     2.5210     0.0180     0.0203
 2260.5000     8.7987   103.9218     2.5070     0.0267     0.0222
 2261.0000     8.7982   110.9934     2.5020     0.0300     0.0242
 2261.5000     8.7976   118.0772     2.5073     0.0298     0.0261
 2262.0000     8.7969   125.1494     2.5055     0.0298     0.0280
 2262.5000     8.7962   130.7523     2.4968     0.0328     0.0290
 2263.0000     8.7955   123.0006     2.4881     0.0378     0.0267
 2263.5000     8.7948   115.7138     2.4794     0.0446     0.0243
 2264.0000     8.7942   110.1796     2.4708     0.0515     0.0208
 2264.5000     8.7935   110.0031     2.4705     0.0528     0.0192
 2265.0000     8.7928   112.6645     2.4869     0.0493     0.0194
 2265.5000     8.7921   115.7130     2.5049     0.0351     0.0209
 2266.0000     8.7915   118.7697     2.5069     0.0286     0.0210
 2266.5000     8.7908   121.8176     2.4963     0.0378     0.0210
 2267.0000     8.7901   124.5729     2.4858     0.0444     0.0200
 2267.5000     8.7894   125.9879     2.4752     0.0511     0.0179
 2268.0000     8.7888   125.9956     2.4681     0.0551     0.0158
 2268.5000     8.7881   124.2365     2.4643     0.0564     0.0137
 2269.0000     8.7874   122.1861     2.4640     0.0582     0.0116
 2269.5000     8.7867   120.5282     2.4681     0.0578     0.0110
 2270.0000     8.7860   120.0584     2.4728     0.0543     0.0131
 2270.5000     8.7854   117.4155     2.4770     0.0507     0.0154
 2271.0000     8.7847   114.8837     2.4752     0.0505     0.0178
 2271.5000     8.7840   114.9538     2.4737     0.0507     0.0201
 2272.0000     8.7833   116.9230     2.4736     0.0509     0.0224
 2272.5000     8.7827   117.3203     2.4748     0.0510     0.0246
 2273.0000     8.7820   115.9761     2.4739     0.0521     0.0270
 2273.5000     8.7813   115.0907     2.4664     0.0555     0.0271
 2274.0000     8.7807   118.7974     2.4590     0.0624     0.0249
 2274.5000     8.7800   123.2471     2.4516     0.0675     0.0214
 2275.0000     8.7792   126.8815     2.4449     0.0701     0.0174
 2275.5000     8.7742   128.0048     2.4428     0.0712     0.0134
 2276.0000     8.7620   126.2512     2.4244     0.0791     0.0094
 2276.5000     8.7500   122.8271     2.4060     0.0878     0.0054
 2277.0000     8.7379   119.3939     2.4070     0.0940     0.0014
 2277.5000     8.7259   116.9354     2.4142     0.0912     0.0073
 2278.0000     8.7138   117.2938     2.4214     0.0880     0.0143
 2278.5000     8.7016   119.1180     2.4296     0.0787     0.0213
 2279.0000     8.6942   120.5437     2.4456     0.0689     0.0282
 2279.5000     8.6877   118.1788     2.4600     0.0630     0.0294
 2280.0000     8.6813   115.6632     2.4700     0.0582     0.0300
 2280.5000     8.6749   114.9048     2.4800     0.0484     0.0306
 2281.0000     8.6683   113.4790     2.4898     0.0407     0.0312
 2281.5000     8.6614   111.6310     2.4987     0.0343     0.0318
 2282.0000     8.6408   112.7736     2.5082     0.0269     0.0324
 2282.5000     8.6585   114.6704     2.5108     0.0243     0.0329
 2283.0000     8.6755   115.4159     2.4937     0.0360     0.0311
 2283.5000     8.6920   115.0630     2.4815     0.0449     0.0289
 2284.0000     8.7086   115.4069     2.4719     0.0539     0.0267
 2284.5000     8.7252   116.0608     2.4725     0.0531     0.0245
 2285.0000     8.7418   115.0837     2.4774     0.0496     0.0227
 2285.5000     8.7583   114.2434     2.4789     0.0479     0.0219
 2286.0000     8.7591   115.5564     2.4768     0.0484     0.0211
 2286.5000     8.7580   117.3130     2.4746     0.0493     0.0203
 2287.0000     8.7562   116.1751     2.4749     0.0503     0.0195
 2287.5000     8.7543   116.3915     2.4759     0.0505     0.0187
 2288.0000     8.7525   117.1097     2.4749     0.0514     0.0179
 2288.5000     8.7507   115.7186     2.4786     0.0485     0.0171
 2289.0000     8.7489   114.3319     2.4764     0.0483     0.0176
 2289.5000     8.7471   115.2288     2.4769     0.0501     0.0183
 2290.0000     8.7453   116.4954     2.4761     0.0491     0.0190
 2290.5000     8.7435   117.5945     2.4585     0.0573     0.0158
 2291.0000     8.7417   116.3670     2.4477     0.0665     0.0114
 2291.5000     8.7399   112.4563     2.4579     0.0698     0.0114
 2292.0000     8.7341   112.4128     2.4739     0.0531     0.0197
 2292.5000     8.7248   113.9549     2.4901     0.0400     0.0280
 2293.0000     8.7154   113.2992     2.5064     0.0281     0.0361
 2293.5000     8.7061   111.9512     2.5101     0.0267     0.0360
 2294.0000     8.6967   112.1619     2.5103     0.0279     0.0349
 2294.5000     8.6874   112.4040     2.5150     0.0253     0.0338
 2295.0000     8.6814   112.2956     2.5195     0.0201     0.0327
 2295.5000     8.7015   112.6651     2.5201     0.0224     0.0316
 2296.0000     8.7215   114.1762     2.5149     0.0256     0.0304
 2296.5000     8.7396   115.3196     2.5092     0.0291     0.0293
 2297.0000     8.7391   113.4994     2.5035     0.0326     0.0282
 2297.5000     8.7415   111.6982     2.4979     0.0362     0.0273
 2298.0000     8.7449   110.2232     2.4945     0.0397     0.0287
 2298.5000     8.7483   111.7476     2.4872     0.0421     0.0282
 2299.0000     8.7518   111.8048     2.4769     0.0515     0.0276
 2299.5000     8.7552   110.4885     2.4596     0.0609     0.0270
 2300.0000     8.7586   112.3478     2.4532     0.0643     0.0290
 2300.5000     8.7590   114.6364     2.4610     0.0612     0.0318
 2301.0000     8.7590   114.8147     2.4694     0.0574     0.0346
 2301.5000     8.7590   117.2484     2.4802     0.0527     0.0374
 2302.0000     8.7586   119.6656     2.4899     0.0395     0.0401
 2302.5000     8.7556   122.0734     2.4865     0.0430     0.0401
 2303.0000     8.7526   123.8650     2.4869     0.0438     0.0341
 2303.5000     8.7496   123.1672     2.5019     0.0407     0.0279
 2304.0000     8.7465   120.8327     2.5170     0.0345     0.0252
 2304.5000     8.7435   118.3889     2.5298     0.0188     0.0262
 2305.0000     8.7405   118.0230     2.5150     0.0180     0.0271
 2305.5000     8.7280   116.4002     2.5007     0.0346     0.0227
