~VERSION INFORMATION
 VERS.                2.0:   CWLS LOG ASCII STANDARD - VERSION 2.0
 WRAP.                 NO:   ONE LINE PER DEPTH STEP
~WELL INFORMATION
#MNEM.UNIT      DATA TYPE    INFORMATION
#----------   ------------   ------------------------------
 STRT.F            0.0000:   START DEPTH
 STOP.F          550.0000:   STOP DEPTH
 STEP.F            0.1000:   STEP LENGTH
 NULL.          -999.2500:   NO VALUE
 COMP.       F D SERV INC:   COMPANY
 WELL. NAVAL PETROLEUM RESERVE 3 SX-3 #77-4-3:   WELL
 FLD .          N.P.R. #3:   FIELD
 LOC .       S3 T38N R78W:   LOCATION
 CNTY.            NATRONA:   COUNTY
 STAT.            WYOMING:   STATE
 CTRY. UNITED STATES OF AMERICA:   COUNTRY
 SRVC.      Western Atlas:   SERVICE COMPANY
 DATE.        28-OCT-1992:   LOGDATE
 API .       490252255100:   API NUMBER
~CURVE INFORMATION
#MNEM.UNIT       API CODE    CURVE DESCRIPTION
#----------   ------------   ------------------------------
 DEPT.F                  :   
 GRR .GAPI   07 310 01 00:   GAMMA RAY FROM RESISTIVITY
 RILD.OHMM   07 120 46 00:   DEEP INDUCTION RESISTIVITY
 RILM.OHMM   07 120 44 00:   INDUCTION LOG MEDIUM RESISTIVITY
~PARAMETER INFORMATION
#MNEM.UNIT          VALUE    DESCRIPTION
#----------   ------------   ------------------------------
 PD  .                 GL:   PERMANENT DATUM
 EPD .F              5160:   ELEVATION PERMANENT DATUM
 LMF .                 KB:   LOG MEASURED FROM
 DAPD.F                10:   FEET ABOVE PERMANENT DATUM
 DMF .                 KB:   DRILLING MEASURED FROM
 EKB .F              5170:   KELLING BUSHING
 EDF .F              5169:   DRILLING FLOOR
 EGL .F              5160:   GROUND LEVEL
 DATE.        28-OCT-1992:   RUN DATE
 RUN .                  1:   RUN NUMBER
 DD  .F               555:   DEPTH DRILLER
 DL  .F               558:   DEPTH LOGGER
 BLI .F               550:   BOTTOM LOG INTERVAL
 CS  .IN            8.625:   CASING SIZE
 CBD .F                54:   CASING BOTTOM DRILLER
 CBL .F                54:   CASING BOTTOM LOGGER
 BS  .IN            7.875:   BIT SIZE
 BSD .F               555:   BIT SIZE AT DEPTH
 DFT .           AIR FOAM:   DRILLING FLUID TYPE
 TCS .HRS               1:   TIME CURCULATED STOPPED
 MRT .F                65:   MAXIMUM RECORDED TEMPERATURE
 LUN .            HL-6274:   LOGGING UNIT NUMBER
 LUL .             CASPER:   LOGGING UNIT LOCATION
 ENGI.             RAUTIO:   RECORDING ENGINEER
 WITN.     BRUCE ANDERSON:   WITNESSED BY
 CLNT.            A2DTECH:   CLIENT CODE
 ORIG.           5" PRINT:   ORIGIN OF DATA
 UWI .       490252255100:   UNIQUE WELL ID
 DICO. A2D Technologies, Inc.:   DIGITIZING COMPANY
~OTHER INFORMATION
~A    DEPT      GRR      RILD       RILM   
# ...
  400.4000    96.6282    17.5478    20.8046
  400.5000    95.4197    17.8565    21.2742
  400.6000    93.9758    18.1651    21.5701
  400.7000    91.8808    18.4738    21.8225
  400.8000    89.6561    18.7824    22.0776
  400.9000    87.8526    19.1126    22.3600
  401.0000    85.7945    19.3579    22.7586
  401.1000    83.0972    19.6528    23.0208
  401.2000    80.1406    19.9976    23.3966
  401.3000    77.9852    20.3967    23.7272
  401.4000    76.8464    20.9955    23.9516
  401.5000    76.3847    21.7394    24.1166
  401.6000    76.1232    22.3577    24.4055
  401.7000    75.8812    23.0685    24.6839
  401.8000    75.8199    23.6910    24.8609
  401.9000    75.8193    24.2465    25.0896
  402.0000    75.8187    24.8145    25.3829
  402.1000    75.8181    25.2508    25.6545
  402.2000    75.8175    25.5750    25.8098
  402.3000    76.0548    25.8734    26.1013
  402.4000    76.1184    26.1751    26.2899
  402.5000    76.2538    26.4802    26.4437
  402.6000    76.6745    26.7888    26.5984
  402.7000    77.4273    27.1016    26.7785
  402.8000    78.2308    27.4179    27.1055
  402.9000    78.4644    27.6409    27.1066
  403.0000    78.8982    27.8666    27.2265
  403.1000    79.5322    28.1584    27.3857
  403.2000    80.2852    28.3219    27.4901
  403.3000    81.0684    28.5194    27.4913
  403.4000    82.1546    28.6520    27.4925
  403.5000    82.8459    28.8185    27.6447
  403.6000    83.7785    28.9859    27.8064
  403.7000    84.6538    29.1202    27.8814
  403.8000    85.4845    29.1198    27.8825
  403.9000    86.4349    29.1194    27.9060
  404.0000    86.9848    29.1190    28.0797
  404.1000    87.2113    29.1186    28.0808
  404.2000    87.2858    29.1182    28.0820
  404.3000    87.2852    29.1178    28.0832
  404.4000    87.2846    29.1174    28.0309
  404.5000    87.2608    28.9148    27.8905
  404.6000    86.9812    28.9144    27.8919
  404.7000    86.9807    28.9140    27.8930
  404.8000    86.9801    28.9136    27.8942
  404.9000    86.8580    28.9469    27.8954
  405.0000    86.6767    29.1150    27.8449
  405.1000    86.6566    28.9123    27.7040
  405.2000    86.3733    28.9120    27.7054
  405.3000    86.3728    28.9116    27.5598
  405.4000    86.2034    28.8443    27.5154
  405.5000    86.0695    28.7101    27.5165
  405.6000    86.0689    28.7097    27.4683
  405.7000    86.0524    28.7093    27.3107
  405.8000    85.7655    28.5760    27.1396
  405.9000    85.5489    28.4102    27.1406
  406.0000    85.4622    28.3108    27.0313
  406.1000    85.3475    28.2777    26.8763
  406.2000    85.0325    28.1135    26.7687
  406.3000    84.5295    28.1131    26.7544
  406.4000    83.9492    27.9826    26.5853
  406.5000    83.5236    27.9172    26.4486
  406.6000    82.6976    27.9168    26.1917
  406.7000    81.9136    27.9164    25.9648
  406.8000    81.4106    27.9160    25.8159
  406.9000    80.9077    27.7217    25.6810
  407.0000    80.3201    27.7214    25.6823
  407.1000    79.9019    27.6248    25.5516
  407.2000    79.5569    27.5282    25.5061
  407.3000    79.1982    27.4643    25.4359
  407.4000    78.7513    27.1465    25.3313
  407.5000    78.5045    26.9891    25.3324
  407.6000    78.5038    26.8325    25.3335
  407.7000    78.5033    26.7697    25.3345
  407.8000    78.5027    26.7074    25.2366
  407.9000    78.6054    26.5831    25.1608
  408.0000    78.8036    26.5828    25.1619
  408.1000    78.8045    26.3978    25.1527
  408.2000    79.1044    26.2753    24.9895
  408.3000    79.3056    26.2138    24.9904
  408.4000    79.4054    26.1528    24.9915
  408.5000    79.5046    26.0311    24.9925
  408.6000    79.7065    26.0308    25.0318
  408.7000    79.7057    26.0304    25.1692
  408.8000    79.7051    26.0300    25.1704
  408.9000    79.7045    26.0297    25.2970
  409.0000    79.5569    26.0900    25.4450
  409.1000    79.4012    26.2110    25.5939
  409.2000    79.4006    26.2106    25.7058
  409.3000    79.4000    26.3629    25.7223
  409.4000    79.3994    26.5161    26.0685
  409.5000    79.3988    26.6701    26.3277
  409.6000    79.5416    26.8250    26.6357
  409.7000    79.7922    26.9808    27.0177
  409.8000    80.0842    27.1374    27.5315
  409.9000    80.6048    27.5177    28.1695
  410.0000    80.8459    27.7748    28.7444
  410.1000    81.6687    28.0007    29.0270
  410.2000    82.2534    28.1633    29.3666
  410.3000    82.5927    28.2939    29.7100
  410.4000    83.0566    28.2935    30.0572
  410.5000    83.3202    28.2931    30.4025
  410.6000    83.3196    28.2927    30.6107
  410.7000    83.3190    28.2923    30.7595
  410.8000    83.1823    28.2919    30.8269
  410.9000    82.8453    28.2915    30.8282
  411.0000    82.3424    28.2911    30.7896
  411.1000    81.8060    28.2907    30.6169
  411.2000    81.1020    28.2903    30.6184
  411.3000    80.3480    28.3888    30.4744
  411.4000    79.4613    28.4873    30.2997
  411.5000    78.2929    28.4869    30.0539
  411.6000    76.8469    28.4865    29.7454
  411.7000    75.7601    28.6521    29.5748
  411.8000    75.0671    28.6849    29.3732
  411.9000    74.6727    28.6845    29.1001
  412.0000    74.4209    28.6841    28.8674
  412.1000    74.3251    28.6837    28.6348
  412.2000    74.6025    28.6833    28.3393
  412.3000    75.1522    28.6829    28.1762
  412.4000    75.6060    28.6825    27.7890
  412.5000    76.1078    28.6821    27.6614
  412.6000    76.7348    28.6153    27.5028
  412.7000    77.5620    28.4822    27.3451
  412.8000    78.4959    28.4818    27.1882
  412.9000    78.7740    28.3166    27.0312
  413.0000    79.2205    28.1524    26.8773
  413.1000    79.8948    27.8922    26.7233
  413.2000    80.5260    27.5697    26.5701
  413.3000    81.0278    27.2508    26.3589
  413.4000    81.5295    26.9355    26.0839
  413.5000    82.0936    26.3779    25.9319
  413.6000    82.5329    26.1343    25.9330
  413.7000    83.0346    25.9220    25.8170
  413.8000    83.6543    25.7715    25.7552
  413.9000    84.4073    25.6219    25.7001
  414.0000    85.1601    25.4732    25.5527
  414.1000    86.0174    25.2959    25.4023
  414.2000    86.6659    25.1785    25.1186
  414.3000    87.2534    25.0324    24.9414
  414.4000    87.8695    24.9449    24.7984
  414.5000    88.6222    24.9157    24.6562
  414.6000    89.3877    24.7710    24.4914
  414.7000    90.5455    24.7707    24.2002
  414.8000    90.9704    24.6557    24.0663
  414.9000    91.4721    24.5980    24.0342
  415.0000    92.0846    24.6550    23.9574
  415.1000    92.7777    24.7693    23.8201
  415.2000    93.2882    24.7689    23.6834
  415.3000    94.1673    24.9417    23.5415
  415.4000    94.5849    25.0577    23.4126
  415.5000    95.0866    25.0283    23.1775
  415.6000    95.5883    24.9407    22.9844
  415.7000    96.0339    24.9404    22.8987
  415.8000    96.2792    24.9400    22.9193
  415.9000    96.2784    24.9397    23.0607
  416.0000    96.2779    24.9393    23.1883
  416.1000    96.2773    24.9390    23.3240
  416.2000    96.2767    24.9386    23.3869
  416.3000    96.2236    24.9094    23.4340
  416.4000    95.9718    24.7648    23.5711
  416.5000    95.6706    24.7644    23.7178
  416.6000    95.4683    24.7641    23.7188
  416.7000    95.2165    24.7638    23.8209
  416.8000    94.7650    24.7634    23.9603
  416.9000    93.9620    24.7631    24.0543
  417.0000    92.9486    24.7627    24.0553
  417.1000    92.6989    24.6192    24.0564
  417.2000    92.0507    24.5901    24.1869
  417.3000    91.4439    24.5898    24.2264
  417.4000    90.9410    24.5894    24.2274
  417.5000    90.5287    24.5891    24.2284
  417.6000    90.5281    24.5888    24.2129
  417.7000    90.2820    24.5884    24.0625
  417.8000    90.2248    24.5881    24.0634
  417.9000    90.2242    24.5877    23.9651
  418.0000    90.2236    24.5874    23.8277
  418.1000    90.2230    24.5870    23.7336
  418.2000    90.2223    24.5867    23.7346
  418.3000    90.2218    24.5863    23.7357
  418.4000    90.0302    24.5860    23.7366
  418.5000    89.7785    24.5857    23.6410
