~VERSION INFORMATION
 VERS.                2.0:   CWLS LOG ASCII STANDARD - VERSION 2.0
 WRAP.                 NO:   ONE LINE PER DEPTH STEP
~WELL INFORMATION
#MNEM.UNIT      DATA TYPE    INFORMATION
#----------   ------------   ------------------------------
 STRT.F          390.0000:   START DEPTH
 STOP.F         2628.0000:   STOP DEPTH
 STEP.F            0.5000:   STEP LENGTH
 NULL.          -999.2500:   NO VALUE
 COMP. FENIX & SCISSON INC:   COMPANY
 WELL.    25 SHX 11 #3-11:   WELL
 FLD .             TEAPOT:   FIELD
 LOC .      S11 T38N R78W:   LOCATION
 CNTY.            NATRONA:   COUNTY
 STAT.            WYOMING:   STATE
 CTRY. UNITED STATES OF AMERICA:   COUNTRY
 SRVC.              Welex:   SERVICE COMPANY
 DATE.        15-MAY-1980:   LOGDATE
 API .       490251081900:   API NUMBER
~CURVE INFORMATION
#MNEM.UNIT       API CODE    CURVE DESCRIPTION
#----------   ------------   ------------------------------
 DEPT.F                  :   
 CALD.IN     45 280 60 00:   CALIPER
 GRD .GAPI   45 310 01 00:   GAMMA RAY FROM DENSITY LOG
 RHOB.G/C3   45 350 01 00:   BULK DENSITY
 DPHI.DEC    45 890 12 00:   DENSITY POROSITY SANDSTONE
 CORR.G/C3   45 356 01 00:   DENSITY CORRECTION
~PARAMETER INFORMATION
#MNEM.UNIT          VALUE    DESCRIPTION
#----------   ------------   ------------------------------
 PD  .                 GL:   PERMANENT DATUM
 EPD .F              5163:   ELEVATION PERMANENT DATUM
 LMF .                 KB:   LOG MEASURED FROM
 DAPD.F                10:   FEET ABOVE PERMANENT DATUM
 DMF .                 KB:   DRILLING MEASURED FROM
 EKB .F              5173:   KELLING BUSHING
 EGL .F              5163:   GROUND LEVEL
 DATE.            5-15-80:   RUN DATE
 RUN .                  1:   RUN NUMBER
 DD  .F              2625:   DEPTH DRILLER
 DL  .F              2630:   DEPTH LOGGER
 BLI .F              2628:   BOTTOM LOG INTERVAL
 TLI .F               400:   TOP LOG INTERVAL
 CS  .IN            9.625:   CASING SIZE
 CBD .F               645:   CASING BOTTOM DRILLER
 BS  .IN             8.75:   BIT SIZE
 BSD .F              2625:   BIT SIZE AT DEPTH
 DFT .        AIR DRILLED:   DRILLING FLUID TYPE
 TCS .HRS               2:   TIME CURCULATED STOPPED
 MRT .F               116:   MAXIMUM RECORDED TEMPERATURE
 ENGI.            BENTSEN:   RECORDING ENGINEER
 WITN.           DINSMORE:   WITNESSED BY
 CLNT.            A2DTECH:   CLIENT CODE
 ORIG.           5" PRINT:   ORIGIN OF DATA
 UWI .       490251081900:   UNIQUE WELL ID
 DICO. A2D Technologies, Inc.:   DIGITIZING COMPANY
~OTHER INFORMATION
~A   DEPT     CALD         GRD      RHOB       DPHI       CORR   
# ...
 2220.0000     8.8041    89.2611     2.4052     0.0737     0.0094
 2220.5000     8.8002    88.5785     2.4186     0.0802     0.0005
 2221.0000     8.8051    88.8081     2.4237     0.0792     0.0072
 2221.5000     8.8202    89.1615     2.4298     0.0784     0.0157
 2222.0000     8.8355    89.5149     2.4380     0.0725     0.0248
 2222.5000     8.8343    89.8659     2.4430     0.0684     0.0336
 2223.0000     8.8115    90.2214     2.4441     0.0679     0.0318
 2223.5000     8.7890    90.3283     2.4375     0.0709     0.0276
 2224.0000     8.7839    89.9184     2.4237     0.0786     0.0149
 2224.5000     8.8022    88.5088     2.4014     0.0972    -0.0046
 2225.0000     8.8034    87.1168     2.3847     0.1059    -0.0213
 2225.5000     8.7975    85.8077     2.3882     0.1038    -0.0127
 2226.0000     8.7933    85.3898     2.3995     0.0980    -0.0029
 2226.5000     8.7889    83.5855     2.4107     0.0857     0.0070
 2227.0000     8.7844    81.8001     2.4155     0.0853     0.0036
 2227.5000     8.7800    80.0273     2.3861     0.1027    -0.0112
 2228.0000     8.7755    78.2647     2.3828     0.1103    -0.0245
 2228.5000     8.7711    77.2384     2.3894     0.1040    -0.0151
 2229.0000     8.7666    76.5222     2.3962     0.0987    -0.0075
 2229.5000     8.7621    75.7985     2.4032     0.0937    -0.0001
 2230.0000     8.7578    75.0805     2.4062     0.0890     0.0003
 2230.5000     8.7627    74.3566     2.4081     0.0890    -0.0033
 2231.0000     8.7680    74.2370     2.4117     0.0878     0.0002
 2231.5000     8.7732    74.4175     2.4159     0.0853     0.0078
 2232.0000     8.7779    74.6785     2.4111     0.0866    -0.0058
 2232.5000     8.7774    74.9431     2.4100     0.0876    -0.0062
 2233.0000     8.7917    75.2112     2.4300     0.0783     0.0120
 2233.5000     8.7812    75.4210     2.4510     0.0636     0.0313
 2234.0000     8.7559    74.6877     2.4667     0.0549     0.0434
 2234.5000     8.7443    73.9368     2.4701     0.0530     0.0458
 2235.0000     8.7692    73.1552     2.4611     0.0565     0.0447
 2235.5000     8.7937    74.0900     2.4524     0.0604     0.0426
 2236.0000     8.7969    75.1554     2.4549     0.0601     0.0406
 2236.5000     8.7944    74.7087     2.4462     0.0647     0.0442
 2237.0000     8.7918    74.2610     2.4502     0.0606     0.0540
 2237.5000     8.7892    74.7163     2.4542     0.0643     0.0641
 2238.0000     8.7867    75.6206     2.4412     0.0704     0.0588
 2238.5000     8.7841    76.5275     2.4299     0.0752     0.0507
 2239.0000     8.7816    76.5804     2.4369     0.0708     0.0561
 2239.5000     8.7790    76.3551     2.4340     0.0767     0.0389
 2240.0000     8.7626    77.6428     2.4171     0.0855     0.0223
 2240.5000     8.7335    79.3712     2.4008     0.0943     0.0069
 2241.0000     8.7042    79.7200     2.3845     0.1031    -0.0026
 2241.5000     8.6767    80.0293     2.3760     0.1114    -0.0134
 2242.0000     8.6966    80.3430     2.3966     0.1007    -0.0036
 2242.5000     8.7200    80.6094     2.4174     0.0834     0.0150
 2243.0000     8.7434    80.4652     2.4203     0.0830     0.0220
 2243.5000     8.7667    80.2594     2.4025     0.0926     0.0045
 2244.0000     8.7904    79.3783     2.3899     0.1010    -0.0038
 2244.5000     8.7987    78.5815     2.3772     0.1093    -0.0103
 2245.0000     8.7702    77.7933     2.3696     0.1147    -0.0170
 2245.5000     8.7387    77.0056     2.3684     0.1143    -0.0206
 2246.0000     8.7070    76.2175     2.3733     0.1118    -0.0158
 2246.5000     8.6776    75.4271     2.3840     0.1061    -0.0084
 2247.0000     8.6864    74.6389     2.3944     0.1005    -0.0086
 2247.5000     8.7083    73.9165     2.3982     0.0968    -0.0080
 2248.0000     8.7300    73.9294     2.4088     0.0894    -0.0033
 2248.5000     8.7517    73.9211     2.4199     0.0833     0.0014
 2249.0000     8.7735    74.2284     2.4281     0.0780     0.0046
 2249.5000     8.7953    73.8988     2.4290     0.0767    -0.0010
 2250.0000     8.7924    72.2719     2.4401     0.0712    -0.0031
 2250.5000     8.7859    71.4863     2.4635     0.0561     0.0263
 2251.0000     8.7792    72.5082     2.4873     0.0401     0.0546
 2251.5000     8.7778    73.6709     2.4984     0.0361     0.0584
 2252.0000     8.7778    74.8434     2.5065     0.0276     0.0720
 2252.5000     8.7778    76.0098     2.5138     0.0236     0.0862
 2253.0000     8.7778    77.1771     2.5009     0.0322     0.0704
 2253.5000     8.7778    78.3486     2.4880     0.0401     0.0651
 2254.0000     8.7778    79.3763     2.4797     0.0405     0.0597
 2254.5000     8.7778    80.4193     2.4669     0.0523     0.0418
 2255.0000     8.7776    81.8064     2.4496     0.0651     0.0308
 2255.5000     8.7782    83.0890     2.4320     0.0742     0.0174
 2256.0000     8.7999    85.3114     2.4205     0.0813     0.0039
 2256.5000     8.8229    87.5356     2.4246     0.0781     0.0077
 2257.0000     8.8460    89.0691     2.4217     0.0807     0.0089
 2257.5000     8.8593    89.6335     2.4222     0.0820     0.0078
 2258.0000     8.8383    89.7299     2.4387     0.0727     0.0155
 2258.5000     8.8148    89.3082     2.4578     0.0562     0.0406
 2259.0000     8.7913    88.8777     2.4597     0.0582     0.0386
 2259.5000     8.7676    88.4949     2.4565     0.0593     0.0390
 2260.0000     8.7709    88.8072     2.4424     0.0595     0.0384
 2260.5000     8.7940    89.1958     2.4200     0.0759     0.0179
 2261.0000     8.7980    89.5891     2.4025     0.0922     0.0071
 2261.5000     8.7982    89.7249     2.3972     0.0966    -0.0072
 2262.0000     8.7967    89.7265     2.4163     0.0886     0.0083
 2262.5000     8.8193    89.7254     2.4323     0.0780     0.0257
 2263.0000     8.8192    89.7311     2.4484     0.0673     0.0439
 2263.5000     8.7886    90.0864     2.4448     0.0647     0.0476
 2264.0000     8.7655    91.1924     2.4272     0.0761     0.0332
 2264.5000     8.7408    92.2862     2.4022     0.0935    -0.0031
 2265.0000     8.7182    93.3796     2.3948     0.0970    -0.0127
 2265.5000     8.7310    94.4662     2.4050     0.0929    -0.0129
 2266.0000     8.7450    95.5604     2.4264     0.0847    -0.0024
 2266.5000     8.7575    97.3185     2.4473     0.0684     0.0197
 2267.0000     8.7571    99.0438     2.4383     0.0663     0.0196
 2267.5000     8.7521   100.7665     2.4205     0.0795     0.0077
 2268.0000     8.7472   103.1584     2.4105     0.0880    -0.0040
 2268.5000     8.7421   106.8370     2.4188     0.0842    -0.0016
 2269.0000     8.7380   110.5237     2.4052     0.0886     0.0066
 2269.5000     8.7513   111.2199     2.4030     0.0921     0.0149
 2270.0000     8.7652   109.6762     2.4046     0.0921     0.0238
 2270.5000     8.7774   108.1098     2.4159     0.0860     0.0427
 2271.0000     8.7642   106.5132     2.4350     0.0738     0.0612
 2271.5000     8.7365   106.7908     2.4480     0.0655     0.0674
 2272.0000     8.7087   107.6508     2.4246     0.0795     0.0482
 2272.5000     8.6967   107.5071     2.4146     0.0825     0.0341
 2273.0000     8.7020   107.3603     2.4183     0.0884     0.0278
 2273.5000     8.7242   108.1882     2.4096     0.0850     0.0336
 2274.0000     8.7647   109.0555     2.4115     0.0897     0.0296
 2274.5000     8.8036   108.6667     2.4069     0.0861     0.0232
 2275.0000     8.8383   108.2573     2.4115     0.0897     0.0247
 2275.5000     8.8386   107.5839     2.4200     0.0845     0.0280
 2276.0000     8.8351   106.6140     2.4145     0.0874     0.0151
 2276.5000     8.8112   107.0681     2.3881     0.1101    -0.0020
 2277.0000     8.7867   107.9193     2.3751     0.1095    -0.0127
 2277.5000     8.8133   108.2653     2.3947     0.0998    -0.0076
 2278.0000     8.8701   107.3974     2.4247     0.0822     0.0187
 2278.5000     8.8583   106.3661     2.4467     0.0646     0.0447
 2279.0000     8.8128   106.0098     2.4536     0.0633     0.0461
 2279.5000     8.7681   105.6234     2.4587     0.0585     0.0537
 2280.0000     8.7368   104.6423     2.4625     0.0550     0.0601
 2280.5000     8.7376   103.9980     2.4629     0.0595     0.0628
