~VERSION INFORMATION
 VERS.                2.0:   CWLS LOG ASCII STANDARD - VERSION 2.0
 WRAP.                 NO:   ONE LINE PER DEPTH STEP
~WELL INFORMATION
#MNEM.UNIT      DATA TYPE    INFORMATION
#----------   ------------   ------------------------------
 STRT.F            0.0000:   START DEPTH
 STOP.F          546.0000:   STOP DEPTH
 STEP.F            0.5000:   STEP LENGTH
 NULL.          -999.2500:   NO VALUE
 COMP. LAWRENCE/ALLISON INC:   COMPANY
 WELL.   NPR 3 #76-21SX10:   WELL
 FLD .             TEAPOT:   FIELD
 LOC .      S10 T38N R78W:   LOCATION
 CNTY.            NATRONA:   COUNTY
 STAT.            WYOMING:   STATE
 CTRY. UNITED STATES OF AMERICA:   COUNTRY
 SRVC.      Dresser Atlas:   SERVICE COMPANY
 DATE.        22-JUL-1984:   LOGDATE
 API .       490251097000:   API NUMBER
~CURVE INFORMATION
#MNEM.UNIT       API CODE    CURVE DESCRIPTION
#----------   ------------   ------------------------------
 DEPT.F                  :   
 CALD.IN     45 280 60 00:   CALIPER FROM DENSITY LOG
 DEN .G/C3   45 350 01 00:   COMPENSATED BULK DENSTIY
 CORR.G/C3   45 356 01 00:   DENSITY CORRECTION
 DPHI.DEC    45 890 12 00:   POROSITY DENSITY SANDSTONE
 CNC .DEC    42 890 03 00:   NEUTRON POROSITY SANDSTONE
 GRR .GAPI   07 310 01 00:   GAMMA RAY
 SPR .MV     07 010 01 00:   SPONTANEOUS POTENTIAL
 RILD.OHMM   07 120 46 00:   INDUCTION LOG DEEP RESISTIVITY
 RILM.OHMM   07 120 44 00:   INDUCTION LOG MEDIUM RESISTIVITY
 RFOC.OHMM   07 220 04 00:   RESISTIVITY FOCUSED LOG
 AC  .US/F   60 520 00 00:   ACCOUSTIC
~PARAMETER INFORMATION
#MNEM.UNIT          VALUE    DESCRIPTION
#----------   ------------   ------------------------------
 PD  .                 GL:   PERMANENT DATUM
 EPD .F              5167:   ELEVATION PERMANENT DATUM
 LMF .                 GL:   LOG MEASURED FROM
 DMF .                 GL:   DRILLING MEASURED FROM
 EGL .F              5167:   GROUND LEVEL
 DATE.        22-JUL-1984:   RUN DATE
 RUN .                  1:   RUN NUMBER
 DD  .F               551:   DEPTH DRILLER
 DL  .F               547:   DEPTH LOGGER
 BLI .F               544:   BOTTOM LOG INTERVAL
 CS  .IN            9.625:   CASING SIZE
 CBD .F                40:   CASING BOTTOM DRILLER
 CBL .F                42:   CASING BOTTOM LOGGER
 BS  .IN            7.875:   BIT SIZE
 BSD .F               551:   BIT SIZE AT DEPTH
 DFT .        KCL POLYMER:   DRILLING FLUID TYPE
 MSS .           FLOWLINE:   MUD SAMPLE SOURCE
 RMS .OHMM           .193:   RESISTIVITY MUD SAMPLE
 MST .F                75:   MUD SAMPLE TEMPERATURE
 RMF .OHMM           .144:   RESISTIVITY MUD FILTRATE SAMPLE
 MFST.F                75:   MUD FILTRATE SAMPLE TEMPERATURE
 RMC .OHMM            .24:   RESISTIVITY MUD CAKE
 MCST.F                74:   MUD CAKE SAMPLE TEMPERATURE
 MFSS.               CALC:   MUD FILTRATE SAMPLE SOURCE
 MCSS.               CALC:   MUD CAKE SAMPLE SOURCE
 TCS .HRS               5:   TIME CURCULATED STOPPED
 MRT .F                90:   MAXIMUM RECORDED TEMPERATURE
 LUN .               6274:   LOGGING UNIT NUMBER
 LUL .               GLTE:   LOGGING UNIT LOCATION
 ENGI.             RAUTIO:   RECORDING ENGINEER
 WITN.              FIVAS:   WITNESSED BY
 CLNT.            A2DTECH:   CLIENT CODE
 ORIG.       2", 5" PRINT:   ORIGIN OF DATA
 UWI .       490251097000:   UNIQUE WELL ID
 DICO. A2D Technologies, Inc.:   DIGITIZING COMPANY
~OTHER INFORMATION
~A    DEPT    CALD        DEN       CORR       DPHI        CNC         GRR       SPR       RILD       RILM       RFOC         AC   
# ...
  244.0000     8.3270     2.5120     0.0140     0.0820     0.2539   115.8140   -38.0280     9.1820     9.0020     9.6490    97.7850
  244.5000     8.3270     2.5100     0.0320     0.0840     0.2489   113.9290   -37.2900     8.5130     8.5190     9.8200    97.3910
  245.0000     8.3270     2.5020     0.0400     0.0900     0.2516   114.6630   -36.9350     7.7280     7.6160    10.0580    97.6020
  245.5000     8.3270     2.4910     0.0290     0.0980     0.2636   115.4400   -36.8110     6.9130     6.6600    10.0120    98.4580
  246.0000     8.3270     2.4750     0.0190     0.1070     0.2909   116.3410   -36.6840     6.4150     5.3670     9.3250   104.1110
  246.5000     8.3270     2.4490     0.0300     0.1270     0.3003   120.4600   -36.5590     6.1320     5.4610     7.3300   111.2810
  247.0000     8.3270     2.3940     0.0530     0.1570     0.3006   129.9430   -36.4370     6.2170     5.6470     5.0810   119.2540
  247.5000     8.3270     2.3300     0.0630     0.1880     0.2953   133.6880   -35.8250     6.4110     5.9210     4.4090   119.6520
  248.0000     8.3270     2.3340     0.0390     0.1930     0.2684   131.3670   -35.0540     6.7730     6.3030     5.7390   113.3530
  248.5000     8.3270     2.4010     0.0110     0.1480     0.2544   122.3350   -35.5850     7.2900     6.6840     7.5020   106.1050
  249.0000     8.3280     2.4670     0.0100     0.1120     0.2544   116.7020   -36.1350     7.8060     7.0360    10.8230    99.5520
  249.5000     8.3290     2.4990     0.0090     0.0900     0.2540   111.6900   -36.6800     8.5590     8.1470    10.7240    96.2690
  250.0000     8.3300     2.4990     0.0030     0.0900     0.2530   111.0710   -37.1870     9.5620     8.9190    10.5200    96.0700
  250.5000     8.3320     2.4990     0.0100     0.0920     0.2490   112.0690   -37.1680    10.3610     9.8010    10.3390    96.4680
  251.0000     8.3330     2.4980     0.0170     0.0920     0.2470   114.4420   -36.7700    11.1250    10.4300    10.2180    97.0150
  251.5000     8.3340     2.4990     0.0240     0.0910     0.2490   117.1870   -36.0970    10.9590    10.6830    10.0580    97.5120
  252.0000     8.3360     2.5030     0.0400     0.0880     0.2550   117.2990   -35.1730    10.6410    10.8230    10.1090    98.1060
  252.5000     8.3370     2.5100     0.0610     0.0830     0.2610   116.6550   -34.2490    10.4340    10.5300    10.2030    98.7940
  253.0000     8.3380     2.5150     0.0670     0.0810     0.2610   115.9760   -33.2280    10.9910    10.2440    10.3390    99.5520
  253.5000     8.3400     2.5150     0.0580     0.0800     0.2540   116.0170   -31.8640    11.4760    10.2440    10.3140    99.6520
  254.0000     8.3410     2.5180     0.0460     0.0790     0.2480   115.9410   -30.2700    11.9710    11.3600    10.2490    98.8120
  254.5000     8.3430     2.5210     0.0450     0.0770     0.2390   113.8650   -28.6830    13.3620    12.6830    10.6700    97.0090
  255.0000     8.3440     2.5160     0.0440     0.0810     0.2250   109.1720   -26.9660    14.7800    14.0060    11.7740    95.2050
  255.5000     8.3450     2.5020     0.0470     0.0890     0.2100    98.1630   -24.9790    16.8090    15.6550    14.3800    93.5320
  256.0000     8.3460     2.4850     0.0490     0.1010     0.2170    83.1990   -23.0520    19.4260    18.5480    16.9340    93.4830
  256.5000     8.3300     2.4550     0.0510     0.1210     0.2310    70.0900   -21.1200    22.4150    20.7680    24.0230   102.2390
  257.0000     8.3120     2.4080     0.0550     0.1420     0.2450    63.9940   -19.2950    24.9200    22.5810    29.8870   110.9950
  257.5000     8.3110     2.3660     0.0910     0.1750     0.2590    57.9460   -17.5540    26.9030    23.5870    34.7570   116.8660
  258.0000     8.3180     2.3340     0.1100     0.1920     0.2670    53.1330   -16.5220    28.8110    23.4350    37.2970   118.5570
  258.5000     8.3250     2.3490     0.0910     0.1780     0.2630    51.1280   -15.8160    30.2090    22.8460    33.0000   115.3580
  259.0000     8.3070     2.3720     0.0670     0.1660     0.2580    58.2280   -15.6280    30.2090    22.2560    27.9710   111.6920
  259.5000     8.2790     2.3910     0.0580     0.1570     0.2540    69.9640   -15.4810    29.7800    21.7200    23.3720   109.9000
  260.0000     8.2490     2.3980     0.0500     0.1540     0.2520    75.8830   -15.4830    29.1520    21.7200    23.1590   110.1000
  260.5000     8.2470     2.4060     0.0420     0.1490     0.2510    79.7230   -15.4910    28.5930    22.0080    24.0200   111.9900
  261.0000     8.2470     2.4080     0.0260     0.1450     0.2550    81.3930   -15.6300    28.5930    22.7380    25.4410   115.4600
  261.5000     8.2480     2.4000    -0.0140     0.1480     0.2590    76.8090   -15.7630    28.9510    22.7020    27.8260   121.8010
  262.0000     8.2480     2.3770    -0.0150     0.1610     0.2600    69.2920   -15.8960    29.6900    22.6520    31.6650   127.3130
  262.5000     8.2480     2.3340     0.0130     0.1850     0.2550    63.3890   -16.0280    30.4290    22.6020    34.3440   130.0000
  263.0000     8.2480     2.3030     0.0340     0.2080     0.2520    63.0000   -16.1580    31.1680    22.5310    32.9380   128.1090
  263.5000     8.2480     2.2840     0.0410     0.2220     0.2540    63.9870   -16.2280    31.9060    22.5960    30.4010   124.5960
  264.0000     8.2480     2.2980     0.0370     0.2150     0.2560    66.1340   -15.9400    32.8060    22.7380    27.3120   120.6930
  264.5000     8.2480     2.3220     0.0340     0.2010     0.2580    67.3520   -15.6550    31.8730    22.3930    27.6400   117.0650
  265.0000     8.2480     2.3270     0.0430     0.1950     0.2620    66.8300   -15.3710    30.6810    21.7250    28.9880   116.4610
  265.5000     8.2480     2.3040     0.0530     0.2060     0.2650    66.3440   -15.0670    29.3800    20.7420    30.4670   116.0700
  266.0000     8.2480     2.2980     0.0490     0.2120     0.2650    66.3420   -14.2530    28.8120    19.7590    31.9160   113.3790
  266.5000     8.2480     2.3350     0.0430     0.1960     0.2600    68.2460   -13.4260    28.5930    18.7770    30.6900   110.9330
  267.0000     8.2480     2.3680     0.0370     0.1770     0.2560    71.5830   -12.5960    28.5930    18.3570    28.6400   109.8450
  267.5000     8.2480     2.3730     0.0360     0.1660     0.2520    74.6000   -12.1270    28.5930    18.2490    26.4190   109.6580
  268.0000     8.2480     2.3590     0.0570     0.1730     0.2490    74.6800   -12.1300    28.3810    18.8030    25.1500   108.1020
  268.5000     8.2480     2.3640     0.0750     0.1760     0.2470    73.0710   -11.6730    28.0730    19.2800    26.3290   105.9590
  269.0000     8.2480     2.3810     0.0650     0.1650     0.2440    71.1930   -10.7540    28.1770    18.9380    29.7090   104.0300
  269.5000     8.2480     2.4010     0.0550     0.1500     0.2420    70.9780    -9.7020    28.5220    18.5860    31.9160   104.3280
  270.0000     8.2480     2.3940     0.0460     0.1520     0.2410    72.2550    -8.5090    29.5290    18.7890    31.9160   107.8400
  270.5000     8.2480     2.3610     0.0610     0.1700     0.2370    71.3560    -7.7650    31.0260    19.0830    30.4870   111.0320
  271.0000     8.2480     2.3460     0.0760     0.1820     0.2330    68.6040    -7.1470    32.6440    19.3760    30.8420   112.4880
  271.5000     8.2480     2.3480     0.0700     0.1830     0.2290    68.3070    -6.6090    33.9140    20.1840    31.2330   109.4030
  272.0000     8.2480     2.3850     0.0570     0.1670     0.2260    68.6070    -6.3780    35.3020    20.0850    32.6310   102.2890
  272.5000     8.2480     2.4310     0.0450     0.1380     0.2220    67.6290    -6.2610    34.6990    19.9000    35.8300    95.1740
  273.0000     8.2480     2.4900     0.0480     0.1120     0.2210    65.8970    -6.5940    33.5910    19.2800    40.5040    93.5820
  273.5000     8.2480     2.4800     0.0450     0.0970     0.2240    66.1890    -6.9270    32.7880    19.1040    37.9870    95.6080
  274.0000     8.2500     2.4290     0.0320     0.1300     0.2300    67.7940    -7.2590    32.2100    18.8420    34.4500    99.6590
