~VERSION INFORMATION
 VERS.                2.0:   CWLS LOG ASCII STANDARD - VERSION 2.0
 WRAP.                 NO:   ONE LINE PER DEPTH STEP
~WELL INFORMATION
#MNEM.UNIT      DATA TYPE    INFORMATION
#----------   ------------   ------------------------------
 STRT.F          502.0000:   START DEPTH
 STOP.F         5661.0000:   STOP DEPTH
 STEP.F            0.5000:   STEP LENGTH
 NULL.          -999.2500:   NO VALUE
 COMP. FENIX & SCISSON INC:   COMPANY
 WELL.   NPR 3 #32DX22-22:   WELL
 FLD .             TEAPOT:   FIELD
 LOC .      S22 T38N R78W:   LOCATION
 CNTY.            NATRONA:   COUNTY
 STAT.            WYOMING:   STATE
 CTRY. UNITED STATES OF AMERICA:   COUNTRY
 SRVC.       Schlumberger:   SERVICE COMPANY
 DATE.        29-NOV-1978:   LOGDATE
 API .       490251073100:   API NUMBER
~CURVE INFORMATION
#MNEM.UNIT       API CODE    CURVE DESCRIPTION
#----------   ------------   ------------------------------
 DEPT.F                  :   
 SPR .MV     07 010 01 00:   SPONTANEOUS POTENTIAL
 GRR .GAPI   07 310 01 00:   GAMMA RAY FROM RES. LOG.
 SFL .OHMM   07 220 01 00:   SHALLOW FOCUSED LOG RESISTIVITY
 ILD .OHMM   07 120 46 00:   INDUCTION LOG DEEP
 ILM .OHMM   07 120 44 00:   INDUCTION LOG MEDIUM
 NPHI.DEC    42 890 03 00:   NEUTRON POROSITY SANDSTONE
 DPHI.DEC    45 890 12 00:   DENSITY POROSITY SANDSTONE
 RHOB.G/C3   45 350 01 00:   BULK DENSITY
 CORR.G/C3   45 356 01 00:   DENSITY CORRECTION
 CALD.IN     45 280 60 00:   CALIPER
~PARAMETER INFORMATION
#MNEM.UNIT          VALUE    DESCRIPTION
#----------   ------------   ------------------------------
 PD  .                 GL:   PERMANENT DATUM
 EPD .F              5514:   ELEVATION PERMANENT DATUM
 LMF .                 KB:   LOG MEASURED FROM
 DAPD.F                10:   FEET ABOVE PERMANENT DATUM
 DMF .                 KB:   DRILLING MEASURED FROM
 EKB .F              5524:   KELLING BUSHING
 EGL .F              5514:   GROUND LEVEL
 DATE.           11-29-78:   RUN DATE
 RUN .                  1:   RUN NUMBER
 DD  .F              5680:   DEPTH DRILLER
 DL  .F              5667:   DEPTH LOGGER
 BLI .F              5661:   BOTTOM LOG INTERVAL
 TLI .F               530:   TOP LOG INTERVAL
 CS  .IN            8.625:   CASING SIZE
 CBD .F               513:   CASING BOTTOM DRILLER
 CBL .F               530:   CASING BOTTOM LOGGER
 BS  .IN            7.875:   BIT SIZE
 BSD .F              5680:   BIT SIZE AT DEPTH
 DFT .                FGM:   DRILLING FLUID TYPE
 DFD .                9.2:   DRILLING FLUID DENSITY
 DFV .                 50:   DRILLING FLUID VISCOSITY
 DFPH.               11.5:   DRILLING FLUID PH
 DFL .                6.8:   DRILLING FLUID LOSS
 MSS .               TANK:   MUD SAMPLE SOURCE
 RMS .OHMM           1.45:   RESISTIVITY MUD SAMPLE
 MST .F                56:   MUD SAMPLE TEMPERATURE
 RMF .OHMM           1.16:   RESISTIVITY MUD FILTRATE SAMPLE
 MFST.F                56:   MUD FILTRATE SAMPLE TEMPERATURE
 MFSS.               MEAS:   MUD FILTRATE SAMPLE SOURCE
 RMB .OHMM            .62:   RESISTIVITY MUD AT BHT
 BHT .F               132:   BOTTOM HOLE TEMPERATURE
 TCS .HRS            0700:   TIME CURCULATED STOPPED
 TLAB.HRS            1200:   TIME LOGGER AT BOTTOM
 MRT .F               132:   MAXIMUM RECORDED TEMPERATURE
 LUN .               8039:   LOGGING UNIT NUMBER
 LUL .               CSPR:   LOGGING UNIT LOCATION
 ENGI.           STADULIS:   RECORDING ENGINEER
 WITN.           DINSMORE:   WITNESSED BY
 CLNT.            A2DTECH:   CLIENT CODE
 ORIG.       2", 5" PRINT:   ORIGIN OF DATA
 UWI .       490251073100:   UNIQUE WELL ID
 DICO. A2D Technologies, Inc.:   DIGITIZING COMPANY
~OTHER INFORMATION
~A   DEPT      SPR         GRR       SFL        ILD        ILM       NPHI       DPHI       RHOB       CORR       CALD   
# ...
 2914.0000   -59.2925   101.6002     6.8291     6.6126     6.4640  -999.2500  -999.2500  -999.2500  -999.2500  -999.2500
 2914.5000   -59.2948   101.1630     6.5432     6.3822     6.1985  -999.2500  -999.2500  -999.2500  -999.2500  -999.2500
 2915.0000   -59.3490   103.8613     6.3390     6.2884     6.0062  -999.2500  -999.2500  -999.2500  -999.2500  -999.2500
 2915.5000   -59.4050   105.6749     6.3106     6.2884     6.0920  -999.2500  -999.2500  -999.2500  -999.2500  -999.2500
 2916.0000   -59.4595   101.4054     6.2884     6.3152     6.1790  -999.2500  -999.2500  -999.2500  -999.2500  -999.2500
 2916.5000   -59.4451    96.4971     6.4921     6.4228     6.2673  -999.2500  -999.2500  -999.2500  -999.2500  -999.2500
 2917.0000   -59.0969    94.2554     6.6596     6.5322     6.3464  -999.2500  -999.2500  -999.2500  -999.2500  -999.2500
 2917.5000   -58.8694    97.7477     6.8301     6.5838     6.2188  -999.2500  -999.2500  -999.2500  -999.2500  -999.2500
 2918.0000   -58.6466   101.9935     6.5662     6.2309     6.0616  -999.2500  -999.2500  -999.2500  -999.2500  -999.2500
 2918.5000   -58.4234   106.2157     6.3464     6.3121     6.0956  -999.2500  -999.2500  -999.2500  -999.2500  -999.2500
 2919.0000   -58.2000   110.3735     6.3464     6.3721     6.1536  -999.2500  -999.2500  -999.2500  -999.2500  -999.2500
 2919.5000   -57.9766   112.3445     6.5642     6.4326     6.2309  -999.2500  -999.2500  -999.2500  -999.2500  -999.2500
 2920.0000   -57.7531   110.2172     6.6445     6.4640     6.1526  -999.2500  -999.2500  -999.2500  -999.2500  -999.2500
 2920.5000   -57.5289   106.7062     6.5453     6.3292     6.0071  -999.2500  -999.2500  -999.2500  -999.2500  -999.2500
 2921.0000   -57.3049   104.4177     6.4640     6.2884     6.0835  -999.2500  -999.2500  -999.2500  -999.2500  -999.2500
 2921.5000   -57.2688   105.8653     6.6062     6.4763     6.1886  -999.2500  -999.2500  -999.2500  -999.2500  -999.2500
 2922.0000   -57.4749   109.1360     6.8301     6.6193     6.2311  -999.2500  -999.2500  -999.2500  -999.2500  -999.2500
 2922.5000   -57.7623   110.2657     6.6547     6.7059     6.0589  -999.2500  -999.2500  -999.2500  -999.2500  -999.2500
 2923.0000   -58.0539   108.4633     6.4482     6.3645     5.9395  -999.2500  -999.2500  -999.2500  -999.2500  -999.2500
 2923.5000   -58.3450   107.4818     6.2481     6.2155     5.7895  -999.2500  -999.2500  -999.2500  -999.2500  -999.2500
 2924.0000   -58.6359   107.8167     6.1080     6.1847     5.8224  -999.2500  -999.2500  -999.2500  -999.2500  -999.2500
 2924.5000   -58.9270   107.1477     6.0791     6.1540     5.8685  -999.2500  -999.2500  -999.2500  -999.2500  -999.2500
 2925.0000   -59.2183   105.0246     6.0616     6.1175     5.9148  -999.2500  -999.2500  -999.2500  -999.2500  -999.2500
 2925.5000   -59.5066   102.8790     6.1078     6.1908     5.9612  -999.2500  -999.2500  -999.2500  -999.2500  -999.2500
 2926.0000   -59.7336   100.7067     6.2199     6.2829     6.0069  -999.2500  -999.2500  -999.2500  -999.2500  -999.2500
 2926.5000   -59.8311    98.5355     6.3341     6.3765     6.1327  -999.2500  -999.2500  -999.2500  -999.2500  -999.2500
 2927.0000   -59.9327    96.3682     6.6202     6.4049     6.2884  -999.2500  -999.2500  -999.2500  -999.2500  -999.2500
 2927.5000   -60.0298    94.1614     6.9408     6.4049     6.2518  -999.2500  -999.2500  -999.2500  -999.2500  -999.2500
 2928.0000   -59.9764    93.6575     7.2194     6.5793     6.1841  -999.2500  -999.2500  -999.2500  -999.2500  -999.2500
 2928.5000   -59.4156    97.0017     6.9823     6.7677     6.1177  -999.2500  -999.2500  -999.2500  -999.2500  -999.2500
 2929.0000   -59.1652   100.5926     6.7501     6.6502     6.0990  -999.2500  -999.2500  -999.2500  -999.2500  -999.2500
 2929.5000   -58.9912   102.9941     6.5838     6.5541     6.0813  -999.2500  -999.2500  -999.2500  -999.2500  -999.2500
 2930.0000   -58.8617   103.1406     6.6034     6.5236     6.0633  -999.2500  -999.2500  -999.2500  -999.2500  -999.2500
 2930.5000   -58.7974   102.0980     6.6218     6.5413     6.3464  -999.2500  -999.2500  -999.2500  -999.2500  -999.2500
 2931.0000   -58.7324   103.7576     6.6403     6.5531     6.3128  -999.2500  -999.2500  -999.2500  -999.2500  -999.2500
 2931.5000   -58.6445   106.3795     6.6447     6.5651     6.2907  -999.2500  -999.2500  -999.2500  -999.2500  -999.2500
 2932.0000   -58.5014   108.4918     6.6438     6.5766     6.2687  -999.2500  -999.2500  -999.2500  -999.2500  -999.2500
 2932.5000   -58.3586   105.6721     6.7324     6.6162     6.2468  -999.2500  -999.2500  -999.2500  -999.2500  -999.2500
 2933.0000   -58.2135   102.5518     6.8188     6.6900     6.2309  -999.2500  -999.2500  -999.2500  -999.2500  -999.2500
 2933.5000   -58.0608   100.6359     6.9399     6.7644     6.3253  -999.2500  -999.2500  -999.2500  -999.2500  -999.2500
 2934.0000   -58.9668   101.3997     7.0201     6.8292     6.4640  -999.2500  -999.2500  -999.2500  -999.2500  -999.2500
 2934.5000   -59.9250   101.5721     6.9567     6.7034     6.4520  -999.2500  -999.2500  -999.2500  -999.2500  -999.2500
 2935.0000   -59.8820    96.8361     6.8380     6.6883     6.4359  -999.2500  -999.2500  -999.2500  -999.2500  -999.2500
 2935.5000   -59.8568    91.5927     6.7677     6.6732     6.4200  -999.2500  -999.2500  -999.2500  -999.2500  -999.2500
 2936.0000   -59.8344    90.1061     6.8027     6.6585     6.4049  -999.2500  -999.2500  -999.2500  -999.2500  -999.2500
 2936.5000   -59.8122    89.8197     6.8301     6.6442     6.2640  -999.2500  -999.2500  -999.2500  -999.2500  -999.2500
 2937.0000   -59.7901    90.5688     6.5246     6.5988     6.1337  -999.2500  -999.2500  -999.2500  -999.2500  -999.2500
 2937.5000   -59.7679    91.6491     6.0616     6.5565     5.9513  -999.2500  -999.2500  -999.2500  -999.2500  -999.2500
 2938.0000   -59.7458    94.3326     6.0839     6.5147     5.9711  -999.2500  -999.2500  -999.2500  -999.2500  -999.2500
 2938.5000   -59.7238    95.6890     6.1237     6.4732     6.0065  -999.2500  -999.2500  -999.2500  -999.2500  -999.2500
 2939.0000   -59.7039    97.1069     6.1638     6.4319     6.0423  -999.2500  -999.2500  -999.2500  -999.2500  -999.2500
 2939.5000   -59.5928    98.8510     6.2041     6.3907     6.0615  -999.2500  -999.2500  -999.2500  -999.2500  -999.2500
 2940.0000   -59.4500   103.0079     6.2447     6.3500     6.0384  -999.2500  -999.2500  -999.2500  -999.2500  -999.2500
 2940.5000   -59.2487   107.0172     6.2856     6.4280     6.0226  -999.2500  -999.2500  -999.2500  -999.2500  -999.2500
 2941.0000   -59.0520   108.8751     6.3267     6.5200     6.0062  -999.2500  -999.2500  -999.2500  -999.2500  -999.2500
 2941.5000   -58.8554   105.7688     6.3681     6.6149     6.1315  -999.2500  -999.2500  -999.2500  -999.2500  -999.2500
 2942.0000   -58.6587    99.1153     6.4098     6.7059     6.2650  -999.2500  -999.2500  -999.2500  -999.2500  -999.2500
 2942.5000   -58.4620    94.8874     6.4517     6.6946     6.3345  -999.2500  -999.2500  -999.2500  -999.2500  -999.2500
 2943.0000   -58.2653    95.1379     6.4940     6.7558     6.3909  -999.2500  -999.2500  -999.2500  -999.2500  -999.2500
 2943.5000   -58.0686   101.0572     6.5936     6.8175     6.4479  -999.2500  -999.2500  -999.2500  -999.2500  -999.2500
 2944.0000   -57.8713   106.4774     6.8317     6.8799     6.5747  -999.2500  -999.2500  -999.2500  -999.2500  -999.2500
 2944.5000   -57.6706   108.9685     6.9749     6.9572     6.7059  -999.2500  -999.2500  -999.2500  -999.2500  -999.2500
 2945.0000   -57.4930   106.0765     7.0209     6.9158     6.4640  -999.2500  -999.2500  -999.2500  -999.2500  -999.2500
 2945.5000   -57.9815   101.0677     6.9085     6.8461     6.2634  -999.2500  -999.2500  -999.2500  -999.2500  -999.2500
 2946.0000   -58.5099    97.1787     6.6677     6.7770     6.1175  -999.2500  -999.2500  -999.2500  -999.2500  -999.2500
 2946.5000   -58.8032    94.4026     6.4073     6.6622     6.2309  -999.2500  -999.2500  -999.2500  -999.2500  -999.2500
 2947.0000   -58.9821    97.2549     6.1580     6.5421     6.0055  -999.2500  -999.2500  -999.2500  -999.2500  -999.2500
