~VERSION INFORMATION
 VERS.                2.0:   CWLS LOG ASCII STANDARD - VERSION 2.0
 WRAP.                 NO:   ONE LINE PER DEPTH STEP
~WELL INFORMATION
#MNEM.UNIT      DATA TYPE    INFORMATION
#----------   ------------   ------------------------------
 STRT.F           39.5000:   START DEPTH
 STOP.F          591.0000:   STOP DEPTH
 STEP.F            0.5000:   STEP LENGTH
 NULL.          -999.2500:   NO VALUE
 COMP. FENIX & SCISSON INC:   COMPANY
 WELL.      26 SX 3 #26-3:   WELL
 FLD .             TEAPOT:   FIELD
 LOC .       S3 T38N R78W:   LOCATION
 CNTY.            NATRONA:   COUNTY
 STAT.            WYOMING:   STATE
 CTRY. UNITED STATES OF AMERICA:   COUNTRY
 SRVC.           BIRDWELL:   SERVICE COMPANY
 DATE.        01-OCT-1978:   LOGDATE
 API .       490251071500:   API NUMBER
~CURVE INFORMATION
#MNEM.UNIT       API CODE    CURVE DESCRIPTION
#----------   ------------   ------------------------------
 DEPT.F                  :   
 SPR .MV     05 010 01 00:   SPONTANEOUS POTENTIAL FROM RES.
 SN  .OHMM   05 040 16 00:   SHORT NORMAL 16"
 ILD .OHMM   05 120 46 00:   INDUCTION LOG DEEP
 RHOB.G/C3   45 350 01 00:   BULK DENSITY
 CORR.G/C3   45 356 01 00:   DENSITY CORRECTION
 DPHI.DEC    45 890 12 00:   DENSITY POROSITY SANDSTONE
 GRD .GAPI   45 310 01 00:   GAMMA RAY FROM DENSITY LOG
 CALD.IN     45 280 60 00:   CALIPER
~PARAMETER INFORMATION
#MNEM.UNIT          VALUE    DESCRIPTION
#----------   ------------   ------------------------------
 PD  .                 GL:   PERMANENT DATUM
 EPD .F              5225:   ELEVATION PERMANENT DATUM
 LMF .                 KB:   LOG MEASURED FROM
 DAPD.F                 4:   FEET ABOVE PERMANENT DATUM
 DMF .                 KB:   DRILLING MEASURED FROM
 EKB .F              5229:   KELLING BUSHING
 EGL .F              5225:   GROUND LEVEL
 DATE.            10-1-78:   RUN DATE
 RUN .                  1:   RUN NUMBER
 DD  .F               600:   DEPTH DRILLER
 DL  .F               597:   DEPTH LOGGER
 BLI .F               591:   BOTTOM LOG INTERVAL
 TLI .F                60:   TOP LOG INTERVAL
 CS  .IN            8.625:   CASING SIZE
 CBD .F                40:   CASING BOTTOM DRILLER
 BS  .IN            7.875:   BIT SIZE
 BSD .F               600:   BIT SIZE AT DEPTH
 DFT .                KCL:   DRILLING FLUID TYPE
 DFD .                8.7:   DRILLING FLUID DENSITY
 DFV .                 34:   DRILLING FLUID VISCOSITY
 DFPH.                  9:   DRILLING FLUID PH
 DFL .                 10:   DRILLING FLUID LOSS
 MSS .            MUD PIT:   MUD SAMPLE SOURCE
 RMS .OHMM            .24:   RESISTIVITY MUD SAMPLE
 MST .F                65:   MUD SAMPLE TEMPERATURE
 RMF .OHMM            .45:   RESISTIVITY MUD FILTRATE SAMPLE
 MFST.F                65:   MUD FILTRATE SAMPLE TEMPERATURE
 RMC .OHMM             .4:   RESISTIVITY MUD CAKE
 MCST.F                65:   MUD CAKE SAMPLE TEMPERATURE
 MFSS.               MEAS:   MUD FILTRATE SAMPLE SOURCE
 TCS .HRS               3:   TIME CURCULATED STOPPED
 LUN .               2958:   LOGGING UNIT NUMBER
 LUL .               CASP:   LOGGING UNIT LOCATION
 ENGI.             MILLER:   RECORDING ENGINEER
 WITN.           DINSMORE:   WITNESSED BY
 CLNT.            A2DTECH:   CLIENT CODE
 ORIG.       2", 5" PRINT:   ORIGIN OF DATA
 UWI .       490251071500:   UNIQUE WELL ID
 DICO. A2D Technologies, Inc.:   DIGITIZING COMPANY
~OTHER INFORMATION
~A   DEPT      SPR         SN        ILD       RHOB       CORR       DPHI        GRD         CALD 
# ...
  323.0000   -11.8669     7.8664     8.1827     2.5016     0.0091     0.1023   159.0118     7.7099
  323.5000   -11.9414     7.8733     8.1861     2.5034     0.0087     0.1024   164.4117     7.7192
  324.0000   -12.0147     7.8801     8.1895     2.5040     0.0085     0.1025   169.0246     7.7285
  324.5000   -12.0848     7.8870     8.1930     2.5040     0.0083     0.1026   168.9719     7.7377
  325.0000   -12.3239     7.8938     8.1964     2.5037     0.0081     0.1028   165.1142     7.7470
  325.5000   -12.5744     7.9007     8.1999     2.5034     0.0079     0.1032   166.5536     7.7562
  326.0000   -12.8250     7.9076     8.2049     2.5030     0.0077     0.1035   169.3889     7.7655
  326.5000   -13.0664     7.9111     8.2085     2.5027     0.0074     0.1039   171.2597     7.7748
  327.0000   -13.0646     7.5863     8.0744     2.5023     0.0072     0.1063   169.1030     7.7840
  327.5000   -13.0497     7.3758     7.9281     2.5013     0.0071     0.1125   166.9036     7.7933
  328.0000   -13.0357     7.1711     7.7888     2.4955     0.0092     0.1198   166.7648     7.8018
  328.5000   -13.0221     6.9721     7.4255     2.4818     0.0114     0.1310   167.7504     7.7999
  329.0000   -13.0084     6.7786     7.0571     2.4601     0.0136     0.1426   168.0246     7.7978
  329.5000   -12.9948     6.5905     6.7056     2.4453     0.0105     0.1312   164.2306     7.7957
  330.0000   -12.9812     6.4074     6.5099     2.4532    -0.0012     0.1233   159.6966     7.7937
  330.5000   -12.9675     6.3233     6.4802     2.4667    -0.0030     0.1182   155.5672     7.7916
  331.0000   -12.9539     6.2894     6.4506     2.4783    -0.0030     0.1172   155.0926     7.7896
  331.5000   -12.9402     6.2555     6.4212     2.4820    -0.0030     0.1216   153.8846     7.7876
  332.0000   -12.9266     6.2216     6.3919     2.4791    -0.0030     0.1266   152.4189     7.7855
  332.5000   -12.9129     6.1880     6.3627     2.4697    -0.0016     0.1356   151.2903     7.7835
  333.0000   -12.8993     6.1545     6.3337     2.4564     0.0044     0.1440   152.9633     7.7814
  333.5000   -12.8857     6.1212     6.3048     2.4431     0.0102     0.1489   157.9426     7.7794
  334.0000   -12.8744     6.0881     6.2760     2.4297     0.0115     0.1409   159.0863     7.7774
  334.5000   -12.8745     6.0551     6.2473     2.4434     0.0088     0.1108   162.3851     7.7753
  335.0000   -12.8444     6.0224     6.2187     2.4697     0.0059     0.1057   163.4739     7.7733
  335.5000   -12.6437     5.9898     6.1905     2.4928     0.0031     0.1006   163.8194     7.7712
  336.0000   -12.4434     5.9513     6.1739     2.5094     0.0022     0.0998   162.4515     7.7692
  336.5000   -12.2444     6.2789     6.5508     2.5072     0.0012     0.1022   158.9661     7.7672
  337.0000   -12.0712     6.7059     6.8299     2.5040     0.0002     0.1032   153.9112     7.7651
  337.5000   -12.0752     6.8391     7.0858     2.5011    -0.0009     0.1016   151.0503     7.7633
  338.0000   -12.0758     6.9043     7.3500     2.5028    -0.0019     0.1011   151.5931     7.7477
  338.5000   -12.0758     6.9229     7.6236     2.5046    -0.0029     0.1023   154.5870     7.7257
  339.0000   -12.0758     6.9415     7.9111     2.5064    -0.0040     0.1035   156.3035     7.7034
  339.5000   -12.0758     6.9567     7.9111     2.5067    -0.0050     0.1046   154.7263     7.6812
  340.0000   -12.0758     6.8716     7.8120     2.5067    -0.0061     0.1198   150.7303     7.6589
  340.5000   -12.0758     6.8006     7.2853     2.4881    -0.0066     0.1344   143.7591     7.6368
  341.0000   -12.0758     6.7302     6.7941     2.4607     0.0036     0.1489   135.8409     7.6145
  341.5000   -12.0758     6.6607     6.3361     2.4337     0.0186     0.1607   133.7435     7.6355
  342.0000   -12.0758     6.4305     6.0073     2.4125     0.0314     0.1686   134.5932     7.6959
  342.5000   -12.0758     6.1618     5.8611     2.3970     0.0204     0.1495   137.4758     7.6210
  343.0000   -12.0758     5.8430     5.7186     2.4215    -0.0038     0.1348   141.4217     7.5788
  343.5000   -12.0758     5.8719     5.6842     2.4589    -0.0032     0.1211   145.4619     7.5704
  344.0000   -12.0758     5.9103     5.6842     2.4707    -0.0009     0.1134   146.2000     7.5524
  344.5000   -12.0758     5.9513     5.6842     2.4876     0.0012     0.1054   144.5079     7.4793
  345.0000   -12.0758     6.2329     5.7887     2.4941     0.0024     0.1031   140.5668     7.4426
  345.5000   -12.0758     6.5459     6.1059     2.5008     0.0036     0.1007   136.1152     7.4133
  346.0000   -12.0758     6.8746     6.4405     2.5078     0.0048     0.1013   134.9894     7.3898
  346.5000   -12.0758     7.2199     6.7934     2.5085     0.0060     0.1031   135.3657     7.4711
  347.0000   -12.0758     7.5853     7.1657     2.5056     0.0071     0.1020   136.7867     7.4989
  347.5000   -12.0758     7.8942     7.4531     2.5027     0.0083     0.1002   138.9023     7.5156
  348.0000   -12.0758     8.0803     7.6531     2.5105     0.0089     0.0986   144.3811     7.5164
  348.5000   -12.0758     8.2661     7.8584     2.5191     0.0087     0.0865   145.6855     7.5357
  349.0000   -12.0758     8.4573     8.0692     2.5274     0.0084     0.0847   141.3618     7.6036
  349.5000   -12.0758     8.5927     8.1503     2.5325     0.0081     0.0842   135.3242     7.6257
  350.0000   -12.0758     8.5441     8.1762     2.5362     0.0078     0.0838   123.4417     7.6291
  350.5000   -12.0758     8.5071     8.2022     2.5357     0.0076     0.0856   123.0364     7.6322
  351.0000   -12.0758     8.4702     8.2283     2.5338     0.0073     0.0873   123.4674     7.6353
  351.5000   -12.0758     8.4335     8.2545     2.5318     0.0070     0.0890   123.3483     7.6383
  352.0000   -12.0758     8.3969     8.2826     2.5299     0.0072     0.0944   123.0682     7.6417
  352.5000   -12.0758     8.3605     8.3105     2.5234     0.0073     0.0988   123.1629     7.6556
  353.0000   -12.0758     8.3243     8.3408     2.5133     0.0075     0.1006   124.2043     7.7729
  353.5000   -12.0758     8.2882     8.3712     2.5071     0.0077     0.1013   126.6407     7.6419
  354.0000   -12.0758     8.2523     8.4017     2.5053     0.0079     0.1005   131.7017     7.6357
  354.5000   -12.0758     8.2160     8.4323     2.5073     0.0080     0.0991   133.8517     7.6274
  355.0000   -12.0758     8.2013     8.4630     2.5093     0.0082     0.0978   131.4896     7.6504
  355.5000   -12.0758     8.1931     8.4940     2.5113     0.0084     0.0968   126.9846     7.6233
  356.0000   -12.0758     8.1851     8.5596     2.5138     0.0086     0.0958   121.1152     7.6489
  356.5000   -12.0758     8.1771     8.6922     2.5165     0.0087     0.0949   120.6161     7.7636
  357.0000   -12.0758     8.1691     8.8268     2.5193     0.0088     0.0939   120.9424     7.7943
  357.5000   -12.0758     8.1611     8.9635     2.5220     0.0047     0.0930   121.2803     7.7786
  358.0000   -12.0758     8.1532     9.1023     2.5237    -0.0045     0.0939   122.5987     7.7630
  358.5000   -12.0758     8.1453     9.1632     2.5173    -0.0030     0.1040   124.0398     7.7472
  359.0000   -12.0758     8.1358     9.1632     2.5047     0.0025     0.1159   125.5076     7.7315
  359.5000   -12.0758     8.0361     9.0072     2.4903     0.0081     0.1284   126.7415     7.7158
  360.0000   -12.0758     7.7855     8.1667     2.4647     0.0165     0.1409   129.8972     7.7048
  360.5000   -12.0758     7.5426     7.4047     2.4376     0.0418     0.1645   136.2455     7.7186
  361.0000   -12.0762     7.3065     6.7059     2.4104     0.0618     0.1738   137.8858     7.7323
  361.5000   -12.0786     7.0768     6.6505     2.3867     0.0309     0.1230   139.0624     7.7536
  362.0000   -12.0781     6.7677     6.5838     2.4369     0.0261     0.1114   141.3190     7.7967
  362.5000   -11.8919     6.8109     6.6681     2.4962     0.0264     0.0951   143.7419     7.6889
  363.0000   -10.5579     6.8837     6.8115     2.5054     0.0280     0.0862   142.0320     7.5821
