~VERSION INFORMATION
 VERS.                2.0:   CWLS LOG ASCII STANDARD - VERSION 2.0
 WRAP.                 NO:   ONE LINE PER DEPTH STEP
~WELL INFORMATION
#MNEM.UNIT      DATA TYPE    INFORMATION
#----------   ------------   ------------------------------
 STRT.F            2.0000:   START DEPTH
 STOP.F          602.0000:   STOP DEPTH
 STEP.F            0.1000:   STEP LENGTH
 NULL.          -999.2500:   NO VALUE
 COMP.       F D SERV INC:   COMPANY
 WELL.    63-1 SX-3 #63-3:   WELL
 FLD .             TEAPOT:   FIELD
 LOC .       S3 T38N R78W:   LOCATION
 CNTY.            NATRONA:   COUNTY
 STAT.            WYOMING:   STATE
 CTRY. UNITED STATES OF AMERICA:   COUNTRY
 SRVC.     Atlas Wireline:   SERVICE COMPANY
 DATE.        20-APR-1992:   LOGDATE
 API .       490252251300:   API NUMBER
~CURVE INFORMATION
#MNEM.UNIT       API CODE    CURVE DESCRIPTION
#----------   ------------   ------------------------------
 DEPT.F                  :   
 GRR .GAPI   07 310 01 00:   GAMMA RAY
 RILD.OHMM   07 120 46 00:   INDUCTION LOG DEEP RESISTIVITY
 RILM.OHMM   07 120 44 00:   INDUCTION LOG MEDIUM RESISTIVITY
~PARAMETER INFORMATION
#MNEM.UNIT          VALUE    DESCRIPTION
#----------   ------------   ------------------------------
 PD  .                 GL:   PERMANENT DATUM
 EPD .F              5176:   ELEVATION PERMANENT DATUM
 LMF .                 KB:   LOG MEASURED FROM
 DAPD.F                 5:   FEET ABOVE PERMANENT DATUM
 DMF .                 KB:   DRILLING MEASURED FROM
 EKB .F              5181:   KELLING BUSHING
 EDF .F              5180:   DRILLING FLOOR
 EGL .F              5176:   GROUND LEVEL
 DATE.        20-APR-1992:   RUN DATE
 RUN .                  1:   RUN NUMBER
 DD  .F               608:   DEPTH DRILLER
 DL  .F               608:   DEPTH LOGGER
 BLI .F               602:   BOTTOM LOG INTERVAL
 CS  .IN            8.625:   CASING SIZE
 CBD .F                48:   CASING BOTTOM DRILLER
 CBL .F                50:   CASING BOTTOM LOGGER
 BS  .IN            7.875:   BIT SIZE
 BSD .F               608:   BIT SIZE AT DEPTH
 DFT .                AIR:   DRILLING FLUID TYPE
 TCS .HRS               2:   TIME CURCULATED STOPPED
 MRT .F                85:   MAXIMUM RECORDED TEMPERATURE
 LUN .           HL- 6274:   LOGGING UNIT NUMBER
 LUL .             CASPER:   LOGGING UNIT LOCATION
 ENGI.             RAUTIO:   RECORDING ENGINEER
 WITN.        GARY STRONG:   WITNESSED BY
 CLNT.            A2DTECH:   CLIENT CODE
 ORIG.           5" PRINT:   ORIGIN OF DATA
 UWI .       490252251300:   UNIQUE WELL ID
 DICO. A2D Technologies, Inc.:   DIGITIZING COMPANY
~OTHER INFORMATION
~A    DEPT      GRR      RILD       RILM   
# ...
  293.2000   131.8805     6.4010     6.2124
  293.3000   131.8842     6.3826     6.1419
  293.4000   131.8882     6.3466     6.0598
  293.5000   131.8914     6.3108     6.0034
  293.6000   131.8950     6.2692     5.9353
  293.7000   131.6918     6.2105     5.8680
  293.8000   131.0143     6.1404     5.8060
  293.9000   129.4927     6.0710     5.7702
  294.0000   128.5471     6.0025     5.6807
  294.1000   128.2932     5.9293     5.6282
  294.2000   128.2968     5.8985     5.5961
  294.3000   128.3004     5.8194     5.5568
  294.4000   128.3041     5.7211     5.4937
  294.5000   128.3083     5.6318     5.4315
  294.6000   128.5149     5.5678     5.3699
  294.7000   128.7642     5.4739     5.3089
  294.8000   129.3804     5.4053     5.2292
  294.9000   130.6131     5.3276     5.1111
  295.0000   131.9460     5.2089     4.9818
  295.1000   133.3022     5.0419     4.9323
  295.2000   134.6111     4.9458     4.8764
  295.3000   135.6163     4.8730     4.8210
  295.4000   136.4153     4.7733     4.7663
  295.5000   137.3975     4.6878     4.7106
  295.6000   137.8930     4.6348     4.6588
  295.7000   138.3880     4.5805     4.6451
  295.8000   138.8831     4.5807     4.6178
  295.9000   139.5384     4.5428     4.5729
  296.0000   140.4765     4.5044     4.5469
  296.1000   141.0358     4.4790     4.5168
  296.2000   141.4668     4.4538     4.4738
  296.3000   141.9620     4.4243     4.4385
  296.4000   142.4572     4.4037     4.4133
  296.5000   142.8597     4.3938     4.3841
  296.6000   142.8635     4.3940     4.3310
  296.7000   143.1030     4.3906     4.3310
  296.8000   143.3524     4.3637     4.2963
  296.9000   143.4775     4.3412     4.2708
  297.0000   143.5495     4.3336     4.2707
  297.1000   143.7864     4.3338     4.2706
  297.2000   143.7907     4.3340     4.2706
  297.3000   143.9960     4.3342     4.2705
  297.4000   143.9525     4.3344     4.2705
  297.5000   143.7104     4.3345     4.2704
  297.6000   143.4682     4.3621     4.2733
  297.7000   143.2051     4.3960     4.3002
  297.8000   142.9839     4.4009     4.3222
  297.9000   142.2362     4.4583     4.3302
  298.0000   140.8065     4.4584     4.3302
  298.1000   138.9573     4.4914     4.3355
  298.2000   137.4878     4.5217     4.3604
  298.3000   136.2619     4.5314     4.3850
  298.4000   135.4184     4.5857     4.4100
  298.5000   134.6848     4.5859     4.4352
  298.6000   132.5318     4.6053     4.4684
  298.7000   127.8107     4.6318     4.5195
  298.8000   127.2572     4.6584     4.5787
  298.9000   125.9837     4.6852     4.6236
  299.0000   126.0815     4.7170     4.6935
  299.1000   127.1691     4.7393     4.7632
  299.2000   128.3111     4.7991     4.8226
  299.3000   129.0849     4.8717     4.9097
  299.4000   130.0278     4.9277     4.9632
  299.5000   131.5517     4.9895     5.0200
  299.6000   133.8908     5.0947     5.0775
  299.7000   136.5743     5.1716     5.1276
  299.8000   138.4881     5.2311     5.1568
  299.9000   139.3636     5.2912     5.1916
  300.0000   139.0404     5.3520     5.2360
  300.1000   138.6452     5.4369     5.2903
  300.2000   138.2499     5.5218     5.3446
  300.3000   137.8547     5.6066     5.3989
  300.4000   137.4595     5.6990     5.4589
  300.5000   137.1392     5.7585     5.5213
  300.6000   136.8294     5.8245     5.5844
  300.7000   136.3583     5.8911     5.6500
  300.8000   136.3598     5.9665     5.7646
  300.9000   136.1619     6.0686     5.8465
  301.0000   135.9176     6.1032     5.9678
  301.1000   135.7599     6.1654     6.1052
  301.2000   135.7306     6.2359     6.2403
  301.3000   135.4608     6.2954     6.3566
  301.4000   135.2417     6.3348     6.4573
  301.5000   134.9974     6.4165     6.5426
  301.6000   134.7531     6.4484     6.5824
  301.7000   134.4572     6.4851     6.6002
  301.8000   133.9584     6.5378     6.6757
  301.9000   133.9596     6.5979     6.7522
  302.0000   133.5908     6.5977     6.7686
  302.1000   133.2297     6.6708     6.8119
  302.2000   132.9124     6.6902     6.8898
  302.3000   132.4394     6.7295     6.9644
  302.4000   132.1559     6.7952     7.0089
  302.5000   132.5691     6.8339     7.0440
  302.6000   133.2113     6.8792     7.0842
  302.7000   133.9491     6.9450     7.1246
  302.8000   134.6494     7.0001     7.1652
  302.9000   135.1784     7.0399     7.2071
  303.0000   135.6341     7.0862     7.2471
  303.1000   135.7841     7.1730     7.2574
  303.2000   135.9004     7.2109     7.2789
  303.3000   136.1470     7.2520     7.3203
  303.4000   136.3909     7.2735     7.3592
  303.5000   136.1438     7.2941     7.3591
  303.6000   136.0917     7.3755     7.3590
  303.7000   135.9568     7.3752     7.3590
  303.8000   135.7925     7.3751     7.3588
  303.9000   135.7936     7.3989     7.3587
  304.0000   135.7950     7.4264     7.3586
  304.1000   135.7961     7.4262     7.3585
  304.2000   135.7973     7.4260     7.3584
  304.3000   135.7985     7.4258     7.3583
  304.4000   135.7997     7.4256     7.3582
  304.5000   135.8010     7.4070     7.3581
  304.6000   135.8021     7.3734     7.3580
  304.7000   135.8033     7.3732     7.3579
  304.8000   135.8045     7.3730     7.3578
  304.9000   135.8057     7.3728     7.3577
  305.0000   135.8069     7.3726     7.3524
  305.1000   135.8084     7.3724     7.3062
  305.2000   135.8094     7.3722     7.2689
  305.3000   135.8106     7.3720     7.2551
  305.4000   135.8117     7.3718     7.2551
  305.5000   135.7818     7.3454     7.2550
  305.6000   135.5126     7.3034     7.2549
  305.7000   134.8517     7.2688     7.2547
  305.8000   134.2810     7.2686     7.2232
  305.9000   133.7912     7.2684     7.2041
  306.0000   133.3012     7.2682     7.1913
  306.1000   132.8036     7.2476     7.1537
  306.2000   132.5631     7.2171     7.1536
  306.3000   132.6900     7.2152     7.1535
  306.4000   132.9367     7.1664     7.1022
  306.5000   133.1835     7.1662     7.0540
  306.6000   133.4130     7.1660     7.0468
  306.7000   133.4144     7.1658     7.0047
  306.8000   133.4154     7.1601     6.9668
  306.9000   133.4165     7.1155     6.9557
  307.0000   133.4178     7.0786     6.9556
  307.1000   133.4190     7.0381     6.9341
  307.2000   133.4203     7.0160     6.8589
  307.3000   133.4214     7.0068     6.8588
  307.4000   133.2508     6.9667     6.8268
  307.5000   133.0066     6.9269     6.7879
  307.6000   132.8217     6.8873     6.7633
  307.7000   132.8229     6.8694     6.7578
  307.8000   132.8241     6.8567     6.7160
  307.9000   132.6325     6.8175     6.6465
  308.0000   132.5249     6.7734     6.5968
  308.1000   133.1720     6.7066     6.5592
  308.2000   135.1125     6.6304     6.5218
  308.3000   137.0536     6.5705     6.4850
  308.4000   138.1247     6.5329     6.4848
  308.5000   139.0376     6.4942     6.4560
  308.6000   139.8772     6.4232     6.4193
  308.7000   140.8151     6.3502     6.3709
  308.8000   141.5844     6.2780     6.2986
  308.9000   141.3504     6.2066     6.2181
  309.0000   140.9272     6.1360     6.1565
  309.1000   140.4373     6.0545     6.0867
  309.2000   139.8805     5.9692     6.0033
  309.3000   139.1347     5.9082     5.9014
  309.4000   137.9719     5.8618     5.7980
  309.5000   137.3728     5.7951     5.7344
  309.6000   136.6374     5.7243     5.6457
  309.7000   135.9016     5.6346     5.5824
  309.8000   135.2296     5.5829     5.5415
  309.9000   134.9612     5.5362     5.4785
  310.0000   134.7410     5.4808     5.4062
  310.1000   134.3315     5.4495     5.3550
  310.2000   133.9508     5.4184     5.2942
  310.3000   133.7593     5.3632     5.2570
  310.4000   133.7605     5.3193     5.2476
  310.5000   134.4884     5.2889     5.1839
  310.6000   135.5988     5.2554     5.1293
  310.7000   137.0886     5.1888     5.1118
  310.8000   138.5866     5.1366     5.0841
  310.9000   139.5698     5.0973     5.0335
  311.0000   140.7061     5.0681     5.0049
  311.1000   141.5365     5.0333     4.9764
  311.2000   142.2174     4.9749     4.9705
  311.3000   142.7096     4.9747     4.9705
