~VERSION INFORMATION
 VERS.                2.0:   CWLS LOG ASCII STANDARD - VERSION 2.0
 WRAP.                 NO:   ONE LINE PER DEPTH STEP
~WELL INFORMATION
#MNEM.UNIT      DATA TYPE    INFORMATION
#----------   ------------   ------------------------------
 STRT.F           48.0000:   START DEPTH
 STOP.F          650.0000:   STOP DEPTH
 STEP.F            0.5000:   STEP LENGTH
 NULL.          -999.2500:   NO VALUE
 COMP. FENIX & SCISSON INC:   COMPANY
 WELL.    36 SX 34 #36-34:   WELL
 FLD .             TEAPOT:   FIELD
 LOC .      S34 T39N R78W:   LOCATION
 CNTY.            NATRONA:   COUNTY
 STAT.            WYOMING:   STATE
 CTRY. UNITED STATES OF AMERICA:   COUNTRY
 SRVC.            Unknown:   SERVICE COMPANY
 DATE.        19-JAN-1979:   LOGDATE
 API .       490251076800:   API NUMBER
~CURVE INFORMATION
#MNEM.UNIT       API CODE    CURVE DESCRIPTION
#----------   ------------   ------------------------------
 DEPT.F                  :   
 SPR .MV     05 010 01 00:   SPONTANEOUS POTENTIAL FROM RES.
 SN  .OHMM   05 040 16 00:   SHORT NORMAL 16"
 IL  .OHMM   05 120 00 00:   INDUCTION LOG
 CALD.IN     45 280 60 00:   CALIPER
 GRD .GAPI   45 310 01 00:   GAMMA RAY FROM DENSITY LOG
 RHOB.G/C3   45 350 01 00:   BULK DENSITY
 DPHI.DEC    45 890 12 00:   DENSITY POROSITY SANDSTONE
 CORR.G/C3   45 356 01 00:   DENSITY CORRECTION
~PARAMETER INFORMATION
#MNEM.UNIT          VALUE    DESCRIPTION
#----------   ------------   ------------------------------
 PD  .                 GL:   PERMANENT DATUM
 EPD .F              5125:   ELEVATION PERMANENT DATUM
 LMF .                 KB:   LOG MEASURED FROM
 DAPD.F                 4:   FEET ABOVE PERMANENT DATUM
 DMF .                 KB:   DRILLING MEASURED FROM
 EKB .F              5129:   KELLING BUSHING
 EGL .F              5125:   GROUND LEVEL
 DATE.            1-19-79:   RUN DATE
 RUN .                  1:   RUN NUMBER
 DD  .F               650:   DEPTH DRILLER
 DL  .F               650:   DEPTH LOGGER
 BLI .F               643:   BOTTOM LOG INTERVAL
 TLI .F                50:   TOP LOG INTERVAL
 CS  .IN            8.625:   CASING SIZE
 CBD .F                40:   CASING BOTTOM DRILLER
 CBL .F                36:   CASING BOTTOM LOGGER
 BS  .IN            7.875:   BIT SIZE
 BSD .F               650:   BIT SIZE AT DEPTH
 DFT .                KCL:   DRILLING FLUID TYPE
 DFD .                8.8:   DRILLING FLUID DENSITY
 DFV .                 34:   DRILLING FLUID VISCOSITY
 DFL .                8.8:   DRILLING FLUID LOSS
 MSS .           FLOWLINE:   MUD SAMPLE SOURCE
 RMS .OHMM            .17:   RESISTIVITY MUD SAMPLE
 MST .F                62:   MUD SAMPLE TEMPERATURE
 RMF .OHMM            .15:   RESISTIVITY MUD FILTRATE SAMPLE
 MFST.F                62:   MUD FILTRATE SAMPLE TEMPERATURE
 RMC .OHMM            .22:   RESISTIVITY MUD CAKE
 MCST.F                63:   MUD CAKE SAMPLE TEMPERATURE
 MFSS.           MEASURED:   MUD FILTRATE SAMPLE SOURCE
 MCSS.           MEASURED:   MUD CAKE SAMPLE SOURCE
 RMB .OHMM            .18:   RESISTIVITY MUD AT BHT
 BHT .F                60:   BOTTOM HOLE TEMPERATURE
 TCS .HRS               3:   TIME CURCULATED STOPPED
 MRT .F                60:   MAXIMUM RECORDED TEMPERATURE
 LUN .                 30:   LOGGING UNIT NUMBER
 LUL .             CASPER:   LOGGING UNIT LOCATION
 ENGI.         B. ROLLINS:   RECORDING ENGINEER
 WITN.           DINSMORE:   WITNESSED BY
 CLNT.            A2DTECH:   CLIENT CODE
 ORIG.           5" PRINT:   ORIGIN OF DATA
 UWI .       490251076800:   UNIQUE WELL ID
 DICO. A2D Technologies, Inc.:   DIGITIZING COMPANY
~OTHER INFORMATION
~A   DEPT      SPR           SN        IL      CALD        GRD       RHOB       DPHI       CORR   
# ...
  574.5000   -46.7010     9.7040    14.3350     8.1680    91.7630     2.3810     0.1670     0.0380
  575.0000   -47.1950     9.6700    14.0530     8.1530    93.2110     2.3940     0.1600     0.0440
  575.5000   -47.6880     9.6360    13.7700     8.1380    91.6260     2.4120     0.1510     0.0500
  576.0000   -48.1790     9.6020    13.4880     8.1220    90.4900     2.4290     0.1410     0.0500
  576.5000   -48.6150     9.5680    13.2060     8.1080    92.7550     2.4330     0.1370     0.0470
  577.0000   -49.0180     9.5360    12.9230     8.0910    89.3370     2.4340     0.1350     0.0440
  577.5000   -49.4540     9.5240    12.6410     8.0570    84.0810     2.4400     0.1330     0.0450
  578.0000   -49.8900     9.5110    12.3580     8.0550    80.9550     2.4500     0.1280     0.0460
  578.5000   -50.3140     9.4990    12.0760     8.7390    83.2570     2.4600     0.1230     0.0470
  579.0000   -50.8310     9.4870    11.8000     8.3990    86.1490     2.4680     0.1200     0.0450
  579.5000   -51.3370     9.4740    11.8000     8.0960    89.3120     2.4590     0.1230     0.0330
  580.0000   -51.8480     9.4620    11.6910     8.0580    88.3710     2.4570     0.1210     0.0340
  580.5000   -52.3550     9.4500    11.7010     8.0650    87.1480     2.4660     0.1190     0.0370
  581.0000   -53.1170     9.4380    11.7630     8.0860    86.4990     2.4700     0.1170     0.0400
  581.5000   -53.9520     9.4250    11.8250     8.1070    85.0750     2.4710     0.1160     0.0420
  582.0000   -53.8140     9.4130    11.8860     8.1280    84.4800     2.4770     0.1150     0.0470
  582.5000   -53.6620     9.4010    11.9480     8.1480    88.4260     2.4780     0.1140     0.0500
  583.0000   -53.6550     9.3880    12.0100     8.1690    90.3040     2.4760     0.1130     0.0490
  583.5000   -53.8820     9.3760    12.0720     8.1900    91.0890     2.4840     0.1110     0.0490
  584.0000   -54.3470     9.3640    12.1330     8.2110    93.1210     2.5000     0.1100     0.0530
  584.5000   -54.8110     9.3520    12.1950     8.2310    96.5680     2.4890     0.1120     0.0440
  585.0000   -55.2760     9.3390    12.2570     8.2510    95.1990     2.4730     0.1150     0.0360
  585.5000   -55.7350     9.3270    12.3190     8.2530    93.3130     2.4780     0.1160     0.0380
  586.0000   -55.4620     9.3150    12.3800     8.2110    93.3200     2.4880     0.1080     0.0420
  586.5000   -55.2150     9.3020    12.4420     8.1650    94.2060     2.4980     0.1020     0.0460
  587.0000   -55.9510     9.2900    12.4740     8.1180    93.6540     2.5070     0.0990     0.0440
  587.5000   -56.6720     9.2780    12.4740     8.0720    93.0980     2.5070     0.1000     0.0420
  588.0000   -57.3870     9.2690    12.3170     8.0320    94.1720     2.4990     0.1050     0.0400
  588.5000   -58.1010     9.2380    12.1310     8.0340    96.6220     2.4890     0.1110     0.0380
  589.0000   -58.3950     9.2070    11.9450     8.0530    94.9320     2.4870     0.1110     0.0360
  589.5000   -57.9860     9.1750    11.7590     8.0820    94.3950     2.4910     0.1060     0.0360
  590.0000   -57.5860     9.1440    11.5730     8.4060    91.8870     2.4950     0.1030     0.0340
  590.5000   -57.1830     9.1130    11.3710     7.9800    91.0980     2.4940     0.1070     0.0320
  591.0000   -57.4190     9.0820    11.3710     7.9800    96.6900     2.4850     0.1110     0.0270
  591.5000   -57.7030     9.0510    11.4050     7.9860   102.5040     2.4760     0.1140     0.0210
  592.0000   -57.9880     9.0200    11.4740     7.9910   101.3130     2.4700     0.1180     0.0140
  592.5000   -58.1500     8.9890    11.5430     7.9970    98.6440     2.4710     0.1180     0.0120
  593.0000   -58.0530     8.9570    11.6120     8.0020    98.9140     2.4760     0.1140     0.0160
  593.5000   -57.8090     8.9260    11.6810     8.0080   101.8370     2.4880     0.1090     0.0260
  594.0000   -57.5210     8.8950    11.7500     8.0160   105.0100     2.4990     0.1040     0.0350
  594.5000   -57.9580     8.8640    11.8190     7.9120   104.0150     2.5100     0.0990     0.0440
  595.0000   -59.0050     8.8330    11.8880     7.7990   101.9630     2.5120     0.0930     0.0410
  595.5000   -59.7930     8.8020    11.9570     7.8420    99.9180     2.5070     0.0940     0.0380
  596.0000   -59.9010     8.7710    12.0260     7.9170    97.8830     2.5060     0.0940     0.0340
  596.5000   -60.0210     8.7400    12.0950     7.9910    96.7620     2.5110     0.0930     0.0330
  597.0000   -60.1430     8.7080    12.1640     8.0650    97.6260     2.5100     0.0940     0.0320
  597.5000   -60.2660     8.6770    12.2330     8.1130    99.2640     2.4980     0.0980     0.0300
  598.0000   -60.4890     8.6460    12.3020     8.1130   100.8470     2.4860     0.1020     0.0290
  598.5000   -60.8790     8.6140    12.3590     8.1110   101.8150     2.4740     0.1070     0.0360
  599.0000   -61.2640     8.6940    12.3590     8.0970    98.4330     2.4740     0.1090     0.0530
  599.5000   -61.4790     8.6940    12.1990     8.0830    98.5930     2.4930     0.1010     0.0730
  600.0000   -61.2740     8.6810    12.0290     8.0690    99.8170     2.5080     0.0920     0.0910
  600.5000   -61.0830     8.6380    11.8590     8.0550    98.5740     2.5100     0.0850     0.0810
  601.0000   -61.0340     8.5960    11.6890     8.0560    97.0980     2.5050     0.1010     0.0610
  601.5000   -61.4660     8.5530    11.5190     8.0660    95.5180     2.5020     0.1030     0.0410
  602.0000   -61.8870     8.5110    11.3500     8.0750    91.9240     2.5030     0.1020     0.0350
  602.5000   -62.3060     8.4680    11.1800     8.0850    95.3320     2.4970     0.1040     0.0300
  603.0000   -62.7120     8.4260    11.0100     8.0950   100.9220     2.4900     0.1070     0.0260
  603.5000   -62.7950     8.3830    10.8400     8.1040   106.9550     2.4820     0.1100     0.0250
  604.0000   -62.8660     8.3400    10.6700     8.1100   105.7690     2.4820     0.1100     0.0260
  604.5000   -63.0410     8.2980    10.5000     8.0910   104.2360     2.4900     0.1040     0.0360
  605.0000   -63.6990     8.2550    10.3300     8.0710   102.7260     2.4990     0.0970     0.0460
  605.5000   -63.6170     8.2130    10.1600     8.0520   102.2790     2.5070     0.0910     0.0550
  606.0000   -63.5280     8.1700     9.9910     8.0320   100.6250     2.5160     0.0870     0.0640
  606.5000   -63.8040     8.1280     9.8240     8.0150    99.3590     2.5160     0.0900     0.0560
  607.0000   -64.1210     8.0850     9.6630     8.0240    99.6330     2.5110     0.0930     0.0490
  607.5000   -64.4380     8.0430     9.5010     8.0340   100.8310     2.5060     0.0960     0.0410
  608.0000   -64.7550     7.9990     9.3390     8.0440   101.5130     2.5010     0.0990     0.0340
  608.5000   -65.0720     7.7850     9.1780     8.0540   101.1750     2.5000     0.0990     0.0260
  609.0000   -65.3910     7.5660     9.0160     8.0640   100.8480     2.5010     0.1000     0.0270
  609.5000   -65.7100     7.3480     8.8540     8.0740   101.1400     2.5020     0.1000     0.0280
  610.0000   -66.2410     7.1290     8.5560     8.0840   105.0480     2.4940     0.1090     0.0270
  610.5000   -67.1630     6.9110     8.1270     8.0940   109.2750     2.4760     0.1210     0.0250
  611.0000   -68.0770     6.6920     7.6970     8.1040   113.5060     2.4590     0.1270     0.0230
  611.5000   -68.9200     6.4730     7.2680     8.1140   117.7320     2.4340     0.1390     0.0180
  612.0000   -69.2520     6.2550     6.8390     8.1240   121.9290     2.4050     0.1550     0.0160
  612.5000   -69.5850     6.0360     6.4100     8.1320   126.2310     2.3830     0.1650     0.0250
  613.0000   -69.7670     5.8180     6.0600     8.1230   126.6890     2.4150     0.1530     0.0330
  613.5000   -69.7870     5.6790     6.0600     8.1130   119.7360     2.4480     0.1320     0.0320
  614.0000   -69.3680     5.6790     6.1730     8.1040   112.4510     2.4830     0.1120     0.0260
  614.5000   -68.9560     5.6790     6.3550     8.0940   105.1590     2.4990     0.1000     0.0200
