~VERSION INFORMATION
 VERS.                2.0:   CWLS LOG ASCII STANDARD - VERSION 2.0
 WRAP.                 NO:   ONE LINE PER DEPTH STEP
~WELL INFORMATION
#MNEM.UNIT      DATA TYPE    INFORMATION
#----------   ------------   ------------------------------
 STRT.F            3.0000:   START DEPTH
 STOP.F          515.0000:   STOP DEPTH
 STEP.F            0.5000:   STEP LENGTH
 NULL.          -999.2500:   NO VALUE
 COMP. LAWRENCE/ALLISON INC:   COMPANY
 WELL.      77-35 SX #3-3:   WELL
 FLD .             TEAPOT:   FIELD
 LOC .       S3 T38N R78W:   LOCATION
 CNTY.            NATRONA:   COUNTY
 STAT.            WYOMING:   STATE
 CTRY. UNITED STATES OF AMERICA:   COUNTRY
 SRVC.           Gearhart:   SERVICE COMPANY
 DATE.        24-JUN-1988:   LOGDATE
 API .       490251123200:   API NUMBER
~CURVE INFORMATION
#MNEM.UNIT       API CODE    CURVE DESCRIPTION
#----------   ------------   ------------------------------
 DEPT.F                  :   
 GRR .GAPI   07 310 01 00:   GAMMA RAY
 RILD.OHMM   07 120 46 00:   INDUCTION LOG DEEP RESISTIVITY
 RILM.OHMM   07 120 44 00:   INDUCTION LOG MEDIUM RESISTIVITY
~PARAMETER INFORMATION
#MNEM.UNIT          VALUE    DESCRIPTION
#----------   ------------   ------------------------------
 PD  .                 GL:   PERMANENT DATUM
 EPD .F              5154:   ELEVATION PERMANENT DATUM
 LMF .                 KB:   LOG MEASURED FROM
 DAPD.F                10:   FEET ABOVE PERMANENT DATUM
 DMF .                 KB:   DRILLING MEASURED FROM
 EKB .F              5164:   KELLING BUSHING
 EGL .F              5154:   GROUND LEVEL
 DATE.        24-JUN-1988:   RUN DATE
 RUN .                  1:   RUN NUMBER
 DD  .F               520:   DEPTH DRILLER
 DL  .F               523:   DEPTH LOGGER
 BLI .F             514.5:   BOTTOM LOG INTERVAL
 TLI .F                50:   TOP LOG INTERVAL
 CS  .IN            9.625:   CASING SIZE
 CBD .F                50:   CASING BOTTOM DRILLER
 CBL .F                50:   CASING BOTTOM LOGGER
 BS  .IN             8.75:   BIT SIZE
 BSD .F               520:   BIT SIZE AT DEPTH
 DFT .                AIR:   DRILLING FLUID TYPE
 TLAB.HRS            0645:   TIME LOGGER AT BOTTOM
 MRT .F                70:   MAXIMUM RECORDED TEMPERATURE
 LUN .               7597:   LOGGING UNIT NUMBER
 LUL .           GILLETTE:   LOGGING UNIT LOCATION
 ENGI.          HUCKFELDT:   RECORDING ENGINEER
 WITN.             STRONG:   WITNESSED BY
 CLNT.            A2DTECH:   CLIENT CODE
 ORIG.           5" PRINT:   ORIGIN OF DATA
 UWI .       490251123200:   UNIQUE WELL ID
 DICO. A2D Technologies, Inc.:   DIGITIZING COMPANY
~OTHER INFORMATION
~A    DEPT      GRR      RILD       RILM   
# ...
  458.0000   137.7448    12.5569    12.0623
  458.5000   138.9792    12.7326    12.1428
  459.0000   136.2502    12.8207    12.1387
  459.5000   132.8851    12.9097    12.1345
  460.0000   132.0117    12.9088    12.1303
  460.5000   132.0303    12.9079    12.1252
  461.0000   132.0452    12.9975    12.2072
  461.5000   132.3650    12.9964    12.5481
  462.0000   132.3799    12.9955    12.8109
  462.5000   129.6509    13.0859    12.8054
  463.0000   124.7878    13.0848    12.7118
  463.5000   123.2746    13.1758    12.4436
  464.0000   126.6469    13.1747    12.2666
  464.5000   130.0155    13.1738    12.0921
  465.0000   133.0996    12.9811    12.0879
  465.5000   135.5712    12.8090    12.0837
  466.0000   136.7675    12.5426    12.0786
  466.5000   133.7374    12.5417    12.1603
  467.0000   131.6181    12.5409    12.1551
  467.5000   129.4989    12.5400    12.1509
  468.0000   127.9857    12.5392    12.1468
  468.5000   128.3092    12.5383    12.1426
  469.0000   130.1534    12.5374    12.0539
  469.5000   133.2170    12.3627    11.6357
  470.0000   135.6710    12.0943    11.3109
  470.5000   138.1467    11.7712    10.9933
  471.0000   141.5978    11.5264    10.7630
  471.5000   145.4755    11.2866    10.4617
  472.0000   146.4051    11.1294    10.1696
  472.5000   146.4200    11.0512    10.1662
  473.0000   146.4349    10.8972    10.3782
  473.5000   146.4498    10.8964    10.3746
  474.0000   146.1561    10.8199    10.3711
  474.5000   145.2601    10.6691    10.1523
  475.0000   141.3116    10.5818    10.0078
  475.5000   145.5948    10.3014     9.6606
  476.0000   148.0527    10.2290     9.3246
  476.5000   148.0640    10.1572     9.2572
  477.0000   148.0823    10.1565     9.1889
  477.5000   149.3167    10.1558     9.2510
  478.0000   151.1609    10.1551     9.2470
  478.5000   149.3465    10.2256     9.3088
  479.0000   148.1419    10.2965     9.3056
  479.5000   144.4946    10.4406     9.3024
  480.0000   147.5620    10.3671     9.2344
  480.5000   148.1866    10.1515     9.2312
  481.0000   147.5123     9.9403     9.2281
  481.5000   147.9116     9.7336     9.1604
  482.0000   146.9268     9.4649     9.0244
  482.5000   144.5877     9.2035     8.7775
  483.0000   144.9112     9.0121     8.5923
  483.5000   145.5359     8.9488     8.4110
  484.0000   150.7337     8.9482     8.2914
  484.5000   154.4072     8.9476     8.2308
  485.0000   155.6416     9.0095     8.1706
  485.5000   151.6931     8.9462     8.1109
  486.0000   147.4397     8.6992     8.1081
  486.5000   148.3693     8.3417     8.1053
  487.0000   152.0427     8.1682     8.0461
  487.5000   153.5823     7.9983     7.9826
  488.0000   151.9673     7.9421     7.8187
  488.5000   148.1277     7.8863     7.5999
  489.0000   148.1427     7.8309     7.2343
  489.5000   148.1576     7.8304     6.8863
  490.0000   150.3066     7.8847     6.7410
  490.5000   152.1508     7.8841     6.7860
  491.0000   152.1657     7.9945     7.0251
  491.5000   150.9611     8.1063     7.3751
  492.0000   150.9760     8.3937     7.7424
  492.5000   151.6007     8.8136     8.1281
  493.0000   152.5305     9.3193     8.4822
  493.5000   152.5457     9.7855     8.8436
  494.0000   150.7345    10.0686     9.2729
  494.5000   148.6153    10.2026     9.7348
  495.0000   147.7155    10.2019    10.0075
  495.5000   148.3402    10.2729    10.2879
  496.0000   151.4039    10.2720    10.2844
  496.5000   153.2443    10.2713    10.2808
  497.0000   151.1288    10.2706    10.2773
  497.5000   149.3145    10.2699    10.2738
  498.0000   149.6342    10.2692    10.2703
  498.5000   150.2591    10.2685    10.2667
  499.0000   149.9689    10.2678    10.2632
  499.5000   147.2437    10.2669    10.2589
  500.0000   145.1207    10.2662    10.1839
  500.5000  -999.2500    10.2655    10.1095
  501.0000  -999.2500    10.2648    10.1060
  501.5000  -999.2500    10.2642    10.1026
  502.0000  -999.2500    10.2635    10.0991
  502.5000  -999.2500    10.2628    10.0957
  503.0000  -999.2500    10.1197    10.0922
  503.5000  -999.2500     9.9787    10.0888
  504.0000  -999.2500     9.6924     9.8034
  504.5000  -999.2500     9.3695     9.5142
  505.0000  -999.2500     9.1108     9.1376
  505.5000  -999.2500     8.7363     8.8206
  506.0000  -999.2500     8.4360     8.5146
  506.5000  -999.2500     8.1460     8.2192
  507.0000  -999.2500     7.7029     7.9341
  507.5000  -999.2500     7.0340     7.5524
  508.0000  -999.2500     6.0742     6.7980
  508.5000  -999.2500     5.0758     5.7860
  509.0000  -999.2500     4.1946     5.0643
  509.5000  -999.2500     3.7772     4.4858
  510.0000  -999.2500     3.5222     3.6774
  510.5000  -999.2500  -999.2500     3.0361
  511.0000  -999.2500  -999.2500     2.7908
  511.5000  -999.2500  -999.2500     2.7511
  512.0000  -999.2500  -999.2500     2.7697
  512.5000  -999.2500  -999.2500     2.9484
  513.0000  -999.2500  -999.2500     3.3662
  513.5000  -999.2500  -999.2500     3.8164
  514.0000  -999.2500  -999.2500     4.2668
  514.5000  -999.2500  -999.2500     4.6713
  515.0000  -999.2500  -999.2500     4.7687
