~VERSION INFORMATION
 VERS.                2.0:   CWLS LOG ASCII STANDARD - VERSION 2.0
 WRAP.                 NO:   ONE LINE PER DEPTH STEP
~WELL INFORMATION
#MNEM.UNIT      DATA TYPE    INFORMATION
#----------   ------------   ------------------------------
 STRT.F           33.5000:   START DEPTH
 STOP.F          692.0000:   STOP DEPTH
 STEP.F            0.5000:   STEP LENGTH
 NULL.          -999.2500:   NO VALUE
 COMP. FENIX & SCISSON INC:   COMPANY
 WELL.       NPR-3 #65-34:   WELL
 FLD .  TEAPOT DOME NPR-3:   FIELD
 LOC .      S34 T39N R78W:   LOCATION
 CNTY.            NATRONA:   COUNTY
 STAT.            WYOMING:   STATE
 CTRY. UNITED STATES OF AMERICA:   COUNTRY
 SRVC.           BIRDWELL:   SERVICE COMPANY
 DATE.        14-AUG-1978:   LOGDATE
 API .       490251070400:   API NUMBER
~CURVE INFORMATION
#MNEM.UNIT       API CODE    CURVE DESCRIPTION
#----------   ------------   ------------------------------
 DEPT.F                  :   
 CALD.IN     45 280 60 00:   CALIPER
 GRD .GAPI   45 310 01 00:   GAMMA RAY FROM DENSITY LOG
 RHOB.G/C3   45 350 01 00:   BULK DENSITY
 CORR.G/C3   45 356 01 00:   DENSITY CORRECTION
 DPHI.DEC    45 890 12 00:   DENSITY POROSITY SANDSTONE
 SPR .MV     05 010 01 00:   SPONTANEOUS POTENTIAL
 SN  .OHMM   05 040 16 00:   SHORT NORMAL 16'
 ILD .OHMM   05 120 46 00:   INDUCTION LOG DEEP RESISTIVITY
~PARAMETER INFORMATION
#MNEM.UNIT          VALUE    DESCRIPTION
#----------   ------------   ------------------------------
 PD  .                 GL:   PERMANENT DATUM
 EPD .F              5083:   ELEVATION PERMANENT DATUM
 LMF .                 KB:   LOG MEASURED FROM
 DAPD.F                 4:   FEET ABOVE PERMANENT DATUM
 DMF .                 KB:   DRILLING MEASURED FROM
 EKB .F              5087:   KELLING BUSHING
 EGL .F              5083:   GROUND LEVEL
 DATE.            8-14-78:   RUN DATE
 RUN .                  1:   RUN NUMBER
 DD  .F               675:   DEPTH DRILLER
 DL  .F               682:   DEPTH LOGGER
 BLI .F               676:   BOTTOM LOG INTERVAL
 TLI .F                50:   TOP LOG INTERVAL
 CS  .IN            8.625:   CASING SIZE
 CBD .F                40:   CASING BOTTOM DRILLER
 BS  .IN            7.875:   BIT SIZE
 BSD .F               675:   BIT SIZE AT DEPTH
 DFT .                KCL:   DRILLING FLUID TYPE
 DFD .                8.7:   DRILLING FLUID DENSITY
 DFV .                 31:   DRILLING FLUID VISCOSITY
 DFPH.                  9:   DRILLING FLUID PH
 TCS .HRS               2:   TIME CURCULATED STOPPED
 LUN .               3006:   LOGGING UNIT NUMBER
 LUL .               CASP:   LOGGING UNIT LOCATION
 ENGI.             MILLER:   RECORDING ENGINEER
 WITN.           MCGINLEY:   WITNESSED BY
 CLNT.            A2DTECH:   CLIENT CODE
 ORIG.           5" PRINT:   ORIGIN OF DATA
 UWI .       490251070400:   UNIQUE WELL ID
 DICO. A2D Technologies, Inc.:   DIGITIZING COMPANY
~OTHER INFORMATION
~A   DEPT     CALD         GRD      RHOB       CORR       DPHI        SPR         SN        ILD   
# ...
  195.5000     7.5446    63.3137     2.3970     0.0435     0.1736    -8.3841     9.2194    11.7165
  196.0000     7.5583    64.2903     2.3815     0.0432     0.1817    -8.4023     9.2192    11.5898
  196.5000     7.5794    66.2919     2.3671     0.0428     0.1903    -8.4939     9.1900    11.4265
  197.0000     7.5998    68.1237     2.3551     0.0425     0.1956    -8.5844     9.0616    11.2657
  197.5000     7.6209    67.7147     2.3521     0.0422     0.1938    -8.6745     8.9349    11.1067
  198.0000     7.6766    65.6529     2.3502     0.0426     0.1972    -8.7718     8.8039    10.9514
  198.5000     7.7941    63.7597     2.3482     0.0469     0.2003    -9.0540     8.6784    10.8821
  199.0000     7.9024    63.5300     2.3539     0.0510     0.1931    -9.3535     8.5483    10.8834
  199.5000     7.9422    62.7019     2.3609     0.0549     0.1924    -9.6966     8.4201    10.8861
  200.0000     7.9844    64.6988     2.3613     0.0690     0.1928   -10.2305     8.3024    10.8871
  200.5000     8.0267    67.7040     2.3776     0.0849     0.1683   -10.7505     8.2074    10.3899
  201.0000     8.0688    68.8768     2.3919     0.0878     0.1741   -11.2670     8.1135    10.3931
  201.5000     8.1116    69.6259     2.3854     0.0808     0.1789   -11.7004     8.0207    10.2687
  202.0000     8.1496    71.4430     2.3851     0.0850     0.1739   -12.3132     7.9289    10.1628
  202.5000     8.1548    72.2743     2.3952     0.0912     0.1660   -12.9214     7.8368    10.0581
  203.0000     8.1615    70.5300     2.4051     0.0975     0.1534   -13.5276     7.6491     9.9544
  203.5000     8.1744    69.0930     2.4269     0.1035     0.1461   -14.1329     7.4149     9.6256
  204.0000     8.1875    72.1086     2.4346     0.0991     0.1453   -15.1607     7.1897     9.2214
  204.5000     8.2008    73.6379     2.4385     0.0941     0.1437   -16.5492     6.9580     8.7561
  205.0000     8.2137    74.1557     2.4424     0.0890     0.1383   -17.9372     6.7136     8.2935
  205.5000     8.2008    76.0724     2.4467     0.0887     0.1324   -19.3277     6.5171     7.8553
  206.0000     8.1861    81.4948     2.4628     0.0895     0.1190   -20.6961     6.3334     7.4402
  206.5000     8.1715    86.8940     2.4790     0.0797     0.1199   -21.7496     6.1449     7.0471
  207.0000     8.1569    86.9616     2.4751     0.0693     0.1210   -21.9432     6.0483     6.6747
  207.5000     8.1423    87.7510     2.4725     0.0596     0.1226   -22.2669     5.9487     6.2572
  208.0000     8.1277    89.1582     2.4699     0.0504     0.1321   -22.7882     5.8505     6.2598
  208.5000     8.1131    89.5340     2.4613     0.0412     0.1357   -23.3135     5.7609     6.2408
  209.0000     8.0979    89.6893     2.4545     0.0336     0.1340   -23.4862     5.7090     6.2279
  209.5000     8.0926    89.4093     2.4553     0.0330     0.1325   -23.4952     5.6612     6.2150
  210.0000     8.0902    88.0206     2.4582     0.0322     0.1356   -23.5071     5.6037     6.2018
  210.5000     8.0880    86.6021     2.4632     0.0314     0.1386   -23.5194     5.6118     6.2018
  211.0000     8.0857    86.7483     2.4551     0.0306     0.1389   -23.5320     5.6221     6.2018
  211.5000     8.0834    87.1857     2.4494     0.0299     0.1371   -23.5447     5.6325     6.2018
  212.0000     8.0811    86.6535     2.4492     0.0291     0.1357   -23.5573     5.6428     6.2018
  212.5000     8.0788    85.8532     2.4488     0.0283     0.1381   -23.5699     5.6554     6.2018
  213.0000     8.0765    86.2421     2.4477     0.0275     0.1408   -23.5826     5.6500     6.2018
  213.5000     8.0742    86.6919     2.4448     0.0267     0.1429   -23.5952     5.6427     6.2018
  214.0000     8.0719    91.9449     2.4443     0.0262     0.1425   -23.6078     5.6353     6.2018
  214.5000     8.0696    97.4186     2.4476     0.0318     0.1383   -23.6205     5.6280     6.2018
  215.0000     8.0673    97.4357     2.4536     0.0362     0.1343   -23.6331     5.6206     6.2018
  215.5000     8.0650    94.5072     2.4552     0.0367     0.1336   -23.6458     5.6133     6.2018
  216.0000     8.0627    90.9338     2.4565     0.0374     0.1338   -23.6584     5.6059     6.2018
  216.5000     8.0604    86.7813     2.4547     0.0380     0.1363   -23.6710     5.5986     6.2018
  217.0000     8.0581    82.5413     2.4577     0.0386     0.1162   -23.6837     5.5913     6.2018
  217.5000     8.0558    81.4392     2.4554     0.0393     0.1260   -23.6963     5.5840     6.2018
  218.0000     8.0539    82.8254     2.4540     0.0399     0.1344   -23.7089     5.5767     6.2018
  218.5000     8.0532    83.1501     2.4560     0.0392     0.1357   -23.7216     5.5694     6.2018
  219.0000     8.0525    80.9521     2.4556     0.0385     0.1326   -23.7342     5.5622     6.2018
  219.5000     8.0518    78.7901     2.4616     0.0381     0.1304   -23.7468     5.5520     6.2018
  220.0000     8.0511    76.8096     2.4657     0.0390     0.1298   -23.7595     5.5639     6.2018
  220.5000     8.0504    77.0385     2.4679     0.0399     0.1249   -23.7721     5.5889     6.2018
  221.0000     8.0496    78.6051     2.4702     0.0393     0.1253   -23.7847     5.6143     6.2018
  221.5000     8.0489    80.5769     2.4737     0.0385     0.1224   -23.7974     5.6398     6.2018
  222.0000     8.0482    82.5759     2.4776     0.0378     0.1217   -23.8100     5.6655     6.2700
  222.5000     8.0475    84.3527     2.4810     0.0371     0.1182   -23.8227     5.6912     6.3416
  223.0000     8.0468    83.5909     2.4837     0.0364     0.1161   -23.8353     5.7172     6.4140
  223.5000     8.0461    79.7988     2.4862     0.0342     0.1148   -23.8479     5.7432     6.4872
  224.0000     8.0454    78.0574     2.4808     0.0295     0.1190   -23.8605     5.7693     6.5042
  224.5000     8.0447    77.4605     2.4734     0.0263     0.1266   -23.8732     5.7955     6.5180
  225.0000     8.0440    78.9947     2.4686     0.0285     0.1258   -23.8858     5.8219     6.5318
  225.5000     8.0432    81.0681     2.4643     0.0306     0.1305   -23.8985     5.8484     6.5457
  226.0000     8.0425    82.0059     2.4616     0.0327     0.1333   -23.9111     5.8682     6.5595
  226.5000     8.0418    82.1682     2.4598     0.0338     0.1330   -23.9237     5.8681     6.5734
  227.0000     8.0411    83.3626     2.4603     0.0334     0.1302   -23.9364     5.8681     6.5874
  227.5000     8.0404    85.9484     2.4646     0.0330     0.1245   -23.9490     5.8681     6.6013
  228.0000     8.0397    88.5136     2.4694     0.0326     0.1237   -23.9616     5.8681     6.6153
  228.5000     8.0390    89.5763     2.4722     0.0322     0.1236   -23.9743     5.8681     6.6712
  229.0000     8.0383    85.3565     2.4692     0.0320     0.1249   -23.9869     5.8681     6.8050
  229.5000     8.0375    83.2651     2.4639     0.0334     0.1296   -23.9995     5.8681     6.9274
  230.0000     8.0368    84.5152     2.4583     0.0349     0.1329   -24.0122     5.8681     6.9274
  230.5000     8.0361    84.3371     2.4575     0.0370     0.1299   -24.0248     5.8681     6.9274
  231.0000     8.0354    84.0625     2.4611     0.0405     0.1285   -24.0375     5.8681     6.9006
  231.5000     8.0347    83.7121     2.4645     0.0438     0.1281   -24.0501     5.8681     6.8546
  232.0000     8.0340    81.8742     2.4651     0.0439     0.1281   -24.0627     5.8681     6.8092
  232.5000     8.0341    80.0546     2.4656     0.0439     0.1279   -24.0753     5.8681     6.7640
  233.0000     8.0341    78.2530     2.4675     0.0439     0.1271   -24.0882     5.8681     6.7192
  233.5000     8.0341    77.1029     2.4696     0.0439     0.1267   -24.0790     5.8681     6.6747
  234.0000     8.0341    80.4453     2.4717     0.0439     0.1227   -24.0576     5.8681     6.6304
  234.5000     8.0341    84.9743     2.4774     0.0439     0.1190   -24.0359     5.8681     6.5865
  235.0000     8.0341    84.8446     2.4850     0.0439     0.1122   -24.0142     5.8681     6.5545
  235.5000     8.0341    82.1259     2.4906     0.0418     0.1198   -23.9925     5.8681     6.5603
