~VERSION INFORMATION
 VERS.                2.0:   CWLS LOG ASCII STANDARD - VERSION 2.0
 WRAP.                 NO:   ONE LINE PER DEPTH STEP
~WELL INFORMATION
#MNEM.UNIT      DATA TYPE    INFORMATION
#----------   ------------   ------------------------------
 STRT.F           27.0000:   START DEPTH
 STOP.F          713.0000:   STOP DEPTH
 STEP.F            0.5000:   STEP LENGTH
 NULL.          -999.2500:   NO VALUE
 COMP. FENIX & SCISSON INC:   COMPANY
 WELL.       NPR 3 #44-34:   WELL
 FLD .        TEAPOT DOME:   FIELD
 LOC .      S34 T39N R78W:   LOCATION
 CNTY.            NATRONA:   COUNTY
 STAT.            WYOMING:   STATE
 CTRY. UNITED STATES OF AMERICA:   COUNTRY
 SRVC.           BIRDWELL:   SERVICE COMPANY
 DATE.        24-AUG-1978:   LOGDATE
 API .       490251070000:   API NUMBER
~CURVE INFORMATION
#MNEM.UNIT       API CODE    CURVE DESCRIPTION
#----------   ------------   ------------------------------
 DEPT.F                  :   
 SPR .MV     05 010 01 00:   SPONTANEOUS POTENTIAL FROM RES.
 ILD .OHMM   05 120 46 00:   INDUCTION LOG DEEP
 SN  .OHMM   05 040 16 00:   SHORT NORMAL 16"
 CALD.IN     45 280 60 00:   CALIPER
 GRD .GAPI   45 310 01 00:   GAMMA RAY FROM DENSITY LOG
 DEN .G/C3   45 350 01 00:   COMPENSATED BULK DENSTIY
 DPHI.DEC    45 890 12 00:   DENSITY POROSITY SANDSTONE
 CORR.G/C3   45 356 01 00:   DENSITY CORRECTION
~PARAMETER INFORMATION
#MNEM.UNIT          VALUE    DESCRIPTION
#----------   ------------   ------------------------------
 PD  .                 GL:   PERMANENT DATUM
 EPD .F              5124:   ELEVATION PERMANENT DATUM
 LMF .                 KB:   LOG MEASURED FROM
 DAPD.F                 4:   FEET ABOVE PERMANENT DATUM
 DMF .                 KB:   DRILLING MEASURED FROM
 EKB .F              5128:   KELLING BUSHING
 EGL .F              5124:   GROUND LEVEL
 DATE.            8-24-78:   RUN DATE
 RUN .                  1:   RUN NUMBER
 DD  .F               716:   DEPTH DRILLER
 DL  .F               713:   DEPTH LOGGER
 BLI .F               707:   BOTTOM LOG INTERVAL
 TLI .F                50:   TOP LOG INTERVAL
 CS  .IN            8.625:   CASING SIZE
 CBD .F                40:   CASING BOTTOM DRILLER
 BS  .IN            7.875:   BIT SIZE
 BSD .F               716:   BIT SIZE AT DEPTH
 DFT .            MUD KCL:   DRILLING FLUID TYPE
 DFD .                8.6:   DRILLING FLUID DENSITY
 DFV .                 34:   DRILLING FLUID VISCOSITY
 DFL .                7.4:   DRILLING FLUID LOSS
 MSS .          FLOW LINE:   MUD SAMPLE SOURCE
 RMS .OHMM            .18:   RESISTIVITY MUD SAMPLE
 MST .F                76:   MUD SAMPLE TEMPERATURE
 RMF .OHMM            .16:   RESISTIVITY MUD FILTRATE SAMPLE
 MFST.F                92:   MUD FILTRATE SAMPLE TEMPERATURE
 RMC .OHMM             .3:   RESISTIVITY MUD CAKE
 MCST.F                86:   MUD CAKE SAMPLE TEMPERATURE
 MFSS.               MEAS:   MUD FILTRATE SAMPLE SOURCE
 TCS .HRS               3:   TIME CURCULATED STOPPED
 MRT .F                72:   MAXIMUM RECORDED TEMPERATURE
 LUN .               2958:   LOGGING UNIT NUMBER
 LUL .               CASP:   LOGGING UNIT LOCATION
 ENGI.           REYNOLDS:   RECORDING ENGINEER
 WITN.              AMEND:   WITNESSED BY
 CLNT.            A2DTECH:   CLIENT CODE
 ORIG.           5" PRINT:   ORIGIN OF DATA
 UWI .       490251070000:   UNIQUE WELL ID
 DICO. A2D Technologies, Inc.:   DIGITIZING COMPANY
~OTHER INFORMATION
~A   DEPT      SPR        ILD         SN       CALD         GRD       DEN       DPHI       CORR   
# ...
  148.5000   -63.4432     7.2170     8.7877     8.9378    94.6021     2.4333     0.1539     0.0170
  149.0000   -64.8163     6.9219     8.4066     8.9374    96.2165     2.4522     0.1425     0.0152
  149.5000   -66.2048     6.8626     8.0169     8.9363   103.4206     2.4664     0.1311     0.0146
  150.0000   -66.7092     6.8208     7.6452     8.9352   110.5215     2.4788     0.1302     0.0139
  150.5000   -66.8292     6.8312     7.2722     8.9340   110.0686     2.4765     0.1325     0.0133
  151.0000   -66.9430     6.8392     7.2021     8.9329   110.1803     2.4741     0.1348     0.0126
  151.5000   -67.0938     6.8473     7.1287     8.9317   109.1992     2.4733     0.1348     0.0120
  152.0000   -67.3967     6.8554     7.0752     8.9306   103.9759     2.4726     0.1348     0.0114
  152.5000   -67.6955     6.8635     7.0856     8.9295   103.4081     2.4720     0.1333     0.0109
  153.0000   -67.8409     6.8716     7.0939     8.9283   103.6995     2.4765     0.1303     0.0105
  153.5000   -67.8695     6.8797     7.1022     8.9272   104.0302     2.4813     0.1280     0.0100
  154.0000   -67.8954     6.8878     7.1104     8.9260   103.3817     2.4843     0.1280     0.0095
  154.5000   -67.9212     6.8959     7.1187     8.9249   100.4489     2.4741     0.1380     0.0102
  155.0000   -67.9472     6.9041     7.1270     8.9237    97.6989     2.4625     0.1427     0.0110
  155.5000   -67.9733     6.9122     7.1353     8.9226    97.6736     2.4547     0.1454     0.0118
  156.0000   -67.9997     6.9204     7.1403     8.9215    98.1165     2.4529     0.1481     0.0126
  156.5000   -68.0250     6.9285     7.1403     8.9203    98.3963     2.4508     0.1508     0.0133
  157.0000   -67.9578     6.9368     7.1403     8.9192    98.1805     2.4450     0.1535     0.0154
  157.5000   -67.8794     6.9461     7.1403     8.9179    97.7657     2.4393     0.1547     0.0176
  158.0000   -67.8011     6.9422     7.1403     8.9210    96.4383     2.4390     0.1541     0.0198
  158.5000   -67.7230     6.9362     7.1403     8.9249    95.0894     2.4411     0.1514     0.0215
  159.0000   -67.6448     6.9301     7.1403     8.9288    95.3768     2.4478     0.1472     0.0215
  159.5000   -67.5664     6.9241     7.1403     8.9327    99.3471     2.4562     0.1426     0.0215
  160.0000   -67.4885     6.9181     7.1403     8.9367   102.9863     2.4615     0.1377     0.0198
  160.5000   -67.4360     6.9121     7.1403     8.9328   102.7199     2.4667     0.1329     0.0174
  161.0000   -67.4704     6.9061     7.1403     8.9256    99.0427     2.4749     0.1313     0.0151
  161.5000   -67.5025     6.9001     7.1403     8.9183    95.0584     2.4751     0.1317     0.0134
  162.0000   -67.5346     6.8941     7.1402     8.9109    93.3938     2.4751     0.1326     0.0133
  162.5000   -67.5667     6.8878     7.1399     8.9036    93.6012     2.4702     0.1370     0.0132
  163.0000   -67.5987     6.8834     7.1403     8.8963    95.3454     2.4639     0.1413     0.0131
  163.5000   -67.6308     6.9479     7.1849     8.8890    96.4103     2.4625     0.1428     0.0130
  164.0000   -67.6628     7.0005     7.2279     8.8817    96.3550     2.4652     0.1382     0.0128
  164.5000   -67.6949     7.0535     7.2722     8.8789    96.7260     2.4759     0.1316     0.0127
  165.0000   -67.7269     7.0863     7.2892     8.8813   102.8115     2.4826     0.1250     0.0126
  165.5000   -67.7590     7.1052     7.3066     8.8836   103.2201     2.4908     0.1185     0.0124
  166.0000   -67.7912     7.1241     7.3241     8.8860   101.3443     2.5079     0.1079     0.0123
  166.5000   -67.8245     7.1578     7.3561     8.8884    97.0953     2.5225     0.0992     0.0122
  167.0000   -67.7970     7.2796     7.4743     8.8908    91.7822     2.5201     0.1145     0.0121
  167.5000   -67.7584     7.4034     7.5943     8.8932    91.9331     2.5055     0.1346     0.0119
  168.0000   -67.7197     7.5293     7.6865     8.8956    98.7779     2.4799     0.1416     0.0118
  168.5000   -67.6811     7.5435     7.6999     8.8980   101.0090     2.4632     0.1382     0.0117
  169.0000   -67.6425     7.5435     7.7133     8.9004   100.9179     2.4682     0.1344     0.0116
  169.5000   -67.6039     7.5435     7.7267     8.9027    96.3205     2.4708     0.1344     0.0117
  170.0000   -67.5653     7.5435     7.7401     8.9051    91.6096     2.4698     0.1349     0.0128
  170.5000   -67.5267     7.5435     7.7536     8.9075    90.9741     2.4688     0.1373     0.0138
  171.0000   -67.4881     7.5435     7.7671     8.9099    91.7995     2.4678     0.1384     0.0149
  171.5000   -67.4495     7.5435     7.7806     8.9123    94.6670     2.4674     0.1366     0.0160
  172.0000   -67.4303     7.5435     7.7941     8.9147    96.4403     2.4699     0.1348     0.0170
  172.5000   -67.4303     7.5435     7.8077     8.9171    95.7765     2.4720     0.1350     0.0181
  173.0000   -67.4303     7.5432     7.8248     8.9194    93.7682     2.4716     0.1356     0.0192
  173.5000   -67.4303     7.4769     7.7597     8.9218    91.1167     2.4712     0.1360     0.0202
  174.0000   -67.4303     7.4058     7.6719     8.9242    92.4036     2.4715     0.1352     0.0213
  174.5000   -67.4303     7.3353     7.5852     8.9266    93.6697     2.4729     0.1334     0.0206
  175.0000   -67.4303     7.2722     7.4982     8.9290    93.9203     2.4740     0.1331     0.0192
  175.5000   -67.4303     7.1884     7.4747     8.9314    94.6730     2.4736     0.1341     0.0177
  176.0000   -67.4303     7.1119     7.4747     8.9338    95.5949     2.4732     0.1348     0.0163
  176.5000   -67.4302     7.0109     7.4747     8.9361    94.8814     2.4734     0.1344     0.0154
  177.0000   -67.4300     7.0379     7.4747     8.9370    94.0098     2.4745     0.1329     0.0152
  177.5000   -67.4318     7.0800     7.4747     8.9330    93.6194     2.4755     0.1314     0.0150
  178.0000   -67.4746     7.1225     7.4747     8.9292    94.6897     2.4766     0.1309     0.0148
  178.5000   -67.5184     7.1651     7.4748     8.9254    95.8385     2.4768     0.1319     0.0146
  179.0000   -67.5627     7.2059     7.4749     8.9215    93.7182     2.4765     0.1329     0.0143
  179.5000   -67.6053     7.2349     7.4738     8.9177    91.1365     2.4762     0.1326     0.0141
  180.0000   -67.5635     7.2626     7.5241     8.9139    90.7907     2.4764     0.1315     0.0139
  180.5000   -67.2467     7.2905     7.5626     8.9101    92.0587     2.4772     0.1312     0.0137
  181.0000   -66.9379     7.3184     7.6015     8.9063    96.6596     2.4780     0.1305     0.0135
  181.5000   -66.6443     7.3407     7.6405     8.9024    98.7762     2.4788     0.1295     0.0142
  182.0000   -66.7212     7.3467     7.6829     8.8982    96.1310     2.4778     0.1293     0.0149
  182.5000   -66.8142     7.3528     7.6891     8.9099    96.1162     2.4754     0.1341     0.0156
  183.0000   -66.9050     7.3588     7.6959     8.9255    96.7453     2.4730     0.1352     0.0163
  183.5000   -66.9968     7.3649     7.7027     8.9411    97.9503     2.4746     0.1309     0.0170
  184.0000   -66.9740     7.3710     7.7096     8.9566    96.5700     2.4800     0.1295     0.0175
  184.5000   -66.8805     7.3770     7.7164     8.9723    94.3664     2.4796     0.1293     0.0175
  185.0000   -66.7853     7.3831     7.7232     8.9757    95.4776     2.4791     0.1294     0.0175
  185.5000   -66.6920     7.3892     7.7301     8.9725    95.7812     2.4786     0.1305     0.0175
  186.0000   -66.6777     7.3954     7.7369     8.9691    95.6585     2.4781     0.1312     0.0175
  186.5000   -66.7951     7.4014     7.7438     8.9657    95.7411     2.4787     0.1305     0.0163
  187.0000   -66.9118     7.4066     7.7528     8.9623    96.5434     2.4807     0.1278     0.0140
  187.5000   -67.0259     7.3443     7.7346     8.9589    97.3782     2.4881     0.1216     0.0117
  188.0000   -66.9431     7.2905     7.7022     8.9555    98.9491     2.4985     0.1153     0.0095
  188.5000   -66.8472     7.2371     7.6698     8.9521   100.6380     2.5023     0.1149     0.0105
