~VERSION INFORMATION
 VERS.                2.0:   CWLS LOG ASCII STANDARD - VERSION 2.0
 WRAP.                 NO:   ONE LINE PER DEPTH STEP
~WELL INFORMATION
#MNEM.UNIT      DATA TYPE    INFORMATION
#----------   ------------   ------------------------------
 STRT.F            0.0000:   START DEPTH
 STOP.F          649.0000:   STOP DEPTH
 STEP.F            0.1000:   STEP LENGTH
 NULL.          -999.2500:   NO VALUE
 COMP.   FLUOR DANIEL INC:   COMPANY
 WELL.     17-1 X 2 #17-2:   WELL
 FLD .             TEAPOT:   FIELD
 LOC .       S2 T38N R78W:   LOCATION
 CNTY.            NATRONA:   COUNTY
 STAT.            WYOMING:   STATE
 CTRY. UNITED STATES OF AMERICA:   COUNTRY
 SRVC.      Western Atlas:   SERVICE COMPANY
 DATE.        20-MAY-1995:   LOGDATE
 API .       490252271000:   API NUMBER
~CURVE INFORMATION
#MNEM.UNIT       API CODE    CURVE DESCRIPTION
#----------   ------------   ------------------------------
 DEPT.F                  :   
 GRR .GAPI   07 310 01 00:   GAMMA RAY
 RILD.OHMM   07 120 46 00:   INDUCTION LOG DEEP RESISTIVITY
 RILM.OHMM   07 120 44 00:   RESITIVITY LOG MEDIUM
~PARAMETER INFORMATION
#MNEM.UNIT          VALUE    DESCRIPTION
#----------   ------------   ------------------------------
 PD  .                 GL:   PERMANENT DATUM
 EPD .F              5145:   ELEVATION PERMANENT DATUM
 LMF .                 KB:   LOG MEASURED FROM
 DAPD.F                10:   FEET ABOVE PERMANENT DATUM
 DMF .                 KB:   DRILLING MEASURED FROM
 EKB .F              5155:   KELLING BUSHING
 EDF .F              5154:   DRILLING FLOOR
 EGL .F              5145:   GROUND LEVEL
 DATE.        20-MAY-1995:   RUN DATE
 RUN .                  1:   RUN NUMBER
 DD  .F               657:   DEPTH DRILLER
 DL  .F               657:   DEPTH LOGGER
 BLI .F               649:   BOTTOM LOG INTERVAL
 CS  .IN            9.625:   CASING SIZE
 CBD .F                82:   CASING BOTTOM DRILLER
 CBL .F                82:   CASING BOTTOM LOGGER
 BS  .IN             8.75:   BIT SIZE
 BSD .F               657:   BIT SIZE AT DEPTH
 DFT .                AIR:   DRILLING FLUID TYPE
 MRT .F                92:   MAXIMUM RECORDED TEMPERATURE
 LUN .            HL 6530:   LOGGING UNIT NUMBER
 LUL .             CASPER:   LOGGING UNIT LOCATION
 ENGI.        VERN RAUTIO:   RECORDING ENGINEER
 WITN.        STEVE HARDY:   WITNESSED BY
 CLNT.            A2DTECH:   CLIENT CODE
 ORIG.           5" PRINT:   ORIGIN OF DATA
 UWI .       490252271000:   UNIQUE WELL ID
 DICO. A2D Technologies, Inc.:   DIGITIZING COMPANY
~OTHER INFORMATION
~A    DEPT      GRR      RILD       RILM   
# ...
  182.0000   146.4696     7.1490     7.1029
  182.1000   146.7560     7.1543     7.1437
  182.2000   146.7596     7.1993     7.1846
  182.3000   146.6049     7.2366     7.2258
  182.4000   146.3618     7.2498     7.2675
  182.5000   146.0684     7.2500     7.2676
  182.6000   145.5699     7.2605     7.3000
  182.7000   145.0874     7.3009     7.3419
  182.8000   144.9750     7.3011     7.3840
  182.9000   144.7097     7.3352     7.4209
  183.0000   144.2997     7.3523     7.4211
  183.1000   144.0565     7.3525     7.4598
  183.2000   143.7857     7.3593     7.4729
  183.3000   143.7894     7.4042     7.4730
  183.4000   143.7937     7.4440     7.4843
  183.5000   143.6873     7.4561     7.5272
  183.6000   143.4442     7.4777     7.5778
  183.7000   143.1990     7.5085     7.5779
  183.8000   142.7085     7.5114     7.6046
  183.9000   142.4131     7.5612     7.6309
  184.0000   142.1699     7.5614     7.6388
  184.1000   141.8403     7.5887     7.6843
  184.2000   141.4136     7.6145     7.6844
  184.3000   141.4188     7.6147     7.6845
  184.4000   140.7469     7.6149     7.6846
  184.5000   140.1800     7.6574     7.6847
  184.6000   139.5728     7.6684     7.6848
  184.7000   138.9597     7.6686     7.6849
  184.8000   138.7005     7.6688     7.6850
  184.9000   137.8246     7.6690     7.6851
  185.0000   137.2247     7.6693     7.6852
  185.1000   136.7805     7.7080     7.6954
  185.2000   136.5374     7.7231     7.7390
  185.3000   136.2942     7.7233     7.7391
  185.4000   136.0353     7.7333     7.7392
  185.5000   135.8079     7.7775     7.7393
  185.6000   135.5648     7.7777     7.7394
  185.7000   135.4443     7.7780     7.7395
  185.8000   135.4486     7.8034     7.7396
  185.9000   135.4528     7.8326     7.7397
  186.0000   135.4577     7.8328     7.7398
  186.1000   135.4612     7.8330     7.7620
  186.2000   135.4655     7.8740     7.7940
  186.3000   135.6667     7.8880     7.7941
  186.4000   136.1657     7.8882     7.7942
  186.5000   136.6850     7.8884     7.7943
  186.6000   136.9263     7.8903     7.7944
  186.7000   137.1779     7.9439     7.7945
  186.8000   137.4295     7.9440     7.8034
  186.9000   137.6810     7.9443     7.8490
  187.0000   137.9125     7.9618     7.8491
  187.1000   137.9173     8.0000     7.8492
  187.2000   138.3473     8.0003     7.8740
  187.3000   138.6874     8.0005     7.9041
  187.4000   138.9389     8.0339     7.9042
  187.5000   139.1403     8.0566     7.9043
  187.6000   139.1446     8.0569     7.9451
  187.7000   139.1487     8.0603     7.9596
  187.8000   139.1529     8.1135     7.9809
  187.9000   139.2919     8.1137     8.0267
  188.0000   139.3826     8.1433     8.0712
  188.1000   139.1652     8.1706     8.0713
  188.2000   139.7736     8.1800     8.1091
  188.3000   139.9966     8.2280     8.1278
  188.4000   140.2482     8.2282     8.1457
  188.5000   140.2785     8.2284     8.1846
  188.6000   139.9228     8.2541     8.1847
  188.7000   139.1848     8.2862     8.2293
  188.8000   138.4470     8.2864     8.2419
  188.9000   137.9043     8.2867     8.2421
  189.0000   137.2730     8.3289     8.2563
  189.1000   136.7081     8.3449     8.2997
  189.2000   136.4650     8.3451     8.2998
  189.3000   136.2001     8.3453     8.2999
  189.4000   135.9787     8.3456     8.3309
  189.5000   135.7355     8.3458     8.3580
  189.6000   135.6090     8.3460     8.3581
  189.7000   135.6133     8.3462     8.3582
  189.8000   135.6255     8.3465     8.3583
  189.9000   135.9242     8.3467     8.3584
  190.0000   136.1287     8.3470     8.3316
  190.1000   136.5271     8.3472     8.3008
  190.2000   137.0260     8.3474     8.3010
  190.3000   137.5250     8.3476     8.3011
  190.4000   138.0564     8.3354     8.3012
  190.5000   138.2916     8.2903     8.3013
  190.6000   138.7202     8.2906     8.3014
  190.7000   139.0964     8.2908     8.3015
  190.8000   139.3480     8.2910     8.3016
  190.9000   139.6136     8.2913     8.3018
  191.0000   140.1937     8.2835     8.3019
  191.1000   140.1973     8.2344     8.3020
  191.2000   140.2015     8.2346     8.3021
  191.3000   140.2057     8.2348     8.3022
  191.4000   140.2099     8.2351     8.3023
  191.5000   140.2143     8.2214     8.3025
  191.6000   139.7438     8.1786     8.3026
  191.7000   139.0703     8.1788     8.3027
  191.8000   138.3324     8.1391     8.2877
  191.9000   137.5946     8.1227     8.2455
  192.0000   136.8567     8.1229     8.2456
  192.1000   136.0169     8.1231     8.2457
  192.2000   135.5941     8.1234     8.2144
  192.3000   135.1037     8.0781     8.1889
  192.4000   134.7177     8.0676     8.1890
  192.5000   134.5249     8.0678     8.1882
  192.6000   134.5292     8.0530     8.1326
  192.7000   134.5333     8.0125     8.1327
  192.8000   134.3485     8.0127     8.1328
  192.9000   134.3748     8.0129     8.1329
  193.0000   134.7069     8.0131     8.1331
  193.1000   135.2058     8.0134     8.1332
  193.2000   135.7616     8.0136     8.1333
  193.3000   136.4229     8.0130     8.1334
  193.4000   137.0043     7.9587     8.1335
  193.5000   137.5032     7.9588     8.1203
  193.6000   138.0022     7.9590     8.0775
  193.7000   138.5011     7.9593     8.0776
  193.8000   139.0001     7.9595     8.0777
  193.9000   139.4990     7.9597     8.0778
  194.0000   140.1387     7.9599     8.0779
  194.1000   140.8851     7.9923     8.0686
  194.2000   141.5670     8.0158     8.0223
  194.3000   141.8411     8.0160     8.0224
  194.4000   142.2954     8.0163     8.0225
  194.5000   142.6234     8.0165     8.0226
  194.6000   142.8750     8.0167     8.0227
  194.7000   143.0019     8.0169     8.0172
  194.8000   142.7507     8.0353     7.9675
  194.9000   142.1685     8.0732     7.9676
  195.0000   141.9708     8.0734     7.9677
  195.1000   141.7277     8.0737     7.9678
  195.2000   141.3920     8.1081     7.9679
  195.3000   140.8633     8.1303     7.9680
  195.4000   140.0775     8.1306     7.9681
  195.5000   139.1563     8.1308     8.0058
  195.6000   138.3481     8.1311     8.0238
  195.7000   137.6102     8.1715     8.0419
  195.8000   136.8724     8.1881     8.0799
  195.9000   136.1063     8.2085     8.0801
  196.0000   134.6734     8.2456     8.1244
  196.1000   133.8483     8.2458     8.1366
  196.2000   133.1688     8.2461     8.1367
  196.3000   132.7769     8.2828     8.1368
  196.4000   132.5337     8.3303     8.1411
  196.5000   132.2807     8.3620     8.1937
  196.6000   132.2848     8.3679     8.1938
  196.7000   132.4720     8.4207     8.2248
  196.8000   132.8523     8.4210     8.2511
  196.9000   133.2768     8.4540     8.2618
  197.0000   133.5083     8.4801     8.3092
  197.1000   133.5131     8.4803     8.3569
  197.2000   133.5167     8.4818     8.3669
  197.3000   133.5210     8.5399     8.3946
  197.4000   133.5252     8.5401     8.4427
  197.5000   133.4791     8.5691     8.4911
  197.6000   133.2321     8.6001     8.5434
  197.7000   132.9929     8.6078     8.5435
  197.8000   132.7497     8.6604     8.5783
  197.9000   132.5066     8.7069     8.6033
  198.0000   132.2635     8.7212     8.6170
  198.1000   132.0203     8.7462     8.6664
  198.2000   131.7495     8.7964     8.7239
  198.3000   131.3148     8.8469     8.7661
  198.4000   131.1541     8.9058     8.8164
  198.5000   131.0478     8.9060     8.8462
  198.6000   130.7483     8.9379     8.8659
  198.7000   130.2598     8.9892     8.9701
  198.8000   130.0167     9.0408     9.0204
  198.9000   129.7735     9.0944     9.0721
  199.0000   129.5304     9.0946     9.0959
  199.1000   129.2008     9.1338     9.1130
  199.2000   128.7741     9.1862     9.1653
  199.3000   128.7793     9.2389     9.2234
  199.4000   128.5579     9.2919     9.2707
  199.5000   128.3147     9.3520     9.3239
  199.6000   128.1882     9.4460     9.3527
  199.7000   128.1925     9.5187     9.3791
  199.8000   128.1967     9.5734     9.4852
  199.9000   128.2017     9.6404     9.5499
  200.0000   128.2051     9.7510     9.5944
  200.1000   128.2094     9.7845     9.6167
