~VERSION INFORMATION
 VERS.                2.0:   CWLS LOG ASCII STANDARD - VERSION 2.0
 WRAP.                 NO:   ONE LINE PER DEPTH STEP
~WELL INFORMATION
#MNEM.UNIT      DATA TYPE    INFORMATION
#----------   ------------   ------------------------------
 STRT.F            0.0000:   START DEPTH
 STOP.F          890.0000:   STOP DEPTH
 STEP.F            0.1000:   STEP LENGTH
 NULL.          -999.2500:   NO VALUE
 COMP.   FLUOR DANIEL INC:   COMPANY
 WELL.   35-1 X 14 #35-14:   WELL
 FLD .             TEAPOT:   FIELD
 LOC .      S14 T38N R78W:   LOCATION
 CNTY.            NATRONA:   COUNTY
 STAT.            WYOMING:   STATE
 CTRY. UNITED STATES OF AMERICA:   COUNTRY
 SRVC.      Western Atlas:   SERVICE COMPANY
 DATE.        23-JUL-1995:   LOGDATE
 API .       490252273300:   API NUMBER
~CURVE INFORMATION
#MNEM.UNIT       API CODE    CURVE DESCRIPTION
#----------   ------------   ------------------------------
 DEPT.F                  :   
 RILM.OHMM   07 120 44 00:   RESITIVITY LONG MEDIUM
 RILD.OHMM   07 120 46 00:   INDUCTION LOG DEEP RESISTIVITY
 GRR .GAPI   07 310 01 00:   GAMMA RAY
~PARAMETER INFORMATION
#MNEM.UNIT          VALUE    DESCRIPTION
#----------   ------------   ------------------------------
 PD  .                 GL:   PERMANENT DATUM
 EPD .F              5238:   ELEVATION PERMANENT DATUM
 LMF .                 KB:   LOG MEASURED FROM
 DAPD.F                10:   FEET ABOVE PERMANENT DATUM
 DMF .                 KB:   DRILLING MEASURED FROM
 EKB .F              5248:   KELLING BUSHING
 EDF .F              5247:   DRILLING FLOOR
 EGL .F              5238:   GROUND LEVEL
 DATE.        23-JUL-1995:   RUN DATE
 RUN .                  1:   RUN NUMBER
 DD  .F               898:   DEPTH DRILLER
 DL  .F               898:   DEPTH LOGGER
 BLI .F               890:   BOTTOM LOG INTERVAL
 CS  .IN            9.625:   CASING SIZE
 CBD .F                78:   CASING BOTTOM DRILLER
 CBL .F                80:   CASING BOTTOM LOGGER
 BS  .IN             8.75:   BIT SIZE
 BSD .F               898:   BIT SIZE AT DEPTH
 DFT .                AIR:   DRILLING FLUID TYPE
 MRT .F                94:   MAXIMUM RECORDED TEMPERATURE
 LUN .            HL 6530:   LOGGING UNIT NUMBER
 LUL .             CASPER:   LOGGING UNIT LOCATION
 ENGI.       VERRN RAUTIO:   RECORDING ENGINEER
 WITN.        GARY STRONG:   WITNESSED BY
 CLNT.            A2DTECH:   CLIENT CODE
 ORIG.           5" PRINT:   ORIGIN OF DATA
 UWI .       490252273300:   UNIQUE WELL ID
 DICO. A2D Technologies, Inc.:   DIGITIZING COMPANY
~OTHER INFORMATION
~A    DEPT    RILM       RILD         GRR  
# ...
  182.0000     6.7312     6.6374   121.9738
  182.1000     6.7318     6.6378   122.1402
  182.2000     6.7323     6.6383   122.1414
  182.3000     6.7329     6.6387   122.1427
  182.4000     6.7335     6.6392   121.6701
  182.5000     6.7340     6.6397   120.7956
  182.6000     6.7346     6.6401   119.7905
  182.7000     6.7352     6.6406   118.8706
  182.8000     6.7357     6.6411   118.1518
  182.9000     6.7363     6.6415   117.6182
  183.0000     6.7368     6.6420   117.3837
  183.1000     6.7374     6.6424   117.3184
  183.2000     6.7380     6.6429   117.3196
  183.3000     6.7385     6.6434   117.3208
  183.4000     6.7391     6.6439   117.3221
  183.5000     6.7398     6.6443   117.3233
  183.6000     6.7402     6.6447   117.5589
  183.7000     6.7408     6.6452   117.8117
  183.8000     6.7249     6.6457   118.0645
  183.9000     6.6952     6.6418   118.3172
  184.0000     6.6958     6.6006   118.5378
  184.1000     6.6964     6.6010   118.5391
  184.2000     6.6969     6.6015   119.0066
  184.3000     6.6724     6.5812   119.1456
  184.4000     6.6516     6.5567   119.2790
  184.5000     6.6522     6.5572   119.5317
  184.6000     6.6527     6.5576   119.7535
  184.7000     6.6533     6.5212   119.7548
  184.8000     6.6538     6.5131   119.9879
  184.9000     6.6284     6.5136   120.2407
  185.0000     6.6088     6.4990   120.3625
  185.1000     6.6094     6.4694   120.3637
  185.2000     6.6099     6.4699   120.3650
  185.3000     6.6105     6.4704   120.3663
  185.4000     6.6110     6.4707   120.3674
  185.5000     6.5847     6.4712   120.3686
  185.6000     6.5627     6.4716   120.3698
  185.7000     6.5561     6.4721   120.3710
  185.8000     6.5495     6.4725   120.3722
  185.9000     6.5429     6.4731   120.3735
  186.0000     6.5363     6.4734   120.3746
  186.1000     6.5297     6.4739   120.3758
  186.2000     6.5240     6.4743   120.5056
  186.3000     6.5247     6.4748   120.7583
  186.4000     6.5252     6.4752   120.9837
  186.5000     6.5257     6.4757   120.9850
  186.6000     6.5053     6.4761   121.2145
  186.7000     6.4816     6.4766   121.4673
  186.8000     6.4822     6.4770   121.7200
  186.9000     6.4827     6.4775   121.9728
  187.0000     6.4832     6.4779   122.2518
  187.1000     6.4546     6.4784   122.8050
  187.2000     6.4394     6.4788   123.0332
  187.3000     6.4399     6.4793   123.2860
  187.4000     6.4405     6.4797   123.6649
  187.5000     6.4410     6.4802   124.0937
  187.6000     6.3970     6.4806   124.3215
  187.7000     6.3975     6.4811   124.3228
  187.8000     6.3980     6.4368   124.5498
  187.9000     6.3985     6.4371   124.6272
  188.0000     6.3991     6.4376   124.6284
  188.1000     6.3996     6.4380   124.5553
  188.2000     6.4002     6.4385   124.3049
  188.3000     6.4007     6.4389   124.0279
  188.4000     6.4012     6.4394   123.5794
  188.5000     6.4017     6.4398   123.4260
  188.6000     6.4023     6.4147   123.3035
  188.7000     6.4028     6.3961   123.0532
  188.8000     6.4034     6.3966   122.8028
  188.9000     6.4039     6.3929   122.5246
  189.0000     6.4044     6.3532   122.3021
  189.1000     6.4049     6.3536   122.2248
  189.2000     6.4055     6.3541   122.2260
  189.3000     6.4060     6.3545   122.2272
  189.4000     6.4066     6.3420   122.2284
  189.5000     6.4071     6.3113   122.2297
  189.6000     6.4076     6.3118   122.4532
  189.7000     6.4081     6.3123   122.5341
  189.8000     6.4087     6.3127   122.6566
  189.9000     6.4092     6.3131   122.8387
  190.0000     6.4098     6.3136   122.8399
  190.1000     6.4103     6.3140   122.8412
  190.2000     6.4109     6.3145   122.6212
  190.3000     6.4114     6.3150   122.3708
  190.4000     6.4119     6.3153   122.2405
  190.5000     6.4124     6.3158   122.1722
  190.6000     6.4130     6.3162   121.9407
  190.7000     6.4078     6.3167   121.9421
  190.8000     6.3696     6.3171   121.9432
  190.9000     6.3701     6.3176   121.9444
  191.0000     6.3707     6.3180   122.0645
  191.1000     6.3501     6.3184   122.3855
  191.2000     6.3276     6.3188   122.8898
  191.3000     6.3281     6.3082   123.4600
  191.4000     6.3287     6.2759   124.1172
  191.5000     6.2929     6.2765   124.7049
  191.6000     6.2859     6.2769   125.3268
  191.7000     6.2645     6.2773   126.1499
  191.8000     6.2434     6.2580   127.1243
  191.9000     6.2363     6.2347   127.6968
  192.0000     6.2011     6.2351   128.3504
  192.1000     6.2017     6.2356   128.9393
  192.2000     6.2022     6.2360   129.3273
  192.3000     6.1965     6.2364   129.5142
  192.4000     6.1872     6.2369   129.5001
  192.5000     6.1779     6.2229   129.2147
  192.6000     6.1686     6.1946   128.9994
  192.7000     6.1618     6.1950   128.7490
  192.8000     6.1623     6.1955   128.4987
  192.9000     6.1629     6.1958   128.3130
  193.0000     6.1633     6.1963   128.2860
  193.1000     6.1638     6.1967   127.7113
  193.2000     6.1644     6.1971   127.4973
  193.3000     6.1649     6.1976   127.2469
  193.4000     6.1684     6.1981   127.1106
  193.5000     6.2090     6.1984   127.1118
  193.6000     6.2094     6.1989   127.1130
  193.7000     6.2351     6.1993   127.1144
  193.8000     6.2538     6.2107   127.1154
  193.9000     6.2543     6.2434   127.1166
  194.0000     6.2589     6.2438   127.1178
  194.1000     6.2990     6.2779   127.1190
  194.2000     6.2995     6.2882   127.1202
  194.3000     6.3000     6.3085   127.1216
  194.4000     6.3200     6.3459   127.1227
  194.5000     6.3450     6.3775   127.1239
  194.6000     6.3456     6.3779   127.1251
  194.7000     6.3461     6.3784   127.1263
  194.8000     6.3466     6.3500   127.1275
  194.9000     6.3750     6.3351   127.1289
  195.0000     6.3920     6.3355   127.1299
  195.1000     6.3925     6.3436   126.9702
  195.2000     6.3993     6.3806   126.8302
  195.3000     6.4382     6.3811   126.7716
  195.4000     6.4387     6.3815   126.5120
  195.5000     6.4686     6.4056   125.9277
  195.6000     6.5069     6.4436   125.2978
  195.7000     6.5305     6.4817   124.2250
  195.8000     6.5461     6.5201   123.0776
  195.9000     6.6230     6.5636   122.0726
  196.0000     6.6236     6.6313   121.0836
  196.1000     6.6554     6.6829   120.5817
  196.2000     6.7189     6.7225   120.0797
  196.3000     6.7814     6.7503   119.7364
  196.4000     6.8216     6.7596   119.5940
  196.5000     6.8619     6.8458   119.5952
  196.6000     6.9092     6.8831   119.5964
  196.7000     6.9097     6.8944   119.5978
  196.8000     6.9362     6.9167   119.5988
  196.9000     6.9590     6.9576   119.6000
  197.0000     6.9700     6.9988   119.6012
  197.1000     7.0087     7.0415   119.6586
  197.2000     7.0094     7.0420   119.9057
  197.3000     7.0454     7.0425   119.9072
  197.4000     7.0871     7.0672   119.9082
  197.5000     7.1092     7.0926   120.0655
  197.6000     7.1216     7.0931   120.3182
  197.7000     7.1600     7.0942   120.5160
  197.8000     7.1607     7.1436   120.5172
  197.9000     7.1986     7.1440   120.5186
  198.0000     7.2413     7.1710   120.5196
  198.1000     7.2627     7.1948   120.5208
  198.2000     7.2765     7.2060   120.4177
  198.3000     7.3196     7.2459   120.1674
  198.4000     7.3662     7.2465   119.9202
  198.5000     7.4065     7.2840   119.9217
  198.6000     7.4188     7.2980   119.7184
  198.7000     7.4426     7.3195   119.3144
  198.8000     7.4867     7.3499   118.9156
  198.9000     7.5246     7.3552   118.6653
  199.0000     7.5252     7.4022   118.4169
  199.1000     7.5258     7.4026   118.4184
  199.2000     7.5598     7.4348   118.4193
  199.3000     7.5796     7.4553   118.4205
  199.4000     7.5802     7.4558   118.4218
  199.5000     7.5808     7.4563   118.4230
  199.6000     7.5815     7.4568   118.4242
  199.7000     7.5821     7.4573   118.4256
  199.8000     7.5827     7.4918   118.2248
  199.9000     7.5834     7.5104   117.8231
  200.0000     7.5840     7.5109   117.4219
  200.1000     7.5757     7.5024   117.0713
