~VERSION INFORMATION
 VERS.                2.0:   CWLS LOG ASCII STANDARD - VERSION 2.0
 WRAP.                 NO:   ONE LINE PER DEPTH STEP
~WELL INFORMATION
#MNEM.UNIT      DATA TYPE    INFORMATION
#----------   ------------   ------------------------------
 STRT.F           93.0000:   START DEPTH
 STOP.F         1921.0000:   STOP DEPTH
 STEP.F            0.5000:   STEP LENGTH
 NULL.          -999.2500:   NO VALUE
 COMP. LAWRENCE-ALLISON &AS:   COMPANY
 WELL.  NPR 3 #15-1SHX2/T:   WELL
 FLD .             NPR #3:   :   FIELD
 LOC .       S2 T38N R78W:   LOCATION
 CNTY.            NATRONA:   COUNTY
 STAT.            WYOMING:   STATE
 CTRY. UNITED STATES OF AMERICA:   COUNTRY
 SRVC.       Schlumberger:   SERVICE COMPANY
 DATE.        10-JUN-1982:   LOGDATE
 API .       490251077600:   API NUMBER
~CURVE INFORMATION
#MNEM.UNIT       API CODE    CURVE DESCRIPTION
#----------   ------------   ------------------------------
 DEPT.F                  :   
 GR  .GAPI   70 310 01 00:   GAMMA RAY
 CALI.IN     70 280 01 00:   CALIPER
~PARAMETER INFORMATION
#MNEM.UNIT          VALUE    DESCRIPTION
#----------   ------------   ------------------------------
 PD  .                 GL:   PERMANENT DATUM
 EPD .F              5116:   ELEVATION PERMANENT DATUM
 LMF .                 KB:   LOG MEASURED FROM
 DAPD.F                10:   FEET ABOVE PERMANENT DATUM
 DMF .                 KB:   DRILLING MEASURED FROM
 EKB .F              5126:   KELLING BUSHING
 EGL .F              5116:   GROUND LEVEL
 DATE.        10-JUN-1982:   RUN DATE
 RUN .                  1:   RUN NUMBER
 DD  .F              2100:   DEPTH DRILLER
 DL  .F              1924:   DEPTH LOGGER
 BLI .F              1921:   BOTTOM LOG INTERVAL
 TLI .F               100:   TOP LOG INTERVAL
 CS  .IN            10.75:   CASING SIZE
 BS  .IN             8.75:   BIT SIZE
 BSD .F              2100:   BIT SIZE AT DEPTH
 DFT .                AIR:   DRILLING FLUID TYPE
 ENGI.        C. MARRINER:   RECORDING ENGINEER
 WITN.             SCOTTY:   WITNESSED BY
 CLNT.            A2DTECH:   CLIENT CODE
 ORIG.           5" PRINT:   ORIGIN OF DATA
 UWI .       490251077600:   UNIQUE WELL ID
 DICO. A2D Technologies, Inc.:   DIGITIZING COMPANY
~OTHER INFORMATION
~A   DEPT       GR       CALI   
# ...
 1308.0000   125.0248    14.8439
 1308.5000   124.6016    14.5357
 1309.0000   126.3961    14.1241
 1309.5000   128.8465    13.5504
 1310.0000   130.8557    13.3306
 1310.5000   131.3148    13.3763
 1311.0000   129.8006    13.6875
 1311.5000   128.2804    13.9987
 1312.0000   127.4160    14.2066
 1312.5000   128.9900    14.3109
 1313.0000   131.2198    14.0473
 1313.5000   133.4495    13.5325
 1314.0000   135.0205    13.2390
 1314.5000   135.2625    12.9307
 1315.0000   134.3749    13.0821
 1315.5000   132.8894    13.6322
 1316.0000   131.7466    13.6578
 1316.5000   130.0656    13.3642
 1317.0000   130.1076    13.3509
 1317.5000   131.9008    13.5592
 1318.0000   133.7739    13.5460
 1318.5000   136.3436    13.0459
 1319.0000   134.8234    13.1506
 1319.5000   133.0826    13.8748
 1320.0000   134.6507    14.3777
 1320.5000   137.1010    14.3641
 1321.0000   139.1102    14.6019
 1321.5000   140.4576    15.2670
 1322.0000   139.1580    15.5365
 1322.5000   137.4172    14.9160
 1323.0000   136.9940    14.2980
 1323.5000   137.4651    13.8127
 1324.0000   137.7095    13.9827
 1324.5000   134.8658    14.4087
 1325.0000   131.3603    15.1544
 1325.5000   126.0638    15.0431
 1326.0000   125.2316    14.1596
 1326.5000   129.8268    13.8509
 1327.0000   136.0943    14.5902
 1327.5000   138.9838    15.9927
 1328.0000   139.6695    16.1859
 1328.5000   138.1493    16.3496
 1329.0000   134.8644    16.3511
 1329.5000   132.2412    16.3376
 1330.0000   131.6030    16.2581
 1330.5000   134.7155    15.9571
 1331.0000   142.3223    16.0623
 1331.5000   145.8932    16.3438
 1332.0000   147.3618    16.6104
 1332.5000   144.0818    16.0517
 1333.0000   142.5556    15.9498
 1333.5000   146.7767    15.9956
 1334.0000   148.5653    16.4986
 1334.5000   149.0244    16.3084
 1335.0000   143.9807    15.7790
 1335.5000   142.6751    15.0135
 1336.0000   144.4697    14.6606
 1336.5000   145.1554    14.9132
 1337.0000   144.5175    15.1801
 1337.5000   141.6738    15.1517
 1338.0000   137.9477    15.4190
 1338.5000   137.2890    15.7302
 1339.0000   140.2100    15.9825
 1339.5000   142.4478    16.0131
 1340.0000   143.5580    15.6757
 1340.5000   135.8673    14.9692
 1341.0000   133.9059    14.3659
 1341.5000   132.3857    14.0425
 1342.0000   131.3067    14.2656
 1342.5000   130.6688    14.9602
 1343.0000   129.5898    14.7257
 1343.5000   127.4078    14.4469
 1344.0000   123.9023    14.2124
 1344.5000   122.5967    14.1985
 1345.0000   122.4000    14.1224
 1345.5000   124.8564    13.6697
 1346.0000   129.9538    13.2304
 1346.5000   137.9189    13.3056
 1347.0000   140.8105    14.4870
 1347.5000   141.7167    16.0511
 1348.0000   138.5700    17.1890
 1348.5000   136.6241    17.7801
 1349.0000   135.8326    17.6196
 1349.5000   139.6124    17.0459
 1350.0000   140.5146    16.0000
 1350.5000   139.8190    15.7758
 1351.0000   133.8299    15.7232
 1351.5000   130.8740    15.8282
 1352.0000   134.6511    15.5797
 1352.5000   138.2022    14.8735
 1353.0000   138.8857    14.7863
 1353.5000   140.6721    15.8083
 1354.0000   142.4586    16.2502
 1354.5000   143.1366    16.0307
 1355.0000   139.4138    15.7083
 1355.5000   134.8031    15.5621
 1356.0000   134.1576    15.8740
 1356.5000   133.7436    15.5513
 1357.0000   132.6624    14.8891
 1357.5000   130.9194    14.2861
 1358.0000   128.7296    14.4506
 1358.5000   128.7911    14.5109
 1359.0000   130.3544    13.9861
 1359.5000   131.4529    13.4086
 1360.0000   131.9103    13.3661
 1360.5000   130.1711    13.2646
 1361.0000   127.9722    12.9271
 1361.5000   128.5299    12.7367
 1362.0000   134.5778    12.8863
 1362.5000   142.1732    13.4781
 1363.0000   144.8420    14.3205
 1363.5000   140.4519    14.4103
 1364.0000   133.6354    13.9548
 1364.5000   129.6865    14.1930
 1365.0000   127.7229    14.7700
 1365.5000   127.5186    14.8471
 1366.0000   127.9870    14.4634
 1366.5000   125.8550    14.5098
 1367.0000   122.7345    14.8951
 1367.5000   123.2028    14.7788
 1368.0000   126.7539    14.5143
 1368.5000   128.0992    14.6357
 1369.0000   129.8856    15.2719
 1369.5000   136.5249    15.2726
 1370.0000   143.3849    15.5402
 1370.5000   146.7154    15.7332
 1371.0000   144.0901    15.9271
 1371.5000   133.9647    16.2475
 1372.0000   130.8982    16.8566
 1372.5000   129.3758    17.0973
 1373.0000   129.1765    16.8192
 1373.5000   130.5222    16.9242
 1374.0000   133.4555    17.1177
 1374.5000   137.7168    16.9719
 1375.0000   140.5515    16.8405
 1375.5000   138.3351    17.0639
 1376.0000   128.4303    17.2721
 1376.5000   125.1378    17.3181
 1377.0000   128.0326    17.3641
 1377.5000   129.8190    17.6953
 1378.0000   130.9436    17.7956
 1378.5000   131.1859    16.1159
 1379.0000   128.5606    15.3628
 1379.5000   125.4941    13.8035
 1380.0000   125.0692    15.8703
 1380.5000   127.7434    15.9902
 1381.0000   129.0886    16.5820
 1381.5000   131.5368    16.5395
 1382.0000   136.7150    16.3196
 1382.5000   141.3126    16.5283
 1383.0000   141.9696    17.3560
 1383.5000   136.7026    17.9474
 1384.0000   134.7391    17.4186
 1384.5000   136.5255    16.8599
 1385.0000   134.7825    16.7436
 1385.5000   131.7160    16.6417
 1386.0000   130.4087    16.8208
 1386.5000   133.3035    17.4126
 1387.0000   134.4282    17.8715
 1387.5000   133.1263    17.6835
 1388.0000   133.3687    17.3457
 1388.5000   135.5963    17.0949
 1389.0000   137.6033    17.2741
 1389.5000   138.2868    17.4528
 1390.0000   137.8673    17.2628
 1390.5000   136.9787    17.1461
 1391.0000   137.9161    17.1483
 1391.5000   140.1437    17.1500
 1392.0000   142.3713    17.1813
 1392.5000   144.1578    17.3895
 1393.0000   143.2971    17.7452
 1393.5000   141.3335    18.2927
 1394.0000   137.1641    18.7074
 1394.5000   133.2152    18.2077
 1395.0000   132.5697    17.5866
 1395.5000   137.2292    16.9728
 1396.0000   138.3539    16.2803
 1396.5000   134.4050    16.0276
 1397.0000   130.4561    16.1224
 1397.5000   129.3749    16.0558
 1398.0000   128.9382    15.7642
 1398.5000   127.8119    15.0086
 1399.0000   125.2543    14.3592
 1399.5000   129.6878    14.5974
 1400.0000   133.4113    15.6165
 1400.5000   135.4719    15.5888
 1401.0000   133.8266    14.0417
 1401.5000   130.5225    12.9518
 1402.0000   128.0151    13.0124
 1402.5000   126.2677    13.3975
 1403.0000   127.8293    13.7698
 1403.5000   131.8172    14.4499
 1404.0000   136.2464    15.9735
 1404.5000   138.6902    16.4422
 1405.0000   134.9576    16.0014
 1405.5000   130.1221    15.7379
 1406.0000   130.5806    15.1495
 1406.5000   134.3480    15.1511
 1407.0000   136.7919    15.1527
 1407.5000   137.6916    15.1691
 1408.0000   135.9443    15.0969
 1408.5000   132.4192    14.3758
 1409.0000   129.0536    13.5957
 1409.5000   125.9775    12.5353
 1410.0000   124.9844    12.6992
 1410.5000   128.7562    13.3350
 1411.0000   134.2883    14.4428
 1411.5000   140.0409    15.0203
 1412.0000   145.5730    15.0034
 1412.5000   144.7081    14.4870
 1413.0000   141.4166    14.1988
 1413.5000   140.1061    14.1562
 1414.0000   139.9073    14.0545
 1414.5000   137.4982    13.4957
 1415.0000   132.8832    13.7922
 1415.5000   125.8418    14.4723
 1416.0000   122.7709    14.4149
 1416.5000   124.5530    13.2661
 1417.0000   126.3532    12.5597
 1417.5000   127.4559    12.7383
 1418.0000   125.8232    12.8874
 1418.5000   123.2990    12.5350
 1419.0000   129.4973    12.5513
 1419.5000   137.4558    12.8041
 1420.0000   141.0026    12.9970
 1420.5000   137.2700    12.7608
 1421.0000   136.4007    12.7671
 1421.5000   139.2901    13.0317
 1422.0000   141.0721    13.8445
 1422.5000   138.0013    14.0375
 1423.0000   131.4010    13.3610
 1423.5000   127.2272    12.8755
 1424.0000   126.5291    12.9660
 1424.5000   128.1444    13.2773
 1425.0000   130.3676    13.7361
 1425.5000   133.0857    14.2834
 1426.0000   137.1793    15.0490
 1426.5000   140.1661    15.4972
 1427.0000   141.0254    15.3210
 1427.5000   136.1942    15.2337
 1428.0000   133.7851    15.2504
 1428.5000   137.3319    15.2520
 1429.0000   139.5552    15.0619
