~VERSION INFORMATION
 VERS.                2.0:   CWLS LOG ASCII STANDARD - VERSION 2.0
 WRAP.                 NO:   ONE LINE PER DEPTH STEP
~WELL INFORMATION
#MNEM.UNIT      DATA TYPE    INFORMATION
#----------   ------------   ------------------------------
 STRT.F            2.0000:   START DEPTH
 STOP.F          500.0000:   STOP DEPTH
 STEP.F            0.1000:   STEP LENGTH
 NULL.          -999.2500:   NO VALUE
 COMP.   FLUOR DANIEL INC:   COMPANY
 WELL.   73-5 X 10 #73-10:   WELL
 FLD .             TEAPOT:   FIELD
 LOC .      S10 T38N R78W:   LOCATION
 CNTY.            NATRONA:   COUNTY
 STAT.            WYOMING:   STATE
 CTRY. UNITED STATES OF AMERICA:   COUNTRY
 SRVC.      Western Atlas:   SERVICE COMPANY
 DATE.        07-JUN-1995:   LOGDATE
 API .       490252271400:   API NUMBER
~CURVE INFORMATION
#MNEM.UNIT       API CODE    CURVE DESCRIPTION
#----------   ------------   ------------------------------
 DEPT.F                  :   
 GRR .GAPI   07 310 01 00:   GAMMA RAY
 RILD.OHMM   07 120 46 00:   INDUCTION LOG DEEP RESISTIVITY
 RILM.OHMM   07 120 44 00:   RESITIVITY LONG MEDIUM
~PARAMETER INFORMATION
#MNEM.UNIT          VALUE    DESCRIPTION
#----------   ------------   ------------------------------
 PD  .                 GL:   PERMANENT DATUM
 EPD .F              5175:   ELEVATION PERMANENT DATUM
 LMF .                 KB:   LOG MEASURED FROM
 DAPD.F                10:   FEET ABOVE PERMANENT DATUM
 DMF .                 KB:   DRILLING MEASURED FROM
 EKB .F              5185:   KELLING BUSHING
 EDF .F              5184:   DRILLING FLOOR
 EGL .F              5175:   GROUND LEVEL
 DATE.        07-JUN-1995:   RUN DATE
 RUN .                  1:   RUN NUMBER
 DD  .F               511:   DEPTH DRILLER
 DL  .F               508:   DEPTH LOGGER
 BLI .F               500:   BOTTOM LOG INTERVAL
 TLI .F                96:   TOP LOG INTERVAL
 CS  .IN            9.625:   CASING SIZE
 CBD .F                96:   CASING BOTTOM DRILLER
 CBL .F                96:   CASING BOTTOM LOGGER
 BS  .IN             8.75:   BIT SIZE
 BSD .F               511:   BIT SIZE AT DEPTH
 DFT .                AIR:   DRILLING FLUID TYPE
 MRT .F               116:   MAXIMUM RECORDED TEMPERATURE
 LUN .            HL 6530:   LOGGING UNIT NUMBER
 LUL .             CASPER:   LOGGING UNIT LOCATION
 ENGI.        VERN RAUTIO:   RECORDING ENGINEER
 WITN.        GARY STRONG:   WITNESSED BY
 CLNT.            A2DTECH:   CLIENT CODE
 ORIG.           5" PRINT:   ORIGIN OF DATA
 UWI .       490252271400:   UNIQUE WELL ID
 DICO. A2D Technologies, Inc.:   DIGITIZING COMPANY
~OTHER INFORMATION
~A    DEPT       GRR     RILD       RILM   
# ...
  111.2000   119.4796    10.6576    10.5373
  111.3000   119.2468    10.6580    10.5321
  111.4000   119.0004    10.6584    10.4659
  111.5000   118.8825    10.6589    10.4664
  111.6000   118.8088    10.6594    10.4266
  111.7000   118.5625    10.6068    10.3954
  111.8000   118.2858    10.5866    10.3960
  111.9000   118.0697    10.5870    10.3965
  112.0000   117.9880    10.5875    10.3972
  112.1000   117.9898    10.5860    10.3977
  112.2000   117.9916    10.5153    10.3610
  112.3000   117.9934    10.5157    10.3271
  112.4000   117.9955    10.4793    10.3401
  112.5000   118.3986    10.4439    10.4000
  112.6000   118.8968    10.4443    10.4006
  112.7000   119.3002    10.4448    10.4011
  112.8000   119.5502    10.4452    10.4017
  112.9000   119.8115    10.4456    10.4023
  113.0000   120.2871    10.4124    10.4029
  113.1000   120.6014    10.3744    10.4035
  113.2000   120.8514    10.3748    10.4040
  113.3000   120.9456    10.3753    10.3606
  113.4000   120.7239    10.3757    10.3334
  113.5000   120.7261    10.3761    10.3340
  113.6000   120.2876    10.3765    10.3346
  113.7000   119.7930    10.3770    10.3352
  113.8000   119.2984    10.3774    10.3357
  113.9000   118.7428    10.3779    10.3363
  114.0000   118.0161    10.3782    10.3083
  114.1000   117.7250    10.3787    10.2661
  114.2000   117.3201    10.3791    10.2667
  114.3000   116.3749    10.3795    10.2674
  114.4000   115.6217    10.3800    10.2678
  114.5000   115.6235    10.3805    10.2306
  114.6000   115.6254    10.3808    10.1982
  114.7000   115.8665    10.3813    10.1987
  114.8000   115.9301    10.3817    10.1993
  114.9000   116.0653    10.3821    10.1296
  115.0000   116.2349    10.3826    10.1301
  115.1000   116.2914    10.3830    10.1306
  115.2000   116.8411    10.3834    10.1312
  115.3000   117.0653    10.3839    10.1215
  115.4000   117.3153    10.3843    10.0625
  115.5000   117.6817    10.3847    10.0630
  115.6000   118.1799    10.3852    10.0636
  115.7000   118.6886    10.3292    10.0641
  115.8000   119.5630    10.3143    10.0647
  115.9000   120.1813    10.3147    10.0652
  116.0000   120.9277    10.3151    10.0658
  116.1000   121.6741    10.3089    10.0664
  116.2000   122.4205    10.2448    10.0669
  116.3000   123.1862    10.2452    10.0675
  116.4000   123.6715    10.2050    10.0514
  116.5000   123.9809    10.1753     9.9991
  116.6000   124.5024    10.1598     9.9998
  116.7000   125.0833    10.1021    10.0003
  116.8000   125.3631    10.0365    10.0008
  116.9000   125.9080     9.9879    10.0014
  117.0000   126.3594     9.9680    10.0019
  117.1000   126.5139     9.9684    10.0025
  117.2000   126.5157     9.9560    10.0031
  117.3000   126.5175     9.9004    10.0036
  117.4000   126.5064     9.9009    10.0041
  117.5000   126.2202     9.9012    10.0047
  117.6000   125.8056     9.8679    10.0052
  117.7000   125.4661     9.8336    10.0058
  117.8000   125.0157     9.8340    10.0064
  117.9000   124.1750     9.8345    10.0069
  118.0000   122.9157     9.8349     9.9753
  118.1000   121.6966     9.7927     9.9390
  118.2000   120.0751     9.7677     9.9395
  118.3000   118.0632     9.7682     9.9401
  118.4000   116.0867     9.7686     9.9406
  118.5000   114.7279     9.7690     9.9412
  118.6000   114.1917     9.7181     9.9417
  118.7000   113.9660     9.7023     9.9423
  118.8000   113.8940     9.7027     9.9374
  118.9000   114.0171     9.7031     9.8749
  119.0000   114.2671     9.7035     9.8754
  119.1000   114.5323     9.7040     9.8759
  119.2000   115.1063     9.7043     9.8501
  119.3000   115.7392     9.6681     9.8089
  119.4000   116.4856     9.6381     9.8094
  119.5000   117.3363     9.6385     9.8101
  119.6000   118.2281     9.6389     9.7636
  119.7000   118.7295     9.6394     9.7434
  119.8000   118.9779     9.6397     9.7440
  119.9000   119.2279     9.6401     9.7329
  120.0000   119.3373     9.6183     9.6778
  120.1000   119.2516     9.5742     9.6784
  120.2000   119.0395     9.5747     9.6353
  120.3000   119.0417     9.5751     9.6127
  120.4000   118.8137     9.5755     9.5929
  120.5000   118.3905     9.5759     9.5474
  120.6000   118.0197     9.5763     9.5480
  120.7000   117.7026     9.5767     9.5485
  120.8000   117.2257     9.5771     9.5087
  120.9000   116.9442     9.5264     9.4837
  121.0000   116.5201     9.5118     9.4843
  121.1000   116.1853     9.5122     9.4787
  121.2000   116.0458     9.5126     9.4199
  121.3000   116.0476     9.5077     9.4204
  121.4000   116.0502     9.4477     9.3837
  121.5000   116.3002     9.4480     9.3565
  121.6000   116.3542     9.4484     9.3570
  121.7000   116.4990     9.4488     9.3575
  121.8000   116.7490     9.4492     9.3581
  121.9000   116.9990     9.4496     9.3586
  122.0000   117.2652     9.4501     9.3246
  122.1000   117.4990     9.4051     9.2950
  122.2000   117.7490     9.3855     9.2956
  122.3000   117.9990     9.3859     9.2961
  122.4000   118.1759     9.3863     9.2967
  122.5000   118.1978     9.3867     9.2971
  122.6000   118.4810     9.3871     9.2976
  122.7000   118.4825     9.3875     9.2776
  122.8000   118.4843     9.3879     9.2344
  122.9000   118.4861     9.3684     9.2351
  123.0000   118.4880     9.3237     9.2355
  123.1000   118.4897     9.3242     9.2361
  123.2000   118.2402     9.3246     9.2366
  123.3000   118.1922     9.3250     9.2192
  123.4000   118.0486     9.3253     9.1738
  123.5000   117.8022     9.3257     9.1744
  123.6000   117.5558     9.3261     9.1749
  123.7000   117.2959     9.3265     9.1754
  123.8000   117.2976     9.3269     9.1759
  123.9000   117.1179     9.3273     9.1612
  124.0000   117.0000     9.3277     9.1136
  124.1000   117.0018     9.3281     9.1142
  124.2000   116.9811     9.3285     9.1147
  124.3000   116.7044     9.3289     9.1152
  124.4000   116.4883     9.3292     9.1157
  124.5000   116.2420     9.3296     9.1162
  124.6000   116.1072     9.3300     9.1150
  124.7000   116.0504     9.3304     9.0544
  124.8000   115.8040     9.3308     9.0548
  124.9000   115.5106     9.3312     9.0553
  125.0000   115.3112     9.3316     9.0558
  125.1000   115.0649     9.3319     9.0463
  125.2000   114.9133     9.3323     8.9944
  125.3000   114.8733     9.3327     8.9949
  125.4000   114.6157     9.3331     8.9954
  125.5000   114.6175     9.3335     8.9669
  125.6000   114.4353     9.3339     8.9343
  125.7000   114.3199     9.3343     8.9348
  125.8000   114.3217     9.3347     8.9353
  125.9000   114.3235     9.3350     8.9358
  126.0000   114.3255     9.3355     8.8993
  126.1000   114.3271     9.3358     8.8752
  126.2000   114.4960     9.3362     8.8757
  126.3000   114.6319     9.3366     8.8761
  126.4000   114.6337     9.3370     8.8767
  126.5000   114.6356     9.3374     8.8771
  126.6000   114.6377     9.3378     8.8776
  126.7000   114.6392     9.3382     8.8781
  126.8000   114.4908     9.3385     8.8786
  126.9000   114.3416     9.3389     8.8791
  127.0000   114.3434     9.3393     8.8797
  127.1000   114.3452     9.3397     8.8801
  127.2000   114.1076     9.3402     8.8806
  127.3000   114.0476     9.3405     8.8811
  127.4000   114.0494     9.3409     8.8816
  127.5000   113.9709     9.3413     8.8820
  127.6000   113.7516     9.3416     8.8825
  127.7000   113.7538     9.3420     8.8830
  127.8000   113.5329     9.2899     8.9131
  127.9000   113.4560     9.2783     8.9457
  128.0000   113.4578     9.2787     8.9462
  128.1000   113.4596     9.2791     8.9467
  128.2000   113.4719     9.2794     8.9472
  128.3000   113.7648     9.2799     8.9477
  128.4000   113.9719     9.2802     8.9482
  128.5000   114.2219     9.2806     8.9487
  128.6000   114.5715     9.2810     8.9492
  128.7000   115.0231     9.2814     8.9497
  128.8000   115.2796     9.2818     8.9502
  128.9000   115.7649     9.2822     8.9507
  129.0000   116.4519     9.2825     8.9512
  129.1000   117.1982     9.2829     8.9516
  129.2000   117.9445     9.2833     8.9521
  129.3000   118.6910     9.2837     8.9527
