~VERSION INFORMATION
 VERS.                2.0:   CWLS LOG ASCII STANDARD - VERSION 2.0
 WRAP.                 NO:   ONE LINE PER DEPTH STEP
~WELL INFORMATION
#MNEM.UNIT      DATA TYPE    INFORMATION
#----------   ------------   ------------------------------
 STRT.F           29.0000:   START DEPTH
 STOP.F          435.0000:   STOP DEPTH
 STEP.F            0.5000:   STEP LENGTH
 NULL.          -999.2500:   NO VALUE
 COMP. FENIX & SCISSON INC:   COMPANY
 WELL.    525 X 10 #52-10:   WELL
 FLD .             TEAPOT:   FIELD
 LOC .      S10 T38N R78W:   LOCATION
 CNTY.            NATRONA:   COUNTY
 STAT.            WYOMING:   STATE
 CTRY. UNITED STATES OF AMERICA:   COUNTRY
 SRVC.       Schlumberger:   SERVICE COMPANY
 DATE.        18-NOV-1978:   LOGDATE
 API .       490251077700:   API NUMBER
~CURVE INFORMATION
#MNEM.UNIT       API CODE    CURVE DESCRIPTION
#----------   ------------   ------------------------------
 DEPT.F                  :   
 NEUT.NAPI   35 330 01 00:   NEUTRON
 SPR .MV     07 010 01 00:   SPONTANEOUS POTENTIAL
 SFL .OHMM   07 220 01 00:   SHALLOW FOCUSED LOG RESISTIVITY
 ILD .OHMM   07 120 46 00:   INDUCTION LOG DEEP RESISTIVITY
 ILM .OHMM   07 120 44 00:   INDUCTION LOG MEDIUM
 CORR.G/C3   45 356 01 00:   DENSITY CORRECTION
 RHOB.G/C3   45 350 01 00:   BULK DENSITY
 DPHI.DEC    45 890 12 00:   DENSITY POROSITY SANDSTONE
 CALD.IN     45 280 60 00:   CALIPER
 GRD .GAPI   45 310 01 00:   GAMMA RAY FROM DENSITY LOG
~PARAMETER INFORMATION
#MNEM.UNIT          VALUE    DESCRIPTION
#----------   ------------   ------------------------------
 PD  .                 GL:   PERMANENT DATUM
 EPD .F              5176:   ELEVATION PERMANENT DATUM
 LMF .                 KB:   LOG MEASURED FROM
 DAPD.F                 4:   FEET ABOVE PERMANENT DATUM
 DMF .                 KB:   DRILLING MEASURED FROM
 EKB .F              5180:   KELLING BUSHING
 EGL .F              5176:   GROUND LEVEL
 DATE.           11-18-78:   RUN DATE
 RUN .                  1:   RUN NUMBER
 DD  .F               433:   DEPTH DRILLER
 DL  .F               435:   DEPTH LOGGER
 BLI .F               429:   BOTTOM LOG INTERVAL
 TLI .F                48:   TOP LOG INTERVAL
 CS  .IN            8.625:   CASING SIZE
 CBD .F                40:   CASING BOTTOM DRILLER
 CBL .F                48:   CASING BOTTOM LOGGER
 BS  .IN            7.875:   BIT SIZE
 BSD .F               433:   BIT SIZE AT DEPTH
 DFT .            KCL MUD:   DRILLING FLUID TYPE
 DFD .                8.5:   DRILLING FLUID DENSITY
 DFV .                 30:   DRILLING FLUID VISCOSITY
 DFPH.                9.6:   DRILLING FLUID PH
 DFL .                 16:   DRILLING FLUID LOSS
 MSS .             MUDPIT:   MUD SAMPLE SOURCE
 RMS .OHMM            .45:   RESISTIVITY MUD SAMPLE
 MST .F                50:   MUD SAMPLE TEMPERATURE
 RMF .OHMM            .37:   RESISTIVITY MUD FILTRATE SAMPLE
 MFST.F                50:   MUD FILTRATE SAMPLE TEMPERATURE
 RMC .OHMM            .43:   RESISTIVITY MUD CAKE
 MCST.F                50:   MUD CAKE SAMPLE TEMPERATURE
 MFSS.                  M:   MUD FILTRATE SAMPLE SOURCE
 MCSS.                  C:   MUD CAKE SAMPLE SOURCE
 RMB .OHMM            .42:   RESISTIVITY MUD AT BHT
 BHT .F                63:   BOTTOM HOLE TEMPERATURE
 TCS .HRS            2400:   TIME CURCULATED STOPPED
 TLAB.HRS            1300:   TIME LOGGER AT BOTTOM
 MRT .F                63:   MAXIMUM RECORDED TEMPERATURE
 LUN .               7663:   LOGGING UNIT NUMBER
 LUL .                GLT:   LOGGING UNIT LOCATION
 ENGI.        SATTERFIELD:   RECORDING ENGINEER
 WITN.              AMEND:   WITNESSED BY
 CLNT.            A2DTECH:   CLIENT CODE
 ORIG.     1", 2.5" PRINT:   ORIGIN OF DATA
 UWI .       490251077700:   UNIQUE WELL ID
 DICO. A2D Technologies, Inc.:   DIGITIZING COMPANY
~OTHER INFORMATION
~A   DEPT     NEUT        SPR        SFL        ILD        ILM       CORR       RHOB       DPHI       CALD         GRD  
# ...
  263.5000   292.8514   -17.7600    36.8508    32.3529    31.2020     0.0141     2.3248     0.2135     8.1355    73.5464
  264.0000   295.8706   -17.6127    39.2780    32.5500    31.7447     0.0142     2.3293     0.2130     8.1624    72.8977
  264.5000   301.8497   -17.5919    41.4492    32.7172    32.2975     0.0113     2.3582     0.1982     8.1974    72.3058
  265.0000   307.4167   -17.6251    41.9741    32.8853    32.8607     0.0086     2.3651     0.1870     8.2173    71.6683
  265.5000   273.4307   -17.6082    40.1569    33.5084    33.4339     0.0078     2.3559     0.1921     8.2149    71.4048
  266.0000   272.4649   -17.5723    37.5425    34.5168    34.0172     0.0068     2.3411     0.1951     8.2155    71.4350
  266.5000   271.5332   -17.4519    38.6500    35.5554    34.6106     0.0095     2.3249     0.2219     8.2156    71.4485
  267.0000   271.7589   -17.3335    40.7866    36.6254    35.2144     0.0135     2.3098     0.2235     8.2154    71.6486
  267.5000   271.9502   -17.2162    42.7620    37.7275    35.5054     0.0043     2.3000     0.2275     8.2156    71.8682
  268.0000   272.1411   -17.0976    43.8818    38.9651    37.0047     0.0038     2.2968     0.2292     8.2153    72.0539
  268.5000   272.3313   -16.9800    44.9054    39.6965    38.3955     0.0068     2.2972     0.2316     8.2157    72.1351
  269.0000   272.5215   -16.8624    46.0218    39.7349    39.8385     0.0104     2.2857     0.2381     8.2154    70.9657
  269.5000   272.7117   -16.6892    47.7477    39.6726    41.2008     0.0133     2.2793     0.2388     8.2149    69.9140
  270.0000   272.9019   -16.4115    45.9769    38.7662    39.5387     0.0166     2.2826     0.2431     8.2179    71.3515
  270.5000   273.0914   -16.4330    43.3028    37.3926    38.2574     0.0195     2.2698     0.2510     8.1839    74.8898
  271.0000   273.2783   -16.5073    40.7817    36.0655    37.0176     0.0229     2.2705     0.2411     8.0925    76.8584
  271.5000   273.4762   -16.5899    38.4097    34.7848    35.8181     0.0286     2.2816     0.2277     8.0084    77.5375
  272.0000   274.4780   -16.6636    36.1800    33.5502    34.6573     0.0324     2.3112     0.2130     7.9341    78.6873
  272.5000   275.5818   -16.7388    34.0819    32.3729    33.5336     0.0192     2.3391     0.2056     7.9998    80.1216
  273.0000   276.6943   -16.8769    31.7815    31.2323    32.4464     0.0159     2.3569     0.1974     8.1018    81.6601
  273.5000   277.3783   -17.1912    31.6427    30.4845    31.3946     0.0189     2.3696     0.1892     8.1370    81.2810
  274.0000   276.3250   -17.5011    31.4770    30.2220    30.5959     0.0213     2.3744     0.1858     8.1335    79.7842
  274.5000   276.0596   -17.8162    31.3112    29.9618    30.5954     0.0254     2.3740     0.1851     8.1340    78.4767
  275.0000   275.8208   -18.1328    31.1802    29.7038    30.6043     0.0322     2.3726     0.1846     8.1343    77.1960
  275.5000   275.5881   -18.4401    30.7235    29.4480    30.5910     0.0260     2.3541     0.1954     8.1341    76.6953
  276.0000   275.5483   -18.7533    30.1629    29.1945    30.5884     0.0111     2.3469     0.1992     8.1341    76.1966
  276.5000   275.8268   -18.7818    30.4701    28.9371    30.6119     0.0142     2.3648     0.1917     8.1341    75.7505
  277.0000   276.1015   -18.7153    31.1717    27.9525    29.2509     0.0170     2.3920     0.1757     8.1348    75.3720
  277.5000   276.3765   -18.6505    30.3353    26.9782    27.9325     0.0173     2.4025     0.1628     8.1322    74.6053
  278.0000   276.6513   -18.5898    28.1450    26.0379    26.6735     0.0120     2.4093     0.1595     8.1544    76.9931
  278.5000   276.9260   -18.5258    26.1128    25.1304    25.4713     0.0082     2.3818     0.1798     8.1911    81.1667
  279.0000   277.2008   -18.4633    24.4775    24.2544    24.4775     0.0072     2.3912     0.1789     8.2234    84.8580
  279.5000   277.4756   -18.4005    23.9808    23.5839    23.7953     0.0061     2.3943     0.1717     8.2541    88.4176
  280.0000   277.7504   -18.3375    23.8429    23.1838    23.4838     0.0047     2.3894     0.1739     8.2540    89.3551
  280.5000   278.0249   -18.2748    23.7059    22.7228    23.1493     0.0080     2.3897     0.1763     8.2527    90.1437
  281.0000   278.3002   -18.2120    23.5839    22.7228    23.1795     0.0145     2.3953     0.1735     8.2503    89.3315
  281.5000   278.4636   -18.1493    23.5839    22.7228    23.2390     0.0155     2.4008     0.1700     8.2488    88.5247
  282.0000   278.5562   -18.0865    23.5839    22.7228    23.2986     0.0165     2.4061     0.1664     8.2469    87.8030
  282.5000   278.6480   -18.0237    23.6668    22.7985    23.3583     0.0124     2.4030     0.1628     8.2450    88.1784
  283.0000   278.7394   -17.9607    23.7884    22.9095    23.4183     0.0083     2.3870     0.1716     8.2432    88.3366
  283.5000   278.8310   -17.8986    23.9106    23.0210    23.4783     0.0050     2.3688     0.1843     8.2413    89.6539
  284.0000   278.9226   -17.8344    24.0335    23.1330    23.5386     0.0074     2.3730     0.1863     8.2395    91.3952
  284.5000   279.0142   -17.7728    24.1574    23.2454    23.5988     0.0085     2.3814     0.1816     8.2376    93.2909
  285.0000   279.1058   -17.7116    24.2810    23.3592    23.6593     0.0109     2.3761     0.1800     8.2358    92.3720
  285.5000   279.1974   -17.6376    24.4051    23.4737    23.7199     0.0072     2.3676     0.1865     8.2339    91.0769
  286.0000   279.2889   -17.6778    24.5296    23.5847    23.7798     0.0048     2.3660     0.1895     8.2321    89.6871
  286.5000   279.3806   -17.8629    24.6544    23.7090    23.8418     0.0071     2.3722     0.1862     8.2302    88.6140
  287.0000   279.4245   -18.0349    24.7802    23.8347    23.9041     0.0085     2.3703     0.1883     8.2284    88.5847
  287.5000   279.4245   -18.2090    24.9364    24.0201    23.9594     0.0072     2.3646     0.1903     8.2266    88.5682
  288.0000   279.4439   -18.3851    24.8467    23.9537    24.0265     0.0067     2.3641     0.1919     8.2247    88.5451
  288.5000   280.3404   -18.5599    24.6185    23.7703    23.8606     0.0096     2.3689     0.1894     8.2228    88.9162
  289.0000   283.0186   -18.7316    24.3924    23.5882    23.6944     0.0121     2.3733     0.1838     8.2210    89.7692
  289.5000   285.8934   -18.9126    24.1679    23.4076    23.5294     0.0205     2.3788     0.1758     8.2191    90.6318
  290.0000   287.6191   -19.0823    23.9450    23.2284    23.3656     0.0316     2.4002     0.1688     8.2174    91.6469
  290.5000   288.6180   -19.2101    23.7238    23.0505    23.2029     0.0356     2.4104     0.1611     8.2156    92.6312
  291.0000   296.0014   -18.9927    23.5047    22.8740    23.0413     0.0283     2.3983     0.1666     8.2170    93.3641
  291.5000   149.6123   -18.8039    23.2880    22.6989    22.8809     0.0137     2.3848     0.1775     8.2185    92.2526
  292.0000   399.2967   -18.5958    23.1493    22.5242    22.7215    -0.0011     2.3709     0.1878     8.2201    91.3608
  292.5000   270.0750   -18.3973    23.0083    22.3508    22.5633    -0.0019     2.3653     0.1887     8.2217    90.2337
  293.0000   276.8642   -18.1962    22.8572    22.1783    22.4062     0.0057     2.3740     0.1853     8.2232    90.8486
  293.5000   274.6112   -17.9938    22.7071    22.0069    22.2502     0.0125     2.3847     0.1806     8.2248    92.5790
  294.0000   269.5335   -17.7966    22.5580    21.8011    22.0952     0.0191     2.3896     0.1758     8.2263    91.8764
  294.5000   270.0353   -17.5885    22.4099    21.5147    21.8932     0.0247     2.3986     0.1698     8.2279    90.3804
  295.0000   270.7912   -17.3950    22.3041    21.0989    21.9217     0.0215     2.3980     0.1676     8.2295    92.6458
  295.5000   271.5391   -17.2290    22.3041    21.1944    22.0231     0.0174     2.3943     0.1700     8.2310    94.9495
  296.0000   272.3038   -17.4421    22.3012    21.4227    22.1249     0.0128     2.3906     0.1725     8.2326    93.0766
  296.5000   271.8051   -17.6479    22.3020    21.6536    22.2271     0.0143     2.3857     0.1762     8.2341    90.0363
