~VERSION INFORMATION
 VERS.                2.0:   CWLS LOG ASCII STANDARD - VERSION 2.0
 WRAP.                 NO:   ONE LINE PER DEPTH STEP
~WELL INFORMATION
#MNEM.UNIT      DATA TYPE    INFORMATION
#----------   ------------   ------------------------------
 STRT.F          372.0000:   START DEPTH
 STOP.F         1845.0000:   STOP DEPTH
 STEP.F            0.5000:   STEP LENGTH
 NULL.          -999.2500:   NO VALUE
 COMP.             T.H.E.:   COMPANY
 WELL. 63-1-STX-29 #63-29:   WELL
 FLD .             TEAPOT:   FIELD
 LOC .      S29 T39N R78W:   LOCATION
 CNTY.            NATRONA:   COUNTY
 STAT.            WYOMING:   STATE
 CTRY. UNITED STATES OF AMERICA:   COUNTRY
 SRVC.            Unknown:   SERVICE COMPANY
 DATE.        20-MAY-1996:   LOGDATE
 API .       490252279200:   API NUMBER
~CURVE INFORMATION
#MNEM.UNIT       API CODE    CURVE DESCRIPTION
#----------   ------------   ------------------------------
 DEPT.F                  :   
 ROP .MIN/FT 91 810 01 00:   RATE OF DRILLING PENETRATION
 TGAS.UNITS  91 830 01 00:   TOTAL GAS FROM HOTWIRE
~PARAMETER INFORMATION
#MNEM.UNIT          VALUE    DESCRIPTION
#----------   ------------   ------------------------------
 EKB .F              4983:   KELLING BUSHING
 EGL .F              4973:   GROUND LEVEL
 DATE.          5-20-1996:   RUN DATE
 RUN .                  1:   RUN NUMBER
 BLI .F              1845:   BOTTOM LOG INTERVAL
 TLI .F               372:   TOP LOG INTERVAL
 CS  .IN                7:   CASING SIZE
 CBD .F               354:   CASING BOTTOM DRILLER
 ENGI.   C. TOWER/R. HUSK:   RECORDING ENGINEER
 CLNT.            A2DTECH:   CLIENT CODE
 ORIG.           5" PRINT:   ORIGIN OF DATA
 UWI .       490252279200:   UNIQUE WELL ID
 DICO. A2D Technologies, Inc.:   DIGITIZING COMPANY
~OTHER INFORMATION
~A   DEPT        ROP     TGAS   
# ...
  736.5000     0.6965     1.5190
  737.0000     0.6963     1.5254
  737.5000     0.6961     1.5317
  738.0000     0.6958     1.5384
  738.5000     0.6955     1.5455
  739.0000     0.6903     1.5507
  739.5000     0.6845     1.5136
  740.0000     0.6842     1.3521
  740.5000     0.6734     1.3594
  741.0000     0.6787     1.5761
  741.5000     0.6729     1.3702
  742.0000     0.6726     1.3784
  742.5000     0.6723     1.3845
  743.0000     0.6616     1.5097
  743.5000     0.6613     1.6077
  744.0000     0.6611     1.6148
  744.5000     0.6713     1.5915
  745.0000     0.6711     1.6268
  745.5000     0.6708     1.5051
  746.0000     0.6811     1.6394
  746.5000     0.6749     1.4348
  747.0000     0.6634     1.6532
  747.5000     0.6519     1.6585
  748.0000     0.6405     1.4527
  748.5000     0.6290     1.6712
  749.0000     0.6161     1.6783
  749.5000     0.6159     1.5824
  750.0000     0.6158     1.6901
  750.5000     0.6156     1.6965
  751.0000     0.6155     1.7035
  751.5000     0.6048     1.7092
  752.0000     0.6046     1.5030
  752.5000     0.6045     1.5106
  753.0000     0.6148     1.5173
  753.5000     0.6147     1.5232
  754.0000     0.6145     1.6165
  754.5000     0.6144     1.5363
  755.0000     0.6142     1.7537
  755.5000     0.6100     1.7609
  756.0000     0.7192     1.5549
  756.5000     0.7190     1.6120
  757.0000     0.7188     1.7789
  757.5000     0.7119     1.7860
  758.0000     0.7080     1.7033
  758.5000     0.7078     1.5855
  759.0000     0.7077     1.5930
  759.5000     0.7075     1.5999
  760.0000     0.7074     1.6056
  760.5000     0.7072     1.6120
  761.0000     0.7176     1.6183
  761.5000     0.7174     1.6250
  762.0000     0.7173     1.6322
  762.5000     0.7171     1.6373
  763.0000     0.7169     1.8553
  763.5000     0.7273     1.8614
  764.0000     0.7272     1.6563
  764.5000     0.7270     1.7701
  765.0000     0.7268     1.6681
  765.5000     0.7372     1.8865
  766.0000     0.7371     1.6817
  766.5000     0.7369     1.8993
  767.0000     0.7473     1.6932
  767.5000     0.7366     1.7007
  768.0000     0.6648     1.9188
  768.5000     0.6205     1.7943
  769.0000     0.6098     1.7197
  769.5000     0.6096     1.7261
  770.0000     0.6095     1.7327
  770.5000     0.6093     1.7399
  771.0000     0.6197     1.9563
  771.5000     0.6195     1.9627
  772.0000     0.6194     1.9691
  772.5000     0.6230     1.9754
  773.0000     0.6296     1.9817
  773.5000     0.6294     1.9880
  774.0000     0.6293     1.9944
  774.5000     0.6291     2.0007
  775.0000     0.6289     2.0070
  775.5000     0.6393     2.0134
  776.0000     0.6497     1.9980
  776.5000     0.6495     1.8148
  777.0000     0.6599     1.8211
  777.5000     0.6597     1.8275
  778.0000     0.6596     2.0451
  778.5000     0.6594     1.8404
  779.0000     0.6614     1.8476
  779.5000     0.6696     1.8528
  780.0000     0.6694     2.0704
  780.5000     0.6798     2.0768
  781.0000     0.6902     2.0840
  781.5000     0.6901     1.8782
  782.0000     0.7004     2.0958
  782.5000     0.7003     2.1021
  783.0000     0.7001     2.1091
  783.5000     0.6999     2.1148
  784.0000     0.6998     2.1211
  784.5000     0.6996     2.1275
  785.0000     0.6995     2.1342
  785.5000     0.6989     2.1414
  786.0000     0.5202     2.1465
  786.5000     0.5201     2.1528
  787.0000     0.5304     2.1593
  787.5000     0.5310     2.1665
  788.0000     0.5406     2.1718
  788.5000     0.5572     2.1782
  789.0000     0.5614     2.1845
  789.5000     0.5717     2.1916
  790.0000     0.5716     2.1972
  790.5000     0.5714     2.2035
  791.0000     0.5713     2.2099
  791.5000     0.5711     2.2168
  792.0000     0.5709     2.2225
  792.5000     0.5708     2.2289
  793.0000     0.5706     2.2352
  793.5000     0.5705     2.2415
  794.0000     0.5703     2.2491
  794.5000     0.5701     2.2542
  795.0000     0.5745     2.2606
  795.5000     1.0120     2.2670
  796.0000     1.0118     2.2742
  796.5000     1.0116     2.2796
  797.0000     1.0163     2.2859
  797.5000     0.8008     2.2923
  798.0000     0.8112     2.2993
  798.5000     0.8215     2.3049
  799.0000     0.8214     2.3113
  799.5000     0.8318     2.3176
  800.0000     0.7684     2.3231
  800.5000     0.6735     2.3250
  801.0000     0.6628     2.3261
  801.5000     0.6521     2.3272
  802.0000     0.6520     2.3282
  802.5000     0.6518     2.3292
  803.0000     0.6517     2.3303
  803.5000     0.6515     2.3314
  804.0000     0.6463     2.3326
  804.5000     0.6407     2.3335
  805.0000     0.6300     2.3345
  805.5000     0.6193     2.3356
  806.0000     0.7578     2.3367
  806.5000     0.8085     2.3377
  807.0000     0.8080     2.3387
  807.5000     0.7871     2.3398
  808.0000     0.7869     2.3409
  808.5000     0.7899     2.3419
  809.0000     0.8077     2.1317
  809.5000     0.8075     2.1696
  810.0000     0.8179     2.1338
  810.5000     1.5336     2.3463
  811.0000     1.4973     2.3472
  811.5000     1.0700     2.3482
  812.0000     1.0657     2.3493
  812.5000     1.0697     2.3505
  813.0000     1.0696     2.3514
  813.5000     1.0484     2.3525
  814.0000     0.8969     2.3535
  814.5000     0.9047     2.3547
  815.0000     0.9141     2.3556
  815.5000     0.9425     2.2728
  816.0000     0.9423     2.3577
  816.5000     0.9422     2.3588
  817.0000     0.9420     2.3600
  817.5000     0.9418     2.3609
  818.0000     0.4890     2.3620
  818.5000     0.5041     2.3630
  819.0000     0.5098     2.3642
  819.5000     0.5202     2.3651
  820.0000     0.5200     2.3662
  820.5000     0.5198     2.3673
  821.0000     0.5293     2.3684
  821.5000     0.6985     2.3694
  822.0000     0.6950     2.3704
  822.5000     0.6876     2.3715
  823.0000     0.6875     2.3726
  823.5000     0.6873     2.3738
  824.0000     0.6872     2.3746
  824.5000     0.6881     2.3757
  825.0000     0.6974     2.3768
  825.5000     0.6972     2.3780
  826.0000     0.6971     2.3789
  826.5000     0.6969     2.3799
  827.0000     0.7073     2.3810
  827.5000     0.7071     2.3821
  828.0000     0.7175     2.3831
  828.5000     0.7173     2.3842
  829.0000     0.7172     2.3852
  829.5000     0.7170     2.3863
  830.0000     0.7168     2.3875
  830.5000     0.7147     2.3884
  831.0000     0.6955     2.3894
  831.5000     0.6953     2.3905
  832.0000     0.6952     2.3917
  832.5000     0.6927     2.3926
  833.0000     0.6843     2.3309
  833.5000     0.6841     2.1834
  834.0000     0.6945     2.1846
  834.5000     0.6838     2.2695
  835.0000     0.6837     2.1866
  835.5000     0.6835     2.1877
  836.0000     0.6834     2.1888
  836.5000     0.6832     2.4012
  837.0000     0.6831     2.4021
  837.5000     0.6723     2.1918
  838.0000     0.6722     2.4042
  838.5000     0.6721     2.4054
  839.0000     0.6719     2.1951
  839.5000     0.6717     2.4072
  840.0000     0.6716     2.1971
  840.5000     0.6680     2.4096
  841.0000     0.6607     2.4106
  841.5000     1.3974     2.4116
  842.0000     1.4036     2.4127
  842.5000     1.4076     2.4138
  843.0000     1.4075     2.4150
  843.5000     1.4178     2.4158
  844.0000     1.1268     2.4169
  844.5000     0.9900     2.4180
  845.0000     1.0083     2.4192
  845.5000     1.0172     2.4201
  846.0000     0.9749     2.4211
  846.5000     0.6274     2.4222
  847.0000     0.6396     2.2121
  847.5000     0.7324     2.4243
  848.0000     0.7954     1.9895
  848.5000     0.7952     1.3441
  849.0000     0.7951     0.9487
  849.5000     0.7949     0.9499
  850.0000     0.7947     0.9507
  850.5000     0.6478     0.9518
  851.0000     0.6260     0.9528
  851.5000     0.6258     0.9540
  852.0000     0.8046     0.9549
  852.5000     0.8045     0.9560
  853.0000     0.8043     0.9739
  853.5000     0.7936     1.5920
  854.0000     0.9303     1.5930
  854.5000     0.9302     1.5940
  855.0000     0.9300     1.5951
  855.5000     0.9298     1.8075
  856.0000     0.9297     1.8087
  856.5000     0.9295     2.0208
  857.0000     0.9294     2.2729
  857.5000     0.9292     2.2342
