~VERSION INFORMATION
 VERS.                2.0:   CWLS LOG ASCII STANDARD - VERSION 2.0
 WRAP.                 NO:   ONE LINE PER DEPTH STEP
~WELL INFORMATION
#MNEM.UNIT      DATA TYPE    INFORMATION
#----------   ------------   ------------------------------
 STRT.F           30.0000:   START DEPTH
 STOP.F          733.0000:   STOP DEPTH
 STEP.F            0.5000:   STEP LENGTH
 NULL.          -999.2500:   NO VALUE
 COMP. FENIX & SCISSON INC:   COMPANY
 WELL.    NPR-3 #51 S -34:   WELL
 FLD .             TEAPOT:   FIELD
 LOC .      S34 T39N R78W:   LOCATION
 CNTY.            NATRONA:   COUNTY
 STAT.            WYOMING:   STATE
 CTRY. UNITED STATES OF AMERICA:   COUNTRY
 SRVC.      Dresser Atlas:   SERVICE COMPANY
 DATE.        20-MAR-1977:   LOGDATE
 API .       490251031600:   API NUMBER
~CURVE INFORMATION
#MNEM.UNIT       API CODE    CURVE DESCRIPTION
#----------   ------------   ------------------------------
 DEPT.F                  :   
 CALD.IN     45 280 60 00:   CALIPER FROM DENSITY LOG
 GRD .GAPI   45 310 01 00:   GAMMA RAY FROM DENSITY LOG
 CORR.G/C3   45 356 01 00:   DENSITY CORRECTION
 DPHI.DEC    45 890 12 00:   DENSITY POROSITY SANDSTONE
 RHOB.G/C3   45 350 01 00:   BULK DENSITY
 SPR .MV     07 010 01 00:   SPONTANEOUS POTENTIAL
 ILD .OHMM   07 120 46 00:   INDUCTION LOG DEEP
 ILM .OHMM   07 120 44 00:   INDUCTION LOG MEDIUM
 SFL .OHMM   07 220 01 00:   SHALLOW FOCUSED LOG RESISTIVITY
~PARAMETER INFORMATION
#MNEM.UNIT          VALUE    DESCRIPTION
#----------   ------------   ------------------------------
 PD  .                 GL:   PERMANENT DATUM
 EPD .F              5065:   ELEVATION PERMANENT DATUM
 LMF .                 KB:   LOG MEASURED FROM
 DAPD.F                 4:   FEET ABOVE PERMANENT DATUM
 DMF .                 KB:   DRILLING MEASURED FROM
 EKB .F              5069:   KELLING BUSHING
 EGL .F              5065:   GROUND LEVEL
 DATE.        20-MAR-1977:   RUN DATE
 RUN .                  1:   RUN NUMBER
 DD  .F               735:   DEPTH DRILLER
 DL  .F               731:   DEPTH LOGGER
 BLI .F               729:   BOTTOM LOG INTERVAL
 TLI .F                42:   TOP LOG INTERVAL
 CS  .IN            8.625:   CASING SIZE
 CBD .F                40:   CASING BOTTOM DRILLER
 CBL .F                42:   CASING BOTTOM LOGGER
 BS  .IN            7.875:   BIT SIZE
 BSD .F               735:   BIT SIZE AT DEPTH
 DFT .           CHEM GEL:   DRILLING FLUID TYPE
 DFD .                9.0:   DRILLING FLUID DENSITY
 DFV .                 38:   DRILLING FLUID VISCOSITY
 DFPH.                8.5:   DRILLING FLUID PH
 DFL .                 72:   DRILLING FLUID LOSS
 MSS .           FLOWLINE:   MUD SAMPLE SOURCE
 RMS .OHMM             .4:   RESISTIVITY MUD SAMPLE
 MST .F                51:   MUD SAMPLE TEMPERATURE
 RMF .OHMM            .72:   RESISTIVITY MUD FILTRATE SAMPLE
 MFST.F                48:   MUD FILTRATE SAMPLE TEMPERATURE
 RMC .OHMM           1.16:   RESISTIVITY MUD CAKE
 MCST.F                48:   MUD CAKE SAMPLE TEMPERATURE
 MFSS.               MEAS:   MUD FILTRATE SAMPLE SOURCE
 MCSS.               MEAS:   MUD CAKE SAMPLE SOURCE
 RMB .OHMM            .31:   RESISTIVITY MUD AT BHT
 BHT .F                66:   BOTTOM HOLE TEMPERATURE
 TCS .HRS            0300:   TIME CURCULATED STOPPED
 MRT .F                66:   MAXIMUM RECORDED TEMPERATURE
 LUN .               6145:   LOGGING UNIT NUMBER
 LUL .              GLTTE:   LOGGING UNIT LOCATION
 ENGI.              RANCK:   RECORDING ENGINEER
 WITN.              BURKE:   WITNESSED BY
 CLNT.            A2DTECH:   CLIENT CODE
 ORIG.           5" PRINT:   ORIGIN OF DATA
 UWI .       490251031600:   UNIQUE WELL ID
 DICO. A2D Technologies, Inc.:   DIGITIZING COMPANY
~OTHER INFORMATION
~A   DEPT     CALD        GRD       CORR       DPHI       RHOB        SPR        ILD        ILM        SFL   
# ...
  431.5000     8.2004   107.7084     0.0276     0.0944     2.4909   -57.4343     5.3776     7.1608     7.3300
  432.0000     8.2024   105.4335     0.0322     0.0902     2.4984   -57.2657     5.4938     7.0667     8.9034
  432.5000     8.1889   105.3582     0.0354     0.0857     2.5030   -57.0970     5.6125     7.0212     9.0954
  433.0000     8.1914   107.4038     0.0401     0.0827     2.5113   -56.7791     5.7737     7.0755     8.7907
  433.5000     8.1933   108.3143     0.0432     0.0814     2.5144   -56.4612     5.9806     7.0799     8.3794
  434.0000     8.1953   108.6278     0.0464     0.0802     2.5167   -56.2925     6.1523     7.2331     8.3250
  434.5000     8.1818   105.3592     0.0541     0.0784     2.5206   -56.2731     6.2419     7.2879     8.5057
  435.0000     8.1842   104.3294     0.0587     0.0730     2.5311   -56.1045     6.2892     7.4455     8.5686
  435.5000     8.1862   103.1503     0.0589     0.0681     2.5395   -55.9358     6.2066     7.5019     8.6329
  436.0000     8.1582   101.8220     0.0590     0.0645     2.5440   -55.7672     6.1251     7.6113     8.5779
  436.5000     8.1447   101.2400     0.0592     0.0639     2.5456   -55.5985     6.0030     7.6161     8.3959
  437.0000     8.1168   100.9527     0.0593     0.0660     2.5404   -55.5791     5.9644     7.5160     8.3528
  437.5000     8.0864   103.8072     0.0595     0.0692     2.5368   -55.4104     5.8870     7.4676     8.3576
  438.0000     8.0460   106.9565     0.0581     0.0743     2.5256   -55.0925     5.8492     7.2693     8.3623
  438.5000     8.0012   109.2103     0.0583     0.0809     2.5189   -54.9239     5.7325     7.1231     8.3090
  439.0000     7.8674   109.6693     0.0539     0.0854     2.5115   -54.9045     5.6573     6.9821     8.1911
  439.5000     7.7815   107.1507     0.0496     0.0899     2.5018   -54.8851     5.5454     6.8893     8.0833
  440.0000     7.7539   104.1806     0.0452     0.0958     2.4936   -55.0149     5.3973     6.6600     7.9218
  440.5000     7.7269   103.0015     0.0408     0.0994     2.4870   -55.1448     5.2524     6.3050     7.7166
  441.0000     7.7288   103.6135     0.0380     0.1009     2.4848   -55.2746     5.0428     5.8462     7.5560
  441.5000     7.7457   104.5240     0.0396     0.0967     2.4879   -55.4045     4.7412     5.6508     7.2472
  442.0000     7.7776   104.5390     0.0458     0.0927     2.4969   -55.5343     4.4577     5.3868     6.9088
  442.5000     7.8094   103.5092     0.0490     0.0891     2.5015   -55.8134     4.3381     5.2785     6.2617
  443.0000     7.8562   102.1809     0.0506     0.0888     2.5038   -56.0925     4.3108     5.4310     5.6200
  443.5000     7.9180   101.0018     0.0492     0.0891     2.5031   -56.5209     4.4353     5.8645     5.5145
  444.0000     7.9797    99.3750     0.0464     0.0884     2.5040   -56.8000     4.5626     6.2455     6.6021
  444.5000     8.0415    98.9385     0.0405     0.0857     2.5086   -56.9299     4.8253     6.5598     8.0365
  445.0000     8.0584   104.1811     0.0362     0.0848     2.5146   -56.7612     5.1031     6.7952     8.4274
  445.5000     7.9856   105.5394     0.0333     0.0818     2.5185   -56.4433     5.3970     6.9422     8.3126
  446.0000     7.8679   105.2558     0.0349     0.0793     2.5208   -56.2746     5.7473     7.0434     8.3269
  446.5000     7.8699   104.0730     0.0381     0.0784     2.5216   -56.4045     6.1205     7.1460     8.6813
  447.0000     8.0213   106.0321     0.0383     0.0808     2.5217   -56.6836     6.3399     7.3513     8.8656
  447.5000     8.0980   105.8978     0.0384     0.0853     2.5113   -56.8134     6.4322     7.6151     8.7484
  448.0000     8.1299   105.1627     0.0386     0.0849     2.5031   -56.7940     6.4363     7.9431     8.7533
  448.5000     8.1468   106.2262     0.0402     0.0804     2.5152   -56.6254     6.4850     8.1713     8.8803
  449.0000     8.1333   103.2561     0.0419     0.0732     2.5295   -56.6060     6.5795     8.1187     9.0108
  449.5000     8.1357   105.8084     0.0435     0.0675     2.5393   -56.5866     6.6753     8.1251     9.2038
  450.0000     8.1375   109.3347     0.0419     0.0653     2.5416   -56.5672     6.7715     8.1293     9.3369
  450.5000     8.1396   110.3175     0.0404     0.0666     2.5406   -56.6986     6.7773     8.1354     9.2148
  451.0000     8.1417   111.3806     0.0388     0.0683     2.5365   -56.6744     6.8291     8.1976     9.5479
  451.5000     8.1438   112.8910     0.0373     0.0704     2.5313   -56.5058     6.8338     8.4336     9.6859
  452.0000     8.1459   113.8044     0.0383     0.0724     2.5307   -56.1879     6.8860     8.6765     9.1570
  452.5000     8.1480   114.1208     0.0384     0.0703     2.5330   -55.8700     6.9868     8.8036     8.3286
  453.0000     8.1501   113.8402     0.0386     0.0700     2.5315   -55.7013     6.9916     8.9325     8.5286
  453.5000     8.1522   111.6193     0.0387     0.0730     2.5271   -55.6820     7.0450     8.9387     9.0807
  454.0000     8.1544   110.5924     0.0373     0.0748     2.5287   -55.8167     7.0499     8.9449     9.5197
  454.5000     8.1565   110.6103     0.0358     0.0741     2.5257   -56.0909     7.0547     8.9511     9.5925
  455.0000     8.1586   111.5237     0.0346     0.0756     2.5220   -56.2257     7.0596     8.9573     9.5992
  455.5000     8.1607   111.7543     0.0333     0.0747     2.5319   -56.6492     7.0645     8.9001     9.6058
  456.0000     8.1628   112.0035     0.0334     0.0714     2.5334   -56.7839     7.0694     8.8447     9.6125
  456.5000     8.1649   110.9819     0.0336     0.0701     2.5328   -57.0582     7.0742     8.6704     9.5413
  457.0000     8.1669   108.3132     0.0337     0.0701     2.5328   -57.0388     7.0791     8.5567     9.0953
  457.5000     8.1690   106.3863     0.0385     0.0695     2.5326   -57.0194     7.0840     8.3869     8.7421
  458.0000     8.1711   107.7520     0.0431     0.0692     2.5315   -57.0000     7.0889     8.3927     8.5683
  458.5000     8.1732   106.1281     0.0492     0.0616     2.5540   -56.9806     7.0938     8.3405     8.5165
  459.0000     8.1753   104.0564     0.0524     0.0547     2.5624   -56.9612     7.0485     8.3463     8.4621
  459.5000     8.1619   102.4325     0.0541     0.0529     2.5639   -56.9419     7.0546     8.3520     8.4095
  460.0000     8.1795   104.9878     0.0572     0.0523     2.5647   -56.6240     6.9613     8.3578     8.3572
  460.5000     8.1816   107.6922     0.0574     0.0543     2.5588   -56.3061     6.8241     8.3057     8.1925
  461.0000     8.1684   106.9638     0.0575     0.0606     2.5499   -55.9882     6.6424     8.0287     8.0854
  461.5000     8.1708   106.6788     0.0577     0.0660     2.5424   -55.8195     6.4209     7.7073     7.9232
  462.0000     8.1578   106.3981     0.0593     0.0666     2.5410   -55.6509     6.0793     7.2466     7.7134
  462.5000     8.1451   104.3310     0.0640     0.0662     2.5418   -55.6315     5.5602     6.7664     7.5079
  463.0000     8.1322   103.8481     0.0732     0.0683     2.5344   -55.3136     4.9124     6.3181     7.1575
  463.5000     8.1194   104.9864     0.0748     0.0767     2.5240   -55.1450     4.3401     5.8183     6.9187
  464.0000     8.1064   106.1246     0.0735     0.0867     2.5113   -55.1256     3.8879     5.1045     6.6879
  464.5000     8.0936   106.9384     0.0721     0.0979     2.4978   -55.1062     3.4113     4.4167     6.3758
  465.0000     8.0957   107.5533     0.0708     0.1084     2.4844   -54.9376     3.0348     3.9017     5.8714
  465.5000     8.0828   107.8697     0.0694     0.1162     2.4657   -54.9182     2.6998     3.4708     5.4445
  466.0000     8.0850   107.8876     0.0680     0.1297     2.4424   -54.6003     2.5037     3.1962     4.9792
  466.5000     8.0720   106.4129     0.0667     0.1405     2.4013   -54.2824     2.4370     2.8829     4.5854
  467.0000     8.0592   104.3368     0.0638     0.1566     2.3451   -53.8152     2.4052     2.8256     4.1645
  467.5000     8.0463   107.4890     0.0595     0.1836     2.3234   -53.4973     2.4404     2.8676     3.7562
