~VERSION INFORMATION
 VERS.                2.0:   CWLS LOG ASCII STANDARD - VERSION 2.0
 WRAP.                 NO:   ONE LINE PER DEPTH STEP
~WELL INFORMATION
#MNEM.UNIT      DATA TYPE    INFORMATION
#----------   ------------   ------------------------------
 STRT.F            1.0000:   START DEPTH
 STOP.F          508.0000:   STOP DEPTH
 STEP.F            0.1000:   STEP LENGTH
 NULL.          -999.2500:   NO VALUE
 COMP.       F D SERV INC:   COMPANY
 WELL. NAVAL PETROLEUM RESERVE 3 SX-1 #83-4-10:   WELL
 FLD .             TEAPOT:   FIELD
 LOC .      S10 T38N R78W:   LOCATION
 CNTY.            NATRONA:   COUNTY
 STAT.            WYOMING:   STATE
 CTRY. UNITED STATES OF AMERICA:   COUNTRY
 SRVC.     Atlas Wireline:   SERVICE COMPANY
 DATE.        26-JAN-1993:   LOGDATE
 API .       490252258300:   API NUMBER
~CURVE INFORMATION
#MNEM.UNIT       API CODE    CURVE DESCRIPTION
#----------   ------------   ------------------------------
 DEPT.F                  :   
 GRR .GAPI   07 310 01 00:   GAMMA RAY
 RILD.OHMM   07 120 46 00:   INDUCTION LOG DEEP RESISTIVITY
 RILM.OHMM   07 120 44 00:   INDUCTION LOG MEDIUM RESISTIVITY
~PARAMETER INFORMATION
#MNEM.UNIT          VALUE    DESCRIPTION
#----------   ------------   ------------------------------
 PD  .                 GL:   PERMANENT DATUM
 EPD .F              5152:   ELEVATION PERMANENT DATUM
 LMF .                 KB:   LOG MEASURED FROM
 DAPD.F                10:   FEET ABOVE PERMANENT DATUM
 DMF .                 KB:   DRILLING MEASURED FROM
 EKB .F              5162:   KELLING BUSHING
 EDF .F              5161:   DRILLING FLOOR
 EGL .F              5152:   GROUND LEVEL
 DATE.        26-JAN-1993:   RUN DATE
 RUN .                  1:   RUN NUMBER
 DD  .F               515:   DEPTH DRILLER
 DL  .F               516:   DEPTH LOGGER
 BLI .F               508:   BOTTOM LOG INTERVAL
 CS  .IN            8.625:   CASING SIZE
 CBD .F                55:   CASING BOTTOM DRILLER
 CBL .F                55:   CASING BOTTOM LOGGER
 BS  .IN            7.875:   BIT SIZE
 BSD .F               515:   BIT SIZE AT DEPTH
 DFT .                AIR:   DRILLING FLUID TYPE
 MRT .F                63:   MAXIMUM RECORDED TEMPERATURE
 LUN .           HL- 6274:   LOGGING UNIT NUMBER
 LUL .             CASPER:   LOGGING UNIT LOCATION
 ENGI.       P. RASMUSSEN:   RECORDING ENGINEER
 WITN.          G. STRONG:   WITNESSED BY
 CLNT.            A2DTECH:   CLIENT CODE
 ORIG.           5" PRINT:   ORIGIN OF DATA
 UWI .       490252258300:   UNIQUE WELL ID
 DICO. A2D Technologies, Inc.:   DIGITIZING COMPANY
~OTHER INFORMATION
~A    DEPT     GRR       RILD       RILM   
# ...
  292.2000   150.4735     7.9794     8.2124
  292.3000   149.8730     7.9791     8.2120
  292.4000   149.1158     7.9974     8.2117
  292.5000   148.3584     8.0341     8.2113
  292.6000   147.6795     8.0339     8.2110
  292.7000   147.6782     8.0802     8.2106
  292.8000   147.6771     8.0893     8.2103
  292.9000   147.8556     8.0891     8.2100
  293.0000   148.1064     8.0889     8.2096
  293.1000   148.2759     8.0886     8.2092
  293.2000   148.3389     8.0884     8.2089
  293.3000   148.8758     8.0881     8.2086
  293.4000   149.3447     8.0880     8.2083
  293.5000   149.4759     8.0877     8.2079
  293.6000   149.6113     8.0875     8.2076
  293.7000   149.8621     8.0873     8.2072
  293.8000   150.0749     8.0871     8.2069
  293.9000   150.0735     8.0868     8.2066
  294.0000   150.0723     8.0866     8.2062
  294.1000   150.0711     8.1145     8.2059
  294.2000   150.0699     8.1424     8.2055
  294.3000   150.0687     8.1421     8.2051
  294.4000   150.0675     8.1419     8.2048
  294.5000   150.0663     8.1416     8.2045
  294.6000   150.5590     8.1415     8.2042
  294.7000   150.8641     8.1412     8.2038
  294.8000   151.4121     8.1410     8.2087
  294.9000   152.0675     8.1408     8.2601
  295.0000   152.6205     8.1406     8.2598
  295.1000   153.3752     8.1403     8.2595
  295.2000   154.2745     8.1401     8.2591
  295.3000   155.0889     8.1399     8.2588
  295.4000   155.9411     8.1397     8.2584
  295.5000   156.5904     8.1394     8.2581
  295.6000   157.0370     8.1392     8.2577
  295.7000   157.2948     8.1390     8.2214
  295.8000   157.8817     8.1388     8.2001
  295.9000   157.4311     8.1385     8.1997
  296.0000   156.8899     8.1383     8.2078
  296.1000   156.3486     8.1381     8.2560
  296.2000   155.8074     8.1379     8.2557
  296.3000   155.2662     8.1376     8.2553
  296.4000   154.7249     8.1374     8.2550
  296.5000   154.1837     8.1372     8.2547
  296.6000   153.6425     8.1369     8.2543
  296.7000   153.1013     8.1367     8.2540
  296.8000   152.5600     8.1365     8.2536
  296.9000   152.0188     8.1362     8.2533
  297.0000   151.4776     8.1360     8.2529
  297.1000   150.9363     8.1358     8.2526
  297.2000   150.3951     8.1356     8.2523
  297.3000   149.8539     8.1354     8.2519
  297.4000   149.3126     8.1351     8.2515
  297.5000   148.7750     8.1349     8.2512
  297.6000   148.2216     8.1347     8.2509
  297.7000   148.2205     8.1627     8.2505
  297.8000   148.0406     8.1908     8.2502
  297.9000   148.0463     8.1905     8.2499
  298.0000   148.3775     8.1903     8.2495
  298.1000   148.9114     8.1900     8.2492
  298.2000   149.7204     8.1899     8.2488
  298.3000   150.4211     8.1896     8.2485
  298.4000   150.9911     8.1894     8.2481
  298.5000   151.4939     8.1892     8.2533
  298.6000   151.8241     8.1890     8.3047
  298.7000   151.8971     8.1887     8.3044
  298.8000   152.4240     8.1885     8.3041
  298.9000   152.6629     8.1883     8.3296
  299.0000   152.9137     8.1880     8.3778
  299.1000   153.0229     8.1973     8.4189
  299.2000   153.0217     8.2445     8.4185
  299.3000   152.8909     8.2442     8.5121
  299.4000   152.1156     8.2440     8.5731
  299.5000   150.8845     8.2724     8.6226
  299.6000   149.0327     8.3009     8.6915
  299.7000   146.5727     8.3006     8.7925
  299.8000   144.1933     8.3004     8.8958
  299.9000   142.4773     8.3001     8.8955
  300.0000   140.9639     8.3384     8.9363
  300.1000   139.7576     8.3574     8.9565
  300.2000   139.1482     8.3765     8.9775
  300.3000   138.6982     8.4150     9.0180
  300.4000   138.4450     8.4148     9.0176
  300.5000   138.1918     8.4145     9.0172
  300.6000   137.9446     8.4143     9.0169
  300.7000   137.9432     8.4141     9.0165
  300.8000   138.1510     8.4138     9.0161
  300.9000   138.4018     8.4136     9.0028
  301.0000   138.5422     8.4134     8.9503
  301.1000   138.5410     8.3550     8.8910
  301.2000   138.5398     8.2782     8.8907
  301.3000   138.5384     8.1830     8.7878
  301.4000   139.0388     8.0705     8.6358
  301.5000   139.6258     7.9406     8.4863
  301.6000   140.2127     7.8491     8.3309
  301.7000   140.9018     7.7144     8.0675
  301.8000   140.8988     7.5820     7.8611
  301.9000   141.2321     7.4262     7.6670
  302.0000   141.9894     7.2565     7.4690
  302.1000   143.0095     7.0985     7.2679
  302.2000   144.0295     6.9763     7.0957
  302.3000   145.0496     6.8801     6.8779
  302.4000   146.0697     6.7856     6.6597
  302.5000   147.0897     6.6919     6.5138
  302.6000   148.1098     6.6301     6.4011
  302.7000   149.1298     6.5918     6.2778
  302.8000   150.1499     6.5536     6.1333
  302.9000   151.1699     6.5534     5.9868
  303.0000   152.1900     6.5533     5.9202
  303.1000   153.2100     6.5531     5.8777
  303.2000   154.2301     6.5529     5.8983
  303.3000   155.2501     6.5527     5.9594
  303.4000   156.2702     6.5526     6.0204
  303.5000   157.2902     6.5523     6.0814
  303.6000   158.3103     6.5522     6.1424
  303.7000   159.3303     6.5520     6.2035
  303.8000   160.3504     6.5518     6.2645
  303.9000   161.1880     6.5516     6.3255
  304.0000   161.7470     6.5515     6.3866
  304.1000   162.5109     6.5512     6.4476
  304.2000   163.1006     6.5511     6.5086
  304.3000   163.3151     6.5509     6.5696
  304.4000   163.5687     6.5507     6.6307
  304.5000   163.6928     6.5506     6.6917
  304.6000   163.6891     6.5504     6.7527
  304.7000   163.6855     6.5502     6.8138
  304.8000   163.6819     6.5500     6.8748
  304.9000   163.3764     6.5498     6.9418
  305.0000   162.7411     6.5496     7.1270
  305.1000   161.2987     6.5571     7.2395
  305.2000   159.2486     6.5948     7.3378
  305.3000   156.9294     6.6404     7.4485
  305.4000   154.4710     6.7020     7.5490
  305.5000   151.0059     6.7561     7.6020
  305.6000   147.2794     6.8108     7.6916
  305.7000   144.2342     6.8896     7.7446
  305.8000   141.2408     6.9693     7.8214
  305.9000   139.5458     7.0663     7.9142
  306.0000   139.5422     7.1318     8.0312
  306.1000   139.5952     7.2396     8.1442
  306.2000   140.1371     7.3658     8.2125
  306.3000   140.6169     7.4941     8.4157
  306.4000   141.1277     7.6246     8.5118
  306.5000   141.4850     7.7844     8.6531
  306.6000   141.7386     7.8931     8.8075
  306.7000   141.9922     8.0590     8.9882
  306.8000   142.2458     8.2469     9.1735
  306.9000   142.5214     8.4389     9.2822
  307.0000   142.9879     8.6353     9.4018
  307.1000   143.1169     8.8776     9.5038
  307.2000   143.2602     9.0436     9.6166
  307.3000   143.4108     9.2546     9.6981
  307.4000   143.4072     9.4482     9.7555
  307.5000   143.3885     9.6015     9.8257
  307.6000   143.0984     9.7126     9.9374
  307.7000   142.1819     9.8252     9.9374
  307.8000   141.1493     9.8931    10.0395
  307.9000   140.2572     9.9848    10.0759
  308.0000   139.6747    10.0769    10.1378
  308.1000   139.4663    10.1350    10.2165
  308.2000   139.4626    10.1933    10.2165
  308.3000   139.4585    10.1929    10.2165
  308.4000   139.4554    10.1927    10.2165
  308.5000   139.4518    10.1924    10.2165
  308.6000   139.4482    10.1922    10.2165
  308.7000   139.5343    10.1919    10.2448
  308.8000   139.7428    10.1916    10.2875
  308.9000   139.7386    10.1913    10.2947
  309.0000   140.0356    10.1910    10.3589
  309.1000   140.0325    10.1907    10.3589
  309.2000   140.0289    10.1905    10.3589
  309.3000   140.0253    10.1902    10.3589
  309.4000   140.0217    10.1899    10.3848
  309.5000   140.0573    10.1896    10.4462
  309.6000   140.3156    10.1893    10.5034
  309.7000   140.3114    10.2244    10.5034
  309.8000   140.3084    10.2596    10.5034
  309.9000   140.3048    10.2593    10.5483
  310.0000   140.3012    10.2590    10.6107
  310.1000   140.3741    10.3300    10.6734
  310.2000   140.5956    10.3297    10.7365
  310.3000   140.5914    10.3294    10.7984
