~VERSION INFORMATION
 VERS.                2.0:   CWLS LOG ASCII STANDARD - VERSION 2.0
 WRAP.                 NO:   ONE LINE PER DEPTH STEP
~WELL INFORMATION
#MNEM.UNIT      DATA TYPE    INFORMATION
#----------   ------------   ------------------------------
 STRT.F           22.0000:   START DEPTH
 STOP.F          533.0000:   STOP DEPTH
 STEP.F            0.5000:   STEP LENGTH
 NULL.          -999.2500:   NO VALUE
 COMP. FENIX & SCISSON INC:   COMPANY
 WELL.        NPR 3 #32-3:   WELL
 FLD .        TEAPOT DOME:   FIELD
 LOC .       S3 T38N R78W:   LOCATION
 CNTY.            NATRONA:   COUNTY
 STAT.            WYOMING:   STATE
 CTRY. UNITED STATES OF AMERICA:   COUNTRY
 SRVC.            Unknown:   SERVICE COMPANY
 DATE.        19-JUL-1978:   LOGDATE
 API .       490251067200:   API NUMBER
~CURVE INFORMATION
#MNEM.UNIT       API CODE    CURVE DESCRIPTION
#----------   ------------   ------------------------------
 DEPT.F                  :   
 SPR .MV     05 010 01 00:   SPONTANEOUS POTENTIAL FROM RES.
 SN  .OHMM   05 040 16 00:   SHORT NORMAL 16"
 IL  .OHMM   05 120 00 00:   INDUCTION LOG
 RHOB.G/C3   45 350 01 00:   BULK DENSITY
 DPHI.DEC    45 890 12 00:   DENSITY POROSITY SANDSTONE
 CORR.G/C3   45 356 01 00:   DENSITY CORRECTION
 CALD.IN     45 280 60 00:   CALIPER
 GRD .GAPI   45 310 01 00:   GAMMA RAY FROM DENSITY LOG
~PARAMETER INFORMATION
#MNEM.UNIT          VALUE    DESCRIPTION
#----------   ------------   ------------------------------
 PD  .                 GL:   PERMANENT DATUM
 EPD .F              5179:   ELEVATION PERMANENT DATUM
 LMF .                 KB:   LOG MEASURED FROM
 DAPD.F                 4:   FEET ABOVE PERMANENT DATUM
 DMF .                 KB:   DRILLING MEASURED FROM
 EKB .F              5183:   KELLING BUSHING
 EGL .F              5179:   GROUND LEVEL
 DATE.            7-19-78:   RUN DATE
 RUN .                  1:   RUN NUMBER
 DD  .F               520:   DEPTH DRILLER
 DL  .F               533:   DEPTH LOGGER
 BLI .F               527:   BOTTOM LOG INTERVAL
 TLI .F                50:   TOP LOG INTERVAL
 CS  .IN            8.625:   CASING SIZE
 CBD .F                40:   CASING BOTTOM DRILLER
 BS  .IN            7.875:   BIT SIZE
 BSD .F               520:   BIT SIZE AT DEPTH
 DFT .                KCL:   DRILLING FLUID TYPE
 DFD .                8.7:   DRILLING FLUID DENSITY
 DFV .                 33:   DRILLING FLUID VISCOSITY
 DFPH.                  9:   DRILLING FLUID PH
 DFL .               12.4:   DRILLING FLUID LOSS
 MSS .          FLOW LINE:   MUD SAMPLE SOURCE
 RMS .OHMM            .28:   RESISTIVITY MUD SAMPLE
 MST .F                70:   MUD SAMPLE TEMPERATURE
 RMF .OHMM            .24:   RESISTIVITY MUD FILTRATE SAMPLE
 MFST.F                76:   MUD FILTRATE SAMPLE TEMPERATURE
 RMC .OHMM             .5:   RESISTIVITY MUD CAKE
 MCST.F                78:   MUD CAKE SAMPLE TEMPERATURE
 MFSS.               MEAS:   MUD FILTRATE SAMPLE SOURCE
 MCSS.               MEAS:   MUD CAKE SAMPLE SOURCE
 TCS .HRS               2:   TIME CURCULATED STOPPED
 LUN .               2958:   LOGGING UNIT NUMBER
 LUL .               CASP:   LOGGING UNIT LOCATION
 ENGI.             MILLER:   RECORDING ENGINEER
 WITN.           MCGINLEY:   WITNESSED BY
 CLNT.            A2DTECH:   CLIENT CODE
 ORIG.           5" PRINT:   ORIGIN OF DATA
 UWI .       490251067200:   UNIQUE WELL ID
 DICO. A2D Technologies, Inc.:   DIGITIZING COMPANY
~OTHER INFORMATION
~A   DEPT      SPR         SN         IL       RHOB       DPHI       CORR       CALD         GRD  
# ...
  427.0000   -15.3025     9.0676    13.3859     2.2247     0.2695     0.1269    10.1940    56.5219
  427.5000   -14.9734     9.1376    12.5327     2.1980     0.2282     0.0269    10.1695    56.9753
  428.0000   -14.7424     9.2780    14.3309     2.2370     0.1931     0.0375    10.0866    56.1280
  428.5000   -14.7266     9.5142    15.3421     2.2704     0.2902     0.0402     9.9531    55.1204
  429.0000   -14.7064     9.7565    15.5797     2.3040     0.2565     0.0318     9.8211    54.2010
  429.5000   -14.6870    10.0049    15.7597     2.3181     0.2336     0.0339     9.6858    54.3890
  430.0000   -14.6674    10.2597    15.4380     2.2959     0.2333     0.0383     9.5802    54.5881
  430.5000   -14.6479    10.5209    15.1860     2.3023     0.2331     0.0456     9.4791    54.3035
  431.0000   -14.6283    10.7888    15.0538     2.2910     0.2479     0.0573     9.3756    54.0376
  431.5000   -14.6087    11.0635    18.4477     2.2770     0.2417     0.0784     9.2619    54.4475
  432.0000   -14.5891    11.3469    20.2297     2.3008     0.2323     0.0379     9.0565    54.3541
  432.5000   -14.5696    11.5563    21.7323     2.2914     0.2404     0.0276     8.9591    52.8206
  433.0000   -14.5541    11.6757    23.1805     2.2811     0.2453     0.0276     8.9230    51.4639
  433.5000   -14.5544    11.7778    20.7369     2.2789     0.2450     0.0439     8.8945    51.4023
  434.0000   -14.5545    11.8800    18.7434     2.2815     0.2386     0.0733     8.6983    52.8372
  434.5000   -14.5545    12.0003    18.8305     2.3008     0.2206     0.0874     8.4419    54.4916
  435.0000   -14.5544    12.2583    19.1861     2.3530     0.2006     0.0509     8.3654    56.1480
  435.5000   -14.5548    12.6481    20.0142     2.3670     0.1850     0.0572     8.3034    56.8003
  436.0000   -14.5523    12.5822    20.9378     2.3805     0.1732     0.0575     8.3033    56.8201
  436.5000   -14.6761    12.4585    21.7013     2.3975     0.1614     0.0434     8.3101    55.5777
  437.0000   -14.8502    12.3051    22.5512     2.4147     0.1587     0.0220     8.3175    52.8397
  437.5000   -15.0239    12.5184    22.9473     2.4181     0.1804     0.0228     8.3249    50.0408
  438.0000   -15.1451    12.8102    22.9473     2.3865     0.1961     0.0369     8.3322    49.7569
  438.5000   -15.1227    13.1203    22.9473     2.3534     0.2118     0.0330     8.3395    51.0658
  439.0000   -15.1035    13.0283    23.1518     2.3207     0.2331     0.0401     8.3468    53.8725
  439.5000   -15.0838    12.9088    23.3762     2.3022     0.2281     0.0534     8.3541    56.5273
  440.0000   -15.0643    12.7903    22.9674     2.3084     0.2203     0.0521     8.3614    56.8924
  440.5000   -15.0447    12.6729    22.2208     2.3183     0.2139     0.0447     8.3688    58.3196
  441.0000   -15.0251    12.5327    20.9378     2.3280     0.2127     0.0372     8.3758    60.9757
  441.5000   -15.0055    12.5837    19.9106     2.3311     0.2174     0.0329     8.3813    61.2643
  442.0000   -14.9858    12.6481    18.9300     2.3256     0.2187     0.0317     8.4124    60.9443
  442.5000   -14.9663    12.5877    18.7573     2.3163     0.2269     0.0339     8.4278    61.7460
  443.0000   -14.9590    12.5278    18.7573     2.3071     0.2355     0.0372     8.4431    62.5144
  443.5000   -15.0126    12.4682    18.7573     2.2991     0.2352     0.0406     8.4587    61.6151
  444.0000   -15.0653    12.4089    18.7572     2.3000     0.2298     0.0440     8.4554    59.9922
  444.5000   -15.1179    12.3498    18.7566     2.3053     0.2251     0.0474     8.4424    57.2398
  445.0000   -15.1704    12.2819    18.7821     2.3105     0.2229     0.0507     8.4292    55.8236
  445.5000   -15.2229    12.1852    18.8120     2.3157     0.2201     0.0541     8.4160    55.9300
  446.0000   -15.2754    12.0893    18.8420     2.3209     0.2173     0.0562     8.4032    56.2735
  446.5000   -15.3285    11.9942    18.8717     2.3261     0.2145     0.0576     8.4021    56.5868
  447.0000   -15.3463    11.8998    18.9020     2.3302     0.2117     0.0591     8.3989    56.1272
  447.5000   -15.3466    11.8061    18.9300     2.3339     0.2017     0.0480     8.3956    55.1308
  448.0000   -15.3466    11.7132    18.2248     2.3494     0.1938     0.0319     8.3924    57.8239
  448.5000   -15.3465    11.6432    17.4844     2.3648     0.1936     0.0337     8.3891    60.1778
  449.0000   -15.3463    11.6306    17.1109     2.3671     0.1913     0.0361     8.3859    59.9285
  449.5000   -15.3459    11.6182    16.8024     2.3700     0.1823     0.0383     8.3831    59.7646
  450.0000   -15.3476    11.6058    16.6137     2.3789     0.1709     0.0360     8.3828    60.3759
  450.5000   -15.4547    11.5933    16.3398     2.4064     0.1588     0.0211     8.3530    60.9910
  451.0000   -15.8280    11.5808    16.0512     2.4337     0.1463     0.0045     8.3195    60.7431
  451.5000   -16.1956    11.5685    16.3481     2.4402     0.1596     0.0003     8.2860    58.9968
  452.0000   -16.5663    11.5560    16.0393     2.4208     0.1688    -0.0043     8.2526    57.0912
  452.5000   -16.7444    11.5435    15.6271     2.4105     0.1719    -0.0045     8.2192    56.0785
  453.0000   -16.7914    11.3695    15.0538     2.4035     0.1760    -0.0045     8.1863    58.0956
  453.5000   -16.8350    11.1462    15.1144     2.3965     0.1771    -0.0044     8.1661    59.3966
  454.0000   -16.8782    10.9273    15.2224     2.3928     0.1773    -0.0016     8.0951    59.2134
  454.5000   -16.9219    10.7127    15.3323     2.3894     0.1805     0.0015     8.0050    59.1918
  455.0000   -16.9618    10.5023    14.8559     2.3862     0.1813     0.0058     7.9145    59.6092
  455.5000   -17.0010    10.2961    14.3857     2.3862     0.1750     0.0101     7.8229    60.9790
  456.0000   -17.0402    10.0583    13.9311     2.3951     0.1670     0.0144     7.8074    62.3874
  456.5000   -17.0794    10.0662    13.4923     2.4027     0.1591     0.0188     7.8075    63.7962
  457.0000   -17.1186    10.0759    12.8821     2.4031     0.1583     0.0188     7.8075    65.1662
  457.5000   -17.1578    10.0857    12.9590     2.4232     0.1589     0.0180     7.8052    63.2882
  458.0000   -17.1971    10.0954    13.0795     2.4260     0.1659     0.0170     7.6811    60.5686
  458.5000   -17.2363    10.1051    13.1203     2.4112     0.1702     0.0160     7.5687    61.3297
  459.0000   -17.2755    10.1149    12.8007     2.4042     0.1683     0.0171     7.5694    62.3282
  459.5000   -17.3155    10.1246    12.6469     2.4055     0.1781     0.0491     7.5697    62.1038
  460.0000   -17.3143    10.1344    12.7461     2.3809     0.1863     0.0772     7.5711    61.9638
  460.5000   -17.2971    10.1441    12.8369     2.3870     0.1728     0.0710     7.5515    62.4112
  461.0000   -17.2795    10.1510    12.8832     2.4316     0.1578     0.0658     7.4410    62.9116
  461.5000   -17.2619    10.1508    12.8534     2.4527     0.1428     0.0696     7.2725    63.6085
  462.0000   -17.2444    10.1509    12.8138     2.4573     0.1278     0.0689     7.2689    65.5137
  462.5000   -17.2269    10.1509    12.7743     2.4703     0.1247     0.0645     7.2639    67.4793
  463.0000   -17.2093    10.1509    12.7349     2.4730     0.1309     0.0625     7.2587    66.8712
  463.5000   -17.1918    10.1509    12.6957     2.4646     0.1359     0.0657     7.2495    66.1224
  464.0000   -17.1740    10.1509    12.6566     2.4563     0.1368     0.0689     7.1330    66.3445
  464.5000   -17.1564    10.1509    12.6176     2.4598     0.1335     0.0706     7.0092    66.4115
  465.0000   -17.1408    10.1509    12.5789     2.4664     0.1303     0.0654     6.9179    65.6885
  465.5000   -17.2337    10.1509    12.5396     2.4730     0.1228     0.0603     6.9179    64.9806
  466.0000   -17.4991    10.1509    12.5035     2.4775     0.1297     0.0557     7.0276    64.2462
  466.5000   -17.7618    10.1509    12.4555     2.4599     0.1364     0.0601     7.1411    65.4107
  467.0000   -18.0267    10.1509    12.4176     2.4605     0.1307     0.0648     7.2541    67.4156
