~VERSION INFORMATION
 VERS.                2.0:   CWLS LOG ASCII STANDARD - VERSION 2.0
 WRAP.                 NO:   ONE LINE PER DEPTH STEP
~WELL INFORMATION
#MNEM.UNIT      DATA TYPE    INFORMATION
#----------   ------------   ------------------------------
 STRT.F           27.0000:   START DEPTH
 STOP.F          992.0000:   STOP DEPTH
 STEP.F            0.5000:   STEP LENGTH
 NULL.          -999.2500:   NO VALUE
 COMP. FENIX & SCISSON INC:   COMPANY
 WELL. NPR 3  77- S -27 #77-27:   WELL
 FLD .             TEAPOT:   FIELD
 LOC .      S27 T39N R78W:   LOCATION
 CNTY.            NATRONA:   COUNTY
 STAT.            WYOMING:   STATE
 CTRY. UNITED STATES OF AMERICA:   COUNTRY
 SRVC.            Unknown:   SERVICE COMPANY
 DATE.        09-SEP-1978:   LOGDATE
 API .       490251069700:   API NUMBER
~CURVE INFORMATION
#MNEM.UNIT       API CODE    CURVE DESCRIPTION
#----------   ------------   ------------------------------
 DEPT.F                  :   
 SPR .MV     05 010 01 00:   SPONTANEOUS POTENTIAL FROM RES.
 SN  .OHMM   05 040 16 00:   SHORT NORMAL 16"
 ILD .OHMM   05 120 46 00:   INDUCTION LOG DEEP
 CALD.IN     45 280 60 00:   CALIPER
 GRD .GAPI   45 310 01 00:   GAMMA RAY FROM DENSITY LOG
 RHOB.G/C3   45 350 01 00:   BULK DENSITY
 CORR.G/C3   45 356 01 00:   DENSITY CORRECTION
 DPHI.DEC    45 890 12 00:   DENSITY POROSITY SANDSTONE
~PARAMETER INFORMATION
#MNEM.UNIT          VALUE    DESCRIPTION
#----------   ------------   ------------------------------
 PD  .                 GL:   PERMANENT DATUM
 EPD .F              5069:   ELEVATION PERMANENT DATUM
 LMF .                 KB:   LOG MEASURED FROM
 DAPD.F                 4:   FEET ABOVE PERMANENT DATUM
 DMF .                 KB:   DRILLING MEASURED FROM
 EKB .F              5073:   KELLING BUSHING
 EGL .F              5069:   GROUND LEVEL
 DATE.           9-9-1978:   RUN DATE
 RUN .                  1:   RUN NUMBER
 DD  .F               990:   DEPTH DRILLER
 DL  .F               998:   DEPTH LOGGER
 BLI .F               992:   BOTTOM LOG INTERVAL
 TLI .F                50:   TOP LOG INTERVAL
 CS  .IN            8.625:   CASING SIZE
 CBD .F                40:   CASING BOTTOM DRILLER
 BS  .IN            7.875:   BIT SIZE
 BSD .F               990:   BIT SIZE AT DEPTH
 DFT .                KCL:   DRILLING FLUID TYPE
 DFD .                8.7:   DRILLING FLUID DENSITY
 DFV .                 34:   DRILLING FLUID VISCOSITY
 DFPH.                  9:   DRILLING FLUID PH
 DFL .                  8:   DRILLING FLUID LOSS
 MSS .          FLOW LINE:   MUD SAMPLE SOURCE
 RMS .OHMM             .4:   RESISTIVITY MUD SAMPLE
 MST .F                79:   MUD SAMPLE TEMPERATURE
 RMF .OHMM            .12:   RESISTIVITY MUD FILTRATE SAMPLE
 MFST.F                84:   MUD FILTRATE SAMPLE TEMPERATURE
 RMC .OHMM            .34:   RESISTIVITY MUD CAKE
 MCST.F                84:   MUD CAKE SAMPLE TEMPERATURE
 MFSS.               MEAS:   MUD FILTRATE SAMPLE SOURCE
 MCSS.               MEAS:   MUD CAKE SAMPLE SOURCE
 TCS .HRS               3:   TIME CURCULATED STOPPED
 LUN .               2958:   LOGGING UNIT NUMBER
 LUL .               CASP:   LOGGING UNIT LOCATION
 ENGI.             MILLER:   RECORDING ENGINEER
 WITN.              AMEND:   WITNESSED BY
 CLNT.            A2DTECH:   CLIENT CODE
 ORIG.           5" PRINT:   ORIGIN OF DATA
 UWI .       490251069700:   UNIQUE WELL ID
 DICO. A2D Technologies, Inc.:   DIGITIZING COMPANY
~OTHER INFORMATION
~A   DEPT      SPR         SN        ILD       CALD        GRD       RHOB       CORR       DPHI   
# ...
  634.5000   -61.7645     8.3461    10.3858     7.3589   127.8101     2.5203     0.0084     0.1021
  635.0000   -61.7772     8.2758    10.4479     7.4369   127.0624     2.5122     0.0024     0.1082
  635.5000   -61.7898     8.2060    10.0263     7.4321   126.2604     2.4995    -0.0037     0.1143
  636.0000   -61.8024     8.1368     9.6136     7.4280   125.4609     2.4868    -0.0064     0.1193
  636.5000   -61.8151     8.0682     9.4890     7.4241   124.6610     2.4776    -0.0047     0.1153
  637.0000   -61.8277     8.0002     9.4390     7.4202   123.8681     2.4798    -0.0029     0.1100
  637.5000   -61.8404     7.9328     9.3892     7.4166   123.2235     2.4848    -0.0009     0.1109
  638.0000   -61.8530     7.8529     9.3398     7.3903   123.1005     2.4890    -0.0010     0.1140
  638.5000   -61.8656     7.8606     9.2905     7.3505   123.4950     2.4843    -0.0018     0.1172
  639.0000   -61.8783     7.8702     9.2416     7.3094   123.8939     2.4792    -0.0025     0.1172
  639.5000   -61.8909     7.8797     9.1840     7.3322   124.2056     2.4760    -0.0011     0.1160
  640.0000   -61.9044     7.8893     9.3395     7.3924   123.2154     2.4762     0.0007     0.1129
  640.5000   -61.9206     7.8990     9.5970     7.4144   122.1949     2.4830     0.0025     0.1097
  641.0000   -61.9057     7.9086     9.8616     7.4149   121.2526     2.4903     0.0043     0.1060
  641.5000   -61.2916     7.9182    10.0700     7.4150   121.4234     2.4969     0.0061     0.1056
  642.0000   -60.6621     7.9256     9.8445     7.4141   121.6345     2.4938     0.0089     0.1337
  642.5000   -60.0331     7.8046     9.5804     7.3918   121.7941     2.4755     0.0134     0.1416
  643.0000   -59.9434     7.7081     9.3233     7.3612   121.1613     2.4573     0.0246     0.1288
  643.5000   -59.9480     7.6127     9.1840     7.2980   120.5091     2.4405     0.0633     0.1079
  644.0000   -59.9542     7.5186     9.2119     7.2345   120.4115     2.4389     0.1073     0.0876
  644.5000   -59.9592     7.4306     9.2313     7.2632   120.6583     2.5041     0.1247     0.0955
  645.0000   -59.9642     7.4079     9.2507     7.3351   122.7334     2.5224     0.0923     0.1050
  645.5000   -59.9691     7.3866     9.2689     7.3768   124.7857     2.5013     0.0655     0.1146
  646.0000   -59.9740     7.3657     8.9926     7.3808   125.4401     2.4836     0.0603     0.1160
  646.5000   -59.9789     7.3284     8.7373     7.3851   125.0731     2.4743     0.0653     0.1133
  647.0000   -59.9838     7.2896     8.4903     7.3894   123.6654     2.4816     0.0700     0.1107
  647.5000   -59.9887     7.2508     8.2512     7.3923   121.2712     2.4887     0.0718     0.1088
  648.0000   -59.9936     7.2122     8.2230     7.4154   118.9075     2.4945     0.0642     0.1163
  648.5000   -59.9986     7.1738     8.2230     7.4574   118.0964     2.4890     0.0568     0.1250
  649.0000   -60.0035     7.1206     8.2230     7.5180   120.0424     2.4806     0.0495     0.1270
  649.5000   -60.0084     7.0611     8.2230     7.5795   123.7987     2.4720     0.0425     0.1280
  650.0000   -60.0133     7.0020     8.1853     7.6409   126.4817     2.4633     0.0363     0.1289
  650.5000   -60.0182     6.9435     8.1101     7.6970   126.4341     2.4570     0.0360     0.1300
  651.0000   -60.0232     6.8854     8.0355     7.6956   126.2120     2.4573     0.0387     0.1286
  651.5000   -60.0281     6.8278     7.9989     7.6926   125.3604     2.4629     0.0481     0.1168
  652.0000   -60.0330     6.7752     7.9990     7.6833   124.4155     2.4753     0.0598     0.1051
  652.5000   -60.0379     6.7662     7.9992     7.6741   123.4573     2.4877     0.0695     0.0985
  653.0000   -60.0428     6.7563     7.9991     7.6649   122.9671     2.5000     0.0712     0.0968
  653.5000   -60.0477     6.7466     7.8834     7.6557   122.8907     2.5100     0.0618     0.0992
  654.0000   -60.0527     6.7369     7.7584     7.6465   125.7097     2.5099     0.0512     0.1029
  654.5000   -60.0576     6.7272     7.6353     7.6374   128.7282     2.5041     0.0327     0.1056
  655.0000   -60.0625     6.7175     7.5145     7.6282   130.6916     2.4978     0.0148     0.1090
  655.5000   -60.0674     6.6805     7.3634     7.6190   129.6274     2.4914     0.0007     0.1135
  656.0000   -60.0723     6.6332     7.3838     7.6098   128.3444     2.4850    -0.0006     0.1180
  656.5000   -60.0772     6.5863     7.4279     7.6006   127.0555     2.4786    -0.0010     0.1225
  657.0000   -60.0821     6.5397     7.4384     7.5946   125.9529     2.4722    -0.0014     0.1256
  657.5000   -60.0871     6.4935     7.2363     7.6147   125.5804     2.4662    -0.0018     0.1251
  658.0000   -60.0920     6.4475     7.0366     7.6388   124.7436     2.4650    -0.0022     0.1250
  658.5000   -60.0969     6.4019     6.8395     7.6628   123.6534     2.4640    -0.0026     0.1259
  659.0000   -60.1018     6.3566     6.6463     7.6873   122.6427     2.4630    -0.0030     0.1268
  659.5000   -60.1067     6.3117     6.4587     7.6851   123.4084     2.4620    -0.0033     0.1276
  660.0000   -60.1116     6.2666     6.2763     7.6698   125.1654     2.4610    -0.0037     0.1285
  660.5000   -60.1166     6.2373     6.1239     7.6543   126.0917     2.4600    -0.0041     0.1294
  661.0000   -60.1215     6.2668     6.1239     7.6387   126.6337     2.4589    -0.0045     0.1303
  661.5000   -60.1264     6.2926     6.2558     7.6227   128.2330     2.4584    -0.0049     0.1280
  662.0000   -60.1314     6.3184     6.3558     7.5865   130.7984     2.4624    -0.0052     0.1221
  662.5000   -60.1358     6.3443     6.4574     7.5274   132.4992     2.4692    -0.0056     0.1180
  663.0000   -60.1160     6.3703     6.5607     7.4687   131.5392     2.4741    -0.0060     0.1194
  663.5000   -60.0571     6.3964     6.6656     7.4097   130.4417     2.4737    -0.0064     0.1212
  664.0000   -60.0000     6.4226     6.7769     7.3498   130.6619     2.4731    -0.0068     0.1191
  664.5000   -59.9316     6.4489     6.8522     7.2742   130.7043     2.4743    -0.0072     0.1168
  665.0000   -59.6562     6.4753     6.8718     7.1911   128.8248     2.4757    -0.0076     0.1211
  665.5000   -59.0305     6.5019     6.8901     7.1084   124.3738     2.4768    -0.0079     0.1258
  666.0000   -58.2226     6.5285     6.9083     7.0416   123.4047     2.4686    -0.0084     0.1293
  666.5000   -57.7515     6.5553     6.9268     7.1596   124.5126     2.4597    -0.0086     0.1307
  667.0000   -57.7597     6.5821     6.9452     7.3257   125.6489     2.4529    -0.0040     0.1336
  667.5000   -57.7627     6.6091     6.9637     7.3266   126.7770     2.4520     0.0118     0.1391
  668.0000   -57.7672     6.6364     6.9823     7.2132   127.9028     2.4491     0.0391     0.1383
  668.5000   -57.7712     6.6531     7.0008     7.0985   129.0306     2.4463     0.0665     0.1216
  669.0000   -57.7752     6.6357     7.0196     6.9393   130.1579     2.4545     0.0939     0.1075
  669.5000   -57.7791     6.6231     7.0879     6.7784   131.0737     2.4786     0.1195     0.0965
  670.0000   -57.7831     6.6105     7.2405     6.7336   130.7180     2.5025     0.1211     0.0912
  670.5000   -57.7871     6.5979     7.4307     6.9497   129.9485     2.5222     0.1113     0.0958
  671.0000   -57.7911     6.5854     7.3662     7.1305   129.1112     2.5196     0.0916     0.1032
  671.5000   -57.7951     6.5728     7.2846     6.7785   128.5978     2.5071     0.0669     0.1106
  672.0000   -57.7991     6.5603     7.2039     7.1800   128.5197     2.4950     0.0419     0.1144
  672.5000   -57.8031     6.5478     7.1242     7.2401   128.4211     2.4851     0.0314     0.1145
  673.0000   -57.8071     6.5353     7.0452     7.2544   127.9528     2.4842     0.0341     0.1133
  673.5000   -57.8111     6.5229     6.9662     7.2547   126.0798     2.4853     0.0372     0.1121
  674.0000   -57.8151     6.5105     6.9669     7.2545   124.0447     2.4863     0.0397     0.1109
  674.5000   -57.8191     6.4981     6.9667     7.2545   123.2863     2.4873     0.0317     0.1215
