~VERSION INFORMATION
 VERS.                2.0:   CWLS LOG ASCII STANDARD - VERSION 2.0
 WRAP.                 NO:   ONE LINE PER DEPTH STEP
~WELL INFORMATION
#MNEM.UNIT      DATA TYPE    INFORMATION
#----------   ------------   ------------------------------
 STRT.F            0.0000:   START DEPTH
 STOP.F         4535.0000:   STOP DEPTH
 STEP.F            0.5000:   STEP LENGTH
 NULL.          -999.2500:   NO VALUE
 COMP. LAWRENCE - ALLISON & ASSOCIATES:   COMPANY
 WELL.    NPR ##3 56-X-15:   WELL
 FLD .   TEAPOT NAVAL RES:   FIELD
 LOC .      S15 T38N R78W:   LOCATION
 CNTY.            NATRONA:   COUNTY
 STAT.            WYOMING:   STATE
 CTRY. UNITED STATES OF AMERICA:   COUNTRY
 SRVC.      Dresser Atlas:   SERVICE COMPANY
 DATE.        03-MAY-1984:   LOGDATE
 API .       490251095900:   API NUMBER
~CURVE INFORMATION
#MNEM.UNIT       API CODE    CURVE DESCRIPTION
#----------   ------------   ------------------------------
 DEPT.F                  :   
 CORR.G/C3   45 356 01 00:   DENSITY CORRECTION
 DEN .G/C3   45 350 01 00:   COMPENSATED BULK DENSTIY
 PORD.DEC    45 890 12 00:   POROSITY DENSITY SANDSTONE
 CNC .DEC    42 890 03 00:   NEUTRON POROSITY SANDSTONE
 GRR .GAPI   07 310 01 00:   GAMMA RAY
 CALR.IN     07 280 01 00:   CALIPER FROM RESISTIVITY
 SPR .MV     07 010 01 00:   SPONTANEOUS POTENTIAL
 RILD.OHMM   07 120 46 00:   INDUCTION LOG DEEP RESISTIVITY
 RILM.OHMM   07 120 44 00:   INDUCTION LOG MEDIUM RESISTIVITY
 RFOC.OHMM   07 220 04 00:   RESISTIVITY FOCUSED LOG
 AC  .US/F   60 520 00 00:   ACCOUSTIC
~PARAMETER INFORMATION
#MNEM.UNIT          VALUE    DESCRIPTION
#----------   ------------   ------------------------------
 PD  .                 GL:   PERMANENT DATUM
 EPD .F              5326:   ELEVATION PERMANENT DATUM
 LMF .                 KB:   LOG MEASURED FROM
 DAPD.F                12:   FEET ABOVE PERMANENT DATUM
 DMF .                 KB:   DRILLING MEASURED FROM
 EKB .F              5338:   KELLING BUSHING
 EDF .F              5337:   DRILLING FLOOR
 EGL .F              5326:   GROUND LEVEL
 DATE.        03-MAY-1984:   RUN DATE
 RUN .                  1:   RUN NUMBER
 DD  .F              4547:   DEPTH DRILLER
 DL  .F              4539:   DEPTH LOGGER
 BLI .F              4536:   BOTTOM LOG INTERVAL
 CS  .IN            8.625:   CASING SIZE
 CBD .F              1027:   CASING BOTTOM DRILLER
 CBL .F              1021:   CASING BOTTOM LOGGER
 BS  .IN            7.875:   BIT SIZE
 BSD .F              4547:   BIT SIZE AT DEPTH
 DFT .            KCL GEL:   DRILLING FLUID TYPE
 DFD .                9.1:   DRILLING FLUID DENSITY
 DFV .                 44:   DRILLING FLUID VISCOSITY
 DFPH.                  8:   DRILLING FLUID PH
 DFL .               14.5:   DRILLING FLUID LOSS
 MSS .           MUD TANK:   MUD SAMPLE SOURCE
 RMS .OHMM           0.56:   RESISTIVITY MUD SAMPLE
 MST .F                73:   MUD SAMPLE TEMPERATURE
 RMF .OHMM           0.42:   RESISTIVITY MUD FILTRATE SAMPLE
 MFST.F                73:   MUD FILTRATE SAMPLE TEMPERATURE
 RMC .OHMM           0.71:   RESISTIVITY MUD CAKE
 MCST.F                73:   MUD CAKE SAMPLE TEMPERATURE
 MFSS.               MEAS:   MUD FILTRATE SAMPLE SOURCE
 MCSS.               CALC:   MUD CAKE SAMPLE SOURCE
 RMB .OHMM           0.29:   RESISTIVITY MUD AT BHT
 BHT .F               141:   BOTTOM HOLE TEMPERATURE
 TCS .HRS             3.5:   TIME CURCULATED STOPPED
 MRT .F               125:   MAXIMUM RECORDED TEMPERATURE
 LUN .               6302:   LOGGING UNIT NUMBER
 LUL .               CODY:   LOGGING UNIT LOCATION
 ENGI.              GETTY:   RECORDING ENGINEER
 WITN.           JENNINGS:   WITNESSED BY
 CLNT.            A2DTECH:   CLIENT CODE
 ORIG.           5" PRINT:   ORIGIN OF DATA
 UWI .       490251095900:   UNIQUE WELL ID
 DICO. A2D Technologies, Inc.:   DIGITIZING COMPANY
~OTHER INFORMATION
~A    DEPT    CORR        DEN       PORD        CNC        GRR       CALR        SPR       RILD       RILM       RFOC         AC   
# ...
 4056.5000    -0.0080     2.4031     0.1544     0.2386   118.6544     7.8864   -44.3854    11.5376    12.3596    13.4492    87.9099
 4057.0000    -0.0141     2.3947     0.1608     0.2368   117.4604     7.8867   -43.1797    10.1760    11.6117    13.5443    87.1578
 4057.5000    -0.0340     2.3857     0.1705     0.2444   118.9791     7.9039   -41.2233     8.6100     9.8974    13.6418    86.5564
 4058.0000    -0.0749     2.3621     0.1949     0.2539   123.5024     7.9498   -39.7173     6.9834     8.1480    14.3278    85.7289
 4058.5000    -0.0822     2.2407     0.2584     0.2587   131.0332     8.0134   -38.0612     5.6262     6.2574    14.8334    85.1275
 4059.0000    -0.0425     2.1615     0.3213     0.2403   144.5791     8.0989   -36.2549     5.3572     5.4460    14.3919    85.2797
 4059.5000     0.0754     2.1177     0.3258     0.2379   156.3204     8.1293   -34.7489     5.4687     5.7984    10.9086    88.1448
 4060.0000     0.0723     2.1320     0.2802     0.2514   159.0392     8.0693   -33.6934     6.0269     6.3477     5.4540    95.0792
 4060.5000     0.0248     2.2226     0.1996     0.2503   141.9083     7.9943   -32.3376     6.2401     6.7599     3.8593   105.5555
 4061.0000     0.0700     2.3458     0.1443     0.2003   112.7474     7.9193   -32.3331     6.1907     7.1476     4.3966   104.9541
 4061.5000     0.0775     2.4154     0.1404     0.2065   100.4286     7.9046   -32.9292     6.2005     7.5140     9.0423    99.9066
 4062.0000     0.0261     2.4161     0.1423     0.2226    98.0316     7.9049   -33.6755     7.2629     8.8919    14.4324    85.5147
 4062.5000     0.0019     2.4184     0.1396     0.2305   105.5654     7.9052   -34.5719     9.0248    10.2861    16.8281    80.8440
 4063.0000     0.0093     2.4153     0.1438     0.2405   117.0060     7.9055   -35.4683    11.0251    11.4946    17.7954    81.5484
 4063.5000     0.0123     2.4092     0.1451     0.2478   128.1458     7.9058   -36.5149    11.8167    12.2226    16.9483    83.5548
 4064.0000     0.0032     2.4122     0.1369     0.2582   132.6691     7.9061   -37.4113    11.7315    12.3854    13.3698    87.0282
 4064.5000    -0.0045     2.4265     0.1357     0.2567   129.3728     7.9064   -38.4579    11.4061    12.3743    12.6449    89.9686
 4065.0000    -0.0151     2.4272     0.1400     0.2497   123.0691     7.9217   -39.9549    11.0898    12.0352    12.4703    89.8947
 4065.5000    -0.0031     2.4121     0.1479     0.2440   120.0736     7.9220   -42.8033    10.9335    11.7202    12.4713    89.2180
 4066.0000     0.0149     2.3992     0.1524     0.2465   125.1983     7.9223   -45.8018    10.9305    11.7223    12.6475    88.9930
 4066.5000     0.0571     2.3969     0.1500     0.2613   136.0374     7.9226   -47.1487    11.0814    11.7239    13.0064    89.9746
 4067.0000     0.0691     2.4022     0.1498     0.2723   146.5758     7.9229   -46.5394    11.2337    11.6439    12.6492    91.2571
 4067.5000     0.0509     2.3999     0.1547     0.2747   149.8960     7.9232   -45.3278    11.2298    11.4851    12.0471    92.0122
 4068.0000    -0.0035     2.3900     0.1586     0.2726   146.2990     7.9085   -44.4245    10.6927    10.9412    11.8808    92.0887
 4068.5000    -0.0035     2.3877     0.1563     0.2727   144.2058     7.9088   -43.8164     9.9709    10.4230    12.7405    91.3369
 4069.0000     0.0011     2.3960     0.1481     0.2739   144.2178     7.9091   -43.5087     9.3628     9.7244    12.7413    91.0370
 4069.5000     0.0144     2.4028     0.1457     0.2748   145.4328     7.9093   -43.0505     8.8531     9.1997    12.2198    90.9631
 4070.0000     0.0445     2.4118     0.1439     0.2708   149.0538     7.9247   -42.7427     8.6076     8.7640    11.2391    91.3414
 4070.5000     0.0490     2.4140     0.1427     0.2591   152.3741     7.9250   -42.2848     8.4862     8.5248    10.2652    92.7896
 4071.0000     0.0428     2.4140     0.1418     0.2450   155.3936     7.9253   -41.8529     8.4839     8.5260     9.5074    93.9466
 4071.5000     0.0382     2.4156     0.1373     0.2362   153.9019     7.9256   -41.6693     8.6011     8.5272     8.8056    94.2851
 4072.0000     0.0306     2.4274     0.1261     0.2341   144.5906     7.9108   -41.3925     8.7187     8.6478     8.5637    93.4577
 4072.5000     0.0290     2.4425     0.1216     0.2466   138.2868     7.9111   -41.3880     8.8386     8.7700     9.5760    91.1984
 4073.0000     0.0305     2.4507     0.1217     0.2496   137.9951     7.8964   -41.6838     9.0855     9.0185    10.2687    89.3160
 4073.5000     0.0425     2.4530     0.1235     0.2394   139.2131     7.8816   -41.8295     9.3395     9.3388    10.9350    88.2624
 4074.0000     0.0530     2.4507     0.1250     0.2366   143.7364     7.8819   -42.2755     9.4678     9.5369    11.4033    88.3393
 4074.5000     0.0438     2.4438     0.1251     0.2473   155.4777     7.8973   -42.5724     9.5314     9.7392    10.7100    88.7929
 4075.0000     0.0196     2.4431     0.1233     0.2485   160.9033     7.9001   -43.1674     9.5287     9.9458    10.0588    89.2466
 4075.5000     0.0193     2.4468     0.1218     0.2464   158.8100     7.9281   -44.0638     9.4600    10.0166     9.7826    89.6248
 4076.0000     0.0255     2.4536     0.1218     0.2440   147.6942     7.9284   -44.9603     9.3874    10.0180     9.9208    89.3249
 4076.5000     0.0073     2.4414     0.1251     0.2374   139.5859     7.9287   -45.5564     9.0617    10.0194    10.4181    88.4974
 4077.0000     0.0012     2.4437     0.1230     0.2341   135.6881     7.9139   -45.5519     8.8001    10.0208    11.0169    87.5192
 4077.5000     0.0028     2.4504     0.1179     0.2369   140.5122     7.9142   -45.3973     8.4436    10.0221    11.6502    86.7671
 4078.0000     0.0126     2.4579     0.1168     0.2448   144.7347     7.9145   -44.9423     8.1049     9.7487    12.2342    86.0853
 4078.5000     0.0311     2.4564     0.1241     0.2502   146.5512     7.9148   -44.4874     7.7712     9.2870    12.1500    85.7905
 4079.0000     0.0914     2.4367     0.1404     0.2462   148.9693     7.9000   -44.0325     7.5556     8.7250    11.0882    86.6212
 4079.5000     0.1215     2.4133     0.1472     0.2436   153.1918     7.9003   -43.8778     7.6600     8.2542     9.6325    87.9038
 4080.0000     0.1184     2.4103     0.1450     0.2431   155.6098     7.9006   -43.5731     7.8736     8.1410     8.0295    90.9950
 4080.5000     0.0746     2.4210     0.1341     0.2331   143.8925     7.9009   -44.1692     8.1502     8.3140     7.2981    90.7704
 4081.0000     0.0458     2.4330     0.1269     0.2316   136.3857     7.9012   -44.6163     8.4366     8.6093     7.8955    89.4154
 4081.5000     0.0382     2.4428     0.1224     0.2344   135.1917     7.9015   -45.0622     8.9173     8.9772    10.0371    87.0054
 4082.0000     0.0246     2.4501     0.1197     0.2308   138.2142     7.8867   -45.2079     9.2951     9.4919    11.8345    85.1983
 4082.5000     0.0139     2.4561     0.1176     0.2257   134.9180     7.8871   -45.3536     9.8248    10.0360    11.9049    85.0487
 4083.0000     0.0320     2.4583     0.1188     0.2209   132.5210     7.8723   -45.4981    10.2410    10.6114    11.9059    85.7288
 4083.5000     0.0847     2.4500     0.1222     0.2182   138.8518     7.8726   -45.7950    10.8246    11.2198    12.2438    85.5796
 4084.0000     0.0786     2.4446     0.1243     0.2167   143.9766     7.8729   -46.3900    11.3620    11.7808    12.0749    85.2796
 4084.5000     0.0483     2.4499     0.1159     0.2200   143.3871     7.8581   -46.8360    11.9261    12.2843    11.9084    85.1304
 4085.0000     0.0422     2.4679     0.1065     0.2149   137.9856     7.8585   -47.4321    12.5182    12.4580    12.2463    84.9812
 4085.5000     0.0467     2.4800     0.0987     0.2104   133.6193     7.8588   -48.0283    12.9590    12.9004    13.2242    84.0530
 4086.0000     0.0541     2.4882     0.0966     0.2020   128.8099     7.8590   -48.1750    13.3203    13.2659    14.3801    82.9295
 4086.5000     0.0586     2.4920     0.0945     0.1947   122.4067     7.8593   -48.1694    13.2242    13.2678    15.2067    82.1224
