~VERSION INFORMATION
 VERS.                2.0:   CWLS LOG ASCII STANDARD - VERSION 2.0
 WRAP.                 NO:   ONE LINE PER DEPTH STEP
~WELL INFORMATION
#MNEM.UNIT      DATA TYPE    INFORMATION
#----------   ------------   ------------------------------
 STRT.F          484.0000:   START DEPTH
 STOP.F         2291.5000:   STOP DEPTH
 STEP.F            0.5000:   STEP LENGTH
 NULL.          -999.2500:   NO VALUE
 COMP. FENIX & SCISSON INC:   COMPANY
 WELL.     45 SHX 3 #45-3:   WELL
 FLD .             TEAPOT:   FIELD
 LOC .       S3 T38N R78W:   LOCATION
 CNTY.            NATRONA:   COUNTY
 STAT.            WYOMING:   STATE
 CTRY. UNITED STATES OF AMERICA:   COUNTRY
 SRVC.              Welex:   SERVICE COMPANY
 DATE.        20-APR-1980:   LOGDATE
 API .       490251080400:   API NUMBER
~CURVE INFORMATION
#MNEM.UNIT       API CODE    CURVE DESCRIPTION
#----------   ------------   ------------------------------
 DEPT.F                  :   
 CALD.IN     45 280 60 00:   CALIPER
 GRD .GAPI   45 310 01 00:   GAMMA RAY FROM DENSITY LOG
 CORR.G/C3   45 356 01 00:   DENSITY CORRECTION
 RHOB.G/C3   45 350 01 00:   BULK DENSITY
 DPHI.DEC    45 890 12 00:   DENSITY POROSITY SANDSTONE
~PARAMETER INFORMATION
#MNEM.UNIT          VALUE    DESCRIPTION
#----------   ------------   ------------------------------
 PD  .                 GL:   PERMANENT DATUM
 EPD .F              5186:   ELEVATION PERMANENT DATUM
 LMF .                 KB:   LOG MEASURED FROM
 DAPD.F                10:   FEET ABOVE PERMANENT DATUM
 DMF .                 KB:   DRILLING MEASURED FROM
 EKB .F              5196:   KELLING BUSHING
 EGL .F              5186:   GROUND LEVEL
 DATE.            4-20-80:   RUN DATE
 RUN .                  1:   RUN NUMBER
 DD  .F              2341:   DEPTH DRILLER
 DL  .F              2293:   DEPTH LOGGER
 BLI .F              2291:   BOTTOM LOG INTERVAL
 TLI .F               500:   TOP LOG INTERVAL
 CS  .IN            9.625:   CASING SIZE
 BS  .IN             8.75:   BIT SIZE
 BSD .F              2341:   BIT SIZE AT DEPTH
 DFT .                OIL:   DRILLING FLUID TYPE
 TCS .HRS               2:   TIME CURCULATED STOPPED
 MRT .F               218:   MAXIMUM RECORDED TEMPERATURE
 ENGI.            TOTHILL:   RECORDING ENGINEER
 WITN.           DINSMORE:   WITNESSED BY
 CLNT.            A2DTECH:   CLIENT CODE
 ORIG.           5" PRINT:   ORIGIN OF DATA
 UWI .       490251080400:   UNIQUE WELL ID
 DICO. A2D Technologies, Inc.:   DIGITIZING COMPANY
~OTHER INFORMATION
~A   DEPT     CALD         GRD      CORR       RHOB       DPHI   
# ...
 1338.0000     8.8746    68.0582     0.0105     2.5483     0.0546
 1338.5000     8.8035    68.0573     0.0122     2.5519     0.0510
 1339.0000     8.7091    68.0485     0.0130     2.5486     0.0556
 1339.5000     8.7412    68.4710    -0.0035     2.5346     0.0645
 1340.0000     8.8054    69.0054    -0.0145     2.5216     0.0701
 1340.5000     8.8207    69.5404    -0.0079     2.5236     0.0670
 1341.0000     8.7950    70.0072    -0.0067     2.5268     0.0687
 1341.5000     8.8647    70.3561    -0.0081     2.5258     0.0671
 1342.0000     8.8315    70.7087    -0.0017     2.5281     0.0634
 1342.5000     8.7717    70.9488     0.0047     2.5370     0.0597
 1343.0000     8.7805    71.1636     0.0106     2.5420     0.0584
 1343.5000     8.8231    71.3941     0.0025     2.5368     0.0606
 1344.0000     8.8650    71.9958    -0.0007     2.5317     0.0630
 1344.5000     8.8904    72.6064    -0.0005     2.5310     0.0643
 1345.0000     8.8876    73.2155    -0.0001     2.5317     0.0631
 1345.5000     8.8843    73.7868     0.0002     2.5286     0.0667
 1346.0000     8.8809    73.9272     0.0005     2.5248     0.0659
 1346.5000     8.8775    74.0572     0.0009     2.5270     0.0675
 1347.0000     8.8740    74.3118     0.0077     2.5383     0.0591
 1347.5000     8.8771    74.7899     0.0219     2.5473     0.0530
 1348.0000     8.8831    75.2609     0.0137     2.5370     0.0618
 1348.5000     8.8887    75.6012     0.0038     2.5274     0.0659
 1349.0000     8.8796    75.5531    -0.0005     2.5250     0.0676
 1349.5000     8.8218    75.5128     0.0002     2.5254     0.0683
 1350.0000     8.7730    75.4727     0.0015     2.5270     0.0663
 1350.5000     8.7842    75.4328     0.0029     2.5272     0.0667
 1351.0000     8.7957    75.3929     0.0004     2.5222     0.0698
 1351.5000     8.8071    75.3536     0.0000     2.5219     0.0712
 1352.0000     8.8066    75.3131     0.0093     2.5302     0.0657
 1352.5000     8.7955    75.2983     0.0224     2.5413     0.0583
 1353.0000     8.7842    74.9798     0.0261     2.5432     0.0573
 1353.5000     8.7725    73.9305     0.0271     2.5446     0.0572
 1354.0000     8.7428    72.8965     0.0271     2.5408     0.0586
 1354.5000     8.8294    71.8549     0.0271     2.5351     0.0599
 1355.0000     8.8016    71.2989     0.0271     2.5343     0.0613
 1355.5000     8.7718    71.1282     0.0271     2.5337     0.0627
 1356.0000     8.8017    70.9655     0.0285     2.5373     0.0623
 1356.5000     8.8551    70.8037     0.0330     2.5445     0.0562
 1357.0000     8.9088    70.6398     0.0251     2.5345     0.0642
 1357.5000     8.9550    70.4812     0.0100     2.5191     0.0728
 1358.0000     8.9458    70.5714    -0.0026     2.5068     0.0759
 1358.5000     8.8858    70.6773     0.0038     2.5164     0.0724
 1359.0000     8.8235    70.7822    -0.0024     2.5079     0.0782
 1359.5000     8.7706    70.8871    -0.0124     2.4975     0.0844
 1360.0000     8.7905    70.9913    -0.0204     2.4896     0.0886
 1360.5000     8.8221    71.0647    -0.0132     2.4918     0.0861
 1361.0000     8.8532    70.9773    -0.0062     2.4951     0.0853
 1361.5000     8.8537    70.8927    -0.0020     2.4983     0.0840
 1362.0000     8.8011    70.8086     0.0001     2.4995     0.0846
 1362.5000     8.8064    70.8208    -0.0014     2.4953     0.0870
 1363.0000     8.8238    70.9386    -0.0046     2.4923     0.0881
 1363.5000     8.8416    71.0608    -0.0012     2.4945     0.0851
 1364.0000     8.8592    70.9014     0.0025     2.5032     0.0820
 1364.5000     8.8755    70.6845     0.0064     2.5122     0.0750
 1365.0000     8.8858    70.4782     0.0047     2.5124     0.0775
 1365.5000     8.8580    70.4715    -0.0082     2.5039     0.0815
 1366.0000     8.7901    70.4726    -0.0205     2.4998     0.0849
 1366.5000     8.8150    70.4728    -0.0149     2.5093     0.0755
 1367.0000     8.8433    70.4728    -0.0084     2.5188     0.0726
 1367.5000     8.8193    70.4730    -0.0036     2.5202     0.0725
 1368.0000     8.7758    70.4718    -0.0082     2.5097     0.0783
 1368.5000     8.8373    70.5436    -0.0099     2.5035     0.0796
 1369.0000     8.8731    70.6508    -0.0023     2.5165     0.0711
 1369.5000     8.8730    70.7591     0.0082     2.5295     0.0649
 1370.0000     8.8730    70.8673     0.0163     2.5317     0.0637
 1370.5000     8.8730    70.9751     0.0113     2.5266     0.0661
 1371.0000     8.8730    71.0809     0.0125     2.5277     0.0666
 1371.5000     8.8708    71.2108     0.0121     2.5284     0.0659
 1372.0000     8.8614    71.3377     0.0080     2.5268     0.0671
 1372.5000     8.8522    71.4646     0.0082     2.5292     0.0654
 1373.0000     8.8374    71.5893     0.0122     2.5333     0.0618
 1373.5000     8.8222    71.6341     0.0162     2.5375     0.0582
 1374.0000     8.7971    71.4288     0.0138     2.5407     0.0580
 1374.5000     8.7919    71.2330     0.0068     2.5359     0.0619
 1375.0000     8.7922    71.0375     0.0093     2.5401     0.0590
 1375.5000     8.7923    70.8414     0.0160     2.5444     0.0562
 1376.0000     8.7923    70.6459     0.0181     2.5464     0.0560
 1376.5000     8.7923    70.4680    -0.0030     2.5378     0.0627
 1377.0000     8.7923    70.4729    -0.0028     2.5312     0.0637
 1377.5000     8.7923    70.4708    -0.0065     2.5274     0.0675
 1378.0000     8.7923    70.2920    -0.0090     2.5264     0.0661
 1378.5000     8.7923    69.7016    -0.0082     2.5305     0.0654
 1379.0000     8.7924    69.0978    -0.0063     2.5281     0.0660
 1379.5000     8.7942    68.9644    -0.0047     2.5325     0.0625
 1380.0000     8.7999    68.9629    -0.0029     2.5399     0.0591
 1380.5000     8.8056    69.0264     0.0014     2.5451     0.0571
 1381.0000     8.8123    69.2180     0.0084     2.5424     0.0567
 1381.5000     8.7612    69.4074     0.0155     2.5442     0.0590
 1382.0000     8.6927    69.5968     0.0045     2.5289     0.0663
 1382.5000     8.7676    69.7862    -0.0028     2.5163     0.0720
 1383.0000     8.8694    69.9755    -0.0022     2.5180     0.0713
 1383.5000     8.9060    70.1648    -0.0017     2.5175     0.0720
 1384.0000     8.8885    70.3550    -0.0013     2.5237     0.0690
 1384.5000     8.8714    70.6203     0.0075     2.5309     0.0644
 1385.0000     8.8235    71.0212     0.0135     2.5383     0.0599
 1385.5000     8.7740    71.4189     0.0182     2.5406     0.0601
 1386.0000     8.7738    71.8221     0.0109     2.5356     0.0607
 1386.5000     8.7761    71.8565     0.0115     2.5390     0.0578
 1387.0000     8.7782    71.6539     0.0133     2.5412     0.0583
 1387.5000     8.7802    71.4468     0.0148     2.5416     0.0567
 1388.0000     8.7823    71.2402     0.0176     2.5448     0.0538
 1388.5000     8.7843    71.0723     0.0216     2.5419     0.0576
 1389.0000     8.7863    71.0754     0.0112     2.5356     0.0620
 1389.5000     8.7883    71.0724     0.0019     2.5291     0.0664
 1390.0000     8.7901    71.2256    -0.0019     2.5226     0.0709
 1390.5000     8.7940    71.4082    -0.0030     2.5169     0.0728
 1391.0000     8.8390    71.5915    -0.0018     2.5207     0.0713
 1391.5000     8.8846    71.7744     0.0028     2.5246     0.0691
 1392.0000     8.9075    71.9572    -0.0009     2.5252     0.0682
 1392.5000     8.8820    72.1401    -0.0011     2.5219     0.0690
 1393.0000     8.8854    72.3229     0.0037     2.5293     0.0654
 1393.5000     8.9131    72.5058     0.0171     2.5382     0.0603
 1394.0000     8.9321    72.6890     0.0239     2.5438     0.0567
 1394.5000     8.8911    72.8734     0.0269     2.5471     0.0545
 1395.0000     8.8534    73.0534     0.0284     2.5488     0.0525
 1395.5000     8.8526    73.0732     0.0249     2.5447     0.0547
 1396.0000     8.8528    72.5277     0.0219     2.5344     0.0615
 1396.5000     8.8527    72.0023     0.0071     2.5231     0.0684
 1397.0000     8.8580    71.4766     0.0001     2.5156     0.0741
 1397.5000     8.8639    70.9501    -0.0069     2.5036     0.0796
 1398.0000     8.8699    70.4852    -0.0124     2.4980     0.0844
 1398.5000     8.8708    70.6420    -0.0010     2.5089     0.0742
