~VERSION INFORMATION
 VERS.                2.0:   CWLS LOG ASCII STANDARD - VERSION 2.0
 WRAP.                 NO:   ONE LINE PER DEPTH STEP
~WELL INFORMATION
#MNEM.UNIT      DATA TYPE    INFORMATION
#----------   ------------   ------------------------------
 STRT.F            8.0000:   START DEPTH
 STOP.F          970.0000:   STOP DEPTH
 STEP.F            0.1000:   STEP LENGTH
 NULL.          -999.2500:   NO VALUE
 COMP.       F D SERV INC:   COMPANY
 WELL. N P R 3 STX-35 #15-35:   WELL
 FLD .             TEAPOT:   FIELD
 LOC .      S35 T39N R78W:   LOCATION
 CNTY.            NATRONA:   COUNTY
 STAT.            WYOMING:   STATE
 CTRY. UNITED STATES OF AMERICA:   COUNTRY
 SRVC.     Atlas Wireline:   SERVICE COMPANY
 DATE.        02-FEB-1992:   LOGDATE
 API .       490252250100:   API NUMBER
~CURVE INFORMATION
#MNEM.UNIT       API CODE    CURVE DESCRIPTION
#----------   ------------   ------------------------------
 DEPT.F                  :   
 GRR .GAPI   07 310 01 00:   GAMMA RAY
 RILD.OHMM   07 120 46 00:   INDUCTION LOG DEEP RESISTIVITY
 RILM.OHMM   07 120 44 00:   INDUCTION LOG MEDIUM RESISTIVITY
~PARAMETER INFORMATION
#MNEM.UNIT          VALUE    DESCRIPTION
#----------   ------------   ------------------------------
 PD  .                 GL:   PERMANENT DATUM
 EPD .F              5084:   ELEVATION PERMANENT DATUM
 LMF .                 KB:   LOG MEASURED FROM
 DAPD.F                10:   FEET ABOVE PERMANENT DATUM
 DMF .                 KB:   DRILLING MEASURED FROM
 EKB .F              5094:   KELLING BUSHING
 EDF .F              5093:   DRILLING FLOOR
 EGL .F              5084:   GROUND LEVEL
 DATE.        02-FEB-1982:   RUN DATE
 RUN .                  1:   RUN NUMBER
 DD  .F               980:   DEPTH DRILLER
 CS  .IN            8.625:   CASING SIZE
 BSD .F               980:   BIT SIZE AT DEPTH
 DFT .                AIR:   DRILLING FLUID TYPE
 LUN .            HL-6272:   LOGGING UNIT NUMBER
 LUL .             CASPER:   LOGGING UNIT LOCATION
 ENGI.       R. RASMLSSEN:   RECORDING ENGINEER
 WITN.          G. STRONG:   WITNESSED BY
 CLNT.            A2DTECH:   CLIENT CODE
 ORIG.           5" PRINT:   ORIGIN OF DATA
 UWI .       490252250100:   UNIQUE WELL ID
 DICO. A2D Technologies, Inc.:   DIGITIZING COMPANY
~OTHER INFORMATION
~A    DEPT      GRR      RILD       RILM   
# ...
  153.6000   127.3036     6.8365     6.7891
  153.7000   126.8478     6.8801     6.8292
  153.8000   126.5941     6.9173     6.8695
  153.9000   126.3553     6.9290     6.9100
  154.0000   126.3030     6.9507     6.9521
  154.1000   126.1657     6.9782     6.9918
  154.2000   126.0121     6.9841     7.0331
  154.3000   126.0182     7.0279     7.0515
  154.4000   126.0245     7.0284     7.0523
  154.5000   125.7868     7.0288     7.0598
  154.6000   125.5406     7.0516     7.1030
  154.7000   125.4364     7.0932     7.1037
  154.8000   125.3511     7.1287     7.1045
  154.9000   125.1445     7.1291     7.1284
  155.0000   125.1518     7.1694     7.1556
  155.1000   125.1576     7.1798     7.1498
  155.2000   124.9721     7.1803     7.1077
  155.3000   124.8667     7.1808     7.1085
  155.4000   124.7827     7.1813     7.1093
  155.5000   124.4970     7.1818     7.1101
  155.6000   123.9760     7.1823     7.1109
  155.7000   123.7409     7.1828     7.1116
  155.8000   123.1141     7.1833     7.1125
  155.9000   122.5028     7.1838     7.1132
  156.0000   122.0042     7.1764     7.0832
  156.1000   121.5437     7.1351     7.0656
  156.2000   121.2851     7.1356     7.0664
  156.3000   120.8115     7.1361     7.0672
  156.4000   120.6909     7.1116     7.0680
  156.5000   120.9737     7.0709     7.0302
  156.6000   121.5719     7.0305     6.9604
  156.7000   122.3355     6.9902     6.9247
  156.8000   123.1397     6.9430     6.9117
  156.9000   123.8615     6.9105     6.8727
  157.0000   124.8125     6.8710     6.8317
  157.1000   125.6906     6.8317     6.7953
  157.2000   126.3671     6.7926     6.7569
  157.3000   126.8777     6.7537     6.7188
  157.4000   127.4185     6.7088     6.6808
  157.5000   127.1868     6.6767     6.6430
  157.6000   126.7539     6.6140     6.6032
  157.7000   126.2553     6.5380     6.5682
  157.8000   125.7567     6.4722     6.5312
  157.9000   125.2236     6.4332     6.4942
  158.0000   124.4246     6.3488     6.4451
  158.1000   123.9580     6.2865     6.3767
  158.2000   123.4594     6.2144     6.3383
  158.3000   122.9608     6.1430     6.2710
  158.4000   122.3783     6.0725     6.1997
  158.5000   121.6607     6.0052     6.1480
  158.6000   121.1277     5.9666     6.0902
  158.7000   120.6635     5.9067     5.9950
  158.8000   120.7175     5.8619     5.9587
  158.9000   121.3763     5.8283     5.8958
  159.0000   122.3089     5.7950     5.8532
  159.1000   123.0719     5.7648     5.8202
  159.2000   123.8914     5.7653     5.7765
  159.3000   124.5979     5.7358     5.7148
  159.4000   125.1780     5.7261     5.6801
  159.5000   125.8209     5.7265     5.6807
  159.6000   126.4209     5.7168     5.6814
  159.7000   126.7105     5.6877     5.6820
  159.8000   127.2611     5.6881     5.6826
  159.9000   127.4993     5.6584     5.6833
  160.0000   127.3938     5.6495     5.6839
  160.1000   127.1476     5.6499     5.6845
  160.2000   126.9818     5.6503     5.6851
  160.3000   126.9581     5.6507     5.6857
  160.4000   126.6914     5.6511     5.6864
  160.5000   126.6970     5.6515     5.6871
  160.6000   126.8837     5.6518     5.6877
  160.7000   127.1421     5.6522     5.6883
  160.8000   127.4004     5.6526     5.6889
  160.9000   127.6588     5.6579     5.6895
  161.0000   127.9399     5.6929     5.7005
  161.1000   128.4057     5.6932     5.7305
  161.2000   128.9164     5.6936     5.7311
  161.3000   129.2984     5.7126     5.7317
  161.4000   129.6347     5.7341     5.7559
  161.5000   130.1182     5.7345     5.7728
  161.6000   130.4006     5.7349     5.7838
  161.7000   130.1772     5.7678     5.8144
  161.8000   129.9310     5.7757     5.8150
  161.9000   129.6847     5.7760     5.8461
  162.0000   129.4385     5.7894     5.8568
  162.1000   129.2176     5.8172     5.8574
  162.2000   129.2248     5.8176     5.8581
  162.3000   128.7751     5.8515     5.8587
  162.4000   128.2766     5.8589     5.8594
  162.5000   127.7780     5.8798     5.8600
  162.6000   127.3549     5.9144     5.8607
  162.7000   127.1086     5.9492     5.8783
  162.8000   126.8370     5.9839     5.9028
  162.9000   126.8425     5.9844     5.9034
  163.0000   126.8485     5.9847     5.9041
  163.1000   126.9797     5.9852     5.9047
  163.2000   127.2381     5.9856     5.9054
  163.3000   127.5202     5.9860     5.9060
  163.4000   128.0855     5.9864     5.9067
  163.5000   128.3162     5.9869     5.9074
  163.6000   128.7492     5.9872     5.9081
  163.7000   129.2600     5.9877     5.9086
  163.8000   129.7706     5.9881     5.9093
  163.9000   130.2363     5.9885     5.9099
  164.0000   130.2431     5.9889     5.9106
  164.1000   129.8004     5.9894     5.9113
  164.2000   129.3018     5.9898     5.9120
  164.3000   128.6806     5.9902     5.9126
  164.4000   127.9297     5.9906     5.9133
  164.5000   127.1788     5.9910     5.9305
  164.6000   126.3401     5.9914     5.9557
  164.7000   125.4543     5.9919     5.9564
  164.8000   124.4511     5.9620     5.9571
  164.9000   123.4479     5.9512     5.9274
  165.0000   122.5154     5.9516     5.9172
  165.1000   121.7446     5.9423     5.9178
  165.2000   120.6189     5.9112     5.9185
  165.3000   119.9597     5.9117     5.9165
  165.4000   119.3793     5.9121     5.8790
  165.5000   119.1212     5.8888     5.8796
  165.6000   119.2661     5.8551     5.8573
  165.7000   119.7767     5.8317     5.8402
  165.8000   120.3523     5.8286     5.8317
  165.9000   121.2387     5.7922     5.7987
  166.0000   122.0849     5.7621     5.7617
  166.1000   122.8482     5.7529     5.7623
  166.2000   123.6796     5.7361     5.7407
  166.3000   124.6772     5.7032     5.7238
  166.4000   125.5402     5.6746     5.7244
  166.5000   125.9839     5.6751     5.7228
  166.6000   126.6632     5.6450     5.6862
  166.7000   127.5440     5.6366     5.6867
  166.8000   128.4922     5.6195     5.6656
  166.9000   129.2389     5.5873     5.6487
  167.0000   129.8190     5.5599     5.6407
  167.1000   130.2602     5.5604     5.6088
  167.2000   130.6037     5.5302     5.5728
  167.3000   130.8621     5.5226     5.5733
  167.4000   131.0546     5.5230     5.5739
  167.5000   131.0606     5.5120     5.5598
  167.6000   131.0675     5.4855     5.5284
  167.7000   131.0727     5.4859     5.4972
  167.8000   130.9128     5.4863     5.4617
  167.9000   130.6665     5.4867     5.4622
  168.0000   130.3557     5.4871     5.4422
  168.1000   129.8710     5.4754     5.4257
  168.2000   129.5888     5.4498     5.4262
  168.3000   129.5939     5.4502     5.4268
  168.4000   129.6000     5.4506     5.4275
  168.5000   129.4920     5.4510     5.4281
  168.6000   129.2457     5.4513     5.4287
  168.7000   129.0118     5.4517     5.4293
  168.8000   129.0191     5.4521     5.4298
  168.9000   128.8100     5.4525     5.4304
  169.0000   128.5636     5.4530     5.4312
  169.1000   128.4303     5.4533     5.4317
  169.2000   128.3741     5.4537     5.4323
  169.3000   128.1391     5.4540     5.4329
  169.4000   128.1464     5.4544     5.4335
  169.5000   127.9383     5.4548     5.4341
  169.6000   127.8545     5.4552     5.4348
  169.7000   127.8606     5.4555     5.4353
  169.8000   127.9277     5.4559     5.4359
  169.9000   128.1964     5.4563     5.4365
  170.0000   128.7888     5.4567     5.4371
  170.1000   129.2178     5.4570     5.4377
  170.2000   129.5673     5.4575     5.4384
  170.3000   129.7152     5.4311     5.4389
  170.4000   129.7212     5.4204     5.4196
  170.5000   129.7273     5.4065     5.4026
  170.6000   129.7343     5.3836     5.4031
  170.7000   129.7394     5.3840     5.4037
  170.8000   129.7455     5.3844     5.4044
  170.9000   129.7515     5.3578     5.3790
  171.0000   129.7576     5.3478     5.3486
  171.1000   129.7636     5.3482     5.3317
  171.2000   129.7707     5.3400     5.3322
  171.3000   129.7757     5.3119     5.3328
  171.4000   129.7818     5.3124     5.2967
  171.5000   130.0039     5.2855     5.2972
  171.6000   130.5145     5.2763     5.2786
  171.7000   131.0384     5.2616     5.2617
