~VERSION INFORMATION
 VERS.                2.0:   CWLS LOG ASCII STANDARD - VERSION 2.0
 WRAP.                 NO:   ONE LINE PER DEPTH STEP
~WELL INFORMATION
#MNEM.UNIT      DATA TYPE    INFORMATION
#----------   ------------   ------------------------------
 STRT.F          695.0000:   START DEPTH
 STOP.F         1588.0000:   STOP DEPTH
 STEP.F            0.5000:   STEP LENGTH
 NULL.          -999.2500:   NO VALUE
 COMP. FENIX & SCISSON INC:   COMPANY
 WELL. 13 SHX 10 STX #13-10:   WELL
 FLD .             TEAPOT:   FIELD
 LOC .      S10 T38N R78W:   LOCATION
 CNTY.            NATRONA:   COUNTY
 STAT.            WYOMING:   STATE
 CTRY. UNITED STATES OF AMERICA:   COUNTRY
 SRVC.            Unknown:   SERVICE COMPANY
 DATE.        22-JUL-1979:   LOGDATE
 API .       490251078700:   API NUMBER
~CURVE INFORMATION
#MNEM.UNIT       API CODE    CURVE DESCRIPTION
#----------   ------------   ------------------------------
 DEPT.F                  :   
 CORR.G/C3   45 356 01 00:   DENSITY CORRECTION
 RHOB.G/C3   45 350 01 00:   BULK DENSITY
 CALD.IN     45 280 60 00:   CALIPER
 GRD .GAPI   45 310 01 00:   GAMMA RAY FROM DENSITY LOG
 DPHI.DEC    45 890 12 00:   DENSITY POROSITY SANDSTONE
~PARAMETER INFORMATION
#MNEM.UNIT          VALUE    DESCRIPTION
#----------   ------------   ------------------------------
 PD  .                 GL:   PERMANENT DATUM
 EPD .F              5306:   ELEVATION PERMANENT DATUM
 LMF .                 DF:   LOG MEASURED FROM
 DAPD.F                 9:   FEET ABOVE PERMANENT DATUM
 DMF .                 KB:   DRILLING MEASURED FROM
 EKB .F              5316:   KELLING BUSHING
 EDF .F              5315:   DRILLING FLOOR
 EGL .F              5306:   GROUND LEVEL
 DATE.            7-22-79:   RUN DATE
 RUN .                  1:   RUN NUMBER
 DD  .F              1595:   DEPTH DRILLER
 DL  .F              1588:   DEPTH LOGGER
 BLI .F              1588:   BOTTOM LOG INTERVAL
 TLI .F               700:   TOP LOG INTERVAL
 CS  .IN            9.625:   CASING SIZE
 CBD .F               950:   CASING BOTTOM DRILLER
 CBL .F               950:   CASING BOTTOM LOGGER
 BS  .IN             8.75:   BIT SIZE
 BSD .F              1595:   BIT SIZE AT DEPTH
 DFT .                OIL:   DRILLING FLUID TYPE
 TCS .HRS               2:   TIME CURCULATED STOPPED
 LUN .               2959:   LOGGING UNIT NUMBER
 LUL .             CASPER:   LOGGING UNIT LOCATION
 ENGI.            ROLLINS:   RECORDING ENGINEER
 WITN.           DINSMORE:   WITNESSED BY
 CLNT.            A2DTECH:   CLIENT CODE
 ORIG.     1", 2.5" PRINT:   ORIGIN OF DATA
 UWI .       490251078700:   UNIQUE WELL ID
 DICO. A2D Technologies, Inc.:   DIGITIZING COMPANY
~OTHER INFORMATION
~A   DEPT     CORR       RHOB       CALD         GRD      DPHI   
# ...
 1244.0000     0.0570     2.4348     9.6160   110.2721     0.0681
 1244.5000     0.0657     2.4506     9.5839   111.9354     0.0603
 1245.0000     0.0750     2.4546     9.5516   114.6346     0.0586
 1245.5000     0.0711     2.4437     9.5188   117.4642     0.0621
 1246.0000     0.0675     2.4375     9.4871   116.7963     0.0676
 1246.5000     0.0648     2.4347     9.4564   115.8297     0.0659
 1247.0000     0.0872     2.4480     9.4287   116.6916     0.0563
 1247.5000     0.1174     2.4725     9.4103   117.0325     0.0452
 1248.0000     0.1443     2.4965     9.3814   116.0384     0.0340
 1248.5000     0.2057     2.5206     9.5285   117.0012     0.0225
 1249.0000     0.2676     2.5405     9.5444   119.5263     0.0086
 1249.5000     0.3017     2.5288     9.5461   121.9897     0.0142
 1250.0000     0.2917     2.4517     9.5302   121.8885     0.0469
 1250.5000     0.1955     2.3751     9.3552   120.9030     0.0908
 1251.0000     0.1182     2.2773     9.2107   118.2067     0.1578
 1251.5000     0.0343     2.3144     9.0533   115.4410     0.1400
 1252.0000     0.0434     2.3912     8.8924   112.2024     0.0964
 1252.5000     0.0550     2.4595     8.8098   109.3007     0.0561
 1253.0000     0.0625     2.4671     8.8124   109.0334     0.0510
 1253.5000     0.0568     2.4676     8.8069   112.3903     0.0508
 1254.0000     0.0519     2.4675     8.8012   118.9771     0.0515
 1254.5000     0.0468     2.4671     8.7977   118.9023     0.0525
 1255.0000     0.0419     2.4615     8.7927   116.5697     0.0536
 1255.5000     0.0370     2.4565     8.7881   113.1048     0.0547
 1256.0000     0.0400     2.4658     8.7839   109.8218     0.0525
 1256.5000     0.0472     2.4804     8.7786   107.1028     0.0449
 1257.0000     0.0487     2.4901     8.7782   106.1615     0.0375
 1257.5000     0.0500     2.4935     8.7781   105.3158     0.0354
 1258.0000     0.0516     2.4934     8.7782   105.0255     0.0343
 1258.5000     0.0472     2.4916     8.7781   106.4943     0.0379
 1259.0000     0.0389     2.4862     8.7783   105.4005     0.0413
 1259.5000     0.0306     2.4801     8.7785   103.1543     0.0448
 1260.0000     0.0285     2.4734     8.7864   105.2321     0.0464
 1260.5000     0.0317     2.4775     8.7953   107.7552     0.0418
 1261.0000     0.0410     2.4869     8.8045   105.6834     0.0377
 1261.5000     0.0517     2.4928     8.8135   102.5172     0.0351
 1262.0000     0.0561     2.4878     8.8225   102.4678     0.0391
 1262.5000     0.0553     2.4804     8.8316   104.5108     0.0432
 1263.0000     0.0470     2.4722     8.8406   108.7637     0.0457
 1263.5000     0.0385     2.4713     8.8497   107.9538     0.0472
 1264.0000     0.0295     2.4706     8.8587   105.8057     0.0486
 1264.5000     0.0212     2.4700     8.8679   104.8941     0.0500
 1265.0000     0.0115     2.4697     8.8768   106.3889     0.0497
 1265.5000     0.0117     2.4706     8.8857   105.2238     0.0466
 1266.0000     0.0117     2.4856     8.8958   102.6373     0.0384
 1266.5000     0.0264     2.4955     8.8945   100.3776     0.0294
 1267.0000     0.0202     2.4886     8.8827   101.7117     0.0382
 1267.5000     0.0150     2.4783     8.8720   104.8908     0.0448
 1268.0000     0.0101     2.4836     8.8614   107.8310     0.0387
 1268.5000     0.0176     2.4937     8.8505   108.1696     0.0335
 1269.0000     0.0313     2.5047     8.8395   104.8348     0.0262
 1269.5000     0.0343     2.5058     8.8290   101.9568     0.0283
 1270.0000     0.0308     2.5003     8.8191   100.5688     0.0317
 1270.5000     0.0280     2.4954     8.8212   105.9530     0.0351
 1271.0000     0.0252     2.4907     8.8233   110.7163     0.0386
 1271.5000     0.0223     2.4859     8.8260   110.9438     0.0420
 1272.0000     0.0195     2.4808     8.8284   108.6746     0.0454
 1272.5000     0.0165     2.4747     8.8308   106.2340     0.0489
 1273.0000     0.0151     2.4662     8.8333   108.3781     0.0523
 1273.5000     0.0152     2.4566     8.8357   110.3640     0.0549
 1274.0000     0.0152     2.4565     8.8382   111.5383     0.0541
 1274.5000     0.0152     2.4635     8.8406   109.5983     0.0518
 1275.0000     0.0152     2.4711     8.8430   106.7969     0.0496
 1275.5000     0.0151     2.4726     8.8455   104.0595     0.0473
 1276.0000     0.0166     2.4744     8.8479   101.6817     0.0459
 1276.5000     0.0223     2.4759     8.8504   100.3757     0.0436
 1277.0000     0.0278     2.4812     8.8528   100.3550     0.0413
 1277.5000     0.0338     2.4855     8.8552   101.7132     0.0391
 1278.0000     0.0350     2.4855     8.8580   104.4769     0.0430
 1278.5000     0.0333     2.4790     8.8566   108.1804     0.0466
 1279.0000     0.0325     2.4707     8.8511   111.5669     0.0505
 1279.5000     0.0325     2.4676     8.8461   114.0187     0.0484
 1280.0000     0.0475     2.4683     8.8410   112.8306     0.0461
 1280.5000     0.0607     2.4855     8.8358   110.6414     0.0438
 1281.0000     0.0747     2.4859     8.8307   108.3593     0.0419
 1281.5000     0.0884     2.4834     8.8256   106.1849     0.0405
 1282.0000     0.1025     2.4893     8.8204   104.0272     0.0391
 1282.5000     0.1116     2.4943     8.8153   103.1630     0.0359
 1283.0000     0.1078     2.4875     8.8102   103.7935     0.0416
 1283.5000     0.0947     2.4710     8.8051   105.2363     0.0483
 1284.0000     0.0817     2.4605     8.8000   106.8958     0.0549
 1284.5000     0.0684     2.4559     8.7948   105.3968     0.0578
 1285.0000     0.0556     2.4515     8.7897   101.9469     0.0591
 1285.5000     0.0387     2.4515     8.7846   101.6829     0.0594
 1286.0000     0.0305     2.4575     8.7795   102.6482     0.0594
 1286.5000     0.0261     2.4641     8.7744   106.3997     0.0527
 1287.0000     0.0222     2.4694     8.7692   109.6535     0.0481
 1287.5000     0.0155     2.4696     8.7641   111.9268     0.0481
 1288.0000     0.0156     2.4698     8.7590   112.0001     0.0481
 1288.5000     0.0161     2.4759     8.7539   108.7526     0.0467
 1289.0000     0.0169     2.4825     8.7488   104.4393     0.0434
 1289.5000     0.0175     2.4828     8.7436   102.3350     0.0424
 1290.0000     0.0181     2.4800     8.7379   104.6195     0.0440
 1290.5000     0.0190     2.4774     8.7238   106.2811     0.0457
 1291.0000     0.0181     2.4750     8.7075   105.5625     0.0474
 1291.5000     0.0135     2.4723     8.6913   104.3290     0.0489
 1292.0000     0.0112     2.4753     8.6750   103.6197     0.0469
 1292.5000     0.0125     2.4805     8.6590   103.9377     0.0441
 1293.0000     0.0134     2.4857     8.6428   105.9583     0.0414
 1293.5000     0.0142     2.4900     8.6256   108.5406     0.0391
 1294.0000     0.0150     2.4868     8.6160   110.7196     0.0427
 1294.5000     0.0118     2.4785     8.6170   108.2852     0.0471
 1295.0000     0.0081     2.4703     8.6169   106.0947     0.0513
 1295.5000     0.0090     2.4681     8.6168   103.2153     0.0481
 1296.0000     0.0129     2.4775     8.6170   104.5014     0.0432
 1296.5000     0.0142     2.4825     8.6170   107.7374     0.0424
 1297.0000     0.0108     2.4781     8.6192   110.0736     0.0457
 1297.5000     0.0074     2.4740     8.6217   108.2704     0.0497
 1298.0000     0.0089     2.4705     8.6243   105.9360     0.0492
 1298.5000     0.0106     2.4759     8.6269   108.5844     0.0446
 1299.0000     0.0126     2.4850     8.6294   110.6689     0.0388
 1299.5000     0.0145     2.4934     8.6320   112.7322     0.0375
 1300.0000     0.0153     2.4932     8.6346   115.2164     0.0388
 1300.5000     0.0128     2.4860     8.6371   113.9672     0.0411
 1301.0000     0.0100     2.4791     8.6397   110.5485     0.0434
 1301.5000     0.0074     2.4766     8.6423   108.3973     0.0457
 1302.0000     0.0092     2.4803     8.6448   109.7158     0.0446
 1302.5000     0.0109     2.4834     8.6474   110.7482     0.0416
 1303.0000     0.0094     2.4865     8.6499   111.9443     0.0390
 1303.5000     0.0075     2.4899     8.6525   111.7395     0.0367
 1304.0000     0.0091     2.4929     8.6551   110.7061     0.0356
 1304.5000     0.0129     2.4958     8.6576   109.2333     0.0346
