~VERSION INFORMATION
 VERS.                2.0:   CWLS LOG ASCII STANDARD - VERSION 2.0
 WRAP.                 NO:   ONE LINE PER DEPTH STEP
~WELL INFORMATION
#MNEM.UNIT      DATA TYPE    INFORMATION
#----------   ------------   ------------------------------
 STRT.F           10.0000:   START DEPTH
 STOP.F          833.5000:   STOP DEPTH
 STEP.F            0.5000:   STEP LENGTH
 NULL.          -999.2500:   NO VALUE
 COMP. FENIX & SCISSON INC:   COMPANY
 WELL.       NPR 3 #46-11:   WELL
 FLD .             TEAPOT:   FIELD
 LOC .      S11 T38N R78W:   LOCATION
 CNTY.            NATRONA:   COUNTY
 STAT.            WYOMING:   STATE
 CTRY. UNITED STATES OF AMERICA:   COUNTRY
 SRVC.           BIRDWELL:   SERVICE COMPANY
 DATE.        17-DEC-1978:   LOGDATE
 API .       490251075600:   API NUMBER
~CURVE INFORMATION
#MNEM.UNIT       API CODE    CURVE DESCRIPTION
#----------   ------------   ------------------------------
 DEPT.F                  :   
 GRD .GAPI   45 310 01 00:   GAMMA RAY FROM DENSITY LOG
 CALD.IN     45 280 60 00:   CALIPER
 CORR.G/C3   45 356 01 00:   DENSITY CORRECTION
 DPHI.DEC    45 890 12 00:   DENSITY POROSITY SANDSTONE
 RHOB.G/C3   45 350 01 00:   BULK DENSITY
 SPR .MV     05 010 01 00:   SPONTANEOUS POTENTIAL FROM RES.
 SN  .OHMM   05 040 16 00:   SHORT NORMAL 16"
 IL  .OHMM   05 120 00 00:   INDUCTION LOG
~PARAMETER INFORMATION
#MNEM.UNIT          VALUE    DESCRIPTION
#----------   ------------   ------------------------------
 PD  .                 GL:   PERMANENT DATUM
 EPD .F              5193:   ELEVATION PERMANENT DATUM
 LMF .                 KB:   LOG MEASURED FROM
 DAPD.F                 4:   FEET ABOVE PERMANENT DATUM
 DMF .                 KB:   DRILLING MEASURED FROM
 EKB .F              5197:   KELLING BUSHING
 EGL .F              5193:   GROUND LEVEL
 DATE.           12-17-78:   RUN DATE
 RUN .                  1:   RUN NUMBER
 DD  .F               845:   DEPTH DRILLER
 DL  .F               834:   DEPTH LOGGER
 BLI .F               827:   BOTTOM LOG INTERVAL
 TLI .F                60:   TOP LOG INTERVAL
 CS  .IN            8.625:   CASING SIZE
 CBD .F                40:   CASING BOTTOM DRILLER
 CBL .F                42:   CASING BOTTOM LOGGER
 BS  .IN            7.875:   BIT SIZE
 BSD .F               845:   BIT SIZE AT DEPTH
 DFT .                KCL:   DRILLING FLUID TYPE
 DFD .                8.8:   DRILLING FLUID DENSITY
 DFV .                 36:   DRILLING FLUID VISCOSITY
 DFPH.               10.5:   DRILLING FLUID PH
 MSS .          FLOW LINE:   MUD SAMPLE SOURCE
 RMS .OHMM            .34:   RESISTIVITY MUD SAMPLE
 MST .F                62:   MUD SAMPLE TEMPERATURE
 RMF .OHMM            .26:   RESISTIVITY MUD FILTRATE SAMPLE
 MFST.F                66:   MUD FILTRATE SAMPLE TEMPERATURE
 RMC .OHMM            .42:   RESISTIVITY MUD CAKE
 MCST.F                68:   MUD CAKE SAMPLE TEMPERATURE
 MFSS.           MEASURED:   MUD FILTRATE SAMPLE SOURCE
 MCSS.           MEASURED:   MUD CAKE SAMPLE SOURCE
 RMB .OHMM           .288:   RESISTIVITY MUD AT BHT
 BHT .F                73:   BOTTOM HOLE TEMPERATURE
 TCS .HRS               4:   TIME CURCULATED STOPPED
 MRT .F                73:   MAXIMUM RECORDED TEMPERATURE
 LUN .               3006:   LOGGING UNIT NUMBER
 LUL .             CASPER:   LOGGING UNIT LOCATION
 ENGI.         B. ROLLINS:   RECORDING ENGINEER
 WITN.         RICHARDSON:   WITNESSED BY
 CLNT.            A2DTECH:   CLIENT CODE
 ORIG.           5" PRINT:   ORIGIN OF DATA
 UWI .       490251075600:   UNIQUE WELL ID
 DICO. A2D Technologies, Inc.:   DIGITIZING COMPANY
~OTHER INFORMATION
~A   DEPT      GRD       CALD       CORR       DPHI       RHOB        SPR         SN         IL   
# ...
   91.0000   100.7820     8.2260    -0.0130     0.1660     2.3880   -23.7300     5.1690     4.7020
   91.5000    99.5300     8.2220    -0.0120     0.1650     2.3880   -23.7740     5.1690     4.7040
   92.0000    98.2210     8.2180    -0.0080     0.1650     2.3890   -23.8190     5.1700     4.7070
   92.5000    96.8570     8.2140    -0.0010     0.1660     2.3890   -23.8710     5.1690     4.7090
   93.0000    95.4910     8.2100     0.0050     0.1680     2.3890   -23.8660     5.1700     4.6820
   93.5000    94.1650     8.2060     0.0100     0.1760     2.3870   -23.7560     5.1700     4.6430
   94.0000    94.1680     8.2020     0.0060     0.1920     2.3710   -23.6530     5.1720     4.6040
   94.5000    95.5630     8.1980     0.0030     0.2080     2.3460   -23.5490     5.1780     4.5650
   95.0000   100.7880     8.1940     0.0000     0.2240     2.3200   -23.4430     5.0870     4.5230
   95.5000   105.8400     8.1900    -0.0030     0.2370     2.2950   -23.3380     4.9150     4.4730
   96.0000   110.7310     8.2070    -0.0060     0.2420     2.2710   -23.2340     4.7350     4.4230
   96.5000   114.5730     8.2310    -0.0060     0.2220     2.2640   -23.1270     4.5550     4.3730
   97.0000   118.3880     8.2540    -0.0060     0.2030     2.2960   -23.0890     4.3750     4.3230
   97.5000   116.2990     8.2780    -0.0060     0.1850     2.3380   -23.0920     4.1940     4.2730
   98.0000   108.6850     8.2850    -0.0050     0.1690     2.3770   -23.0920     4.0140     4.2230
   98.5000    99.5010     8.2770    -0.0050     0.1700     2.3820   -23.0920     3.7660     4.1730
   99.0000   100.6590     8.2680    -0.0050     0.1720     2.3830   -23.0920     3.9400     4.1330
   99.5000   102.0720     8.2590    -0.0050     0.1730     2.3850   -23.0920     4.2200     4.2310
  100.0000   103.4950     8.2510    -0.0050     0.1680     2.3880   -23.0930     4.5000     4.4680
  100.5000   104.3170     8.2530    -0.0050     0.1650     2.3910   -23.0910     4.7800     4.7050
  101.0000    98.1540     8.2560    -0.0050     0.1650     2.3920   -23.1100     5.0610     4.9410
  101.5000    97.8560     8.2590    -0.0040     0.1660     2.3920   -23.1450     5.3410     5.1780
  102.0000    97.4930     8.2610    -0.0040     0.1660     2.3920   -23.1780     5.5690     5.4150
  102.5000    97.3070     8.2640    -0.0040     0.1660     2.3920   -23.2110     5.7840     5.5540
  103.0000    97.3010     8.2670    -0.0050     0.1660     2.3920   -23.2450     5.9650     5.6660
  103.5000    97.2790     8.2700    -0.0080     0.1630     2.3940   -23.2780     6.1460     5.7810
  104.0000    97.1930     8.2730    -0.0110     0.1570     2.3990   -23.3110     6.3260     5.8140
  104.5000    97.1110     8.2760    -0.0140     0.1520     2.4060   -23.3440     6.5070     5.8730
  105.0000    97.0300     8.2790    -0.0140     0.1470     2.4160   -23.3780     6.5870     5.9320
  105.5000    96.9480     8.2820    -0.0140     0.1420     2.4220   -23.4110     6.5500     5.9900
  106.0000    97.1210     8.2850    -0.0140     0.1420     2.4260   -23.4440     6.5180     6.0490
  106.5000    97.5900     8.2870    -0.0140     0.1410     2.4270   -23.4790     6.4870     6.1080
  107.0000    98.3720     8.2790    -0.0140     0.1460     2.4270   -23.4950     6.4550     6.1660
  107.5000   100.2570     8.2340    -0.0140     0.1520     2.4210   -23.4940     6.4240     6.2280
  108.0000   102.1090     8.1910    -0.0140     0.1580     2.4100   -23.4940     6.3920     6.2280
  108.5000   103.9580     8.1510    -0.0140     0.1630     2.3990   -23.4940     6.3600     6.2280
  109.0000   105.6770     8.1590    -0.0110     0.1620     2.3950   -23.4940     6.2710     6.2280
  109.5000   103.8730     8.1670    -0.0020     0.1610     2.3950   -23.4940     6.1300     6.0620
  110.0000   101.1650     8.1760     0.0100     0.1600     2.3950   -23.4940     5.9900     5.9150
  110.5000    98.4560     8.1840     0.0220     0.1600     2.3950   -23.4940     5.8490     5.7670
  111.0000    95.7580     8.1920     0.0340     0.1700     2.3950   -23.4940     5.7080     5.6200
  111.5000    93.6400     8.2000     0.0290     0.1820     2.3760   -23.4940     5.5670     5.4730
  112.0000    94.0970     8.2090     0.0170     0.1940     2.3580   -23.4940     5.4270     5.3250
  112.5000    98.0010     8.2170     0.0050     0.2060     2.3390   -23.4940     5.2860     5.1780
  113.0000   101.9020     8.2250    -0.0020     0.1950     2.3240   -23.4940     5.1450     5.0310
  113.5000   105.7750     8.2340    -0.0040     0.1810     2.3460   -23.4940     5.0040     4.8830
  114.0000   109.6600     8.2420    -0.0050     0.1670     2.3690   -23.4940     4.8640     4.7360
  114.5000   111.7520     8.2460    -0.0060     0.1520     2.3910   -23.4940     4.7230     4.5890
  115.0000   105.9990     8.2190    -0.0080     0.1500     2.4140   -23.4940     4.5820     4.4530
  115.5000    96.8910     8.2040    -0.0090     0.1500     2.4160   -23.4940     4.5370     4.4670
  116.0000    93.7740     8.1900    -0.0100     0.1500     2.4170   -23.4940     4.5930     4.5140
  116.5000    93.9290     8.1750    -0.0120     0.1500     2.4170   -23.4940     4.6560     4.5620
  117.0000    94.8190     8.1720    -0.0130     0.1490     2.4170   -23.4940     4.7200     4.6100
  117.5000    95.7080     8.1800    -0.0140     0.1490     2.4170   -23.4940     4.7840     4.6570
  118.0000    96.5900     8.1870    -0.0140     0.1480     2.4170   -23.4940     4.8470     4.7050
  118.5000    97.1860     8.1950    -0.0140     0.1510     2.4160   -23.4940     4.9110     4.7530
  119.0000    96.5380     8.2020    -0.0140     0.1540     2.4150   -23.4940     4.9750     4.7980
  119.5000    95.9060     8.2100    -0.0140     0.1570     2.4100   -23.4940     5.0380     4.7840
  120.0000    95.2860     8.2100    -0.0140     0.1600     2.4050   -23.4940     5.0740     4.7270
  120.5000    96.2550     8.2100    -0.0140     0.1630     2.4000   -23.4940     4.9760     4.6700
  121.0000    97.3990     8.2100    -0.0140     0.1660     2.3950   -23.4940     4.8830     4.6120
  121.5000    97.8340     8.2110    -0.0100     0.1690     2.3900   -23.4940     4.7890     4.5550
  122.0000    97.1970     8.2140    -0.0050     0.1720     2.3860   -23.4940     4.6950     4.4980
  122.5000    96.7030     8.2160    -0.0010     0.1770     2.3780   -23.4940     4.6020     4.4530
  123.0000    97.2820     8.2190     0.0010     0.1980     2.3620   -23.4940     4.5080     4.4110
  123.5000    97.8640     8.2210    -0.0050     0.2260     2.3320   -23.4940     4.4140     4.2900
  124.0000    98.4450     8.2240    -0.0080     0.2530     2.2910   -23.4940     4.3210     4.1440
  124.5000    99.1740     8.2260    -0.0080     0.2810     2.2500   -23.4940     4.2270     3.9640
  125.0000   100.5150     8.2280    -0.0070     0.2960     2.2090   -23.4940     4.1330     3.7840
  125.5000   101.8570     8.2310    -0.0070     0.2830     2.1730   -23.4940     3.9380     3.6040
  126.0000   103.2250     8.2330    -0.0070     0.2570     2.1950   -23.4940     3.6120     3.4320
  126.5000   101.9680     8.2360    -0.0060     0.2310     2.2530   -23.4940     3.2860     3.3080
  127.0000    99.5040     8.2380    -0.0060     0.2050     2.3070   -23.4940     2.9600     3.2080
  127.5000    97.0320     8.2400    -0.0070     0.1800     2.3630   -23.4940     2.6920     3.1250
  128.0000    95.0560     8.2430    -0.0090     0.1740     2.3810   -23.4940     2.6920     3.1910
  128.5000    94.1140     8.2450    -0.0110     0.1730     2.3810   -23.4940     2.7820     3.2470
  129.0000    94.3400     8.2480    -0.0140     0.1710     2.3830   -23.4940     2.9380     3.3050
  129.5000    94.5440     8.2500    -0.0160     0.1680     2.3850   -23.4940     3.0680     3.4760
  130.0000    94.8700     8.2650    -0.0180     0.1640     2.3890   -23.4940     3.5400     3.6530
  130.5000    95.8000     8.2810    -0.0200     0.1610     2.3940   -23.4940     3.9460     3.8300
  131.0000    96.7440     8.2970    -0.0220     0.1580     2.3980   -23.4940     4.3710     4.0070
