~VERSION INFORMATION
 VERS.                2.0:   CWLS LOG ASCII STANDARD - VERSION 2.0
 WRAP.                 NO:   ONE LINE PER DEPTH STEP
~WELL INFORMATION
#MNEM.UNIT      DATA TYPE    INFORMATION
#----------   ------------   ------------------------------
 STRT.F           48.0000:   START DEPTH
 STOP.F          650.0000:   STOP DEPTH
 STEP.F            0.5000:   STEP LENGTH
 NULL.          -999.2500:   NO VALUE
 COMP. FENIX & SCISSON INC:   COMPANY
 WELL.    36 SX 34 #36-34:   WELL
 FLD .             TEAPOT:   FIELD
 LOC .      S34 T39N R78W:   LOCATION
 CNTY.            NATRONA:   COUNTY
 STAT.            WYOMING:   STATE
 CTRY. UNITED STATES OF AMERICA:   COUNTRY
 SRVC.            Unknown:   SERVICE COMPANY
 DATE.        19-JAN-1979:   LOGDATE
 API .       490251076800:   API NUMBER
~CURVE INFORMATION
#MNEM.UNIT       API CODE    CURVE DESCRIPTION
#----------   ------------   ------------------------------
 DEPT.F                  :   
 SPR .MV     05 010 01 00:   SPONTANEOUS POTENTIAL FROM RES.
 SN  .OHMM   05 040 16 00:   SHORT NORMAL 16"
 IL  .OHMM   05 120 00 00:   INDUCTION LOG
 CALD.IN     45 280 60 00:   CALIPER
 GRD .GAPI   45 310 01 00:   GAMMA RAY FROM DENSITY LOG
 RHOB.G/C3   45 350 01 00:   BULK DENSITY
 DPHI.DEC    45 890 12 00:   DENSITY POROSITY SANDSTONE
 CORR.G/C3   45 356 01 00:   DENSITY CORRECTION
~PARAMETER INFORMATION
#MNEM.UNIT          VALUE    DESCRIPTION
#----------   ------------   ------------------------------
 PD  .                 GL:   PERMANENT DATUM
 EPD .F              5125:   ELEVATION PERMANENT DATUM
 LMF .                 KB:   LOG MEASURED FROM
 DAPD.F                 4:   FEET ABOVE PERMANENT DATUM
 DMF .                 KB:   DRILLING MEASURED FROM
 EKB .F              5129:   KELLING BUSHING
 EGL .F              5125:   GROUND LEVEL
 DATE.            1-19-79:   RUN DATE
 RUN .                  1:   RUN NUMBER
 DD  .F               650:   DEPTH DRILLER
 DL  .F               650:   DEPTH LOGGER
 BLI .F               643:   BOTTOM LOG INTERVAL
 TLI .F                50:   TOP LOG INTERVAL
 CS  .IN            8.625:   CASING SIZE
 CBD .F                40:   CASING BOTTOM DRILLER
 CBL .F                36:   CASING BOTTOM LOGGER
 BS  .IN            7.875:   BIT SIZE
 BSD .F               650:   BIT SIZE AT DEPTH
 DFT .                KCL:   DRILLING FLUID TYPE
 DFD .                8.8:   DRILLING FLUID DENSITY
 DFV .                 34:   DRILLING FLUID VISCOSITY
 DFL .                8.8:   DRILLING FLUID LOSS
 MSS .           FLOWLINE:   MUD SAMPLE SOURCE
 RMS .OHMM            .17:   RESISTIVITY MUD SAMPLE
 MST .F                62:   MUD SAMPLE TEMPERATURE
 RMF .OHMM            .15:   RESISTIVITY MUD FILTRATE SAMPLE
 MFST.F                62:   MUD FILTRATE SAMPLE TEMPERATURE
 RMC .OHMM            .22:   RESISTIVITY MUD CAKE
 MCST.F                63:   MUD CAKE SAMPLE TEMPERATURE
 MFSS.           MEASURED:   MUD FILTRATE SAMPLE SOURCE
 MCSS.           MEASURED:   MUD CAKE SAMPLE SOURCE
 RMB .OHMM            .18:   RESISTIVITY MUD AT BHT
 BHT .F                60:   BOTTOM HOLE TEMPERATURE
 TCS .HRS               3:   TIME CURCULATED STOPPED
 MRT .F                60:   MAXIMUM RECORDED TEMPERATURE
 LUN .                 30:   LOGGING UNIT NUMBER
 LUL .             CASPER:   LOGGING UNIT LOCATION
 ENGI.         B. ROLLINS:   RECORDING ENGINEER
 WITN.           DINSMORE:   WITNESSED BY
 CLNT.            A2DTECH:   CLIENT CODE
 ORIG.           5" PRINT:   ORIGIN OF DATA
 UWI .       490251076800:   UNIQUE WELL ID
 DICO. A2D Technologies, Inc.:   DIGITIZING COMPANY
~OTHER INFORMATION
~A   DEPT      SPR           SN        IL      CALD        GRD       RHOB       DPHI       CORR   
# ...
  210.0000   -54.9830     7.4360     7.9690     8.1710   116.1500     2.4980     0.0980     0.0330
  210.5000   -55.7750     7.4060     8.0440     8.1670   113.4660     2.5010     0.0960     0.0260
  211.0000   -56.1080     7.3600     8.1180     8.1630   110.7560     2.5040     0.0960     0.0200
  211.5000   -56.0100     7.3780     8.1920     8.1590   109.3830     2.5000     0.0970     0.0200
  212.0000   -55.6260     7.4150     8.2670     8.1550   108.0110     2.4960     0.0970     0.0220
  212.5000   -54.9250     7.4530     8.3410     8.1510   106.6270     2.4990     0.0970     0.0270
  213.0000   -54.4330     7.4900     8.4160     8.1470   105.2400     2.5040     0.0960     0.0350
  213.5000   -54.7930     7.5270     8.4900     8.1430   105.2060     2.5100     0.0930     0.0420
  214.0000   -55.1380     7.5640     8.5350     8.1390   107.5790     2.5100     0.0910     0.0410
  214.5000   -55.4740     7.6020     8.5350     8.1350   109.9310     2.5030     0.0950     0.0370
  215.0000   -55.7470     7.6390     8.5350     8.1310   111.6630     2.4980     0.0980     0.0330
  215.5000   -55.5700     7.6760     8.5350     8.1280   113.0850     2.5060     0.0930     0.0400
  216.0000   -55.3980     7.7130     8.5350     8.1230   110.9690     2.5180     0.0860     0.0480
  216.5000   -55.2280     7.7510     8.5900     8.1190   106.8200     2.5310     0.0800     0.0520
  217.0000   -55.0590     7.7880     8.6500     8.1160   104.3440     2.5380     0.0790     0.0540
  217.5000   -54.8890     7.8250     8.7090     8.1170   108.8200     2.5300     0.0840     0.0540
  218.0000   -54.7190     7.8620     8.7690     8.1370   112.9140     2.5190     0.0880     0.0460
  218.5000   -54.5500     7.9000     8.8290     8.1560   112.7260     2.5080     0.0920     0.0370
  219.0000   -54.3780     7.9370     8.8890     8.1740   110.5260     2.4960     0.0960     0.0280
  219.5000   -54.1990     7.9740     8.9490     8.1930   110.3300     2.4850     0.1000     0.0190
  220.0000   -54.4660     8.0110     9.0090     8.2120   111.3000     2.4840     0.1010     0.0150
  220.5000   -54.7600     8.0480     9.1060     8.2310   110.2990     2.4900     0.0990     0.0220
  221.0000   -54.6130     8.0860     9.0760     8.2500   110.9390     2.4960     0.0970     0.0280
  221.5000   -54.4780     8.1230     9.0500     8.2490   112.1490     2.5030     0.0950     0.0330
  222.0000   -54.5260     8.1490     9.0240     8.2470   112.9430     2.5090     0.0930     0.0380
  222.5000   -55.0970     8.1070     8.9980     8.2450   110.6290     2.5090     0.0940     0.0370
  223.0000   -55.6500     8.0760     8.9720     8.2420   108.2020     2.5060     0.0950     0.0340
  223.5000   -56.2020     8.0450     8.9460     8.2400   107.5800     2.5030     0.0960     0.0280
  224.0000   -56.7600     8.0140     8.9200     8.2380   110.7910     2.5000     0.0980     0.0220
  224.5000   -56.8780     7.9820     8.8940     8.2360   113.4090     2.4970     0.0990     0.0270
  225.0000   -56.7320     7.9510     8.8680     8.2340   114.6230     2.4940     0.1000     0.0300
  225.5000   -55.9250     7.9200     8.8420     8.2310   113.4500     2.4910     0.1020     0.0280
  226.0000   -55.0990     7.8880     8.8160     8.2290   112.9190     2.4910     0.1020     0.0260
  226.5000   -54.3620     7.8570     8.7910     8.2270   118.0630     2.4940     0.1000     0.0280
  227.0000   -54.4560     7.8260     8.7650     8.2250   116.7570     2.4980     0.0980     0.0300
  227.5000   -54.5300     7.7950     8.7390     8.2230   114.1360     2.5030     0.0950     0.0320
  228.0000   -54.8630     7.7630     8.7130     8.2210   112.4480     2.5080     0.0930     0.0340
  228.5000   -54.7440     7.7320     8.6870     8.2180   113.1610     2.5120     0.0910     0.0360
  229.0000   -53.8600     7.7010     8.6610     8.2160   114.2100     2.5150     0.0890     0.0380
  229.5000   -53.2320     7.6690     8.6350     8.2140   114.8020     2.5190     0.0870     0.0400
  230.0000   -53.6210     7.6380     8.6090     8.2120   113.9540     2.5250     0.0850     0.0420
  230.5000   -55.0070     7.6070     8.5830     8.2030   110.8050     2.5330     0.0820     0.0420
  231.0000   -56.3500     7.5760     8.5570     8.1920   109.2420     2.5400     0.0760     0.0420
  231.5000   -56.3230     7.5440     8.5310     8.1810   112.6330     2.5350     0.0790     0.0420
  232.0000   -55.9280     7.5130     8.5050     8.1730   115.4920     2.5270     0.0830     0.0360
  232.5000   -55.4860     7.4820     8.4800     8.1810   116.3570     2.5180     0.0870     0.0300
  233.0000   -55.0460     7.4500     8.4540     8.1890   114.6750     2.5100     0.0910     0.0250
  233.5000   -54.6110     7.4190     8.4280     8.1960   111.3350     2.5020     0.0950     0.0220
  234.0000   -55.8680     7.3880     8.4020     8.2040   110.7650     2.4980     0.0970     0.0250
  234.5000   -56.9850     7.3570     8.3760     8.2110   113.7640     2.5040     0.0950     0.0280
  235.0000   -56.9690     7.3250     8.3500     8.2060   116.6640     2.5100     0.0950     0.0210
  235.5000   -56.5080     7.2940     8.3240     8.2000   117.5440     2.5060     0.0950     0.0120
  236.0000   -55.8050     7.2630     8.2980     8.1950   119.4450     2.5020     0.0960     0.0120
  236.5000   -55.3980     7.2320     8.2720     8.1930   120.3210     2.5010     0.0890     0.0290
  237.0000   -55.4840     7.2250     8.2460     8.1950   116.6560     2.5070     0.0920     0.0370
  237.5000   -55.5800     7.2250     8.2240     8.1970   114.3820     2.5000     0.0980     0.0290
  238.0000   -56.1810     7.2920     8.2430     8.2000   112.5840     2.4900     0.1040     0.0210
  238.5000   -56.6920     7.3010     8.2630     8.2020   110.7320     2.4790     0.1090     0.0130
  239.0000   -56.2170     7.3190     8.2830     8.2040   110.2010     2.4760     0.1130     0.0080
  239.5000   -55.8470     7.3360     8.3030     8.2070   110.0620     2.4840     0.1110     0.0130
  240.0000   -55.6180     7.3540     8.3240     8.2090   111.2090     2.4970     0.1000     0.0270
  240.5000   -55.0380     7.3710     8.3440     8.2120   112.8960     2.5100     0.0890     0.0410
  241.0000   -54.6450     7.3890     8.3640     8.2140   114.5920     2.5230     0.0850     0.0540
  241.5000   -54.8230     7.4060     8.3840     8.2160   116.2090     2.5250     0.0850     0.0530
  242.0000   -54.9950     7.4240     8.4040     8.2190   117.0860     2.5240     0.0850     0.0510
  242.5000   -55.1500     7.4410     8.4240     8.2210   113.3580     2.5210     0.0860     0.0450
  243.0000   -54.7380     7.4590     8.4440     8.2230   109.4590     2.5160     0.0890     0.0380
  243.5000   -54.2780     7.4760     8.4640     8.2260   106.5490     2.5100     0.0920     0.0310
  244.0000   -54.4560     7.4940     8.4840     8.2280   107.5950     2.5050     0.0940     0.0240
  244.5000   -54.8230     7.5110     8.5040     8.2310   108.7950     2.4990     0.0950     0.0170
  245.0000   -55.2250     7.5290     8.5340     8.2310   109.7880     2.5030     0.0930     0.0230
  245.5000   -56.4170     7.5470     8.5100     8.2310   108.1260     2.5130     0.0890     0.0310
  246.0000   -57.5790     7.5640     8.4580     8.2310   109.8860     2.5230     0.0840     0.0380
  246.5000   -57.3890     7.6370     8.4060     8.2310   112.9360     2.5260     0.0870     0.0380
  247.0000   -56.6870     7.5970     8.3530     8.2310   112.6050     2.5200     0.0910     0.0360
  247.5000   -56.7530     7.5480     8.3010     8.2310   112.6800     2.5140     0.0960     0.0300
  248.0000   -56.9740     7.5000     8.2490     8.2310   113.6530     2.5070     0.0990     0.0280
  248.5000   -57.1990     7.4510     8.1970     8.2310   115.3890     2.5000     0.1020     0.0260
  249.0000   -57.3570     7.4020     8.1450     8.2310   117.1450     2.4930     0.1060     0.0210
  249.5000   -56.8380     7.3530     8.0930     8.2310   117.7130     2.4870     0.1110     0.0150
  250.0000   -55.8660     7.3050     8.0400     8.2310   117.3820     2.4800     0.1140     0.0100
