~VERSION INFORMATION
 VERS.                2.0:   CWLS LOG ASCII STANDARD - VERSION 2.0
 WRAP.                 NO:   ONE LINE PER DEPTH STEP
~WELL INFORMATION
#MNEM.UNIT      DATA TYPE    INFORMATION
#----------   ------------   ------------------------------
 STRT.F           33.5000:   START DEPTH
 STOP.F          692.0000:   STOP DEPTH
 STEP.F            0.5000:   STEP LENGTH
 NULL.          -999.2500:   NO VALUE
 COMP. FENIX & SCISSON INC:   COMPANY
 WELL.       NPR-3 #65-34:   WELL
 FLD .  TEAPOT DOME NPR-3:   FIELD
 LOC .      S34 T39N R78W:   LOCATION
 CNTY.            NATRONA:   COUNTY
 STAT.            WYOMING:   STATE
 CTRY. UNITED STATES OF AMERICA:   COUNTRY
 SRVC.           BIRDWELL:   SERVICE COMPANY
 DATE.        14-AUG-1978:   LOGDATE
 API .       490251070400:   API NUMBER
~CURVE INFORMATION
#MNEM.UNIT       API CODE    CURVE DESCRIPTION
#----------   ------------   ------------------------------
 DEPT.F                  :   
 CALD.IN     45 280 60 00:   CALIPER
 GRD .GAPI   45 310 01 00:   GAMMA RAY FROM DENSITY LOG
 RHOB.G/C3   45 350 01 00:   BULK DENSITY
 CORR.G/C3   45 356 01 00:   DENSITY CORRECTION
 DPHI.DEC    45 890 12 00:   DENSITY POROSITY SANDSTONE
 SPR .MV     05 010 01 00:   SPONTANEOUS POTENTIAL
 SN  .OHMM   05 040 16 00:   SHORT NORMAL 16'
 ILD .OHMM   05 120 46 00:   INDUCTION LOG DEEP RESISTIVITY
~PARAMETER INFORMATION
#MNEM.UNIT          VALUE    DESCRIPTION
#----------   ------------   ------------------------------
 PD  .                 GL:   PERMANENT DATUM
 EPD .F              5083:   ELEVATION PERMANENT DATUM
 LMF .                 KB:   LOG MEASURED FROM
 DAPD.F                 4:   FEET ABOVE PERMANENT DATUM
 DMF .                 KB:   DRILLING MEASURED FROM
 EKB .F              5087:   KELLING BUSHING
 EGL .F              5083:   GROUND LEVEL
 DATE.            8-14-78:   RUN DATE
 RUN .                  1:   RUN NUMBER
 DD  .F               675:   DEPTH DRILLER
 DL  .F               682:   DEPTH LOGGER
 BLI .F               676:   BOTTOM LOG INTERVAL
 TLI .F                50:   TOP LOG INTERVAL
 CS  .IN            8.625:   CASING SIZE
 CBD .F                40:   CASING BOTTOM DRILLER
 BS  .IN            7.875:   BIT SIZE
 BSD .F               675:   BIT SIZE AT DEPTH
 DFT .                KCL:   DRILLING FLUID TYPE
 DFD .                8.7:   DRILLING FLUID DENSITY
 DFV .                 31:   DRILLING FLUID VISCOSITY
 DFPH.                  9:   DRILLING FLUID PH
 TCS .HRS               2:   TIME CURCULATED STOPPED
 LUN .               3006:   LOGGING UNIT NUMBER
 LUL .               CASP:   LOGGING UNIT LOCATION
 ENGI.             MILLER:   RECORDING ENGINEER
 WITN.           MCGINLEY:   WITNESSED BY
 CLNT.            A2DTECH:   CLIENT CODE
 ORIG.           5" PRINT:   ORIGIN OF DATA
 UWI .       490251070400:   UNIQUE WELL ID
 DICO. A2D Technologies, Inc.:   DIGITIZING COMPANY
~OTHER INFORMATION
~A   DEPT     CALD         GRD      RHOB       CORR       DPHI        SPR         SN        ILD   
# ...
  479.0000     7.9509    90.7160     2.4696     0.0319     0.1245   -22.9205     5.3998     5.8144
  479.5000     7.9465    90.6487     2.4689     0.0319     0.1229   -22.9542     5.5013     5.9830
  480.0000     7.9420    90.5052     2.4721     0.0309     0.1210   -22.9878     5.4857     6.0885
  480.5000     7.9375    89.9696     2.4745     0.0289     0.1268   -23.0218     5.4596     6.0465
  481.0000     7.9330    89.8984     2.4609     0.0291     0.1322   -23.0558     5.4008     5.9072
  481.5000     7.9285    89.8301     2.4512     0.0312     0.1375   -23.0652     5.2112     5.7080
  482.0000     7.9239    90.1465     2.4415     0.0319     0.1441   -22.8842     5.0489     5.4128
  482.5000     7.9194    91.3834     2.4318     0.0319     0.1523   -22.7025     4.9615     4.9708
  483.0000     7.9145    95.2589     2.4218     0.0350     0.1582   -22.5215     4.9252     4.9873
  483.5000     7.9287    97.0703     2.4185     0.0402     0.1504   -22.3390     4.9252     5.0153
  484.0000     7.9484    97.1787     2.4211     0.0540     0.1295   -22.2685     4.9252     5.0435
  484.5000     7.9681    96.7100     2.4616     0.0583     0.1097   -22.2522     4.9252     5.0702
  485.0000     7.9882    94.4931     2.4956     0.0499     0.1073   -22.2369     4.9680     5.1364
  485.5000     7.9884    91.6151     2.5013     0.0416     0.1082   -22.2215     5.0168     5.2053
  486.0000     7.9806    88.6613     2.4994     0.0350     0.1090   -22.2059     5.0752     5.3029
  486.5000     7.9726    88.5873     2.4996     0.0301     0.1077   -22.1904     5.1748     5.6869
  487.0000     7.9646    89.7830     2.5006     0.0303     0.1057   -22.1749     5.3310     6.0989
  487.5000     7.9566    89.6186     2.5017     0.0306     0.1056   -22.1594     5.4897     6.6829
  488.0000     7.9486    86.9252     2.5027     0.0310     0.1053   -22.1438     5.6528     6.6766
  488.5000     7.9406    84.3031     2.5038     0.0313     0.1046   -22.1283     5.7900     6.6860
  489.0000     7.9337    83.8920     2.5049     0.0317     0.1042   -22.1128     5.8736     6.7014
  489.5000     7.9338    84.2505     2.5054     0.0319     0.1026   -22.0971     5.9578     6.7103
  490.0000     7.9339    85.0806     2.5041     0.0298     0.1026   -22.0816     6.0434     6.7194
  490.5000     7.9338    84.4556     2.5034     0.0277     0.1038   -22.0848     6.0943     6.7286
  491.0000     7.9339    83.5594     2.5016     0.0256     0.1063   -22.1196     6.1061     6.7377
  491.5000     7.9338    82.6615     2.4980     0.0235     0.1086   -22.1532     6.1179     6.7469
  492.0000     7.9479    81.7620     2.4944     0.0221     0.1116   -22.1868     6.1298     6.7561
  492.5000     7.9737    81.8532     2.4941     0.0256     0.1074   -22.2203     6.1417     6.7653
  493.0000     7.9996    83.9007     2.4965     0.0292     0.1082   -22.2539     6.1536     6.7745
  493.5000     8.0255    86.7158     2.4976     0.0301     0.1119   -22.2875     6.1656     6.7836
  494.0000     8.0515    89.5523     2.4905     0.0302     0.1150   -22.3210     6.1776     6.7929
  494.5000     8.0771    92.3786     2.4831     0.0304     0.1143   -22.3546     6.1896     6.8008
  495.0000     8.0911    95.2220     2.4816     0.0306     0.1136   -22.3882     6.2018     6.8874
  495.5000     8.0808    95.8096     2.4880     0.0308     0.1131   -22.4219     6.1836     6.9797
  496.0000     8.0709    93.2888     2.4899     0.0309     0.1122   -22.4553     6.1652     7.0738
  496.5000     8.0611    89.8223     2.4915     0.0311     0.1114   -22.4718     6.1442     7.1686
  497.0000     8.0625    86.3467     2.4873     0.0313     0.1221   -22.4328     6.1449     7.2560
  497.5000     8.0987    84.0546     2.4725     0.0314     0.1337   -22.3956     5.9351     6.9292
  498.0000     8.1327    82.9525     2.4578     0.0316     0.1325   -22.3587     5.7784     6.5885
  498.5000     8.1447    83.5881     2.4425     0.0317     0.1498   -22.3238     5.6283     6.2649
  499.0000     8.1180    87.0369     2.4164     0.0322     0.1733   -22.3102     5.5514     6.0778
  499.5000     8.1247    91.5846     2.3813     0.0377     0.1879   -21.3382     5.5524     5.9773
  500.0000     8.1407    95.0560     2.3617     0.0619     0.1905   -20.2023     5.5523     5.9773
  500.5000     8.1540    98.0572     2.3740     0.0938     0.1413   -19.3082     5.5523     5.9773
  501.0000     8.1120    97.4370     2.4507     0.1048     0.1072   -18.8180     5.5714     6.0009
  501.5000     8.0668    93.8822     2.5117     0.0978     0.0914   -18.6469     5.5899     6.0336
  502.0000     8.0219    85.7695     2.5383     0.0947     0.0774   -18.7115     5.7323     6.2231
  502.5000     7.9769    82.0603     2.5529     0.0989     0.0800   -18.7900     6.0447     6.7648
  503.0000     7.9320    82.3371     2.5496     0.0985     0.0841   -18.8687     6.3771     7.4104
  503.5000     7.8871    82.1875     2.5457     0.0968     0.0883   -18.9469     6.7268     8.0778
  504.0000     7.8508    81.2024     2.5371     0.0950     0.0925   -19.0251     7.0957     8.3979
  504.5000     7.8415    80.2301     2.5271     0.0933     0.0958   -19.1052     7.3313     8.8058
  505.0000     7.8318    79.5678     2.5210     0.0918     0.0967   -19.1935     7.4599     8.5235
  505.5000     7.8221    79.8036     2.5166     0.0910     0.0970   -19.1828     7.5924     8.1017
  506.0000     7.8124    81.0804     2.5157     0.0902     0.0974   -17.6675     7.7272     8.1029
  506.5000     7.8027    82.0881     2.5105     0.0894     0.1056   -16.5598     7.8646     8.1028
  507.0000     7.7930    80.2380     2.5000     0.0886     0.1138   -16.3844     8.0043     8.2786
  507.5000     7.7833    78.4460     2.4896     0.0878     0.1138   -16.0739     8.1465     8.6875
  508.0000     7.7735    77.3557     2.4886     0.0869     0.1146   -15.2297     8.2907     9.2220
  508.5000     7.7634    76.5844     2.4761     0.0861     0.1265   -14.3913     8.4405     9.9846
  509.0000     7.7549    71.2470     2.4574     0.0853     0.1401   -13.2974     8.6580    10.8101
  509.5000     7.8344    65.4781     2.4506     0.0845     0.1539   -11.5473     8.9290    11.7039
  510.0000     7.9236    59.6226     2.4161     0.0860     0.1713    -9.8190     9.2440    12.5824
  510.5000     7.9749    53.7298     2.3955     0.0981     0.1733    -8.5556     9.5655    13.0807
  511.0000     7.9658    49.2405     2.3674     0.1041     0.2021    -8.0659     9.7855    13.5987
  511.5000     7.9478    47.9667     2.3171     0.1081     0.2208    -6.9308    10.0075    14.1372
  512.0000     7.9301    49.6023     2.3046     0.1327     0.2234    -5.7120    10.2345    14.6971
  512.5000     7.9156    51.4079     2.3038     0.1590     0.2247    -5.1332    10.4343    15.3078
  513.0000     7.9540    52.1746     2.3075     0.1852     0.2172    -4.9904    10.6255    15.2429
  513.5000     7.9915    47.2118     2.3237     0.2079     0.2112    -4.8605    10.8202    15.1576
  514.0000     7.9369    42.8411     2.3258     0.2045     0.2125    -4.7313    11.0188    15.0729
  514.5000     7.8746    39.8764     2.3248     0.2018     0.2104    -4.6010    11.1192    15.0282
  515.0000     7.8540    39.5550     2.3604     0.1990     0.1396    -4.5460    11.1688    15.0282
  515.5000     7.8696    42.8734     2.4086     0.1906     0.1597    -4.5652    11.2187    15.4514
  516.0000     7.9002    45.4226     2.3641     0.1210     0.2042    -4.5845    11.2690    15.9236
  516.5000     7.8661    46.1222     2.3146     0.0822     0.2228    -4.6039    11.3194    16.4103
  517.0000     7.7567    46.3838     2.3038     0.0810     0.2291    -4.6232    11.3701    16.9118
  517.5000     7.7338    46.6313     2.3389     0.1075     0.1770    -4.6425    11.3969    17.4287
  518.0000     7.7165    47.8545     2.4537     0.1317     0.1290    -4.6618    11.3525    17.9613
  518.5000     7.6126    49.2028     2.5036     0.1307     0.0994    -4.6811    11.3225    18.7500
  519.0000     7.5737    49.5023     2.5031     0.0738     0.1106    -4.7005    11.2925    18.6454
