~VERSION INFORMATION
 VERS.                2.0:   CWLS LOG ASCII STANDARD - VERSION 2.0
 WRAP.                 NO:   ONE LINE PER DEPTH STEP
~WELL INFORMATION
#MNEM.UNIT      DATA TYPE    INFORMATION
#----------   ------------   ------------------------------
 STRT.F          750.0000:   START DEPTH
 STOP.F         1490.0000:   STOP DEPTH
 STEP.F            0.5000:   STEP LENGTH
 NULL.          -999.2500:   NO VALUE
 COMP.    FENIX & SCISSON:   COMPANY
 WELL.  53 STX 15 #53 -15:   WELL
 FLD .             TEAPOT:   FIELD
 LOC .      S15 T38N R78W:   LOCATION
 CNTY.            NATRONA:   COUNTY
 STAT.            WYOMING:   STATE
 CTRY. UNITED STATES OF AMERICA:   COUNTRY
 SRVC.              Welex:   SERVICE COMPANY
 DATE.        01-JUN-1980:   LOGDATE
 API .       490251082000:   API NUMBER
~CURVE INFORMATION
#MNEM.UNIT       API CODE    CURVE DESCRIPTION
#----------   ------------   ------------------------------
 DEPT.F                  :   
 CALD.IN     45 280 60 00:   CALIPER
 GRD .GAPI   45 310 01 00:   GAMMA RAY FROM DENSITY LOG
 CORR.G/C3   45 356 01 00:   DENSITY CORRECTION
 RHOB.G/C3   45 350 01 00:   BULK DENSITY
 DPHI.DEC    45 890 12 00:   DENSITY POROSITY SANDSTONE
~PARAMETER INFORMATION
#MNEM.UNIT          VALUE    DESCRIPTION
#----------   ------------   ------------------------------
 PD  .                 GL:   PERMANENT DATUM
 EPD .F              5257:   ELEVATION PERMANENT DATUM
 LMF .                 KB:   LOG MEASURED FROM
 DAPD.F                10:   FEET ABOVE PERMANENT DATUM
 DMF .                 KB:   DRILLING MEASURED FROM
 EKB .F              5267:   KELLING BUSHING
 EGL .F              5257:   GROUND LEVEL
 DATE.             6-1-80:   RUN DATE
 RUN .                  1:   RUN NUMBER
 DD  .F              1498:   DEPTH DRILLER
 DL  .F              1492:   DEPTH LOGGER
 BLI .F              1490:   BOTTOM LOG INTERVAL
 TLI .F               750:   TOP LOG INTERVAL
 CS  .IN            9.625:   CASING SIZE
 CBD .F               772:   CASING BOTTOM DRILLER
 BS  .IN             8.75:   BIT SIZE
 BSD .F              1498:   BIT SIZE AT DEPTH
 DFT .        AIR DRILLED:   DRILLING FLUID TYPE
 TCS .HRS               4:   TIME CURCULATED STOPPED
 MRT .F                88:   MAXIMUM RECORDED TEMPERATURE
 ENGI.               REIN:   RECORDING ENGINEER
 WITN.            RHOADES:   WITNESSED BY
 CLNT.            A2DTECH:   CLIENT CODE
 ORIG.           5" PRINT:   ORIGIN OF DATA
 UWI .       490251082000:   UNIQUE WELL ID
 DICO. A2D Technologies, Inc.:   DIGITIZING COMPANY
~OTHER INFORMATION
~A   DEPT     CALD         GRD      CORR       RHOB       DPHI   
# ...
  811.0000     9.7861    84.3222     0.1445     2.4756     0.0413
  811.5000     9.8163    84.2402     0.1190     2.4430     0.0565
  812.0000     9.8659    84.1617     0.0938     2.4255     0.0758
  812.5000     9.8687    84.0796     0.1028     2.4545     0.0604
  813.0000     9.8472    84.0431     0.1174     2.4849     0.0464
  813.5000     9.8262    84.4791     0.1158     2.4798     0.0360
  814.0000     9.8054    84.9791     0.1137     2.4795     0.0426
  814.5000     9.7844    85.2638     0.1074     2.4914     0.0382
  815.0000     9.7620    85.2583     0.1120     2.5070     0.0207
  815.5000     9.7103    85.0857     0.1155     2.4967     0.0244
  816.0000     9.6597    84.6775     0.1150     2.4892     0.0307
  816.5000     9.6572    84.2727     0.1144     2.4837     0.0351
  817.0000     9.6699    83.8660     0.1139     2.4789     0.0394
  817.5000     9.6826    83.4626     0.1150     2.4850     0.0402
  818.0000     9.6916    83.1367     0.1283     2.4903     0.0348
  818.5000     9.6701    83.4828     0.1365     2.4802     0.0332
  819.0000     9.6486    84.0067     0.1234     2.4519     0.0531
  819.5000     9.6312    84.5320     0.1135     2.4379     0.0687
  820.0000     9.6466    85.0730     0.1099     2.4568     0.0559
  820.5000     9.6701    84.6746     0.1333     2.4843     0.0392
  821.0000     9.6937    83.7530     0.1268     2.4693     0.0446
  821.5000     9.7126    82.8216     0.1155     2.4551     0.0517
  822.0000     9.7061    81.8917     0.0973     2.4560     0.0596
  822.5000     9.6903    81.2145     0.0784     2.4450     0.0552
  823.0000     9.6754    80.5664     0.0668     2.4376     0.0663
  823.5000     9.6193    80.1454     0.0541     2.4290     0.0693
  824.0000     9.5334    80.2985     0.0386     2.4220     0.0769
  824.5000     9.4465    80.4381     0.0251     2.4217     0.0750
  825.0000     9.3518    80.1716     0.0276     2.4198     0.0822
  825.5000     9.2480    79.7428     0.0306     2.4356     0.0717
  826.0000     9.2907    79.3030     0.0476     2.4546     0.0654
  826.5000     9.3334    79.2141     0.0541     2.4634     0.0545
  827.0000     9.3505    79.6645     0.0439     2.4591     0.0505
  827.5000     9.3249    80.2198     0.0452     2.4543     0.0592
  828.0000     9.2929    80.7788     0.0486     2.4717     0.0513
  828.5000     9.2608    81.3211     0.0560     2.4809     0.0406
  829.0000     9.2291    81.2231     0.0624     2.4744     0.0396
  829.5000     9.2187    81.0200     0.0569     2.4690     0.0491
  830.0000     9.2779    80.8135     0.0700     2.4890     0.0411
  830.5000     9.3362    80.7535     0.0753     2.4707     0.0330
  831.0000     9.3939    81.4652     0.0673     2.4632     0.0526
  831.5000     9.4309    82.2219     0.0682     2.4790     0.0455
  832.0000     9.4208    83.0873     0.0744     2.4807     0.0394
  832.5000     9.4108    84.4956     0.0806     2.4667     0.0441
  833.0000     9.4006    85.9014     0.0785     2.4726     0.0489
  833.5000     9.3906    87.1819     0.0728     2.4649     0.0419
  834.0000     9.3935    87.6730     0.0695     2.4523     0.0519
  834.5000     9.3977    88.3002     0.0627     2.4396     0.0653
  835.0000     9.4020    88.9442     0.0536     2.4515     0.0606
  835.5000     9.4065    89.5022     0.0577     2.4548     0.0548
  836.0000     9.4055    89.4866     0.0713     2.4519     0.0574
  836.5000     9.3820    89.8233     0.0733     2.4433     0.0598
  837.0000     9.3695    90.4241     0.0670     2.4301     0.0648
  837.5000     9.3580    91.0221     0.0619     2.4347     0.0726
  838.0000     9.3573    91.6323     0.0576     2.4369     0.0661
  838.5000     9.3791    91.5798     0.0651     2.4254     0.0720
  839.0000     9.4008    91.3788     0.0594     2.4346     0.0778
  839.5000     9.3989    91.0899     0.0513     2.4360     0.0648
  840.0000     9.3782    90.7957     0.0502     2.4239     0.0716
  840.5000     9.3573    90.5028     0.0546     2.4239     0.0782
  841.0000     9.3364    90.2097     0.0590     2.4515     0.0625
  841.5000     9.3138    89.9167     0.0634     2.4573     0.0569
  842.0000     9.2953    89.6217     0.0679     2.4722     0.0528
  842.5000     9.3316    89.5376     0.0677     2.4858     0.0388
  843.0000     9.3778    90.0210     0.0715     2.4845     0.0364
  843.5000     9.4235    90.3064     0.0762     2.4817     0.0378
  844.0000     9.4694    90.6974     0.0809     2.4768     0.0400
  844.5000     9.4849    91.0926     0.0831     2.4709     0.0430
  845.0000     9.4390    91.5026     0.0818     2.4635     0.0468
  845.5000     9.3938    91.5205     0.0794     2.4510     0.0498
  846.0000     9.3494    91.2940     0.0729     2.4609     0.0526
  846.5000     9.3715    91.4269     0.0671     2.4525     0.0588
  847.0000     9.3944    91.8633     0.0569     2.4481     0.0564
  847.5000     9.4105    92.2952     0.0455     2.4257     0.0661
  848.0000     9.3691    92.7254     0.0340     2.4263     0.0766
  848.5000     9.3223    93.1205     0.0309     2.4190     0.0734
  849.0000     9.2583    92.9331     0.0313     2.4119     0.0827
  849.5000     9.1856    92.5798     0.0317     2.4155     0.0848
  850.0000     9.1784    92.2285     0.0321     2.4248     0.0762
  850.5000     9.2800    91.8769     0.0326     2.4387     0.0691
  851.0000     9.3778    91.5254     0.0344     2.4466     0.0620
  851.5000     9.4089    91.1740     0.0414     2.4478     0.0594
  852.0000     9.3031    90.8225     0.0383     2.4419     0.0579
  852.5000     9.3195    90.4704     0.0392     2.4567     0.0659
  853.0000     9.3834    90.1225     0.0479     2.4773     0.0518
  853.5000     9.4313    89.8212     0.0634     2.4938     0.0367
  854.0000     9.4234    89.1264     0.0757     2.5047     0.0278
  854.5000     9.4164    88.5443     0.0861     2.5167     0.0160
  855.0000     9.4095    87.3037     0.0991     2.5080     0.0189
  855.5000     9.4026    86.0702     0.1012     2.4946     0.0259
  856.0000     9.3959    84.8435     0.0912     2.4701     0.0310
  856.5000     9.3893    83.6042     0.0722     2.4472     0.0508
  857.0000     9.3633    83.1468     0.0521     2.4305     0.0661
  857.5000     9.3366    83.4764     0.0379     2.4288     0.0746
  858.0000     9.3090    83.8800     0.0313     2.4467     0.0664
  858.5000     9.2572    84.2860     0.0365     2.4431     0.0592
  859.0000     9.2042    84.6893     0.0465     2.4389     0.0661
  859.5000     9.1516    85.0941     0.0349     2.4467     0.0636
  860.0000     9.1078    85.1467     0.0441     2.4436     0.0596
  860.5000     9.1295    84.8467     0.0532     2.4439     0.0641
  861.0000     9.1873    84.5468     0.0503     2.4568     0.0591
  861.5000     9.2446    84.2483     0.0531     2.4600     0.0534
  862.0000     9.3018    84.0395     0.0633     2.4496     0.0520
  862.5000     9.3501    84.5795     0.0626     2.4456     0.0633
  863.0000     9.3735    85.2685     0.0493     2.4410     0.0604
  863.5000     9.3852    85.9105     0.0449     2.4446     0.0657
  864.0000     9.3994    86.1109     0.0412     2.4388     0.0604
  864.5000     9.4259    86.3237     0.0329     2.4302     0.0656
  865.0000     9.4310    86.5401     0.0226     2.4166     0.0833
  865.5000     9.4307    86.7592     0.0208     2.4277     0.0755
  866.0000     9.4309    86.7041     0.0239     2.4389     0.0723
  866.5000     9.4300    86.6275     0.0328     2.4467     0.0595
  867.0000     9.3603    86.5511     0.0465     2.4331     0.0629
  867.5000     9.2911    86.4726     0.0446     2.4268     0.0763
  868.0000     9.3050    86.6256     0.0402     2.4361     0.0731
  868.5000     9.3119    86.8017     0.0361     2.4303     0.0680
  869.0000     9.3216    86.9734     0.0320     2.4223     0.0738
  869.5000     9.3295    86.7879     0.0279     2.4144     0.0826
  870.0000     9.3538    86.1734     0.0234     2.4408     0.0883
  870.5000     9.3886    85.5641     0.0353     2.4692     0.0518
  871.0000     9.4245    84.9514     0.0484     2.4786     0.0451
  871.5000     9.4665    84.3366     0.0581     2.4895     0.0371
