~VERSION INFORMATION
 VERS.                2.0:   CWLS LOG ASCII STANDARD - VERSION 2.0
 WRAP.                 NO:   ONE LINE PER DEPTH STEP
~WELL INFORMATION
#MNEM.UNIT      DATA TYPE    INFORMATION
#----------   ------------   ------------------------------
 STRT.F            0.0000:   START DEPTH
 STOP.F          446.0000:   STOP DEPTH
 STEP.F            0.5000:   STEP LENGTH
 NULL.          -999.2500:   NO VALUE
 COMP.       F D SERV INC:   COMPANY
 WELL. NAVAL PETROLEUM RESERVE 3 SX-1 #63-5-10:   WELL
 FLD .            WILDCAT:   FIELD
 LOC .      S10 T38N R78W:   LOCATION
 CNTY.            NATRONA:   COUNTY
 STAT.            WYOMING:   STATE
 CTRY. UNITED STATES OF AMERICA:   COUNTRY
 SRVC.     Atlas Wireline:   SERVICE COMPANY
 DATE.        02-FEB-1993:   LOGDATE
 API .       490252257100:   API NUMBER
~CURVE INFORMATION
#MNEM.UNIT       API CODE    CURVE DESCRIPTION
#----------   ------------   ------------------------------
 DEPT.F                  :   
 GRR .GAPI   07 310 01 00:   GAMMA RAY
 RILD.OHMM   07 120 46 00:   INDUCTION LOG DEEP RESISTIVITY
 RILM.OHMM   07 120 44 00:   RESITIVITY LONG MEDIUM
 PORZ.DEC    45 890 12 00:   DENSITY POROSITY SANDSTONE
 ZCOR.G/C3   45 356 01 00:   DENSITY CORRECTION
 ZDEN.G/C3   45 350 01 00:   BULK DENSITY
 NPHI.DEC    42 890 03 00:   NEUTRON POROSITY SANDSTONE
 C13 .IN     45 280 13 00:   CALIPER X
~PARAMETER INFORMATION
#MNEM.UNIT          VALUE    DESCRIPTION
#----------   ------------   ------------------------------
 PD  .                 GL:   PERMANENT DATUM
 EPD .F              5182:   ELEVATION PERMANENT DATUM
 LMF .                 KB:   LOG MEASURED FROM
 DAPD.F                10:   FEET ABOVE PERMANENT DATUM
 DMF .                 KB:   DRILLING MEASURED FROM
 EKB .F              5192:   KELLING BUSHING
 EDF .F              5191:   DRILLING FLOOR
 EGL .F              5182:   GROUND LEVEL
 DATE.        02-FEB-1993:   RUN DATE
 RUN .                  1:   RUN NUMBER
 DD  .F               450:   DEPTH DRILLER
 DL  .F               450:   DEPTH LOGGER
 BLI .F               442:   BOTTOM LOG INTERVAL
 CS  .IN            8.625:   CASING SIZE
 CBD .F                84:   CASING BOTTOM DRILLER
 CBL .F                84:   CASING BOTTOM LOGGER
 BS  .IN            7.875:   BIT SIZE
 BSD .F               450:   BIT SIZE AT DEPTH
 DFT .                AIR:   DRILLING FLUID TYPE
 MRT .F                51:   MAXIMUM RECORDED TEMPERATURE
 LUN .            HL 6274:   LOGGING UNIT NUMBER
 LUL .             CASPER:   LOGGING UNIT LOCATION
 ENGI.       P. RASMUSSEN:   RECORDING ENGINEER
 WITN.          G. STRONG:   WITNESSED BY
 CLNT.            A2DTECH:   CLIENT CODE
 ORIG.           5" PRINT:   ORIGIN OF DATA
 UWI .       490252257100:   UNIQUE WELL ID
 DICO. A2D Technologies, Inc.:   DIGITIZING COMPANY
~OTHER INFORMATION
~A    DEPT      GRR      RILD       RILM       PORZ       ZCOR       ZDEN       NPHI        C13   
# ...
  202.5000   153.4992     7.8388     7.9479     0.1013    -0.0092     2.4837     0.3335     8.2243
  203.0000   153.4902     7.8362     7.9452     0.1013    -0.0078     2.4836     0.3332     8.2235
  203.5000   152.5746     7.8336     7.8878     0.1013    -0.0078     2.4836     0.3335     8.2224
  204.0000   150.1526     7.8309     7.8852     0.1016    -0.0124     2.4836     0.3338     8.2216
  204.5000   149.8445     7.8277     7.8281     0.1037    -0.0169     2.4836     0.3354     8.2207
  205.0000   153.1519     7.8251     7.7178     0.1053    -0.0125     2.4805     0.3378     8.2199
  205.5000   154.6516     7.8225     7.6615     0.1071    -0.0108     2.4752     0.3396     8.2188
  206.0000   154.3409     7.8199     7.6589     0.1129    -0.0202     2.4692     0.3402     8.2029
  206.5000   155.5370     7.7634     7.6036     0.1179    -0.0291     2.4561     0.3402     8.2021
  207.0000   157.9438     7.7072     7.6010     0.1152    -0.0277     2.4548     0.3402     8.2012
  207.5000   155.2180     7.7041     7.6513     0.1111    -0.0202     2.4615     0.3397     8.2001
  208.0000   150.9503     7.7015     7.7019     0.1096    -0.0142     2.4675     0.3373     8.2146
  208.5000   153.1252     7.6990     7.8061     0.1123    -0.0233     2.4668     0.3370     8.2135
  209.0000   156.9999     7.6964     7.8035     0.1159    -0.0293     2.4600     0.3373     8.2127
  209.5000   160.0078     7.6938     7.6936     0.1192    -0.0279     2.4547     0.3379     8.2267
  210.0000   160.9041     7.5325     7.5329     0.1192    -0.0189     2.4531     0.3385     8.2258
  210.5000   161.8004     7.3752     7.2218     0.1163    -0.0130     2.4591     0.3400     8.2250
  211.0000   162.3952     6.9273     6.6913     0.1169    -0.0295     2.4568     0.3422     8.2241
  211.5000   161.1373     6.2851     6.3286     0.1256    -0.0251     2.4290     0.3461     8.2383
  212.0000   161.4706     5.8627     6.0272     0.1373     0.0064     2.3781     0.3554     8.2373
  212.5000   163.8752     5.6580     5.7401     0.1629     0.0169     2.3725     0.3747     8.2364
  213.0000   165.9782     5.5426     5.5429     0.1702     0.0123     2.4236     0.3711     8.2354
  213.5000   164.7629     5.5025     5.5835     0.1524    -0.0028     2.4582     0.3657     8.2498
  214.0000   160.5188     5.4250     5.8542     0.1248    -0.0133     2.4680     0.3573     8.2487
  214.5000   159.0119     5.3486     5.9756     0.1122    -0.0193     2.4702     0.3522     8.2479
  215.0000   157.7966     5.2369     5.8910     0.1098    -0.0239     2.4551     0.3492     8.2468
  215.5000   156.5813     5.1275     5.7680     0.1137    -0.0208     2.4250     0.3513     8.2460
  216.0000   153.5553     5.0200     5.6085     0.1239    -0.0030     2.3512     0.3601     8.2301
  216.5000   151.7367     4.9493     5.4851     0.1480     0.0210     2.3436     0.3801     8.2292
  217.0000   151.4264     4.9135     5.3763     0.1763     0.0375     2.3556     0.3893     8.2131
  217.5000   153.8310     5.0499     5.3745     0.1865     0.0193     2.4105     0.3782     8.2123
  218.0000   160.3339     5.1909     5.4481     0.1682    -0.0151     2.4556     0.3544     8.2114
  218.5000   161.9585     5.3335     5.5218     0.1379    -0.0077     2.4714     0.3420     8.2105
  219.0000   158.6294     5.4815     5.6395     0.1198    -0.0047     2.4782     0.3373     8.2095
  219.5000   152.2859     5.7519     6.0374     0.1093    -0.0048     2.4796     0.3361     8.2087
  220.0000   151.8954     6.0356     6.4236     0.1054    -0.0093     2.4819     0.3352     8.2078
  220.5000   154.3802     6.3773     6.7404     0.1030    -0.0109     2.4833     0.3346     8.2371
  221.0000   151.6544     6.7464     6.9274     0.1015    -0.0109     2.4841     0.3334     8.2513
  221.5000   146.8192     7.0701     7.0705     0.1006    -0.0049     2.4825     0.3328     8.2352
  222.0000   141.9840     7.1174     7.1172     0.1007    -0.0050     2.4787     0.3320     8.2042
  222.5000   143.1820     7.0166     6.7309     0.1019    -0.0080     2.4704     0.3314     8.1730
  223.0000   143.7768     6.6824     6.1921     0.1040    -0.0111     2.4614     0.3305     8.1874
  223.5000   144.1076     6.0629     5.6571     0.1115    -0.0081     2.4282     0.3341     8.2017
  224.0000   152.5053     5.6383     5.2769     0.1239     0.0038     2.4034     0.3438     8.2157
  224.5000   156.7198     5.2023     4.8882     0.1428     0.0173     2.3642     0.3706     8.2299
  225.0000   159.4261     5.0936     4.7531     0.1618     0.0278     2.3725     0.3691     8.2441
  225.5000   162.4341     5.0568     4.9185     0.1714     0.0097     2.4146     0.3555     8.2280
  226.0000   168.4746     5.0551     5.0550     0.1489    -0.0114     2.4454     0.3387     8.2267
  226.5000   163.6212     5.0896     5.2313     0.1212    -0.0189     2.4581     0.3381     8.2110
  227.0000   150.3395     5.2657     5.4139     0.1161    -0.0039     2.4627     0.3414     8.2101
  227.5000   148.2193     5.4872     5.5679     0.1126    -0.0055     2.4686     0.3357     8.2093
  228.0000   149.4173     5.7181     5.9194     0.1078    -0.0115     2.4761     0.3267     8.2235
  228.5000   153.3302     6.0419     6.2546     0.1039    -0.0146     2.4776     0.3222     8.2225
  229.0000   154.8298     6.4283     6.6086     0.1042    -0.0191     2.4760     0.3198     8.2065
  229.5000   152.4057     6.8479     6.9828     0.1057    -0.0207     2.4730     0.3180     8.2057
  230.0000   149.3804     7.2260     7.3272     0.1066    -0.0162     2.4737     0.3172     8.2199
  230.5000   149.6734     7.5824     7.7479     0.1063    -0.0118     2.4767     0.3162     8.2188
  231.0000   151.1731     7.7934     7.9568     0.1042    -0.0103     2.4850     0.3151     8.2180
  231.5000   152.6747     7.8450     8.0095     0.0988    -0.0134     2.4910     0.3139     8.2172
  232.0000   154.7757     7.8963     8.0624     0.0971    -0.0149     2.4932     0.3115     8.2010
  232.5000   152.3516     8.0593     8.1715     0.0956    -0.0149     2.4939     0.3103     8.2155
  233.0000   149.6280     8.1126     8.2256     0.0950    -0.0075     2.4946     0.3121     8.2144
  233.5000   146.9044     8.1663     8.2800     0.0953     0.0015     2.4938     0.3143     8.2135
  234.0000   144.4825     8.2203     8.3341     0.0953     0.0104     2.4916     0.3161     8.2125
  234.5000   138.1388     8.2169     8.3313     0.0962     0.0134     2.4853     0.3151     8.2116
  235.0000   139.6364     8.2142     8.3285     0.1011     0.0194     2.4734     0.3128     8.2108
  235.5000   141.4399     8.2108     8.3837     0.1095     0.0238     2.4644     0.3104     8.2099
  236.0000   141.4291     8.2081     8.3808     0.1179     0.0268     2.4576     0.3110     8.2242
  236.5000   143.2303     8.2053     8.3774     0.1197     0.0297     2.4529     0.3140     8.2231
  237.0000   144.1267     8.2026     8.3746     0.1204     0.0252     2.4523     0.3162     8.2223
  237.5000   145.0230     8.2569     8.3718     0.1189     0.0086     2.4560     0.3174     8.2214
  238.0000   147.7271     8.2541     8.3113     0.1141     0.0041     2.4635     0.3162     8.2203
  238.5000   151.3383     8.3081     8.3085     0.1090     0.0040     2.4725     0.3132     8.2195
  239.0000   152.8380     8.3053     8.3635     0.1056     0.0115     2.4785     0.3099     8.2186
  239.5000   154.0359     8.4183     8.4181     0.1015     0.0130     2.4822     0.3057     8.2178
  240.0000   154.6306     8.4747     8.5327     0.0994     0.0114     2.4867     0.2979     8.2167
  240.5000   151.3015     8.5301     8.6488     0.1000     0.0084     2.4874     0.2976     8.2159
  241.0000   144.3547     8.6462     8.7665     0.0981     0.0038     2.4889     0.2988     8.2150
  241.5000   141.3295     8.7639     8.8859     0.0949    -0.0037     2.4926     0.3000     8.2140
  242.0000   141.6246     8.8218     8.9446     0.0974    -0.0098     2.4941     0.3031     8.2131
  242.5000   140.7692     8.4593     7.6775     0.1208    -0.0158     2.4421     0.3434     8.2123
