~VERSION INFORMATION
 VERS.                2.0:   CWLS LOG ASCII STANDARD - VERSION 2.0
 WRAP.                 NO:   ONE LINE PER DEPTH STEP
~WELL INFORMATION
#MNEM.UNIT      DATA TYPE    INFORMATION
#----------   ------------   ------------------------------
 STRT.F           34.0000:   START DEPTH
 STOP.F          458.0000:   STOP DEPTH
 STEP.F            0.5000:   STEP LENGTH
 NULL.          -999.2500:   NO VALUE
 COMP. FENIX & SCISSON INC:   COMPANY
 WELL.    42 SX 3FO #42-3:   WELL
 FLD .             TEAPOT:   FIELD
 LOC .       S3 T38N R78W:   LOCATION
 CNTY.            NATRONA:   COUNTY
 STAT.            WYOMING:   STATE
 CTRY. UNITED STATES OF AMERICA:   COUNTRY
 SRVC.              Welex:   SERVICE COMPANY
 DATE.        29-JUN-1980:   LOGDATE
 API .       490251081500:   API NUMBER
~CURVE INFORMATION
#MNEM.UNIT       API CODE    CURVE DESCRIPTION
#----------   ------------   ------------------------------
 DEPT.F                  :   
 RHOB.G/C3   45 350 01 00:   BULK DENSITY
 CORR.G/C3   45 356 01 00:   DENSITY CORRECTION
 DPHI.DEC    45 890 12 00:   DENSITY POROSITY SANDSTONE
 GRD .GAPI   45 310 01 00:   GAMMA RAY FROM DENSITY LOG
 CALD.IN     45 280 60 00:   CALIPER
~PARAMETER INFORMATION
#MNEM.UNIT          VALUE    DESCRIPTION
#----------   ------------   ------------------------------
 PD  .                 GL:   PERMANENT DATUM
 EPD .F              5162:   ELEVATION PERMANENT DATUM
 LMF .                 KB:   LOG MEASURED FROM
 DAPD.F                 5:   FEET ABOVE PERMANENT DATUM
 DMF .                 KB:   DRILLING MEASURED FROM
 EKB .F              5167:   KELLING BUSHING
 EGL .F              5162:   GROUND LEVEL
 DATE.            6-29-80:   RUN DATE
 RUN .                  1:   RUN NUMBER
 DD  .F               470:   DEPTH DRILLER
 DL  .F               460:   DEPTH LOGGER
 BLI .F               458:   BOTTOM LOG INTERVAL
 TLI .F                46:   TOP LOG INTERVAL
 CS  .IN                7:   CASING SIZE
 BS  .IN             6.25:   BIT SIZE
 BSD .F               470:   BIT SIZE AT DEPTH
 DFT .        AIR DRILLED:   DRILLING FLUID TYPE
 BHT .F                73:   BOTTOM HOLE TEMPERATURE
 TCS .HRS               2:   TIME CURCULATED STOPPED
 MRT .F                73:   MAXIMUM RECORDED TEMPERATURE
 ENGI.            TOTHILL:   RECORDING ENGINEER
 WITN.              AMEND:   WITNESSED BY
 CLNT.            A2DTECH:   CLIENT CODE
 ORIG.           5" PRINT:   ORIGIN OF DATA
 UWI .       490251081500:   UNIQUE WELL ID
 DICO. A2D Technologies, Inc.:   DIGITIZING COMPANY
~OTHER INFORMATION
~A   DEPT       RHOB      CORR      DPHI         GRD        CALD 
# ...
  339.0000     2.4639     0.1403     0.1408    75.3760     6.3625
  339.5000     2.4487     0.1352     0.1488    77.0294     6.3682
  340.0000     2.4276     0.1253     0.1555    76.8972     6.3739
  340.5000     2.4274     0.1182     0.1535    75.3030     6.3796
  341.0000     2.4358     0.1134     0.1517    75.1585     6.3852
  341.5000     2.4339     0.1088     0.1528    76.2047     6.3909
  342.0000     2.4245     0.1020     0.1571    77.2472     6.3966
  342.5000     2.4106     0.0934     0.1625    77.6267     6.4023
  343.0000     2.4070     0.0847     0.1675    76.4235     6.4079
  343.5000     2.4037     0.0797     0.1664    76.5929     6.4105
  344.0000     2.4051     0.0779     0.1633    77.5775     6.3904
  344.5000     2.4171     0.0816     0.1523    79.5269     6.3702
  345.0000     2.4390     0.0981     0.1384    81.4816     6.3502
  345.5000     2.4686     0.1143     0.1277    81.3806     6.3329
  346.0000     2.4755     0.1302     0.1234    81.9338     6.3393
  346.5000     2.4894     0.1398     0.1145    84.4167     6.3455
  347.0000     2.5066     0.1497     0.1048    86.8940     6.3516
  347.5000     2.5197     0.1567     0.1006    87.0733     6.3576
  348.0000     2.5203     0.1418     0.1057    87.9515     6.3637
  348.5000     2.5059     0.1250     0.1112    89.8064     6.3697
  349.0000     2.5029     0.1095     0.1199    91.6773     6.3828
  349.5000     2.4855     0.0938     0.1308    91.9874     6.4029
  350.0000     2.4574     0.0788     0.1525    90.7980     6.4230
  350.5000     2.4101     0.0584     0.1615    90.3412     6.4430
  351.0000     2.3974     0.0381     0.1712    90.5808     6.4632
  351.5000     2.3949     0.0176     0.1701    90.8323     6.4548
  352.0000     2.4042     0.0259     0.1644    89.5613     6.4198
  352.5000     2.4144     0.0365     0.1603    87.8331     6.3847
  353.0000     2.4181     0.0470     0.1558    86.0967     6.3493
  353.5000     2.4267     0.0574     0.1510    84.3606     6.3334
  354.0000     2.4370     0.0679     0.1448    82.6182     6.3340
  354.5000     2.4426     0.0742     0.1489    80.8439     6.3349
  355.0000     2.4364     0.0773     0.1563    79.6906     6.3359
  355.5000     2.4202     0.0701     0.1638    78.5496     6.3368
  356.0000     2.4041     0.0563     0.1725    77.7567     6.3377
  356.5000     2.3883     0.0448     0.1792    79.2960     6.3386
  357.0000     2.3831     0.0407     0.1769    80.9059     6.3395
  357.5000     2.3940     0.0511     0.1716    83.1781     6.3404
  358.0000     2.4067     0.0643     0.1653    86.0477     6.3413
  358.5000     2.4068     0.0690     0.1695    87.2758     6.3422
  359.0000     2.4006     0.0602     0.1748    86.6540     6.3431
  359.5000     2.3888     0.0517     0.1801    89.7292     6.3440
  360.0000     2.3806     0.0490     0.1809    92.9684     6.3449
  360.5000     2.3879     0.0553     0.1757    95.4254     6.3458
  361.0000     2.3966     0.0614     0.1721    93.8367     6.3467
  361.5000     2.3900     0.0676     0.1771    92.5091     6.3476
  362.0000     2.3931     0.0686     0.1794    92.2680     6.3485
  362.5000     2.3809     0.0686     0.1817    93.7229     6.3495
  363.0000     2.3806     0.0712     0.1841    92.2653     6.3504
  363.5000     2.3787     0.0772     0.1877    90.4117     6.3513
  364.0000     2.3701     0.0822     0.1940    86.8226     6.3522
  364.5000     2.3420     0.0755     0.2066    82.8842     6.3536
  365.0000     2.3085     0.0684     0.2297    80.7122     6.3559
  365.5000     2.2939     0.0768     0.2365    78.9587     6.3582
  366.0000     2.2854     0.0914     0.2336    75.0005     6.3605
  366.5000     2.2905     0.1063     0.2300    70.6768     6.3628
  367.0000     2.3004     0.1144     0.2249    66.8927     6.3651
  367.5000     2.3210     0.1198     0.2149    65.1460     6.3674
  368.0000     2.3438     0.1277     0.2038    64.9643     6.3697
  368.5000     2.3526     0.1489     0.1983    65.9964     6.3719
  369.0000     2.3486     0.1551     0.2004    67.0182     6.3742
  369.5000     2.3533     0.1583     0.2074    67.1991     6.3765
  370.0000     2.3315     0.1358     0.2173    66.9727     6.3788
  370.5000     2.3077     0.1084     0.2292    67.4584     6.3811
  371.0000     2.2903     0.1018     0.2349    68.0299     6.3834
  371.5000     2.2904     0.1003     0.2344    67.6325     6.3857
  372.0000     2.2956     0.0988     0.2339    66.0740     6.3879
  372.5000     2.2911     0.1076     0.2299    64.5168     6.3903
  373.0000     2.3031     0.1234     0.2188    65.3947     6.3928
  373.5000     2.3313     0.1394     0.2062    66.8851     6.3843
  374.0000     2.3479     0.1488     0.1969    67.3827     6.3748
  374.5000     2.3632     0.1568     0.1929    66.6308     6.3652
  375.0000     2.3600     0.1647     0.1879    65.9084     6.3554
  375.5000     2.3752     0.1734     0.1812    66.0256     6.3386
  376.0000     2.3945     0.1822     0.1689    66.9539     6.3184
  376.5000     2.4096     0.1906     0.1589    67.9069     6.2974
  377.0000     2.4220     0.1871     0.1574    69.1140     6.2978
  377.5000     2.4251     0.1823     0.1577    70.4559     6.3048
  378.0000     2.4208     0.1712     0.1679    71.7914     6.3125
  378.5000     2.3876     0.1240     0.1901    73.1367     6.3326
  379.0000     2.3542     0.0816     0.2089    73.3108     6.3541
  379.5000     2.3337     0.0813     0.2059    72.7151     6.3733
  380.0000     2.3381     0.0887     0.2005    74.0987     6.3728
  380.5000     2.3512     0.0895     0.2085    73.3625     6.3727
  381.0000     2.3308     0.0849     0.2103    73.1853     6.3727
  381.5000     2.3269     0.0828     0.2111    73.9025     6.3727
  382.0000     2.3326     0.0847     0.2093    74.6365     6.3727
  382.5000     2.3392     0.0939     0.2062    75.3736     6.3727
  383.0000     2.3458     0.0953     0.2041    76.0987     6.3727
  383.5000     2.3435     0.0994     0.2027    76.3985     6.3727
  384.0000     2.3409     0.1041     0.1993    75.8646     6.3727
  384.5000     2.3515     0.1114     0.1937    76.0644     6.3727
  385.0000     2.3632     0.1209     0.1842    76.4011     6.3727
  385.5000     2.3756     0.1304     0.1732    76.5332     6.3727
  386.0000     2.4059     0.1421     0.1593    76.6655     6.3727
  386.5000     2.4205     0.1567     0.1639    76.6605     6.3727
  387.0000     2.4062     0.1435     0.1702    75.9786     6.3727
  387.5000     2.3969     0.1324     0.1765    75.3220     6.3727
  388.0000     2.3870     0.1303     0.1838    73.7930     6.3728
  388.5000     2.3731     0.1146     0.1914    72.6092     6.3727
  389.0000     2.3586     0.0990     0.1993    72.9962     6.3720
  389.5000     2.3438     0.0904     0.2026    73.3604     6.3680
  390.0000     2.3412     0.0819     0.2029    73.8569     6.3640
  390.5000     2.3570     0.0870     0.1936    74.5601     6.3601
  391.0000     2.3650     0.0902     0.1874    75.2831     6.3561
  391.5000     2.3713     0.0869     0.1820    74.5328     6.3522
  392.0000     2.3902     0.0915     0.1720    74.3721     6.3482
  392.5000     2.4089     0.0926     0.1622    74.8185     6.3443
  393.0000     2.4225     0.0875     0.1532    75.2692     6.3404
  393.5000     2.4301     0.0828     0.1496    75.7144     6.3365
  394.0000     2.4404     0.0784     0.1525    75.7512     6.3318
  394.5000     2.4292     0.0748     0.1629    75.5622     6.3105
  395.0000     2.4110     0.0828     0.1726    76.5114     6.2891
  395.5000     2.3926     0.0909     0.1806    77.4261     6.2681
  396.0000     2.3742     0.0987     0.1865    78.3449     6.2556
  396.5000     2.3684     0.1054     0.1833    79.1414     6.2716
  397.0000     2.3826     0.1119     0.1796    78.3829     6.2867
  397.5000     2.3835     0.1072     0.1760    76.6350     6.3018
  398.0000     2.3890     0.1009     0.1724    75.2840     6.3155
  398.5000     2.3981     0.0945     0.1688    74.5702     6.3269
  399.0000     2.4038     0.0946     0.1679    74.0721     6.3381
  399.5000     2.4045     0.0981     0.1683    72.1807     6.3492
