~VERSION INFORMATION
 VERS.                2.0:   CWLS LOG ASCII STANDARD - VERSION 2.0
 WRAP.                 NO:   ONE LINE PER DEPTH STEP
~WELL INFORMATION
#MNEM.UNIT      DATA TYPE    INFORMATION
#----------   ------------   ------------------------------
 STRT.F            6.0000:   START DEPTH
 STOP.F          495.0000:   STOP DEPTH
 STEP.F            0.5000:   STEP LENGTH
 NULL.          -999.2500:   NO VALUE
 COMP. FENIX & SCISSON INC:   COMPANY
 WELL. FI NPR-3 #65-25 SX3:   WELL
 FLD .  NAVAL RESERVES #3:   FIELD
 LOC .       S3 T38N R78W:   LOCATION
 CNTY.            NATRONA:   COUNTY
 STAT.            WYOMING:   STATE
 CTRY. UNITED STATES OF AMERICA:   COUNTRY
 SRVC.       Schlumberger:   SERVICE COMPANY
 DATE.        22-MAY-1980:   LOGDATE
 API .       490251080300:   API NUMBER
~CURVE INFORMATION
#MNEM.UNIT       API CODE    CURVE DESCRIPTION
#----------   ------------   ------------------------------
 DEPT.F                  :   
 SPR .MV     07 010 01 00:   SPONTANEOUS POTENTIAL
 SFL .OHMM   07 220 01 00:   SHALLOW FOCUSED LOG RESISTIVITY
 ILD .OHMM   07 120 46 00:   INDUCTION LOG DEEP RESISTIVITY
 ILM .OHMM   07 120 44 00:   INDUCTION LOG MEDIUM
 GRD .GAPI   45 310 01 00:   GAMMA RAY FROM DENSITY LOG
 CALD.IN     45 280 60 00:   CALIPER
 DPHI.DEC    45 890 12 00:   DENSITY POROSITY SANDSTONE
 RHOB.G/C3   45 350 01 00:   BULK DENSITY
 CORR.G/C3   45 356 01 00:   DENSITY CORRECTION
 NPHI.DEC    42 890 03 00:   NEUTRON POROSITY SANDSTONE
~PARAMETER INFORMATION
#MNEM.UNIT          VALUE    DESCRIPTION
#----------   ------------   ------------------------------
 PD  .                 GL:   PERMANENT DATUM
 EPD .F              5162:   ELEVATION PERMANENT DATUM
 LMF .                 KB:   LOG MEASURED FROM
 DAPD.F                 4:   FEET ABOVE PERMANENT DATUM
 DMF .                 KB:   DRILLING MEASURED FROM
 EKB .F              5166:   KELLING BUSHING
 EGL .F              5162:   GROUND LEVEL
 DATE.            5-22-80:   RUN DATE
 RUN .                  1:   RUN NUMBER
 DD  .F               500:   DEPTH DRILLER
 DL  .F               498:   DEPTH LOGGER
 BLI .F               492:   BOTTOM LOG INTERVAL
 TLI .F                10:   TOP LOG INTERVAL
 BS  .IN            9.875:   BIT SIZE
 BSD .F               500:   BIT SIZE AT DEPTH
 DFT .                KCL:   DRILLING FLUID TYPE
 DFD .                9.6:   DRILLING FLUID DENSITY
 DFV .                 45:   DRILLING FLUID VISCOSITY
 DFL .                8.9:   DRILLING FLUID LOSS
 MSS .               PITS:   MUD SAMPLE SOURCE
 RMS .OHMM            .21:   RESISTIVITY MUD SAMPLE
 MST .F                76:   MUD SAMPLE TEMPERATURE
 RMF .OHMM            .19:   RESISTIVITY MUD FILTRATE SAMPLE
 MFST.F                76:   MUD FILTRATE SAMPLE TEMPERATURE
 MFSS.               MEAS:   MUD FILTRATE SAMPLE SOURCE
 TLAB.HRS            0845:   TIME LOGGER AT BOTTOM
 LUN .               8035:   LOGGING UNIT NUMBER
 LUL .               CSPR:   LOGGING UNIT LOCATION
 ENGI.           C. DRAKE:   RECORDING ENGINEER
 WITN.              AMEND:   WITNESSED BY
 CLNT.            A2DTECH:   CLIENT CODE
 ORIG.           5" PRINT:   ORIGIN OF DATA
 UWI .       490251080300:   UNIQUE WELL ID
 DICO. A2D Technologies, Inc.:   DIGITIZING COMPANY
~OTHER INFORMATION
~A    DEPT     SPR        SFL        ILD        ILM         GRD       CALD      DPHI       RHOB       CORR        NPHI  
# ...
  140.0000   -83.0933     8.4066     8.7882     6.9628   113.7628    10.1086     0.1247     2.4697     0.0011     0.3002
  140.5000   -82.9811     8.4460     8.7591     6.9413   111.7200    10.1081     0.1224     2.4736    -0.0005     0.2974
  141.0000   -82.8687     8.5185     8.7301     6.9198   108.6910    10.1076     0.1214     2.4748    -0.0015     0.2987
  141.5000   -82.7563     8.5632     8.7012     6.8984   105.6436    10.1070     0.1238     2.4705    -0.0015     0.3023
  142.0000   -82.4748     8.4028     8.6723     6.8767   105.4305    10.1065     0.1267     2.4674    -0.0018     0.3059
  142.5000   -82.0042     8.2864     8.6436     6.8639   106.6911    10.1060     0.1285     2.4629    -0.0023     0.3109
  143.0000   -82.0169     8.1717     8.6150     6.9116   106.7378    10.1054     0.1296     2.4611    -0.0025     0.3066
  143.5000   -82.1741     8.1028     8.5864     6.9467   106.7434    10.1049     0.1319     2.4579    -0.0018     0.3002
  144.0000   -82.3373     8.2036     8.4851     6.9819   107.1964    10.1044     0.1347     2.4537    -0.0009     0.3047
  144.5000   -82.4896     8.3316     8.5365     7.0172   107.6811    10.1039     0.1356     2.4518     0.0001     0.3102
  145.0000   -82.2981     8.4844     8.6007     7.0528   108.1439    10.1033     0.1338     2.4536     0.0039     0.3120
  145.5000   -82.0854     8.3696     8.6654     7.0885   109.4886    10.1028     0.1312     2.4592     0.0104     0.3091
  146.0000   -81.8736     8.2325     8.7306     7.1244   112.0126    10.1023     0.1299     2.4594     0.0163     0.3046
  146.5000   -81.6634     8.1028     8.7963     7.1604   113.3454    10.1017     0.1343     2.4539     0.0102     0.3030
  147.0000   -81.5061     8.2311     8.8854     7.1876   111.0511    10.1012     0.1367     2.4498     0.0034     0.3062
  147.5000   -81.5613     8.3856     8.8242     7.1617   107.1570    10.1022     0.1319     2.4571     0.0016     0.3090
  148.0000   -81.6114     8.5637     8.7316     7.1371   104.2599    10.1097     0.1244     2.4688     0.0058     0.3077
  148.5000   -81.6638     8.4781     8.6398     7.1125   105.3183    10.1172     0.1190     2.4798     0.0096     0.3002
  149.0000   -81.7958     8.3519     8.5490     7.0880   106.5484    10.1247     0.1192     2.4785     0.0086     0.2998
  149.5000   -82.2153     8.2277     8.4592     7.0637   106.5673    10.1322     0.1194     2.4769     0.0077     0.3097
  150.0000   -82.6147     8.1053     8.3703     7.0563   104.7548    10.1399     0.1179     2.4790     0.0076     0.3226
  150.5000   -82.8797     7.9847     8.2824     7.0902   102.0613    10.1322     0.1159     2.4854     0.0084     0.3234
  151.0000   -82.6387     7.8659     8.1954     7.1129   104.4680    10.1230     0.1174     2.4810     0.0093     0.3250
  151.5000   -82.4017     7.7826     8.1028     7.1359   108.6960    10.1139     0.1195     2.4771     0.0105     0.3293
  152.0000   -82.1550     7.7378     8.1028     7.1589   111.5164    10.1048     0.1206     2.4766     0.0117     0.3414
  152.5000   -82.1322     7.8121     8.1028     7.1876   111.5944    10.0957     0.1206     2.4766     0.0103     0.3381
  153.0000   -82.1746     7.8818     8.1028     7.1181   109.3012    10.0866     0.1210     2.4766     0.0054     0.3252
  153.5000   -82.2187     7.7607     8.1028     6.9921   107.1580    10.0810     0.1214     2.4753     0.0004     0.3122
  154.0000   -82.2626     7.5964     8.0285     6.8638   106.1021    10.0810     0.1218     2.4732    -0.0028     0.3070
  154.5000   -82.3352     7.2907     7.7217     6.3828   107.7211    10.0810     0.1229     2.4712     0.0017     0.3275
  155.0000   -82.5724     6.9867     7.4159     5.9927   110.8654    10.0810     0.1254     2.4666     0.0072     0.3453
  155.5000   -82.8106     6.4537     7.1222     5.6264   114.7592    10.0818     0.1299     2.4588     0.0102     0.3645
  156.0000   -83.0576     5.8069     6.8402     5.5013   118.7821    10.0833     0.1364     2.4476     0.0093     0.3678
  156.5000   -82.8991     5.4509     6.5546     5.5335   120.5074    10.0847     0.1458     2.4296     0.0008     0.3661
  157.0000   -82.6408     5.8049     6.4348     5.6950   119.9620    10.0862     0.1516     2.4222    -0.0082     0.3589
  157.5000   -82.3802     6.3281     6.4300     5.8611   117.5758    10.0877     0.1514     2.4253    -0.0105     0.3471
  158.0000   -82.1201     6.8984     6.5487     6.0322   115.0380    10.0891     0.1463     2.4321    -0.0101     0.3353
  158.5000   -81.8612     7.2542     6.8228     6.2018   112.8098    10.0906     0.1406     2.4418    -0.0056     0.3283
  159.0000   -81.5977     7.1872     7.1013     6.3595   111.8433    10.0920     0.1338     2.4508     0.0029     0.3296
  159.5000   -81.6178     7.1886     7.3921     6.5156   109.9220    10.0935     0.1251     2.4660     0.0110     0.3302
  160.0000   -81.8033     7.3050     7.6948     6.6755   108.7527    10.0950     0.1179     2.4770     0.0166     0.3288
  160.5000   -81.9921     7.4197     7.8095     6.8393   106.3871    10.0964     0.1130     2.4858     0.0167     0.3274
  161.0000   -82.1811     7.5355     7.8095     6.9274   105.0447    10.0979     0.1134     2.4855     0.0125     0.3276
  161.5000   -82.3700     7.6668     7.8095     6.8904   104.3374    10.0993     0.1210     2.4747     0.0057     0.3287
  162.0000   -82.5581     7.6022     7.7712     6.8562   105.8835    10.1008     0.1307     2.4602    -0.0014     0.3272
  162.5000   -82.7032     7.5298     7.7159     6.8221   107.4987    10.1023     0.1383     2.4471    -0.0025     0.3246
  163.0000   -82.7003     7.4581     7.6609     6.7882   108.7532    10.1037     0.1375     2.4484     0.0006     0.3212
  163.5000   -82.7002     7.3871     7.6063     6.7545   108.1423    10.1052     0.1318     2.4548     0.0061     0.3186
  164.0000   -82.7007     7.3167     7.5522     6.7049   107.4726    10.1067     0.1259     2.4670     0.0116     0.3194
  164.5000   -82.6959     7.2474     7.4984     6.6019   108.4175    10.1081     0.1238     2.4714     0.0145     0.3226
  165.0000   -82.6112     7.1760     7.4454     6.5007   109.4840    10.1096     0.1270     2.4651     0.0063     0.3219
  165.5000   -82.5213     7.0932     7.3874     6.4008   108.4984    10.1110     0.1356     2.4499    -0.0013     0.3210
  166.0000   -82.7144     7.0112     7.2766     6.2726   106.8965    10.1125     0.1418     2.4403    -0.0035     0.3231
  166.5000   -83.0162     6.7496     7.1396     5.9872   105.7183    10.1140     0.1416     2.4415    -0.0036     0.3271
  167.0000   -83.3240     6.4432     6.9680     5.7154   107.0627    10.1154     0.1395     2.4454    -0.0004     0.3335
  167.5000   -83.6307     6.1506     6.4723     5.3779   107.9465    10.1169     0.1393     2.4421     0.0022     0.3406
  168.0000   -83.8854     5.7482     6.0118     5.0069   106.7701    10.1184     0.1443     2.4311     0.0005     0.3478
  168.5000   -83.6839     5.3405     5.5013     4.6601   101.9258    10.1198     0.1546     2.4088    -0.0008     0.3569
  169.0000   -83.4864     5.0159     5.5153     4.6174    96.2875    10.1203     0.1655     2.3964    -0.0015     0.3672
  169.5000   -83.2906     4.8352     5.5386     4.7908    94.0015    10.1194     0.1697     2.3953    -0.0014     0.3774
  170.0000   -83.0950     5.3411     5.5523     5.0215    95.1459    10.1185     0.1628     2.4181     0.0027     0.3796
  170.5000   -82.8988     5.8976     5.7516     5.2603   102.3890    10.1176     0.1435     2.4457     0.0073     0.3471
  171.0000   -82.7004     6.5117     5.9973     5.5105   105.6979    10.1167     0.1361     2.4547     0.0074     0.3351
  171.5000   -82.5140     6.7766     6.2534     5.7726   108.0443    10.1158     0.1311     2.4633     0.0068     0.3284
  172.0000   -82.8185     6.9743     6.5205     6.0122   110.6628    10.1149     0.1264     2.4690     0.0029     0.3262
  172.5000   -83.1565     7.1778     6.7989     6.2174   112.2599    10.1140     0.1239     2.4701     0.0005     0.3229
  173.0000   -83.4897     7.3873     7.0893     6.4296   110.7695    10.1131     0.1235     2.4709     0.0093     0.3182
