~VERSION INFORMATION
 VERS.                2.0:   CWLS LOG ASCII STANDARD - VERSION 2.0
 WRAP.                 NO:   ONE LINE PER DEPTH STEP
~WELL INFORMATION
#MNEM.UNIT      DATA TYPE    INFORMATION
#----------   ------------   ------------------------------
 STRT.F            1.0000:   START DEPTH
 STOP.F          508.0000:   STOP DEPTH
 STEP.F            0.1000:   STEP LENGTH
 NULL.          -999.2500:   NO VALUE
 COMP.       F D SERV INC:   COMPANY
 WELL. NAVAL PETROLEUM RESERVE 3 SX-1 #83-4-10:   WELL
 FLD .             TEAPOT:   FIELD
 LOC .      S10 T38N R78W:   LOCATION
 CNTY.            NATRONA:   COUNTY
 STAT.            WYOMING:   STATE
 CTRY. UNITED STATES OF AMERICA:   COUNTRY
 SRVC.     Atlas Wireline:   SERVICE COMPANY
 DATE.        26-JAN-1993:   LOGDATE
 API .       490252258300:   API NUMBER
~CURVE INFORMATION
#MNEM.UNIT       API CODE    CURVE DESCRIPTION
#----------   ------------   ------------------------------
 DEPT.F                  :   
 GRR .GAPI   07 310 01 00:   GAMMA RAY
 RILD.OHMM   07 120 46 00:   INDUCTION LOG DEEP RESISTIVITY
 RILM.OHMM   07 120 44 00:   INDUCTION LOG MEDIUM RESISTIVITY
~PARAMETER INFORMATION
#MNEM.UNIT          VALUE    DESCRIPTION
#----------   ------------   ------------------------------
 PD  .                 GL:   PERMANENT DATUM
 EPD .F              5152:   ELEVATION PERMANENT DATUM
 LMF .                 KB:   LOG MEASURED FROM
 DAPD.F                10:   FEET ABOVE PERMANENT DATUM
 DMF .                 KB:   DRILLING MEASURED FROM
 EKB .F              5162:   KELLING BUSHING
 EDF .F              5161:   DRILLING FLOOR
 EGL .F              5152:   GROUND LEVEL
 DATE.        26-JAN-1993:   RUN DATE
 RUN .                  1:   RUN NUMBER
 DD  .F               515:   DEPTH DRILLER
 DL  .F               516:   DEPTH LOGGER
 BLI .F               508:   BOTTOM LOG INTERVAL
 CS  .IN            8.625:   CASING SIZE
 CBD .F                55:   CASING BOTTOM DRILLER
 CBL .F                55:   CASING BOTTOM LOGGER
 BS  .IN            7.875:   BIT SIZE
 BSD .F               515:   BIT SIZE AT DEPTH
 DFT .                AIR:   DRILLING FLUID TYPE
 MRT .F                63:   MAXIMUM RECORDED TEMPERATURE
 LUN .           HL- 6274:   LOGGING UNIT NUMBER
 LUL .             CASPER:   LOGGING UNIT LOCATION
 ENGI.       P. RASMUSSEN:   RECORDING ENGINEER
 WITN.          G. STRONG:   WITNESSED BY
 CLNT.            A2DTECH:   CLIENT CODE
 ORIG.           5" PRINT:   ORIGIN OF DATA
 UWI .       490252258300:   UNIQUE WELL ID
 DICO. A2D Technologies, Inc.:   DIGITIZING COMPANY
~OTHER INFORMATION
~A    DEPT     GRR       RILD       RILM   
# ...
  401.4000   107.3864    22.8037    22.7948
  401.5000   107.8564    22.8030    22.7936
  401.6000   108.1133    22.8024    22.7844
  401.7000   108.4130    22.8017    22.6336
  401.8000   108.4121    22.6826    22.6325
  401.9000   108.5793    22.5478    22.5340
  402.0000   108.7108    22.4863    22.4738
  402.1000   108.7096    22.4856    22.4203
  402.2000   108.7450    22.4571    22.2863
  402.3000   109.0084    22.3292    22.1610
  402.4000   109.0070    22.3285    22.1596
  402.5000   109.0060    22.2124    22.1585
  402.6000   109.0048    22.1733    22.1573
  402.7000   108.7679    22.1727    22.1561
  402.8000   108.3262    22.1721    22.1031
  402.9000   108.0078    22.1714    22.0008
  403.0000   107.1927    22.1657    21.9914
  403.1000   106.4620    22.0171    21.8464
  403.2000   106.0875    22.0166    21.8453
  403.3000   105.9843    21.9243    21.8441
  403.4000   105.9831    21.8635    21.7701
  403.5000   105.9819    21.8628    21.6400
  403.6000   105.9807    21.8361    21.5400
  403.7000   105.9794    21.7063    21.5388
  403.8000   105.9783    21.5603    21.5375
  403.9000   105.9771    21.5597    21.5365
  404.0000   105.9759    21.5591    21.4421
  404.1000   105.9747    21.5585    21.3140
  404.2000   105.9735    21.5113    21.2367
  404.3000   105.9389    21.4086    21.2064
  404.4000   105.3685    21.4040    21.0797
  404.5000   105.1375    21.2596    20.9410
  404.6000   104.8791    21.2591    20.9400
  404.7000   104.6207    21.1709    20.9388
  404.8000   104.3623    21.0451    20.8675
  404.9000   104.1578    20.9649    20.7428
  405.0000   104.1466    20.9643    20.6189
  405.1000   103.8541    20.9604    20.4956
  405.2000   103.8530    20.8184    20.3610
  405.3000   104.2237    20.7121    20.3600
  405.4000   104.7561    20.6737    20.2704
  405.5000   105.2884    20.6089    20.1493
  405.6000   105.8207    20.4864    20.0290
  405.7000   106.9747    20.3876    19.9093
  405.8000   108.5133    20.3843    19.7983
  405.9000   109.9830    20.2457    19.7971
  406.0000   111.2169    20.1428    19.6904
  406.1000   112.0482    20.0231    19.5728
  406.2000   112.5197    19.9041    19.4559
  406.3000   113.0326    19.8273    19.3396
  406.4000   113.2530    19.8049    19.2510
  406.5000   113.3544    19.6872    19.2419
  406.6000   113.6109    19.5529    19.1159
  406.7000   113.8673    19.5525    19.0127
  406.8000   114.1566    19.3941    18.9820
  406.9000   114.1566    19.2825    18.9168
  407.0000   114.3353    19.2420    18.8038
  407.1000   114.4578    19.1276    18.7178
  407.2000   114.5469    19.0139    18.7009
  407.3000   114.8034    18.8838    18.4582
  407.4000   115.0602    18.7887    18.4572
  407.5000   115.6627    18.7525    18.2954
  407.6000   116.0850    18.6385    18.2014
  407.7000   116.5979    18.4936    18.1566
  407.8000   117.1108    18.4541    18.0481
  407.9000   117.4699    18.2382    17.9403
  408.0000   117.5342    18.2376    17.8231
  408.1000   118.0723    18.1461    17.7266
  408.2000   118.0723    18.0383    17.6982
  408.3000   118.0723    17.9853    17.6371
  408.4000   118.2265    17.9484    17.5318
  408.5000   118.4830    17.8417    17.4519
  408.6000   118.6747    17.7365    17.4509
  408.7000   118.7145    17.7359    17.4499
  408.8000   119.2771    17.7355    17.3552
  408.9000   119.2771    17.6644    17.2515
  409.0000   119.6506    17.6121    17.2071
  409.1000   119.8795    17.6116    17.2061
  409.2000   120.0738    17.6884    17.2052
  409.3000   120.4819    17.6874    17.2026
  409.4000   120.4895    17.6864    17.1812
  409.5000   120.7831    17.6853    17.1598
  409.6000   121.0024    17.7739    17.1383
  409.7000   121.0843    17.8064    17.1169
  409.8000   121.0843    17.8054    17.0955
  409.9000   121.1693    17.8393    17.0740
  410.0000   121.3855    17.9273    17.0526
  410.1000   121.0843    17.9261    17.0312
  410.2000   120.7831    17.9250    17.0097
  410.3000   120.5761    17.9242    16.9883
  410.4000   120.1574    17.9232    17.0534
  410.5000   119.5271    17.9222    17.1536
  410.6000   118.6125    17.9212    17.2171
  410.7000   117.3024    17.9202    17.2360
  410.8000   115.6627    17.9191    17.3372
  410.9000   113.7457    17.9182    17.4549
  411.0000   111.6946    17.9172    17.4543
  411.1000   109.9434    17.9162    17.5229
  411.2000   108.7205    17.9152    17.5741
  411.3000   108.0116    17.9142    17.6071
  411.4000   107.5145    17.9132    17.6949
  411.5000   107.2289    17.9121    17.6940
  411.6000   107.2289    17.9113    17.6932
  411.7000   107.2289    17.9103    17.6926
  411.8000   107.2289    17.9093    17.6918
  411.9000   107.2289    17.9083    17.6911
  412.0000   107.2289    17.9073    17.6904
  412.1000   107.2255    17.9063    17.6896
  412.2000   106.9277    17.9052    17.6888
  412.3000   106.9277    17.9043    17.6882
  412.4000   106.9277    17.9033    17.6874
  412.5000   106.9277    17.9023    17.6867
  412.6000   107.0085    17.9013    17.6860
  412.7000   107.2289    17.9004    17.6852
  412.8000   107.2289    17.8993    17.6845
  412.9000   107.2289    17.8984    17.6837
  413.0000   107.2289    17.8974    17.6830
  413.1000   107.2289    17.8964    17.6823
  413.2000   107.2289    17.8954    17.6815
  413.3000   107.2289    17.8944    17.6808
  413.4000   107.2999    17.8934    17.6801
  413.5000   108.1325    17.8923    17.6793
  413.6000   108.3678    17.7950    17.6785
  413.7000   108.8148    17.7670    17.5896
  413.8000   109.3276    17.7067    17.4854
  413.9000   109.7395    17.6424    17.4333
  414.0000   109.9960    17.6414    17.3989
  414.1000   110.2410    17.6405    17.2958
  414.2000   110.2410    17.6393    17.1913
  414.3000   110.2410    17.5483    17.0719
  414.4000   110.2410    17.4442    16.9902
  414.5000   109.9738    17.3940    16.9528
  414.6000   109.5498    17.3930    16.8607
  414.7000   109.2933    17.3745    16.7182
  414.8000   109.0361    17.2710    16.7064
  414.9000   108.4337    17.1507    16.6014
  415.0000   108.2229    17.1500    16.5091
  415.1000   107.9665    17.1490    16.4855
  415.2000   107.5888    17.1481    16.4848
  415.3000   107.2289    17.1171    16.4436
  415.4000   107.2289    17.0155    16.3462
  415.5000   107.2289    16.9093    16.2560
  415.6000   107.2289    16.9084    16.2553
  415.7000   107.2289    16.9075    16.2547
  415.8000   107.2289    16.8470    16.1849
  415.9000   107.2289    16.7470    16.1412
  416.0000   107.2289    16.6722    16.1049
  416.1000   107.2289    16.6713    16.0285
  416.2000   107.2289    16.6702    16.0278
  416.3000   107.2289    16.5811    16.0270
  416.4000   107.2289    16.4828    16.0265
  416.5000   107.2289    16.4383    16.0258
  416.6000   107.2289    16.4374    15.9774
  416.7000   107.1769    16.4169    15.9139
  416.8000   106.9205    16.3194    15.8983
  416.9000   106.6265    16.2085    15.8027
  417.0000   106.4077    16.2077    15.8020
  417.1000   106.1512    16.1422    15.8014
  417.2000   105.8948    16.0464    15.8008
  417.3000   105.5538    15.9821    15.8001
  417.4000   105.0807    15.9667    15.7995
  417.5000   104.8193    15.8701    15.7988
  417.6000   104.2169    15.7595    15.7981
  417.7000   103.3903    15.7588    15.7098
  417.8000   102.2027    15.6995    15.6878
  417.9000   100.9206    15.6063    15.6322
  418.0000   100.0000    15.5395    15.5783
  418.1000    99.9725    15.5386    15.5548
  418.2000    99.6988    15.5377    15.4626
  418.3000    99.6988    15.4518    15.3620
  418.4000    99.5044    15.3601    15.3614
  418.5000    99.3976    15.3215    15.3608
  418.6000    99.3976    15.3206    15.3101
  418.7000    99.4577    15.2987    15.2194
  418.8000    99.7141    15.2079    15.1476
  418.9000   100.0000    15.1073    15.1441
  419.0000   100.0000    15.1066    15.0417
  419.1000   100.3642    15.1057    14.9652
  419.2000   100.8770    15.0573    14.9368
  419.3000   101.4824    14.9680    14.8912
  419.4000   102.2039    14.8955    14.8030
  419.5000   102.7198    14.8946    14.7295
