~VERSION INFORMATION
 VERS.                2.0:   CWLS LOG ASCII STANDARD - VERSION 2.0
 WRAP.                 NO:   ONE LINE PER DEPTH STEP
~WELL INFORMATION
#MNEM.UNIT      DATA TYPE    INFORMATION
#----------   ------------   ------------------------------
 STRT.F           18.0000:   START DEPTH
 STOP.F          647.0000:   STOP DEPTH
 STEP.F            0.5000:   STEP LENGTH
 NULL.          -999.2500:   NO VALUE
 COMP. FENIX & SCISSON INC:   COMPANY
 WELL. NAVAL PETROLEUM RESERVE 3 SX-1 #82-15:   WELL
 FLD .        TEAPOT DOME:   FIELD
 LOC .      S15 T38N R78W:   LOCATION
 CNTY.            NATRONA:   COUNTY
 STAT.            WYOMING:   STATE
 CTRY. UNITED STATES OF AMERICA:   COUNTRY
 SRVC.            Unknown:   SERVICE COMPANY
 DATE.        15-MAR-1979:   LOGDATE
 API .       490251076500:   API NUMBER
~CURVE INFORMATION
#MNEM.UNIT       API CODE    CURVE DESCRIPTION
#----------   ------------   ------------------------------
 DEPT.F                  :   
 SPR .MV     05 010 01 00:   SPONTANEOUS POTENTIAL FROM RES.
 SN  .OHMM   05 040 16 00:   SHORT NORMAL 16"
 IL  .OHMM   05 120 00 00:   INDUCTION LOG
 CALD.IN     45 280 60 00:   CALIPER
 GRD .GAPI   45 310 01 00:   GAMMA RAY FROM DENSITY LOG
 RHOB.G/C3   45 350 01 00:   BULK DENSITY
 DPHI.DEC    45 890 12 00:   DENSITY POROSITY SANDSTONE
 CORR.G/C3   45 356 01 00:   DENSITY CORRECTION
~PARAMETER INFORMATION
#MNEM.UNIT          VALUE    DESCRIPTION
#----------   ------------   ------------------------------
 PD  .                 GL:   PERMANENT DATUM
 EPD .F              5249:   ELEVATION PERMANENT DATUM
 LMF .                 KB:   LOG MEASURED FROM
 DAPD.F                 4:   FEET ABOVE PERMANENT DATUM
 DMF .                 KB:   DRILLING MEASURED FROM
 EKB .F              5253:   KELLING BUSHING
 EGL .F              5249:   GROUND LEVEL
 DATE.            1-15-79:   RUN DATE
 RUN .                  1:   RUN NUMBER
 DD  .F               670:   DEPTH DRILLER
 DL  .F               647:   DEPTH LOGGER
 BLI .F               640:   BOTTOM LOG INTERVAL
 TLI .F                30:   TOP LOG INTERVAL
 CS  .IN            8.625:   CASING SIZE
 CBD .F                40:   CASING BOTTOM DRILLER
 CBL .F                34:   CASING BOTTOM LOGGER
 BS  .IN            7.875:   BIT SIZE
 BSD .F               670:   BIT SIZE AT DEPTH
 DFT .                KCL:   DRILLING FLUID TYPE
 DFD .                8.9:   DRILLING FLUID DENSITY
 DFV .                 44:   DRILLING FLUID VISCOSITY
 DFPH.                8.5:   DRILLING FLUID PH
 DFL .               14.8:   DRILLING FLUID LOSS
 MSS .           FLOWLINE:   MUD SAMPLE SOURCE
 RMS .OHMM            .26:   RESISTIVITY MUD SAMPLE
 MST .F                61:   MUD SAMPLE TEMPERATURE
 RMF .OHMM            .25:   RESISTIVITY MUD FILTRATE SAMPLE
 MFST.F                60:   MUD FILTRATE SAMPLE TEMPERATURE
 RMC .OHMM             .2:   RESISTIVITY MUD CAKE
 MCST.F                60:   MUD CAKE SAMPLE TEMPERATURE
 MFSS.           MEASURED:   MUD FILTRATE SAMPLE SOURCE
 MCSS.           MEASURED:   MUD CAKE SAMPLE SOURCE
 RMB .OHMM            .27:   RESISTIVITY MUD AT BHT
 BHT .F                58:   BOTTOM HOLE TEMPERATURE
 TCS .HRS               5:   TIME CURCULATED STOPPED
 MRT .F                58:   MAXIMUM RECORDED TEMPERATURE
 LUN .               3006:   LOGGING UNIT NUMBER
 LUL .             CASPER:   LOGGING UNIT LOCATION
 ENGI.            ROLLINS:   RECORDING ENGINEER
 WITN.              AMEND:   WITNESSED BY
 CLNT.            A2DTECH:   CLIENT CODE
 ORIG.         2.5" PRINT:   ORIGIN OF DATA
 UWI .       490251076500:   UNIQUE WELL ID
 DICO. A2D Technologies, Inc.:   DIGITIZING COMPANY
~OTHER INFORMATION
~A   DEPT      SPR         SN         IL       CALD         GRD      RHOB       DPHI       CORR   
# ...
  544.5000   -59.0280    12.9330    17.4020     8.5240    77.0930     2.5000     0.1310     0.4460
  545.0000   -59.1030    12.7520    16.7450     8.5030    76.0650     2.4910     0.1450     0.4490
  545.5000   -59.1790    12.5700    16.0880     8.4810    74.3090     2.4670     0.1510     0.4330
  546.0000   -59.2540    12.3890    15.4310     8.4580    72.7490     2.4420     0.1480     0.3300
  546.5000   -59.3290    12.2080    14.8860     8.4430    71.3770     2.4360     0.1590     0.2380
  547.0000   -59.4040    12.0270    15.3120     8.4370    72.3190     2.4450     0.1780     0.1420
  547.5000   -59.4800    11.8450    15.7330     8.4840    74.6920     2.4220     0.1970     0.0710
  548.0000   -59.5550    11.6640    15.6420     8.5690    77.0570     2.3710     0.2160     0.0410
  548.5000   -59.6300    11.4830    15.4440     8.6450    77.8610     2.3220     0.2350     0.0580
  549.0000   -59.7050    11.3020    15.2450     8.7240    77.7690     2.2860     0.2510     0.0580
  549.5000   -59.7810    11.1200    15.0460     8.8020    77.9880     2.2700     0.2500     0.0530
  550.0000   -59.8560    10.9390    14.8470     8.8810    78.5790     2.2730     0.2450     0.0830
  550.5000   -59.9320    10.7580    14.6480     8.9600    79.1310     2.2750     0.2450     0.1290
  551.0000   -60.0070    10.4830    14.3460     9.0340    79.7400     2.2720     0.2560     0.1820
  551.5000   -60.0830    10.5110    14.5150     9.1000    79.7060     2.2650     0.2380     0.1600
  552.0000   -60.1590    10.5710    14.8660     8.9220    78.5620     2.2690     0.2170     0.1100
  552.5000   -60.2320    10.6310    15.1630     8.6560    77.4750     2.3220     0.2000     0.0620
  553.0000   -60.3810    10.6910    14.9210     8.4190    76.2740     2.3540     0.2210     0.0480
  553.5000   -60.6680    10.7510    14.6060     8.4310    75.4520     2.3200     0.2420     0.0700
  554.0000   -60.9510    10.8100    14.2900     8.4560    75.5330     2.2900     0.2430     0.1120
  554.5000   -61.2400    10.8770    13.9750     8.4820    77.1800     2.2770     0.2300     0.1090
  555.0000   -61.5250    10.8310    13.6190     8.4830    79.1110     2.2970     0.2100     0.1050
  555.5000   -61.8070    10.7800    13.7190     8.4170    80.0970     2.3350     0.1970     0.1000
  556.0000   -62.1190    10.7280    13.9180     8.2810    79.1500     2.3490     0.2170     0.0990
  556.5000   -62.3460    10.6780    14.1180     8.1690    79.2040     2.3340     0.2370     0.1290
  557.0000   -62.4260    10.5530    14.3460     8.1420    79.4270     2.3220     0.2580     0.1610
  557.5000   -62.5340    10.4310    14.0710     8.5110    79.7730     2.2880     0.2840     0.1930
  558.0000   -62.6460    10.3080    13.7470     8.6780    79.2280     2.2490     0.2680     0.1680
  558.5000   -62.6890    10.1860    13.4240     8.8570    78.1400     2.2130     0.2430     0.1120
  559.0000   -62.6380    10.0630    13.1010     8.7340    77.8280     2.2470     0.2190     0.0590
  559.5000   -62.5980     9.9180    12.8420     8.5370    80.0730     2.3370     0.1900     0.0770
  560.0000   -62.5550    10.0180    13.3090     8.4300    83.1330     2.3730     0.1690     0.1530
  560.5000   -62.5130    10.1400    13.6970     8.4430    86.0380     2.3480     0.1440     0.2200
  561.0000   -62.4690    10.2630    14.0850     8.4380    88.9050     2.3870     0.1190     0.2890
  561.5000   -62.4300    10.3850    14.3460     8.4410    89.4100     2.4340     0.0930     0.3710
  562.0000   -62.3820    10.5080    13.8790     8.4390    89.2410     2.4800     0.0680     0.3570
  562.5000   -62.3440    10.6780    13.3800     8.4440    87.7780     2.5260     0.0430     0.2950
  563.0000   -62.3210    10.6590    12.6080     8.3940    85.5290     2.5730     0.0640     0.2380
  563.5000   -62.5940    10.6280    12.6530     8.2800    82.2360     2.6190     0.0860     0.1810
  564.0000   -62.8710    10.5960    12.7540     8.2420    80.6830     2.6030     0.1070     0.1220
  564.5000   -63.1600    10.5650    12.8420     8.2560    81.6170     2.5510     0.1290     0.0990
  565.0000   -63.4400    10.5340    12.4690     8.2640    82.1110     2.5000     0.1510     0.0820
  565.5000   -63.7250    10.5030    11.9620     8.2740    80.1960     2.4370     0.1590     0.0720
  566.0000   -64.0090    10.4720    11.4550     8.2830    79.5040     2.4240     0.1720     0.0660
  566.5000   -64.2920    10.4400    10.8770     8.2920    81.8910     2.4070     0.1900     0.0830
  567.0000   -64.5760    10.4090    10.8770     8.3010    84.1010     2.3760     0.2090     0.1640
  567.5000   -64.8600    10.3780    10.8970     8.3110    83.0060     2.3380     0.2210     0.2600
  568.0000   -65.1440    10.3470    10.9160     8.3190    82.3270     2.3230     0.2210     0.3370
  568.5000   -65.4270    10.3140    10.9340     8.3190    82.7890     2.3280     0.1540     0.2790
  569.0000   -65.7120    10.2880    10.9530     8.3210    83.3400     2.4140     0.1080     0.2040
  569.5000   -65.9950    10.2220    10.9720     8.3060    82.5360     2.5040     0.1290     0.1240
  570.0000   -66.2750    10.1680    10.9900     8.2600    80.8740     2.4910     0.1540     0.0590
  570.5000   -66.5760    10.1130    11.0090     8.2130    79.4300     2.4620     0.1790     0.0240
  571.0000   -66.8010    10.0570    11.0280     8.1670    78.3590     2.4290     0.1860     0.0220
  571.5000   -66.9280    10.0010    11.0460     8.1230    79.8340     2.3960     0.1840     0.0250
  572.0000   -67.0740     9.9460    11.0740     8.1210    81.9310     2.3770     0.1840     0.0280
  572.5000   -67.2150     9.8900    11.0210     8.1210    83.3300     2.3780     0.1860     0.0300
  573.0000   -67.3560     9.8350    10.7720     8.1220    83.2390     2.3780     0.1840     0.0330
  573.5000   -67.4990     9.7790    10.5220     8.1230    82.7370     2.3770     0.1780     0.0360
  574.0000   -67.6400     9.7240    10.2720     8.1230    82.9990     2.3880     0.1710     0.0380
  574.5000   -67.7820     9.6690     9.9180     8.1240    83.5530     2.3990     0.1650     0.0330
  575.0000   -67.9240     9.6140     9.9320     8.1250    84.2150     2.4110     0.1590     0.0280
  575.5000   -68.0650     9.5600     9.9550     8.1250    84.3340     2.4230     0.1520     0.0290
  576.0000   -68.2070     9.5730     9.9790     8.1260    83.1590     2.4260     0.1620     0.0370
  576.5000   -68.3490     9.5840    10.0020     8.1270    79.6540     2.4240     0.1620     0.0450
  577.0000   -68.4910     9.5960    10.0250     8.1270    75.2020     2.4220     0.1580     0.0500
  577.5000   -68.6320     9.6090    10.0490     8.1280    76.2680     2.4230     0.1540     0.0490
  578.0000   -68.7740     9.6210    10.0730     8.1280    80.9360     2.4280     0.1500     0.0490
  578.5000   -68.9150     9.6330    10.0960     8.1290    85.0130     2.4330     0.1520     0.0480
  579.0000   -69.0570     9.6460    10.1190     8.1300    89.7140     2.4350     0.1540     0.0480
  579.5000   -69.1990     9.6580    10.1430     8.1300    90.3600     2.4360     0.1550     0.0480
  580.0000   -69.3390     9.6710    10.1660     8.1310    88.6490     2.4370     0.1540     0.0470
  580.5000   -69.4860     9.6830    10.1890     8.1320    85.7830     2.4370     0.1520     0.0470
  581.0000   -69.5920     9.6960    10.2130     8.1320    82.9820     2.4380     0.1510     0.0460
  581.5000   -69.6540     9.7080    10.2370     8.1330    84.0160     2.4380     0.1490     0.0450
  582.0000   -69.7230     9.7200    10.2610     8.1340    86.2020     2.4400     0.1460     0.0430
  582.5000   -69.7900     9.7340    10.2880     8.1340    88.2540     2.4470     0.1430     0.0400
  583.0000   -69.8570     9.7260    10.2610     8.1350    90.0360     2.4510     0.1430     0.0380
  583.5000   -69.9250     9.7070    10.2110     8.1360    89.6660     2.4500     0.1460     0.0360
  584.0000   -69.9920     9.6900    10.1620     8.1360    89.1360     2.4490     0.1460     0.0330
  584.5000   -70.0600     9.6730    10.1140     8.1370    89.4570     2.4490     0.1410     0.0310
