~VERSION INFORMATION
 VERS.                2.0:   CWLS LOG ASCII STANDARD - VERSION 2.0
 WRAP.                 NO:   ONE LINE PER DEPTH STEP
~WELL INFORMATION
#MNEM.UNIT      DATA TYPE    INFORMATION
#----------   ------------   ------------------------------
 STRT.F            0.0000:   START DEPTH
 STOP.F         2758.0000:   STOP DEPTH
 STEP.F            0.5000:   STEP LENGTH
 NULL.          -999.2500:   NO VALUE
 COMP. FENIX & SCISSON INC:   COMPANY
 WELL.       402A #402-20:   WELL
 FLD .             TEAPOT:   FIELD
 LOC .      S20 T39N R78W:   LOCATION
 CNTY.            NATRONA:   COUNTY
 STAT.            WYOMING:   STATE
 CTRY. UNITED STATES OF AMERICA:   COUNTRY
 SRVC.      NL McCullough:   SERVICE COMPANY
 DATE.        15-JUL-1965:   LOGDATE
 API .       490251021100:   API NUMBER
~CURVE INFORMATION
#MNEM.UNIT       API CODE    CURVE DESCRIPTION
#----------   ------------   ------------------------------
 DEPT.F                  :   
 GR  .GAPI   30 310 01 00:   GAMMA RAY
 CALI.IN     70 280 01 00:   CALIPER
~PARAMETER INFORMATION
#MNEM.UNIT          VALUE    DESCRIPTION
#----------   ------------   ------------------------------
 PD  .                 GL:   PERMANENT DATUM
 LMF .                 GL:   LOG MEASURED FROM
 DMF .                 GL:   DRILLING MEASURED FROM
 DATE.            7-15-65:   RUN DATE
 RUN .                  1:   RUN NUMBER
 DL  .F              2759:   DEPTH LOGGER
 BLI .F              2758:   BOTTOM LOG INTERVAL
 TLI .F              2100:   TOP LOG INTERVAL
 CS  .IN                7:   CASING SIZE
 ENGI. FITZSIMMONS/COWLTHORPE:   RECORDING ENGINEER
 WITN.             HUDSON:   WITNESSED BY
 CLNT.            A2DTECH:   CLIENT CODE
 ORIG.           5" PRINT:   ORIGIN OF DATA
 UWI .       490251021100:   UNIQUE WELL ID
 DICO. A2D Technologies, Inc.:   DIGITIZING COMPANY
~OTHER INFORMATION
~A    DEPT      GR         CALI 
# ...
 1822.5000  -999.2500     5.6060
 1823.0000  -999.2500     5.6072
 1823.5000  -999.2500     5.6083
 1824.0000  -999.2500     5.6093
 1824.5000  -999.2500     5.6105
 1825.0000  -999.2500     5.6114
 1825.5000  -999.2500     5.6357
 1826.0000  -999.2500     5.6712
 1826.5000  -999.2500     5.6695
 1827.0000  -999.2500     5.6665
 1827.5000  -999.2500     5.6638
 1828.0000  -999.2500     5.6610
 1828.5000  -999.2500     5.6582
 1829.0000  -999.2500     5.6554
 1829.5000  -999.2500     5.6523
 1830.0000  -999.2500     5.6667
 1830.5000  -999.2500     5.6857
 1831.0000  -999.2500     5.7052
 1831.5000  -999.2500     5.6937
 1832.0000  -999.2500     5.6718
 1832.5000  -999.2500     5.6739
 1833.0000  -999.2500     5.6756
 1833.5000  -999.2500     5.6774
 1834.0000  -999.2500     5.6791
 1834.5000  -999.2500     5.6808
 1835.0000  -999.2500     5.6826
 1835.5000  -999.2500     5.6843
 1836.0000  -999.2500     5.6860
 1836.5000  -999.2500     5.6877
 1837.0000  -999.2500     5.6895
 1837.5000  -999.2500     5.6913
 1838.0000  -999.2500     5.6957
 1838.5000  -999.2500     5.7037
 1839.0000  -999.2500     5.7118
 1839.5000  -999.2500     5.7095
 1840.0000  -999.2500     5.7063
 1840.5000  -999.2500     5.7032
 1841.0000  -999.2500     5.7001
 1841.5000  -999.2500     5.6970
 1842.0000  -999.2500     5.6939
 1842.5000  -999.2500     5.6908
 1843.0000  -999.2500     5.6877
 1843.5000  -999.2500     5.6847
 1844.0000  -999.2500     5.6816
 1844.5000  -999.2500     5.6785
 1845.0000  -999.2500     5.6753
 1845.5000  -999.2500     5.6723
 1846.0000  -999.2500     5.6774
 1846.5000  -999.2500     5.6831
 1847.0000  -999.2500     5.6887
 1847.5000  -999.2500     5.6921
 1848.0000  -999.2500     5.6902
 1848.5000  -999.2500     5.6882
 1849.0000  -999.2500     5.6863
 1849.5000  -999.2500     5.6843
 1850.0000  -999.2500     5.6824
 1850.5000  -999.2500     5.6804
 1851.0000  -999.2500     5.6785
 1851.5000  -999.2500     5.6766
 1852.0000  -999.2500     5.6746
 1852.5000  -999.2500     5.6726
 1853.0000  -999.2500     5.6546
 1853.5000  -999.2500     5.6224
 1854.0000  -999.2500     5.5924
 1854.5000  -999.2500     5.5965
 1855.0000  -999.2500     5.6022
 1855.5000  -999.2500     5.6078
 1856.0000  -999.2500     5.6119
 1856.5000  -999.2500     5.6064
 1857.0000  -999.2500     5.6008
 1857.5000  -999.2500     5.5954
 1858.0000  -999.2500     5.5962
 1858.5000  -999.2500     5.6075
 1859.0000  -999.2500     5.6187
 1859.5000  -999.2500     5.6300
 1860.0000  -999.2500     5.6413
 1860.5000  -999.2500     5.6516
 1861.0000  -999.2500     5.6455
 1861.5000  -999.2500     5.6389
 1862.0000  -999.2500     5.6323
 1862.5000  -999.2500     5.6258
 1863.0000  -999.2500     5.6192
 1863.5000  -999.2500     5.6126
 1864.0000  -999.2500     5.6224
 1864.5000  -999.2500     5.6323
 1865.0000  -999.2500     5.6267
 1865.5000  -999.2500     5.6200
 1866.0000  -999.2500     5.6133
 1866.5000  -999.2500     5.6065
 1867.0000  -999.2500     5.5997
 1867.5000  -999.2500     5.5918
 1868.0000  -999.2500     5.6297
 1868.5000  -999.2500     5.6502
 1869.0000  -999.2500     5.6481
 1869.5000  -999.2500     5.6454
 1870.0000  -999.2500     5.6427
 1870.5000  -999.2500     5.6400
 1871.0000  -999.2500     5.6373
 1871.5000  -999.2500     5.6346
 1872.0000  -999.2500     5.6324
 1872.5000  -999.2500     5.6400
 1873.0000  -999.2500     5.6478
 1873.5000  -999.2500     5.6556
 1874.0000  -999.2500     5.6633
 1874.5000  -999.2500     5.6706
 1875.0000  -999.2500     5.6905
 1875.5000  -999.2500     5.7104
 1876.0000  -999.2500     5.6634
 1876.5000  -999.2500     5.6333
 1877.0000  -999.2500     5.6406
 1877.5000  -999.2500     5.6475
 1878.0000  -999.2500     5.6521
 1878.5000  -999.2500     5.6482
 1879.0000  -999.2500     5.6442
 1879.5000  -999.2500     5.6402
 1880.0000  -999.2500     5.6361
 1880.5000  -999.2500     5.6322
 1881.0000  -999.2500     5.6320
 1881.5000  -999.2500     5.6321
 1882.0000  -999.2500     5.6321
 1882.5000  -999.2500     5.6321
 1883.0000  -999.2500     5.6321
 1883.5000  -999.2500     5.6321
 1884.0000  -999.2500     5.6321
 1884.5000  -999.2500     5.6321
 1885.0000  -999.2500     5.6321
 1885.5000  -999.2500     5.6321
 1886.0000  -999.2500     5.6321
 1886.5000  -999.2500     5.6321
 1887.0000  -999.2500     5.6321
 1887.5000  -999.2500     5.6323
 1888.0000  -999.2500     5.6235
 1888.5000  -999.2500     5.6127
 1889.0000  -999.2500     5.6285
 1889.5000  -999.2500     5.6473
 1890.0000  -999.2500     5.6661
 1890.5000  -999.2500     5.6847
 1891.0000  -999.2500     5.7034
 1891.5000  -999.2500     5.6997
 1892.0000  -999.2500     5.6762
 1892.5000  -999.2500     5.6766
 1893.0000  -999.2500     5.6837
 1893.5000  -999.2500     5.6909
 1894.0000  -999.2500     5.6982
 1894.5000  -999.2500     5.7055
 1895.0000  -999.2500     5.7118
 1895.5000  -999.2500     5.7059
 1896.0000  -999.2500     5.6999
 1896.5000  -999.2500     5.6939
 1897.0000  -999.2500     5.6879
 1897.5000  -999.2500     5.6819
 1898.0000  -999.2500     5.6760
 1898.5000  -999.2500     5.6721
 1899.0000  -999.2500     5.6721
 1899.5000  -999.2500     5.6721
 1900.0000  -999.2500     5.6721
 1900.5000  -999.2500     5.6721
 1901.0000  -999.2500     5.6721
 1901.5000  -999.2500     5.6721
 1902.0000  -999.2500     5.6721
 1902.5000  -999.2500     5.6721
 1903.0000  -999.2500     5.6721
 1903.5000  -999.2500     5.6721
 1904.0000  -999.2500     5.6721
 1904.5000  -999.2500     5.6721
 1905.0000  -999.2500     5.6721
 1905.5000  -999.2500     5.6721
 1906.0000  -999.2500     5.6721
 1906.5000  -999.2500     5.6721
 1907.0000  -999.2500     5.6721
 1907.5000  -999.2500     5.6721
 1908.0000  -999.2500     5.6721
 1908.5000  -999.2500     5.6721
 1909.0000  -999.2500     5.6721
 1909.5000  -999.2500     5.6720
 1910.0000  -999.2500     5.6727
 1910.5000  -999.2500     5.6877
 1911.0000  -999.2500     5.7025
 1911.5000  -999.2500     5.7095
 1912.0000  -999.2500     5.7013
 1912.5000  -999.2500     5.6933
 1913.0000  -999.2500     5.6852
 1913.5000  -999.2500     5.6776
 1914.0000  -999.2500     5.6860
 1914.5000  -999.2500     5.7151
 1915.0000  -999.2500     5.7217
 1915.5000  -999.2500     5.7288
 1916.0000  -999.2500     5.7326
 1916.5000  -999.2500     5.7108
 1917.0000  -999.2500     5.6934
 1917.5000  -999.2500     5.6975
 1918.0000  -999.2500     5.7013
 1918.5000  -999.2500     5.7052
 1919.0000  -999.2500     5.7090
 1919.5000  -999.2500     5.7111
 1920.0000  -999.2500     5.7035
 1920.5000  -999.2500     5.6960
 1921.0000  -999.2500     5.6921
 1921.5000  -999.2500     5.6921
 1922.0000  -999.2500     5.6921
 1922.5000  -999.2500     5.6921
 1923.0000  -999.2500     5.6921
 1923.5000  -999.2500     5.6921
 1924.0000  -999.2500     5.6921
 1924.5000  -999.2500     5.6921
 1925.0000  -999.2500     5.6921
 1925.5000  -999.2500     5.6921
 1926.0000  -999.2500     5.6921
 1926.5000  -999.2500     5.6922
 1927.0000  -999.2500     5.6950
 1927.5000  -999.2500     5.6982
 1928.0000  -999.2500     5.7013
 1928.5000  -999.2500     5.7045
 1929.0000  -999.2500     5.7076
 1929.5000  -999.2500     5.7108
 1930.0000  -999.2500     5.7106
 1930.5000  -999.2500     5.7079
 1931.0000  -999.2500     5.7052
 1931.5000  -999.2500     5.7024
 1932.0000  -999.2500     5.6997
 1932.5000  -999.2500     5.6969
 1933.0000  -999.2500     5.6942
 1933.5000  -999.2500     5.6948
 1934.0000  -999.2500     5.7084
 1934.5000  -999.2500     5.7121
 1935.0000  -999.2500     5.7122
 1935.5000  -999.2500     5.7122
 1936.0000  -999.2500     5.7122
 1936.5000  -999.2500     5.7122
 1937.0000  -999.2500     5.7122
 1937.5000  -999.2500     5.7121
 1938.0000  -999.2500     5.7077
 1938.5000  -999.2500     5.6953
 1939.0000  -999.2500     5.6830
 1939.5000  -999.2500     5.6737
 1940.0000  -999.2500     5.6884
 1940.5000  -999.2500     5.7032
 1941.0000  -999.2500     5.7075
 1941.5000  -999.2500     5.6805
 1942.0000  -999.2500     5.6709
 1942.5000  -999.2500     5.6650
 1943.0000  -999.2500     5.6596
 1943.5000  -999.2500     5.6541
