~VERSION INFORMATION
 VERS.                2.0:   CWLS LOG ASCII STANDARD - VERSION 2.0
 WRAP.                 NO:   ONE LINE PER DEPTH STEP
~WELL INFORMATION
#MNEM.UNIT      DATA TYPE    INFORMATION
#----------   ------------   ------------------------------
 STRT.F           30.0000:   START DEPTH
 STOP.F          562.0000:   STOP DEPTH
 STEP.F            0.5000:   STEP LENGTH
 NULL.          -999.2500:   NO VALUE
 COMP. LAWRENCE/ALLISON INC:   COMPANY
 WELL. NPR 3 #53-16-SX-10:   WELL
 FLD .             TEAPOT:   FIELD
 LOC .      S10 T38N R78W:   LOCATION
 CNTY.            NATRONA:   COUNTY
 STAT.            WYOMING:   STATE
 CTRY. UNITED STATES OF AMERICA:   COUNTRY
 SRVC.      Dresser Atlas:   SERVICE COMPANY
 DATE.        27-AUG-1984:   LOGDATE
 API .       490251098200:   API NUMBER
~CURVE INFORMATION
#MNEM.UNIT       API CODE    CURVE DESCRIPTION
#----------   ------------   ------------------------------
 DEPT.F                  :   
 RILD.OHMM   07 120 46 00:   INDUCTION LOG DEEP RESISTIVITY
 RILM.OHMM   07 120 44 00:   INDUCTION LOG MEDIUM RESISTIVITY
 RFOC.OHMM   07 220 04 00:   RESISTIVITY FOCUSED LOG
 SPR .MV     07 010 01 00:   SPONTANEOUS POTENTIAL
 AC  .US/F   60 520 00 00:   ACOUSTIC SONIC
 DEN .G/C3   45 350 01 00:   COMPENSATED BULK DENSTIY
 CORR.G/C3   45 356 01 00:   DENSITY CORRECTION
 CNC .DEC    42 890 01 00:   NEUTRON POROSITY LIMESTONE
 CALD.IN     45 280 60 00:   CALIPER
 GRD .GAPI   45 310 01 00:   GAMMA RAY FROM DENSITY LOG
 PORD.DEC    45 890 10 00:   POROSITY DENSITY LIMESTONE
~PARAMETER INFORMATION
#MNEM.UNIT          VALUE    DESCRIPTION
#----------   ------------   ------------------------------
 PD  .                 GL:   PERMANENT DATUM
 EPD .F              5199:   ELEVATION PERMANENT DATUM
 LMF .                 GL:   LOG MEASURED FROM
 DMF .                 GL:   DRILLING MEASURED FROM
 EGL .F              5199:   GROUND LEVEL
 DATE.            8-27-84:   RUN DATE
 RUN .                  1:   RUN NUMBER
 DD  .F               550:   DEPTH DRILLER
 DL  .F               549:   DEPTH LOGGER
 BLI .F               547:   BOTTOM LOG INTERVAL
 TLI .F                30:   TOP LOG INTERVAL
 CS  .IN            9.625:   CASING SIZE
 CBD .F                40:   CASING BOTTOM DRILLER
 CBL .F                44:   CASING BOTTOM LOGGER
 BS  .IN            7.875:   BIT SIZE
 BSD .F               550:   BIT SIZE AT DEPTH
 DFT .          KCL/WATER:   DRILLING FLUID TYPE
 MSS .           MUD TANK:   MUD SAMPLE SOURCE
 RMS .OHMM            .28:   RESISTIVITY MUD SAMPLE
 MST .F                78:   MUD SAMPLE TEMPERATURE
 TCS .HRS               4:   TIME CURCULATED STOPPED
 LUN .               4082:   LOGGING UNIT NUMBER
 LUL .          ROOSEVELT:   LOGGING UNIT LOCATION
 ENGI.            FRANCIS:   RECORDING ENGINEER
 WITN.              FIVAS:   WITNESSED BY
 CLNT.            A2DTECH:   CLIENT CODE
 ORIG.       2", 5" PRINT:   ORIGIN OF DATA
 UWI .       490251098200:   UNIQUE WELL ID
 DICO. A2D Technologies, Inc.:   DIGITIZING COMPANY
~OTHER INFORMATION
~A   DEPT     RILD       RILM       RFOC        SPR         AC        DEN       CORR          CNC     CALD         GRD      PORD   
# ...
  396.0000    13.1462    13.6942    14.3420    -8.5686    89.3387     2.4477     0.0789     0.1864     8.5050    89.0827     0.1410
  396.5000    13.0789    13.6942    14.3100    -8.5686    88.9944     2.4653     0.0831     0.1924     8.5050    89.9357     0.1306
  397.0000    13.0119    13.6327    14.2292    -8.5686    88.8031     2.4830     0.0705     0.1935     8.5050    90.7238     0.1210
  397.5000    12.9453    13.5718    14.1488    -8.5686    88.9974     2.4953     0.0602     0.1872     8.5050    90.7425     0.1126
  398.0000    12.8790    13.5112    14.0689    -8.5685    89.1916     2.4995     0.0568     0.1872     8.5050    90.9124     0.1077
  398.5000    12.8209    13.4509    13.9892    -8.5684    89.3512     2.4962     0.0533     0.1899     8.5050    94.0072     0.1064
  399.0000    12.7770    13.3909    13.9096    -8.5691    89.3496     2.4867     0.0569     0.1915     8.5050    97.7279     0.1143
  399.5000    12.7333    13.3311    13.8188    -8.6017    89.0165     2.4818     0.0633     0.1911     8.5050    95.6179     0.1185
  400.0000    12.6897    13.2716    13.9775    -8.6779    88.0923     2.4898     0.0600     0.1891     8.5050    93.2046     0.1146
  400.5000    12.6463    13.1974    14.2184    -8.7536    87.1727     2.4992     0.0524     0.1808     8.5050    91.2187     0.1080
  401.0000    12.6030    13.2223    14.4639    -8.8296    86.2425     2.5089     0.0552     0.1788     8.5050    92.2585     0.1012
  401.5000    12.5599    13.2557    14.6079    -8.9054    86.1386     2.5096     0.0778     0.1861     8.5050    93.2513     0.1018
  402.0000    12.5169    13.2898    14.2582    -8.9813    87.0209     2.5048     0.0804     0.1962     8.5050    94.3884     0.1045
  402.5000    12.4741    13.3194    14.0106    -9.0572    87.9517     2.5012     0.0461     0.2003     8.5050    96.1608     0.1064
  403.0000    12.4314    13.2250    13.7691    -9.1331    88.8824     2.5003     0.0484     0.1926     8.5050    97.8706     0.1074
  403.5000    12.3888    13.1382    13.5630    -9.2091    89.5852     2.4993     0.0530     0.1875     8.5050    99.1752     0.1080
  404.0000    12.3464    13.0520    13.5449    -9.2853    89.7347     2.4981     0.0572     0.1879     8.5050    98.8746     0.1085
  404.5000    12.3042    12.9664    13.5243    -9.3650    89.8404     2.4970     0.0559     0.1916     8.5050    98.6078     0.1090
  405.0000    12.2621    12.8814    13.5042    -9.2670    89.7976     2.4958     0.0543     0.1943     8.5058    98.3479     0.1095
  405.5000    12.1882    12.7969    13.4841    -9.1333    89.7393     2.4946     0.0528     0.1917     8.5078    98.0677     0.1096
  406.0000    12.0892    12.7130    13.4638    -8.9992    89.6811     2.4966     0.0512     0.1872     8.5099    99.0510     0.1080
  406.5000    11.9909    12.6296    13.4435    -8.8655    89.7124     2.4993     0.0497     0.1827     8.5120   100.4834     0.1063
  407.0000    11.8934    12.5467    13.2843    -8.7319    89.8518     2.5018     0.0482     0.1819     8.5140   100.7993     0.1070
  407.5000    11.7968    12.4495    13.1260    -8.5977    89.9913     2.4917     0.0472     0.1859     8.5161   100.3595     0.1133
  408.0000    11.7009    12.3110    12.9696    -8.4629    90.0310     2.4788     0.0472     0.1919     8.5182    99.1880     0.1195
  408.5000    11.6058    12.1741    12.8150    -8.3743    89.9952     2.4691     0.0471     0.1911     8.5203    97.3986     0.1257
  409.0000    11.5115    12.0386    12.6623    -8.5893    89.9602     2.4734     0.0476     0.1858     8.5223    94.0080     0.1240
  409.5000    11.4179    11.9046    12.5115    -8.7995    89.9253     2.4901     0.0588     0.1854     8.5244    91.3831     0.1160
  410.0000    11.3037    11.7739    12.3624    -9.0081    89.8904     2.5068     0.0849     0.1937     8.5265    90.3228     0.1042
  410.5000    11.1245    11.5967    12.2151    -9.2165    89.8556     2.5235     0.0826     0.2004     8.5285    91.1119     0.0936
  411.0000    10.9481    11.3764    12.0696    -9.4250    90.0904     2.5255     0.0473     0.2002     8.5306    95.6231     0.0908
  411.5000    10.7745    11.1603    11.9222    -9.6335    90.4072     2.5156     0.0319     0.1990     8.5326   100.5906     0.0940
  412.0000    10.6037    10.9485    11.7337    -9.8419    91.2048     2.5064     0.0581     0.1993     8.5347   101.7266     0.0992
  412.5000    10.4356    10.7406    11.5435   -10.0504    91.8337     2.5015     0.0615     0.2001     8.5368   100.7008     0.1046
  413.0000    10.2840    10.5370    11.3563   -10.2588    92.1475     2.5003     0.0527     0.2024     8.5389    99.6384     0.1080
  413.5000     9.5122    10.2090    11.1722   -10.4672    92.4613     2.4978     0.0339     0.2056     8.5409   100.1341     0.1080
  414.0000     8.8403     9.8394    10.9911   -10.6773    92.9677     2.4925     0.0182     0.2104     8.5430   103.2107     0.1083
  414.5000     8.1571     9.3713    10.8129   -10.8925    93.5955     2.4883     0.0155     0.2153     8.5451   103.2935     0.1113
  415.0000     7.5268     8.4982    10.6376   -11.1180    94.4174     2.4878     0.0149     0.2200     8.5443   102.8595     0.1150
  415.5000     6.9449     7.7064    10.4651   -11.3429    94.9920     2.4850     0.0299     0.2362     8.5428   105.1732     0.1155
  416.0000     6.4076     6.9879    10.2565   -11.5683    96.9373     2.4727     0.0640     0.2593     8.5414   109.8799     0.1177
  416.5000     5.9141     6.3329     9.3540   -11.7940   100.3832     2.4485     0.0696     0.2701     8.5399   117.9440     0.1299
  417.0000     5.5381     5.9628     7.4787   -12.0203   103.8292     2.4154     0.0645     0.2583     8.5385   127.3305     0.1467
  417.5000     5.6504     6.0203     5.9794   -12.2415   106.4830     2.4111     0.0417     0.2429     8.5370   130.6185     0.1598
  418.0000     5.7941     6.0929     5.2881   -12.3255   106.4830     2.4374     0.0200     0.2291     8.5356   119.8023     0.1510
  418.5000     5.9415     6.3666     6.4360   -12.0670   100.3707     2.4615     0.0033     0.2182     8.5341   108.4560     0.1342
  419.0000     6.0925     6.7953     7.9757   -11.8150    96.0575     2.4853     0.0053     0.2132     8.5327   100.4886     0.1164
  419.5000     6.5062     7.3155     9.8838   -11.5620    93.4639     2.5054     0.0156     0.2081     8.5312   101.3632     0.1072
  420.0000     7.0404     8.1918    11.7232   -11.3091    92.2871     2.5104     0.0351     0.2023     8.5298   100.7263     0.1025
  420.5000     7.6192     9.1720    11.7210   -11.0541    91.4021     2.5066     0.0538     0.1966     8.5284    98.1152     0.1008
  421.0000     8.2455     9.8793    11.0822   -10.7982    90.9954     2.4953     0.0670     0.1948     8.5269    96.2946     0.1069
  421.5000     8.9237    10.1386    11.1528   -10.8584    90.7274     2.4916     0.0637     0.1950     8.5255    98.9380     0.1120
  422.0000     9.6576    10.3977    11.2422   -10.9407    90.5967     2.5004     0.0582     0.1994     8.5240   102.4549     0.1083
  422.5000    10.3808    10.6634    11.3324   -11.0212    90.5965     2.5117     0.0526     0.2051     8.5226   105.9731     0.1015
  423.0000    10.4013    10.8842    11.4235   -11.1014    90.6663     2.5214     0.0475     0.2051     8.5211   108.4842     0.0959
  423.5000    10.4230    10.9384    11.4899   -11.1817    90.7360     2.5269     0.0520     0.2041     8.5197   106.2654     0.0921
  424.0000    10.4448    10.9934    11.4895   -11.2621    90.6889     2.5325     0.0569     0.2027     8.5183   103.8485     0.0883
  424.5000    10.4666    11.0494    11.4902   -11.3412    90.6085     2.5394     0.0566     0.2049     8.5168   101.4060     0.0844
  425.0000    10.5948    11.2107    11.4878   -11.3684    90.4342     2.5421     0.0485     0.2088     8.5154    98.9286     0.0824
  425.5000    10.8037    11.4553    11.9090   -11.3067    90.0274     2.5446     0.0490     0.2108     8.5139    98.3639     0.0808
  426.0000    11.0169    11.7047    12.2224   -11.2466    89.6206     2.5471     0.0512     0.2042     8.5125    99.5699     0.0792
