~VERSION INFORMATION
 VERS.                2.0:   CWLS LOG ASCII STANDARD - VERSION 2.0
 WRAP.                 NO:   ONE LINE PER DEPTH STEP
~WELL INFORMATION
#MNEM.UNIT      DATA TYPE    INFORMATION
#----------   ------------   ------------------------------
 STRT.F          458.0000:   START DEPTH
 STOP.F         2155.0000:   STOP DEPTH
 STEP.F            0.5000:   STEP LENGTH
 NULL.          -999.2500:   NO VALUE
 COMP.   FLUOR DANIEL INC:   COMPANY
 WELL. NAVAL PETROLEUM RESERVE 3 SHX- 1 #33-29:   WELL
 FLD .             TEAPOT:   FIELD
 LOC .      S29 T39N R78W:   LOCATION
 CNTY.            NATRONA:   COUNTY
 STAT.            WYOMING:   STATE
 CTRY. UNITED STATES OF AMERICA:   COUNTRY
 SRVC.            Unknown:   SERVICE COMPANY
 DATE.        29-JUN-1995:   LOGDATE
 API .       490252272500:   API NUMBER
~CURVE INFORMATION
#MNEM.UNIT       API CODE    CURVE DESCRIPTION
#----------   ------------   ------------------------------
 DEPT.F                  :   
 C1  .VF     91 831 01 00:   METHANE
 C2  .VF     91 832 01 00:   ETHANE
 C3  .VF     91 833 01 00:   PROPANE
 C4  .VF     91 834 01 00:   BUTANE
 ROP .FT/HR  91 810 01 00:   RAT OF DRILLING PENETRATION
 TGAS.TC/CC  91 830 01 00:   TOTAL GAS UNIT
~PARAMETER INFORMATION
#MNEM.UNIT          VALUE    DESCRIPTION
#----------   ------------   ------------------------------
 EKB .F              5020:   KELLING BUSHING
 EGL .F              5010:   GROUND LEVEL
 DATE.        29-JUN-1995:   RUN DATE
 RUN .                  1:   RUN NUMBER
 BLI .F              2155:   BOTTOM LOG INTERVAL
 TLI .F               460:   TOP LOG INTERVAL
 ENGI.     C.TOWER/R.HUSK:   RECORDING ENGINEER
 CLNT.            A2DTECH:   CLIENT CODE
 ORIG.           5" PRINT:   ORIGIN OF DATA
 UWI .       490252272500:   UNIQUE WELL ID
 DICO. A2D Technologies, Inc.:   DIGITIZING COMPANY
~OTHER INFORMATION
~A   DEPT       C1         C2         C3         C4          ROP       TGAS 
# ...
  666.0000     7.7333     0.4150     0.2655     0.0000     0.8622    50.7993
  666.5000     7.7218     0.4068     0.2641     0.0000     0.5942    49.8854
  667.0000     7.5229     0.3061     0.2627     0.0000     0.5607    48.9716
  667.5000     7.5115     0.3925     0.2613     0.0000     0.5606    48.0578
  668.0000     7.5969     0.3850     0.2596     0.0000     0.5606    48.0923
  668.5000     7.6762     0.3776     0.2583     0.0000     0.5605    47.1716
  669.0000     7.6619     0.4639     0.2569     0.0000     0.5604    47.2061
  669.5000     7.6523     0.4548     0.2555     0.0000     0.5603    45.3439
  670.0000     7.6391     0.4475     0.2541     0.0000     0.5603    43.4956
  670.5000     7.6277     0.4411     0.2527     0.0000     0.5602    43.5232
  671.0000     7.6162     0.4330     0.3362     0.0000     0.5601    43.5508
  671.5000     7.6055     0.5210     0.3347     0.0000     0.5694    43.5784
  672.0000     7.5934     0.5121     0.3333     0.0000     0.5694    43.6067
  672.5000     7.5810     0.5046     0.3319     0.0000     0.5693    43.6405
  673.0000     7.5703     0.4037     0.3303     0.0000     0.5692    44.6095
  673.5000     7.5563     0.3963     0.3289     0.0000     0.5691    45.5785
  674.0000     7.5469     0.3875     0.3275     0.0000     0.5785    46.5475
  674.5000     7.5335     0.4755     0.3261     0.0000     0.5784    46.5751
  675.0000     7.5221     0.4664     0.4098     0.0000     0.5783    46.6027
  675.5000     7.5107     0.4591     0.4081     0.0000     0.5782    47.5717
  676.0000     7.4992     0.4523     0.4067     0.0000     0.5782    47.5993
  676.5000     7.6758     0.4446     0.4054     0.0000     0.6722    48.5684
  677.0000     7.8516     0.4374     0.4040     0.0000     0.6721    48.5962
  677.5000     7.8398     0.4299     0.4025     0.0000     0.6721    48.6245
  678.0000     7.8281     0.4224     0.4860     0.0000     0.6720    49.5995
  678.5000     7.8143     0.5084     0.4842     0.0000     0.6719    50.5685
  679.0000     7.9922     0.4998     0.4829     0.0000     0.6718    50.5961
  679.5000     7.9790     0.6794     0.4815     0.0000     0.6718    50.6237
  680.0000     7.9676     0.6722     0.4801     0.0000     0.6717    50.6513
  680.5000     7.9561     0.7584     0.5638     0.0000     0.5586    51.6203
  681.0000     7.9447     0.7511     0.5621     0.0000     0.5397    51.6479
  681.5000     7.9333     0.8374     0.6455     0.0000     0.5396    51.6755
  682.0000     7.9219     0.8299     0.7288     0.0000     0.5395    51.7031
  682.5000     7.9102     0.8084     0.7274     0.0000     0.5395    51.7937
  683.0000     7.8962     0.7201     0.7257     0.0000     0.5394    52.8514
  683.5000     7.8848     0.7129     0.8094     0.0000     0.5299    53.6757
  684.0000     7.8734     0.7056     0.8077     0.0000     0.6051    53.7033
  684.5000     7.8633     0.6049     0.8914     0.0000     0.6239    53.7309
  685.0000     8.0381     0.5976     0.8897     0.0000     0.6144    53.7585
  685.5000     8.0273     0.4969     0.8883     0.0000     0.6049    54.7275
  686.0000     8.0152     0.3961     0.8870     0.0000     0.6048    52.8745
  686.5000     8.0038     0.3860     0.8008     0.0000     0.5953    47.2536
  687.0000     7.9922     0.2879     0.5452     0.0000     0.5953    41.6327
  687.5000     7.9805     0.1856     0.3602     0.0000     0.5952    39.7705
  688.0000     7.9688     0.1783     0.2031     0.0000     0.5951    36.9807
  688.5000     7.9553     0.1710     0.1170     0.0000     0.5950    37.0083
  689.0000     7.9439     0.1637     0.0309     0.0000     0.5949    37.0359
  689.5000     7.9336     0.2505     0.0295     0.0000     0.5949    37.0638
  690.0000     7.9219     0.2430     0.0281     0.0000     0.5948    37.0921
  690.5000     7.9096     0.2355     0.0268     0.0000     0.5947    37.1256
  691.0000     7.8982     0.2280     0.0254     0.0000     0.5946    37.1532
  691.5000     7.8867     0.2206     0.0240     0.0000     0.5946    37.1768
  692.0000     7.8750     0.2131     0.0226     0.0000     0.5945    37.2084
  692.5000     7.8633     0.2044     0.0212     0.0000     0.5944    38.1774
  693.0000     7.8516     0.1981     0.0195     0.0000     0.5943    38.2050
  693.5000     7.8398     0.1899     0.0181     0.0000     0.5942    39.1741
  694.0000     7.8269     0.1832     0.0168     0.0000     0.7260    40.1431
  694.5000     7.8164     0.1753     0.0154     0.0000     0.7259    40.1707
  695.0000     7.8047     0.1680     0.0140     0.0000     0.7258    41.1402
  695.5000     7.7926     0.1607     0.0126     0.0000     0.7163    41.1684
  696.0000     7.9688     0.1533     0.0113     0.0000     0.7163    41.2018
  696.5000     7.9570     0.1444     0.0099     0.0000     0.7162    41.2294
  697.0000     7.9453     0.0437     0.0085     0.0000     0.7169    40.3087
  697.5000     7.9336     0.0364     0.0071     0.0000     0.7254    39.4018
  698.0000     7.9202     0.0291     0.0054     0.0000     0.7253    39.4294
  698.5000     7.9088     0.0218     0.0040     0.0000     0.7253    39.4570
  699.0000     7.7099     0.0146     0.0026     0.0000     0.7252    39.4846
  699.5000     7.6992     0.1009     0.0013     0.0000     0.7251    40.4536
  700.0000     7.6875     0.0000     0.0002     0.0000     0.6146    40.4812
  700.5000     7.6756     0.0000     0.0002     0.0000     0.5836    38.5983
  701.0000     7.6641     0.0760     0.0002     0.0000     0.5928    39.5397
  701.5000     7.6523     0.0646     0.0002     0.0000     0.6019    38.5983
  702.0000     7.6385     0.0555     0.0001     0.0000     0.6017    38.5983
  702.5000     7.6271     0.1402     0.0001     0.0000     0.6014    38.5983
  703.0000     7.6157     0.1308     0.0001     0.0000     0.5918    37.6569
  703.5000     7.6043     0.1215     0.0001     0.0000     0.5916    36.7155
  704.0000     7.5938     0.1103     0.0000     0.0000     0.5819    36.7155
  704.5000     7.5814     0.1012     0.0000     0.0000     0.5817    36.7155
  705.0000     7.5703     0.0921     0.0000     0.0000     0.5814    36.7155
  705.5000     7.5586     0.0830     0.0000     0.0000     0.5812    36.7155
  706.0000     7.5469     0.0748     0.0000     0.0000     0.5810    36.7155
  706.5000     7.5352     0.0654     0.0000     0.0000     0.5995    37.6569
  707.0000     7.5215     0.0557     0.0000     0.0000     0.5993    37.6569
  707.5000     7.5117     0.0467     0.0000     0.0000     0.6932    37.6569
  708.0000     7.4987     0.0374     0.0000     0.0000     0.7590    37.6569
  708.5000     7.4863     0.0280     0.0000     0.0000     0.7587    37.6569
  709.0000     7.4766     0.0170     0.0000     0.0000     0.7490    37.6569
  709.5000     7.4644     0.0079     0.0000     0.0000     0.7488    38.5983
  710.0000     7.4530     0.0008     0.0002     0.0000     0.7486    38.5983
  710.5000     7.4414     0.0000     0.0008     0.0000     0.7389    38.5983
  711.0000     7.4297     0.0000     0.0014     0.0000     0.7387    37.6569
  711.5000     7.4159     0.0000     0.0020     0.0000     0.7290    37.6569
  712.0000     7.4045     0.0000     0.0026     0.0000     0.7288    37.6569
  712.5000     7.5834     0.0000     0.0032     0.0000     0.7285    37.6569
  713.0000     7.5703     0.0000     0.0038     0.0000     0.7283    37.6569
  713.5000     7.5577     0.0000     0.0044     0.0000     0.6904    37.6569
  714.0000     7.5463     0.0000     0.0050     0.0000     0.6525    37.6569
  714.5000     7.4780     0.0000     0.0056     0.0000     0.6523    37.6569
  715.0000     7.3350     0.0000     0.0062     0.0000     0.6521    37.6569
  715.5000     7.3242     0.0000     0.0065     0.0000     0.6518    37.6569
  716.0000     7.3125     0.0765     0.0061     0.0000     0.6516    37.6569
  716.5000     7.4893     0.0651     0.0056     0.0000     0.6514    37.6569
  717.0000     7.4766     0.0561     0.0051     0.0000     0.6511    38.5983
  717.5000     7.4636     0.1403     0.0047     0.0000     0.6414    40.4812
