~VERSION INFORMATION
 VERS.                2.0:   CWLS LOG ASCII STANDARD - VERSION 2.0
 WRAP.                 NO:   ONE LINE PER DEPTH STEP
~WELL INFORMATION
#MNEM.UNIT      DATA TYPE    INFORMATION
#----------   ------------   ------------------------------
 STRT.F           30.0000:   START DEPTH
 STOP.F         2441.0000:   STOP DEPTH
 STEP.F            0.5000:   STEP LENGTH
 NULL.          -999.2500:   NO VALUE
 COMP. FENIX & SCISSON INC:   COMPANY
 WELL.      NPR 3 #81 S-4:   WELL
 FLD .             TEAPOT:   FIELD
 LOC .       S4 T38N R78W:   LOCATION
 CNTY.            NATRONA:   COUNTY
 STAT.            WYOMING:   STATE
 CTRY. UNITED STATES OF AMERICA:   COUNTRY
 SRVC.            Unknown:   SERVICE COMPANY
 DATE.        28-MAR-1978:   LOGDATE
 API .       490251060700:   API NUMBER
~CURVE INFORMATION
#MNEM.UNIT       API CODE    CURVE DESCRIPTION
#----------   ------------   ------------------------------
 DEPT.F                  :   
 CALD.IN     45 280 60 00:   CALIPER
 RHOB.G/C3   45 350 01 00:   BULK DENSITY
 DPHI.DEC    45 890 12 00:   DENSITY POROSITY SANDSTONE
 CORR.G/C3   45 356 01 00:   DENSITY CORRECTION
 GRD .GAPI   45 310 01 00:   GAMMA RAY FROM DENSITY LOG
~PARAMETER INFORMATION
#MNEM.UNIT          VALUE    DESCRIPTION
#----------   ------------   ------------------------------
 PD  .                 GL:   PERMANENT DATUM
 EPD .F              5169:   ELEVATION PERMANENT DATUM
 LMF .                 KB:   LOG MEASURED FROM
 DAPD.F                10:   FEET ABOVE PERMANENT DATUM
 DMF .                 KB:   DRILLING MEASURED FROM
 EKB .F              5179:   KELLING BUSHING
 EGL .F              5169:   GROUND LEVEL
 DATE.          3-28-1978:   RUN DATE
 RUN .                  1:   RUN NUMBER
 DD  .F              2454:   DEPTH DRILLER
 DL  .F              2443:   DEPTH LOGGER
 BLI .F              2441:   BOTTOM LOG INTERVAL
 TLI .F                40:   TOP LOG INTERVAL
 CS  .IN            9.625:   CASING SIZE
 CBD .F               660:   CASING BOTTOM DRILLER
 CBL .F               660:   CASING BOTTOM LOGGER
 BS  .IN             8.75:   BIT SIZE
 BSD .F              2454:   BIT SIZE AT DEPTH
 DFT .           AIR MIST:   DRILLING FLUID TYPE
 TCS .HRS               2:   TIME CURCULATED STOPPED
 LUN .               2958:   LOGGING UNIT NUMBER
 LUL .               CASP:   LOGGING UNIT LOCATION
 ENGI.             MILLER:   RECORDING ENGINEER
 CLNT.            A2DTECH:   CLIENT CODE
 ORIG.       2"  5" PRINT:   ORIGIN OF DATA
 UWI .       490251060700:   UNIQUE WELL ID
 DICO. A2D Technologies, Inc.:   DIGITIZING COMPANY
~OTHER INFORMATION
~A   DEPT     CALD       RHOB       DPHI       CORR        GRD   
# ...
 2409.0000     9.2564     2.5250     0.0790     0.0174   133.9520
 2409.5000     9.2477     2.5359     0.0720     0.0203   135.1477
 2410.0000     9.2414     2.5461     0.0651     0.0303   131.3007
 2410.5000     9.2437     2.5467     0.0651     0.0366   127.8778
 2411.0000     9.2457     2.5456     0.0696     0.0381   126.8036
 2411.5000     9.2478     2.5399     0.0748     0.0397   125.7759
 2412.0000     9.2499     2.5238     0.0786     0.0414   126.9660
 2412.5000     9.2519     2.4888     0.0948     0.0362   126.9906
 2413.0000     9.2540     2.4643     0.1061     0.0073   125.4204
 2413.5000     9.2560     2.5049     0.0859    -0.0060   123.9061
 2414.0000     9.2581     2.5389     0.0679     0.0412   122.5824
 2414.5000     9.2601     2.5419     0.0658     0.0483   122.7174
 2415.0000     9.2649     2.5520     0.0718     0.0604   123.4022
 2415.5000     9.2710     2.5136     0.0875     0.0699   124.0732
 2416.0000     9.2758     2.4900     0.0815     0.0268   124.4768
 2416.5000     9.2618     2.5146     0.0862     0.0121   123.6916
 2417.0000     9.5085     2.5207     0.0862     0.0087   122.9310
 2417.5000    10.6030     2.5143     0.0823     0.0043   122.2436
 2418.0000    11.1128     2.5305     0.0772     0.0040   122.7252
 2418.5000     9.1777     2.5207     0.0723     0.0078   123.8174
 2419.0000     9.2355     2.5322     0.0858     0.0114   124.9603
 2419.5000     9.2501     2.5069     0.0986     0.0082   127.1336
 2420.0000     9.2474     2.4908     0.1006    -0.0088   129.4961
 2420.5000     9.2420     2.5172     0.0852    -0.0094   130.5158
 2421.0000     9.2365     2.5318     0.0718    -0.0026   129.7778
 2421.5000     9.2311     2.5435     0.0650     0.0042   129.0071
 2422.0000     9.2256     2.5541     0.0599     0.0110   129.8925
 2422.5000     9.2211     2.5442     0.0666     0.0087   132.2930
 2423.0000     9.2289     2.5320     0.0738     0.0016   134.3452
 2423.5000     9.2380     2.5300     0.0730    -0.0020   135.2283
 2424.0000     9.2472     2.5444     0.0655     0.0055   134.0247
 2424.5000     9.2563     2.5570     0.0562     0.0141   132.5132
 2425.0000     9.2558     2.5645     0.0552     0.0171   131.7334
 2425.5000     9.2452     2.5620     0.0556     0.0194   132.0613
 2426.0000     9.2346     2.5604     0.0579     0.0216   132.5274
 2426.5000     9.2236     2.5615     0.0603     0.0179   131.7914
 2427.0000     9.2202     2.5544     0.0624     0.0133   130.7541
 2427.5000     9.2169     2.5457     0.0663    -0.0021   130.5675
 2428.0000     9.2137     2.5415     0.0599    -0.0002   131.2409
 2428.5000     9.2105     2.5335     0.0786     0.0012   131.9565
 2429.0000     9.2074     2.5385     0.0840     0.0047   132.6786
 2429.5000     9.2049     2.5513     0.0558     0.0251   132.7222
 2430.0000     9.1964     2.5656     0.0515     0.0470   132.4096
 2430.5000     9.0775     2.5550     0.0623     0.0606   132.0840
 2431.0000     8.9579     2.5523     0.0559     0.0729   131.7458
 2431.5000     8.8385     2.5539     0.0700     0.0773   133.8128
 2432.0000     8.2630     2.5348     0.0727     0.0820   137.1840
 2432.5000     8.2249     2.5396     0.0552     0.0916   139.9020
 2433.0000     8.2482     2.5764     0.0403     0.1225   137.9674
 2433.5000     8.2739     2.5810     0.0484     0.1534   136.0721
 2434.0000     8.2835     2.5531     0.0611     0.1537   135.4710
 2434.5000     8.2440     2.5288     0.0735     0.1549   139.1122
 2435.0000     8.2034     2.5232     0.0802     0.1300   135.4394
 2435.5000     8.1174     2.5318     0.0703     0.1373   131.8753
 2436.0000     7.9547     2.5380     0.0589     0.1307   131.3283
 2436.5000     7.8243     2.5610     0.0474     0.1346   130.9513
 2437.0000     7.6259     2.5860     0.0409     0.1688   130.4167
 2437.5000     7.3224     2.5856     0.0398     0.1784   135.1535
 2438.0000     7.2305     2.5794     0.0461     0.2006  -999.2500
 2438.5000     6.4727     2.5409     0.0644     0.2220  -999.2500
 2439.0000     6.4961     2.4618     0.0892     0.2245  -999.2500
 2439.5000     6.4891     2.4192     0.1139     0.2290  -999.2500
 2440.0000     6.4745     2.3495     0.1386     0.2295  -999.2500
 2440.5000     6.2330     2.2803     0.1633     0.2199  -999.2500
 2441.0000     5.8567     2.2820     0.1856     0.2116  -999.2500
