~VERSION INFORMATION
 VERS.                2.0:   CWLS LOG ASCII STANDARD - VERSION 2.0
 WRAP.                 NO:   ONE LINE PER DEPTH STEP
~WELL INFORMATION
#MNEM.UNIT      DATA TYPE    INFORMATION
#----------   ------------   ------------------------------
 STRT.F           19.5000:   START DEPTH
 STOP.F          690.5000:   STOP DEPTH
 STEP.F            0.5000:   STEP LENGTH
 NULL.          -999.2500:   NO VALUE
 COMP. FENIX & SCISSON INC:   COMPANY
 WELL. 37-22 SX 11 WI #3-11:   WELL
 FLD .             TEAPOT:   FIELD
 LOC .      S11 T38N R78W:   LOCATION
 CNTY.            NATRONA:   COUNTY
 STAT.            WYOMING:   STATE
 CTRY. UNITED STATES OF AMERICA:   COUNTRY
 SRVC.      Dresser Atlas:   SERVICE COMPANY
 DATE.        11-AUG-1980:   LOGDATE
 API .       490251084400:   API NUMBER
~CURVE INFORMATION
#MNEM.UNIT       API CODE    CURVE DESCRIPTION
#----------   ------------   ------------------------------
 DEPT.F                  :   
 SPR .MV     07 010 01 00:   SPONTANEOUS POTENTIAL
 SFL .OHMM   07 220 01 00:   SHALLOW FOCUSED LOG RESISTIVITY
 ILD .OHMM   07 120 46 00:   INDUCTION LOG DEEP
 ILM .OHMM   07 120 44 00:   INDUCTION LOG MEDIUM
 GRD .GAPI   45 310 01 00:   GAMMA RAY FROM DENSITY LOG
 CALD.IN     45 280 60 00:   CALIPER
 CORR.G/C3   45 356 01 00:   DENSITY CORRECTION
 RHOB.G/C3   45 350 01 00:   BULK DENSITY
 NPHI.DEC    42 890 12 00:   NEUTRON POROSITY SANDSTONE
 DPHI.DEC    45 890 12 00:   DENSITY POROSITY SANDSTONE
~PARAMETER INFORMATION
#MNEM.UNIT          VALUE    DESCRIPTION
#----------   ------------   ------------------------------
 PD  .                 GL:   PERMANENT DATUM
 EPD .F              5191:   ELEVATION PERMANENT DATUM
 LMF .                 KB:   LOG MEASURED FROM
 DAPD.F                 5:   FEET ABOVE PERMANENT DATUM
 DMF .                 KB:   DRILLING MEASURED FROM
 EKB .F              5196:   KELLING BUSHING
 EGL .F              5191:   GROUND LEVEL
 DATE.            8-11-80:   RUN DATE
 RUN .                  1:   RUN NUMBER
 DD  .F               680:   DEPTH DRILLER
 DL  .F               689:   DEPTH LOGGER
 BLI .F               687:   BOTTOM LOG INTERVAL
 TLI .F                20:   TOP LOG INTERVAL
 CS  .IN            8.625:   CASING SIZE
 BS  .IN            7.875:   BIT SIZE
 BSD .F               680:   BIT SIZE AT DEPTH
 DFT .           CHEM GEL:   DRILLING FLUID TYPE
 DFD .                9.9:   DRILLING FLUID DENSITY
 DFV .                 52:   DRILLING FLUID VISCOSITY
 DFPH.               11.5:   DRILLING FLUID PH
 DFL .                104:   DRILLING FLUID LOSS
 MSS .           FLOWLINE:   MUD SAMPLE SOURCE
 RMS .OHMM             .2:   RESISTIVITY MUD SAMPLE
 MST .F                74:   MUD SAMPLE TEMPERATURE
 RMF .OHMM            .15:   RESISTIVITY MUD FILTRATE SAMPLE
 MFST.F                74:   MUD FILTRATE SAMPLE TEMPERATURE
 RMC .OHMM            .25:   RESISTIVITY MUD CAKE
 MCST.F                74:   MUD CAKE SAMPLE TEMPERATURE
 MFSS.               CALC:   MUD FILTRATE SAMPLE SOURCE
 MCSS.               CALC:   MUD CAKE SAMPLE SOURCE
 TCS .HRS               3:   TIME CURCULATED STOPPED
 LUN .             HL6150:   LOGGING UNIT NUMBER
 LUL .                 FM:   LOGGING UNIT LOCATION
 ENGI.            BRANNEY:   RECORDING ENGINEER
 WITN.           MCINTYRE:   WITNESSED BY
 CLNT.            A2DTECH:   CLIENT CODE
 ORIG.           5" PRINT:   ORIGIN OF DATA
 UWI .       490251084400:   UNIQUE WELL ID
 DICO. A2D Technologies, Inc.:   DIGITIZING COMPANY
~OTHER INFORMATION
~A   DEPT      SPR        SFL        ILD        ILM        GRD       CALD       CORR       RHOB       NPHI       DPHI   
# ...
  656.0000   -43.7540    12.2010    10.9250     9.5460   112.3040     7.7560     0.0600     2.4450     0.2350     0.1540
  656.5000   -44.0650    12.2500    10.9720     9.6110   113.7760     7.7500     0.0490     2.4240     0.2310     0.1510
  657.0000   -44.1430    12.2980    11.0200     9.6760   116.8960     7.7440     0.0490     2.4310     0.2280     0.1460
  657.5000   -44.1470    12.3470    11.0670     9.7410   114.1300     7.7400     0.0590     2.4470     0.2400     0.1400
  658.0000   -44.1460    12.3960    11.1150     9.8060   111.3360     7.7430     0.0690     2.4630     0.2470     0.1340
  658.5000   -44.1550    12.4440    11.1620     9.8700   108.5680     7.7520     0.0800     2.4840     0.2390     0.1280
  659.0000   -44.7110    12.4930    11.2100     9.9000   107.2420     7.7620     0.0760     2.4760     0.2320     0.1310
  659.5000   -45.3360    12.5410    11.2600     9.7710   109.5660     7.7710     0.0620     2.4490     0.2250     0.1360
  660.0000   -45.9630    12.5730    11.1730     9.7000   110.1910     7.7800     0.0480     2.4860     0.2220     0.1410
  660.5000   -46.5020    12.3710    11.0810     9.6290   108.9260     7.7900     0.0340     2.4650     0.2380     0.1370
  661.0000   -45.3720    12.2210    10.9900     9.5580   109.8270     7.7990     0.0210     2.4400     0.2310     0.1310
  661.5000   -44.0950    12.0710    10.8980     9.4870   112.3260     7.8080     0.0300     2.4640     0.2250     0.1250
  662.0000   -42.8120    11.9210    10.8070     9.4160   112.7930     7.8180     0.0390     2.4870     0.2270     0.1170
  662.5000   -42.2180    11.7710    10.7150     9.3450   111.4460     7.8270     0.0480     2.5050     0.2300     0.1200
  663.0000   -42.3120    11.6210    10.6230     9.2740   110.1600     7.8360     0.0370     2.4910     0.2350     0.1260
  663.5000   -42.4000    11.4720    10.5320     9.2030   111.2040     7.8460     0.0310     2.4700     0.2300     0.1330
  664.0000   -42.4920    11.3220    10.4400     9.1320   113.0360     7.8550     0.0430     2.4620     0.2240     0.1290
  664.5000   -42.5860    11.1720    10.3490     9.0610   114.8810     7.8640     0.0550     2.4800     0.2220     0.1220
  665.0000   -42.6800    11.0220    10.2570     8.9900   115.0610     7.8740     0.0610     2.4940     0.2260     0.1130
  665.5000   -42.7740    10.8720    10.1660     8.9190   116.7070     7.8830     0.0530     2.5050     0.2290     0.1170
  666.0000   -42.8680    10.7220    10.0740     8.8480   120.0880     7.8920     0.0420     2.4870     0.2310     0.1230
  666.5000   -42.9620    10.5720     9.9820     8.7770   122.3060     7.9020     0.0320     2.4610     0.2270     0.1270
  667.0000   -43.0560    10.4230     9.8910     8.7050   116.1000     7.9110     0.0330     2.4740     0.2260     0.1200
  667.5000   -43.1500    10.2710     9.7990     8.6220   117.8990     7.9200     0.0370     2.5000     0.2320     0.1130
  668.0000   -43.2440    10.2400     9.7080     8.5170   117.7870     7.9300     0.0420     2.4840     0.2430     0.1160
  668.5000   -43.3380    10.2090     9.6160     8.4120   116.7500     7.9380     0.0410     2.4650     0.2400     0.1200
  669.0000   -43.4310    10.1780     9.5240     8.3080   119.2570     7.9370     0.0350     2.4910     0.2360     0.1240
  669.5000   -43.5250    10.1470     9.4330     8.2030   114.5750     7.9350     0.0280     2.4790     0.2320     0.1280
  670.0000   -43.6190    10.1160     9.3410     8.0980   117.0360     7.9340     0.0210     2.4690     0.2370     0.1250
  670.5000   -43.7130    10.0850     9.2500     7.9930   120.2280     7.9320     0.0140     2.5000     0.2420     0.1170
  671.0000   -43.8070    10.0530     9.1580     7.8880   120.6870     7.9300     0.0170     2.4770     0.2480     0.1290
  671.5000   -43.9000    10.0220     9.0670     7.4660   120.4820     7.9290     0.0250     2.4610     0.2490     0.1260
  672.0000   -43.9280     9.9920     8.6510     6.9680   123.1130     7.9270     0.0320     2.4890     0.2500     0.1210
  672.5000   -43.8520     9.9920     8.0270     6.4700   121.9640     7.9260     0.0400     2.5100     0.2590     0.1150
  673.0000   -43.7780     9.1370     7.4030     5.9710   120.5540     7.9240     0.0430     2.4810     0.2680     0.1240
  673.5000   -43.7040     8.2940     6.7790     5.4730   121.9220     7.9230     0.0250     2.4460     0.2750     0.1390
  674.0000   -43.6300     7.4500     6.1550     4.9750   122.4020     7.9210     0.0070     2.4110     0.2810     0.1580
  674.5000   -43.5560     6.6060     5.5320     4.4770   119.7600     7.9200    -0.0090     2.3760     0.2870     0.1780
  675.0000   -43.4820     5.5520     4.9230     4.1720   121.5040     7.9180     0.0200     2.3550     0.2930     0.1920
  675.5000   -43.4080     6.0640     5.5050     4.0960   120.0770     7.9170     0.0560     2.4100     0.2990     0.1730
  676.0000   -43.3340     7.0500     6.0730     4.6680   122.5930     7.9160     0.0870     2.4540     0.2990     0.1450
  676.5000   -43.2600     8.0360     6.6410     5.2240   120.1140     7.9150     0.0500     2.4990     0.2990     0.1170
  677.0000   -43.1860     9.0210     7.2090     5.7810   121.7070     7.9130     0.0600     2.5260     0.2970     0.1000
  677.5000   -43.1120    10.0070     7.7770     6.3370   118.5960     7.9120     0.0740     2.5390     0.2920     0.0930
  678.0000   -43.0370    10.9540     8.3450     6.8930   118.7590     7.9110     0.0430     2.5110     0.2950     0.1010
  678.5000   -42.9640    10.7160     8.9130     7.4490   121.4070     7.9100     0.0440     2.4890     0.2980     0.1080
  679.0000   -43.1720    10.4880     9.4550     8.0060   124.3220     7.9090     0.0550     2.4860     0.2960     0.1160
  679.5000   -43.4110    10.2710     9.3610     8.3140   123.1580     7.9080     0.0670     2.5050     0.2910     0.1120
  680.0000   -43.6500    10.4880     9.2700     8.0730   124.2130     7.9070     0.0800     2.5190     0.2850     0.1080
  680.5000   -43.8890    10.6950     9.1790     7.7070   119.4040     7.9050     0.0670     2.5280     0.2900     0.1040
  681.0000   -44.1320    10.9020     9.0880     7.4450   119.6600     7.9040     0.0400     2.4680     0.2870     0.1150
  681.5000   -44.3590    11.1090     8.9970     7.4450   118.5460     7.9030     0.0560     2.4760     0.2930     0.1260
  682.0000   -43.9950    11.3160     8.9480     7.4610   118.0870     7.9020     0.0740     2.4950     0.2980     0.1220
  682.5000   -43.7070    11.5750     9.0250     7.4790   116.5440     7.9010     0.0610     2.4830     0.2970     0.1190
  683.0000   -43.4130    11.6360     9.0860     7.4970   119.5130     7.9000     0.0480     2.4680     0.2940     0.1260
  683.5000   -43.1190    11.6940     9.1470     7.5150   118.0860     7.8990     0.0650     2.4520     0.2970     0.1330
  684.0000   -42.8260    11.7520     9.2080     7.5330   121.9560     7.8900     0.0920     2.4370  -999.2500     0.1390
  684.5000   -42.5640    11.8100     9.2690     7.5510   120.9360     7.6800     0.1200     2.4340  -999.2500     0.1480
  685.0000   -42.5550    11.8680     9.3310     7.5690   124.7680     7.4670     0.1470     2.4560  -999.2500     0.1400
  685.5000   -42.7740    11.9270     9.3920     7.5870   125.7750     7.2540     0.1760     2.4780  -999.2500     0.1280
  686.0000   -43.0770    11.9850     9.4530     7.6050   121.2290     7.1480     0.1780     2.5000  -999.2500     0.1140
  686.5000  -999.2500  -999.2500  -999.2500  -999.2500   123.0680     7.1560     0.1630     2.4850  -999.2500     0.1180
  687.0000  -999.2500  -999.2500  -999.2500  -999.2500   125.3620     7.1630     0.1600     2.4660  -999.2500     0.1230
  687.5000  -999.2500  -999.2500  -999.2500  -999.2500  -999.2500     7.1680     0.1600     2.4980  -999.2500     0.1270
  688.0000  -999.2500  -999.2500  -999.2500  -999.2500  -999.2500     7.1680     0.1600     2.4850  -999.2500     0.1190
  688.5000  -999.2500  -999.2500  -999.2500  -999.2500  -999.2500     7.1680     0.1580     2.4640  -999.2500     0.1220
  689.0000  -999.2500  -999.2500  -999.2500  -999.2500  -999.2500     7.1680     0.1560     2.4810  -999.2500     0.1270
