~VERSION INFORMATION
 VERS.                2.0:   CWLS LOG ASCII STANDARD - VERSION 2.0
 WRAP.                 NO:   ONE LINE PER DEPTH STEP
~WELL INFORMATION
#MNEM.UNIT      DATA TYPE    INFORMATION
#----------   ------------   ------------------------------
 STRT.F          484.0000:   START DEPTH
 STOP.F         2291.5000:   STOP DEPTH
 STEP.F            0.5000:   STEP LENGTH
 NULL.          -999.2500:   NO VALUE
 COMP. FENIX & SCISSON INC:   COMPANY
 WELL.     45 SHX 3 #45-3:   WELL
 FLD .             TEAPOT:   FIELD
 LOC .       S3 T38N R78W:   LOCATION
 CNTY.            NATRONA:   COUNTY
 STAT.            WYOMING:   STATE
 CTRY. UNITED STATES OF AMERICA:   COUNTRY
 SRVC.              Welex:   SERVICE COMPANY
 DATE.        20-APR-1980:   LOGDATE
 API .       490251080400:   API NUMBER
~CURVE INFORMATION
#MNEM.UNIT       API CODE    CURVE DESCRIPTION
#----------   ------------   ------------------------------
 DEPT.F                  :   
 CALD.IN     45 280 60 00:   CALIPER
 GRD .GAPI   45 310 01 00:   GAMMA RAY FROM DENSITY LOG
 CORR.G/C3   45 356 01 00:   DENSITY CORRECTION
 RHOB.G/C3   45 350 01 00:   BULK DENSITY
 DPHI.DEC    45 890 12 00:   DENSITY POROSITY SANDSTONE
~PARAMETER INFORMATION
#MNEM.UNIT          VALUE    DESCRIPTION
#----------   ------------   ------------------------------
 PD  .                 GL:   PERMANENT DATUM
 EPD .F              5186:   ELEVATION PERMANENT DATUM
 LMF .                 KB:   LOG MEASURED FROM
 DAPD.F                10:   FEET ABOVE PERMANENT DATUM
 DMF .                 KB:   DRILLING MEASURED FROM
 EKB .F              5196:   KELLING BUSHING
 EGL .F              5186:   GROUND LEVEL
 DATE.            4-20-80:   RUN DATE
 RUN .                  1:   RUN NUMBER
 DD  .F              2341:   DEPTH DRILLER
 DL  .F              2293:   DEPTH LOGGER
 BLI .F              2291:   BOTTOM LOG INTERVAL
 TLI .F               500:   TOP LOG INTERVAL
 CS  .IN            9.625:   CASING SIZE
 BS  .IN             8.75:   BIT SIZE
 BSD .F              2341:   BIT SIZE AT DEPTH
 DFT .                OIL:   DRILLING FLUID TYPE
 TCS .HRS               2:   TIME CURCULATED STOPPED
 MRT .F               218:   MAXIMUM RECORDED TEMPERATURE
 ENGI.            TOTHILL:   RECORDING ENGINEER
 WITN.           DINSMORE:   WITNESSED BY
 CLNT.            A2DTECH:   CLIENT CODE
 ORIG.           5" PRINT:   ORIGIN OF DATA
 UWI .       490251080400:   UNIQUE WELL ID
 DICO. A2D Technologies, Inc.:   DIGITIZING COMPANY
~OTHER INFORMATION
~A   DEPT     CALD         GRD      CORR       RHOB       DPHI   
  484.0000  -999.2500    49.0443  -999.2500  -999.2500  -999.2500
  484.5000  -999.2500    49.0443  -999.2500  -999.2500  -999.2500
  485.0000  -999.2500    49.0443  -999.2500  -999.2500  -999.2500
  485.5000  -999.2500    49.0444  -999.2500  -999.2500  -999.2500
  486.0000  -999.2500    49.0454  -999.2500  -999.2500  -999.2500
  486.5000  -999.2500    49.0435  -999.2500  -999.2500  -999.2500
  487.0000  -999.2500    48.9592  -999.2500  -999.2500  -999.2500
  487.5000  -999.2500    48.5647  -999.2500  -999.2500  -999.2500
  488.0000  -999.2500    48.5758  -999.2500  -999.2500  -999.2500
  488.5000  -999.2500    48.7730  -999.2500  -999.2500  -999.2500
  489.0000  -999.2500    48.9749  -999.2500  -999.2500  -999.2500
  489.5000  -999.2500    49.1767  -999.2500  -999.2500  -999.2500
  490.0000  -999.2500    49.3782  -999.2500  -999.2500  -999.2500
  490.5000  -999.2500    49.5796  -999.2500  -999.2500  -999.2500
  491.0000  -999.2500    49.7811  -999.2500  -999.2500  -999.2500
  491.5000  -999.2500    49.9825  -999.2500  -999.2500  -999.2500
  492.0000  -999.2500    50.1839  -999.2500  -999.2500  -999.2500
  492.5000  -999.2500    50.3854  -999.2500  -999.2500  -999.2500
  493.0000  -999.2500    50.5868  -999.2500  -999.2500  -999.2500
  493.5000  -999.2500    50.7881  -999.2500  -999.2500  -999.2500
  494.0000  -999.2500    50.9896  -999.2500  -999.2500  -999.2500
  494.5000  -999.2500    51.2110  -999.2500  -999.2500  -999.2500
  495.0000  -999.2500    51.5258  -999.2500  -999.2500  -999.2500
  495.5000  -999.2500    51.8415  -999.2500  -999.2500  -999.2500
  496.0000  -999.2500    52.1572  -999.2500  -999.2500  -999.2500
  496.5000  -999.2500    52.5630  -999.2500  -999.2500  -999.2500
  497.0000  -999.2500    53.1478  -999.2500  -999.2500  -999.2500
  497.5000  -999.2500    53.7330  -999.2500  -999.2500  -999.2500
  498.0000  -999.2500    54.3362  -999.2500  -999.2500  -999.2500
  498.5000  -999.2500    55.1115  -999.2500  -999.2500  -999.2500
  499.0000  -999.2500    56.3286  -999.2500  -999.2500  -999.2500
  499.5000  -999.2500    57.5422  -999.2500  -999.2500  -999.2500
  500.0000     9.2359    58.7584     0.0118     2.2820     0.1946
  500.5000     9.2398    59.9751     0.1244     2.3466     0.1724
  501.0000     9.2524    61.1932     0.1199     2.3293     0.1833
  501.5000     9.3113    62.3940     0.1177     2.3269     0.1857
  502.0000     9.4187    63.1521     0.1249     2.3489     0.1709
  502.5000     9.5260    62.3717     0.1331     2.3689     0.1603
  503.0000     9.6335    61.5711     0.1305     2.3722     0.1590
  503.5000     9.7408    61.7050     0.1252     2.3759     0.1550
  504.0000     9.8481    61.6600     0.1244     2.3820     0.1519
  504.5000     9.9567    61.6157     0.1235     2.3903     0.1471
  505.0000    10.0641    61.5665     0.1227     2.3984     0.1422
  505.5000    10.1971    61.5175     0.1217     2.4028     0.1369
  506.0000    10.3309    61.4686     0.1095     2.3979     0.1385
  506.5000    10.4643    61.4196     0.1110     2.4120     0.1317
  507.0000    10.5958    61.3706     0.1194     2.4271     0.1246
  507.5000    10.8590    61.3216     0.0984     2.4332     0.1201
  508.0000    11.1541    61.2727     0.0857     2.4386     0.1171
  508.5000    11.4504    61.2238     0.0653     2.4440     0.1119
  509.0000    11.7454    61.1755     0.0412     2.4444     0.1189
  509.5000    11.9953    61.1319     0.0164     2.4294     0.1260
  510.0000    12.1193    60.8518    -0.0037     2.4219     0.1329
  510.5000    12.2204    60.5270     0.0052     2.4303     0.1312
  511.0000    12.1946    60.2010     0.0101     2.4337     0.1284
  511.5000    12.2283    59.8756     0.0082     2.4272     0.1322
  512.0000    11.9262    59.5503     0.0090     2.4172     0.1368
  512.5000    11.7764    59.2248    -0.0008     2.4069     0.1414
  513.0000    12.1370    58.8996    -0.0011     2.3965     0.1458
  513.5000    12.3959    58.5749    -0.0009     2.3861     0.1522
  514.0000    12.3960    58.3995    -0.0079     2.3732     0.1627
  514.5000    12.3911    58.4008    -0.0160     2.3517     0.1740
  515.0000    12.3856    58.4014    -0.0194     2.3335     0.1831
  515.5000    12.3811    58.3913    -0.0098     2.3262     0.1868
  516.0000    12.3815    58.2308    -0.0044     2.3201     0.1901
  516.5000    12.3976    58.1357     0.0076     2.3061     0.1966
  517.0000    12.4148    58.8384     0.0113     2.2945     0.2063
  517.5000    12.4413    59.5254     0.0160     2.2829     0.2148
  518.0000    12.4683    60.2073     0.0263     2.2715     0.2203
  518.5000    12.4972    60.8886     0.0336     2.2614     0.2261
  519.0000    12.4381    61.5592     0.0462     2.2578     0.2271
  519.5000    12.3544    61.9174     0.0548     2.2574     0.2277
  520.0000    12.2737    61.5524     0.0560     2.2536     0.2281
  520.5000    11.9986    61.1775     0.0556     2.2704     0.2168
  521.0000    11.7742    61.8404     0.0542     2.2961     0.2028
  521.5000    11.7058    62.8023     0.0514     2.3260     0.1780
  522.0000    11.3558    63.7711     0.0445     2.3830     0.1556
  522.5000    11.0036    64.7317     0.0276     2.4293     0.1295
  523.0000    10.7402    65.5011     0.0146     2.4461     0.1123
  523.5000    10.4960    65.9097     0.0119     2.4481     0.1126
  524.0000    10.3073    66.3668     0.0141     2.4485     0.1121
  524.5000    10.2273    67.0188     0.0123     2.4487     0.1111
  525.0000    10.1450    67.6721     0.0109     2.4490     0.1095
  525.5000    10.0628    68.4335     0.0083     2.4463     0.1119
  526.0000     9.9822    69.3699    -0.0005     2.4416     0.1159
  526.5000     9.9253    70.3040    -0.0008     2.4508     0.1125
  527.0000     9.8696    71.2400     0.0006     2.4538     0.1094
  527.5000     9.8138    72.1721    -0.0012     2.4606     0.1043
  528.0000     9.7593    72.9083     0.0031     2.4684     0.0982
  528.5000     9.6968    73.1584    -0.0016     2.4743     0.0979
  529.0000     9.5980    72.8161    -0.0072     2.4699     0.1005
  529.5000     9.4997    72.4178    -0.0069     2.4726     0.0993
  530.0000     9.4011    72.0342    -0.0038     2.4823     0.0909
  530.5000     9.3025    71.6549    -0.0006     2.4904     0.0876
  531.0000     9.2040    71.2758     0.0025     2.4938     0.0857
  531.5000     9.1059    70.8891     0.0068     2.4973     0.0830
  532.0000     9.0535    70.9071     0.0106     2.5007     0.0808
  532.5000     9.0841    71.0925     0.0110     2.5014     0.0796
  533.0000     9.1852    71.2830     0.0084     2.4923     0.0890
  533.5000     9.2520    71.4748    -0.0019     2.4793     0.0927
  534.0000     9.2004    71.6724     0.0053     2.4845     0.0922
  534.5000     9.1473    71.5735     0.0075     2.4759     0.0966
  535.0000     9.1439    71.4211     0.0047     2.4745     0.0968
  535.5000     9.1556    71.2688     0.0030     2.4756     0.0962
  536.0000     9.1678    71.1168     0.0011     2.4764     0.0970
  536.5000     9.1799    70.9643     0.0020     2.4733     0.0986
  537.0000     9.1920    70.8017     0.0043     2.4711     0.0974
  537.5000     9.2041    71.0585     0.0132     2.4772     0.0949
  538.0000     9.2162    71.4354     0.0175     2.4779     0.0956
  538.5000     9.2281    71.8178     0.0062     2.4676     0.1018
  539.0000     9.2360    71.9534    -0.0017     2.4575     0.1080
  539.5000     9.2361    71.8834    -0.0032     2.4492     0.1106
  540.0000     9.2360    71.8108     0.0037     2.4527     0.1080
  540.5000     9.2215    71.7376     0.0114     2.4588     0.1048
  541.0000     9.1327    71.6825     0.0176     2.4650     0.1016
  541.5000     9.1160    71.8224     0.0238     2.4713     0.0990
  542.0000     9.1502    71.9679     0.0324     2.4791     0.0924
  542.5000     9.1863    72.1131     0.0391     2.4871     0.0877
  543.0000     9.2226    72.2596     0.0389     2.4870     0.0902
  543.5000     9.2267    72.2839     0.0327     2.4795     0.0941
  544.0000     9.2121    72.2841     0.0316     2.4738     0.0968
  544.5000     9.1963    72.2848     0.0280     2.4716     0.0990
