~VERSION INFORMATION
 VERS.                2.0:   CWLS LOG ASCII STANDARD - VERSION 2.0
 WRAP.                 NO:   ONE LINE PER DEPTH STEP
~WELL INFORMATION
#MNEM.UNIT      DATA TYPE    INFORMATION
#----------   ------------   ------------------------------
 STRT.F            0.0000:   START DEPTH
 STOP.F          404.0000:   STOP DEPTH
 STEP.F            0.1000:   STEP LENGTH
 NULL.          -999.2500:   NO VALUE
 COMP.   FLUOR DANIEL INC:   COMPANY
 WELL.   62-1 X 10 #62-10:   WELL
 FLD .             TEAPOT:   FIELD
 LOC .      S10 T38N R78W:   LOCATION
 CNTY.            NATRONA:   COUNTY
 STAT.            WYOMING:   STATE
 CTRY. UNITED STATES OF AMERICA:   COUNTRY
 SRVC.      Western Atlas:   SERVICE COMPANY
 DATE.        29-MAR-1995:   LOGDATE
 API .       490252270300:   API NUMBER
~CURVE INFORMATION
#MNEM.UNIT       API CODE    CURVE DESCRIPTION
#----------   ------------   ------------------------------
 DEPT.F                  :   
 GRR .GAPI   07 310 01 00:   GAMMA RAY
 RILD.OHMM   07 120 46 00:   INDUCTION LOG DEEP RESISTIVITY
 RILM.OHMM   07 120 44 00:   RESITIVITY LONG MEDIUM
~PARAMETER INFORMATION
#MNEM.UNIT          VALUE    DESCRIPTION
#----------   ------------   ------------------------------
 PD  .                 GL:   PERMANENT DATUM
 EPD .F              5160:   ELEVATION PERMANENT DATUM
 LMF .                 KB:   LOG MEASURED FROM
 DAPD.F                10:   FEET ABOVE PERMANENT DATUM
 DMF .                 KB:   DRILLING MEASURED FROM
 EKB .F              5170:   KELLING BUSHING
 EDF .F              5169:   DRILLING FLOOR
 EGL .F              5160:   GROUND LEVEL
 DATE.        29-MAR-1995:   RUN DATE
 RUN .                  1:   RUN NUMBER
 DD  .F               455:   DEPTH DRILLER
 DL  .F               416:   DEPTH LOGGER
 BLI .F               408:   BOTTOM LOG INTERVAL
 TLI .F                95:   TOP LOG INTERVAL
 CS  .IN            9.625:   CASING SIZE
 CBD .F                95:   CASING BOTTOM DRILLER
 CBL .F                95:   CASING BOTTOM LOGGER
 BS  .IN             8.75:   BIT SIZE
 BSD .F               455:   BIT SIZE AT DEPTH
 DFT .                AIR:   DRILLING FLUID TYPE
 MRT .F               204:   MAXIMUM RECORDED TEMPERATURE
 LUN .            HL 6530:   LOGGING UNIT NUMBER
 LUL .             CASPER:   LOGGING UNIT LOCATION
 ENGI.        VERN RAUTIO:   RECORDING ENGINEER
 WITN.        GARY STRONG:   WITNESSED BY
 CLNT.            A2DTECH:   CLIENT CODE
 ORIG.           5" PRINT:   ORIGIN OF DATA
 UWI .       490252270300:   UNIQUE WELL ID
 DICO. A2D Technologies, Inc.:   DIGITIZING COMPANY
~OTHER INFORMATION
~A    DEPT      GRR      RILD       RILM   
# ...
  382.2000    85.4770     4.9046     4.8928
  382.3000    85.0114     4.9047     4.8853
  382.4000    84.7494     4.9047     4.8591
  382.5000    84.2685     4.9048     4.8592
  382.6000    83.9574     4.9049     4.8592
  382.7000    83.7066     4.9050     4.8593
  382.8000    83.5499     4.9050     4.8594
  382.9000    83.5067     4.9051     4.8594
  383.0000    83.2519     4.9052     4.8595
  383.1000    83.2537     4.9052     4.8596
  383.2000    83.2555     4.9053     4.8596
  383.3000    83.4077     4.9054     4.8597
  383.4000    83.5608     4.9054     4.8598
  383.5000    83.5626     4.9055     4.8598
  383.6000    83.5644     4.9056     4.8599
  383.7000    83.2649     4.9056     4.8600
  383.8000    83.0597     4.9057     4.8600
  383.9000    82.9665     4.9058     4.8601
  384.0000    82.9683     4.9058     4.8602
  384.1000    83.0296     4.9059     4.8602
  384.2000    83.2841     4.9060     4.8603
  384.3000    83.5774     4.9060     4.8604
  384.4000    83.7929     4.9061     4.8605
  384.5000    84.2122     4.9062     4.8605
  384.6000    84.6033     4.9062     4.8606
  384.7000    84.9245     4.9063     4.8606
  384.8000    85.4314     4.9064     4.8607
  384.9000    86.0014     4.9065     4.8608
  385.0000    86.2242     4.9065     4.8609
  385.1000    86.6507     4.9066     4.8609
  385.2000    86.9116     4.9067     4.8610
  385.3000    86.9134     4.9051     4.8611
  385.4000    86.9152     4.8728     4.8686
  385.5000    86.9172     4.8729     4.8950
  385.6000    86.9189     4.8730     4.8951
  385.7000    86.7413     4.8730     4.8952
  385.8000    86.3603     4.8731     4.8952
  385.9000    85.6132     4.8732     4.8953
  386.0000    84.3840     4.8732     4.8954
  386.1000    83.3081     4.8477     4.8955
  386.2000    82.8385     4.8396     4.8955
  386.3000    82.7083     4.8397     4.8956
  386.4000    82.7101     4.8398     4.8957
  386.5000    82.9773     4.8398     4.8957
  386.6000    83.6581     4.8399     4.8958
  386.7000    83.9222     4.8400     4.9001
  386.8000    84.4099     4.8400     4.9300
  386.9000    84.9168     4.8559     4.9301
  387.0000    85.4238     4.8739     4.9302
  387.1000    85.8351     4.8740     4.9302
  387.2000    86.3229     4.8740     4.9412
  387.3000    87.8402     4.8741     4.9647
  387.4000    88.7589     4.8967     4.9648
  387.5000    89.1654     4.9082     4.9649
  387.6000    89.4713     4.9083     4.9649
  387.7000    89.9808     4.9144     4.9826
  387.8000    90.8806     4.9426     4.9996
  387.9000    91.0880     4.9427     4.9997
  388.0000    91.1855     4.9428     4.9998
  388.1000    91.1873     4.9428     4.9999
  388.2000    91.1304     4.9429     4.9999
  388.3000    90.8892     4.9430     5.0000
  388.4000    90.8914     4.9439     5.0133
  388.5000    90.8929     4.9584     5.0349
  388.6000    90.8947     4.9729     5.0350
  388.7000    90.8965     4.9777     5.0351
  388.8000    90.8323     4.9778     5.0352
  388.9000    90.5816     4.9779     5.0352
  389.0000    90.2989     4.9779     5.0498
  389.1000    90.0800     4.9780     5.0704
  389.2000    89.8292     5.0043     5.0705
  389.3000    89.4562     5.0128     5.0706
  389.4000    88.9529     5.0129     5.0706
  389.5000    88.4495     5.0225     5.0707
  389.6000    87.8964     5.0480     5.0708
  389.7000    87.6704     5.0481     5.0809
  389.8000    87.4196     5.0481     5.1062
  389.9000    87.1688     5.0703     5.1063
  390.0000    86.9985     5.0834     5.1064
  390.1000    87.0317     5.0835     5.1065
  390.2000    87.3039     5.0836     5.1065
  390.3000    88.0104     5.0837     5.1066
  390.4000    88.5840     5.1128     5.1067
  390.5000    89.2278     5.1192     5.1067
  390.6000    89.7243     5.1193     5.1068
  390.7000    89.7647     5.1194     5.1069
  390.8000    90.0296     5.1226     5.1070
  390.9000    90.2735     5.1376     5.1194
  391.0000    90.5279     5.1553     5.1427
  391.1000    90.6383     5.1553     5.1427
  391.2000    90.6401     5.1745     5.1428
  391.3000    90.6419     5.1914     5.1429
  391.4000    90.6438     5.1915     5.1430
  391.5000    90.6455     5.1916     5.1430
  391.6000    90.6474     5.1916     5.1431
  391.7000    90.4979     5.2179     5.1432
  391.8000    90.1450     5.2280     5.1432
  391.9000    89.5355     5.2280     5.1433
  392.0000    88.5266     5.2281     5.1434
  392.1000    87.3385     5.2282     5.1435
  392.2000    86.9249     5.2283     5.1525
  392.3000    86.1045     5.2283     5.1794
  392.4000    85.2053     5.2284     5.1795
  392.5000    84.4494     5.2285     5.1796
  392.6000    83.7272     5.2286     5.1796
  392.7000    83.7294     5.2286     5.1797
  392.8000    83.7309     5.2287     5.1900
  392.9000    83.8985     5.2288     5.2159
  393.0000    84.3861     5.2288     5.2160
  393.1000    85.0782     5.2289     5.2161
  393.2000    85.6037     5.2290     5.2161
  393.3000    86.4551     5.2291     5.2162
  393.4000    87.1228     5.2291     5.2163
  393.5000    87.8823     5.2292     5.2219
  393.6000    88.6419     5.2293     5.2528
  393.7000    89.4763     5.2294     5.2528
  393.8000    90.4626     5.2294     5.2529
  393.9000    91.2925     5.2295     5.2345
  394.0000    91.7527     5.2296     5.2167
  394.1000    92.0794     5.2297     5.2168
  394.2000    92.2027     5.2297     5.2169
  394.3000    92.2045     5.2298     5.2170
  394.4000    92.2063     5.2299     5.2170
  394.5000    92.2083     5.2299     5.1976
  394.6000    92.2100     5.2300     5.1811
  394.7000    91.8370     5.2301     5.1811
  394.8000    91.0569     5.2040     5.1812
  394.9000    90.1376     5.1940     5.1813
  395.0000    89.4218     5.1941     5.1814
  395.1000    88.9008     5.1942     5.1814
  395.2000    88.6588     5.1915     5.1668
  395.3000    88.6027     5.1584     5.1457
  395.4000    88.4589     5.1584     5.1458
  395.5000    88.3047     5.1585     5.1459
  395.6000    88.3065     5.1431     5.1459
  395.7000    88.3083     5.1229     5.1460
  395.8000    88.3101     5.1230     5.1303
  395.9000    88.3119     5.1231     5.1106
  396.0000    88.3137     5.1231     5.1064
  396.1000    88.3155     5.1010     5.0754
  396.2000    88.3173     5.0878     5.0754
  396.3000    88.3136     5.0879     5.0755
  396.4000    88.0196     5.0880     5.0589
  396.5000  -999.2500     5.0880     5.0405
  396.6000  -999.2500     5.0881     5.0406
  396.7000  -999.2500     5.0882     5.0407
  396.8000  -999.2500     5.0883     5.0407
  396.9000  -999.2500     5.0883     5.0408
  397.0000  -999.2500     5.0884     5.0232
  397.1000  -999.2500     5.0885     5.0061
  397.2000  -999.2500     5.0885     5.0062
  397.3000  -999.2500     5.0886     5.0062
  397.4000  -999.2500     5.0701     5.0063
  397.5000  -999.2500     5.0535     5.0064
  397.6000  -999.2500     5.0536     5.0064
  397.7000  -999.2500     5.0537     4.9934
  397.8000  -999.2500     5.0537     4.9719
  397.9000  -999.2500     5.0286     4.9720
  398.0000  -999.2500     5.0189     4.9721
  398.1000  -999.2500     5.0051     4.9470
  398.2000  -999.2500     4.9761     4.9378
  398.3000  -999.2500     4.9498     4.9239
  398.4000  -999.2500     4.9499     4.9038
  398.5000  -999.2500     4.9242     4.9039
  398.6000  -999.2500     4.9158     4.9040
  398.7000  -999.2500     4.9012     4.9040
  398.8000  -999.2500     4.8728     4.8836
  398.9000  -999.2500     4.8482     4.8702
  399.0000  -999.2500     4.8483     4.8703
  399.1000  -999.2500     4.8483     4.8704
  399.2000  -999.2500     4.8274     4.8704
  399.3000  -999.2500     4.8149     4.8437
  399.4000  -999.2500     4.8150     4.8369
  399.5000  -999.2500     4.8150     4.8211
  399.6000  -999.2500     4.8151     4.8036
  399.7000  -999.2500     4.7879     4.7986
  399.8000  -999.2500     4.7819     4.7705
  399.9000  -999.2500     4.7656     4.7705
  400.0000  -999.2500     4.7489     4.7486
  400.1000  -999.2500     4.7433     4.7377
  400.2000  -999.2500     4.7162     4.7377
  400.3000  -999.2500     4.7163     4.7318
