~VERSION INFORMATION
 VERS.                2.0:   CWLS LOG ASCII STANDARD - VERSION 2.0
 WRAP.                 NO:   ONE LINE PER DEPTH STEP
~WELL INFORMATION
#MNEM.UNIT      DATA TYPE    INFORMATION
#----------   ------------   ------------------------------
 STRT.F         1596.0000:   START DEPTH
 STOP.F         3210.0000:   STOP DEPTH
 STEP.F            0.5000:   STEP LENGTH
 NULL.          -999.2500:   NO VALUE
 COMP.   FLUOR DANIEL INC:   COMPANY
 WELL. NAVAL PETROLEUM RESERVE 3 X-23 #73-23:   WELL
 FLD .             TEAPOT:   FIELD
 LOC .      S23 T38N R78W:   LOCATION
 CNTY.            NATRONA:   COUNTY
 STAT.            WYOMING:   STATE
 CTRY. UNITED STATES OF AMERICA:   COUNTRY
 SRVC.            Unknown:   SERVICE COMPANY
 DATE.        29-JAN-1995:   LOGDATE
 API .       490252265000:   API NUMBER
~CURVE INFORMATION
#MNEM.UNIT       API CODE    CURVE DESCRIPTION
#----------   ------------   ------------------------------
 DEPT.F                  :   
 TGAS.TC/CC  91 830 01 00:   TOTAL GAS UNIT
 ROP .FT/HR  91 810 01 00:   RAT OF DRILLING PENETRATION
~PARAMETER INFORMATION
#MNEM.UNIT          VALUE    DESCRIPTION
#----------   ------------   ------------------------------
 EKB .F              5433:   KELLING BUSHING
 EGL .F              5423:   GROUND LEVEL
 DATE.        29-JAN-1995:   RUN DATE
 RUN .                  1:   RUN NUMBER
 BLI .F              3210:   BOTTOM LOG INTERVAL
 TLI .F              1600:   TOP LOG INTERVAL
 WITN.     C.TOWER/R.HUSK:   WITNESSED BY
 CLNT.            A2DTECH:   CLIENT CODE
 ORIG.           5" PRINT:   ORIGIN OF DATA
 UWI .       490252265000:   UNIQUE WELL ID
 DICO. A2D Technologies, Inc.:   DIGITIZING COMPANY
~OTHER INFORMATION
~A  DEPT        TGAS        ROP 
# ...
 2203.5000     2.1200     0.4590
 2204.0000     2.0643     0.4584
 2204.5000     2.0330     0.4579
 2205.0000     2.2171     0.4669
 2205.5000     2.2113     0.4665
 2206.0000     2.3966     0.4660
 2206.5000     2.3908     0.4655
 2207.0000     2.5749     0.4650
 2207.5000     2.1930     0.4645
 2208.0000     2.1884     0.4641
 2208.5000     2.3726     0.4637
 2209.0000     2.3679     0.4632
 2209.5000     2.3632     0.4721
 2210.0000     2.3585     0.4716
 2210.5000     2.3529     0.4712
 2211.0000     2.3483     0.4707
 2211.5000     2.3438     0.4702
 2212.0000     2.5290     0.4698
 2212.5000     2.5233     0.4693
 2213.0000     2.3300     0.4906
 2213.5000     2.3254     0.5000
 2214.0000     2.3208     0.5000
 2214.5000     2.3160     0.5000
 2215.0000     2.3105     0.4971
 2215.5000     2.3059     0.4906
 2216.0000     2.3013     0.4906
 2216.5000     2.2967     0.4906
 2217.0000     2.1034     0.4906
 2217.5000     2.0988     0.4906
 2218.0000     2.0942     0.4811
 2218.5000     2.0896     0.4717
 2219.0000     2.0630     0.4623
 2219.5000     1.5133     0.4623
 2220.0000     1.5087     0.5660
 2220.5000     1.7350     0.5943
 2221.0000     1.8780     0.5849
 2221.5000     1.8722     0.5849
 2222.0000     1.8677     0.5849
 2222.5000     1.8632     0.5755
 2223.0000     2.0472     0.5660
 2223.5000     2.0425     0.5660
 2224.0000     2.0377     0.5660
 2224.5000     2.0330     0.5755
 2225.0000     2.2175     0.5755
 2225.5000     2.2117     0.5755
 2226.0000     2.2071     0.5755
 2226.5000     2.2025     0.5755
 2227.0000     2.1979     0.5755
 2227.5000     2.3821     0.5755
 2228.0000     2.3774     0.9623
 2228.5000     2.3726     0.9528
 2229.0000     2.1784     0.9434
 2229.5000     2.1738     0.9528
 2230.0000     2.1634     0.7925
 2230.5000     2.1061     0.7925
 2231.0000     2.0488     0.7830
 2231.5000     1.9915     0.7830
 2232.0000     1.9342     0.7830
 2232.5000     1.8769     0.5660
 2233.0000     1.8207     0.5660
 2233.5000     1.8255     0.5566
 2234.0000     1.8302     0.5566
 2234.5000     1.8358     0.5566
 2235.0000     2.0283     0.5377
 2235.5000     2.0338     0.5283
 2236.0000     2.0384     0.5283
 2236.5000     2.0425     0.5323
 2237.0000     2.0477     0.5372
 2237.5000     2.0524     0.5421
 2238.0000     2.0566     0.5469
 2238.5000     1.8719     0.5518
 2239.0000     1.8777     0.5566
 2239.5000     1.8823     0.5615
 2240.0000     1.6981     0.5664
 2240.5000     1.5143     0.5712
 2241.0000     1.5189     0.5755
 2241.5000     1.3349     0.5660
 2242.0000     1.3396     0.7642
 2242.5000     1.3443     0.7547
 2243.0000     1.2001     0.7547
 2243.5000     1.1651     0.7642
 2244.0000     1.1707     0.7547
 2244.5000     1.1753     0.7642
 2245.0000     1.3679     0.7642
 2245.5000     1.3726     0.7736
 2246.0000     1.3780     0.7642
 2246.5000     1.5713     0.7666
 2247.0000     1.5759     0.7707
 2247.5000     1.5806     0.7748
 2248.0000     1.5853     0.7789
 2248.5000     1.7786     0.7829
 2249.0000     1.7832     0.7870
 2249.5000     1.7877     0.7911
 2250.0000     1.7925     0.7952
 2250.5000     1.9859     0.7993
 2251.0000     2.1792     0.8019
 2251.5000     2.1840     0.7925
 2252.0000     2.1887     0.7925
 2252.5000     2.1934     0.7830
 2253.0000     2.3869     0.7830
 2253.5000     2.3923     0.7830
 2254.0000     2.3970     0.7830
 2254.5000     2.4016     0.7830
 2255.0000     2.4063     0.7830
 2255.5000     2.4109     0.7830
 2256.0000     2.3165     0.7830
 2256.5000     2.2304     0.7736
 2257.0000     2.2362     0.7642
 2257.5000     2.0510     0.7642
 2258.0000     2.0569     0.7642
 2258.5000     2.0615     0.7547
 2259.0000     2.0662     0.7547
 2259.5000     1.8821     0.7547
 2260.0000     1.8868     0.7547
 2260.5000     1.8915     0.7547
 2261.0000     1.8860     0.7547
 2261.5000     1.7121     0.7547
 2262.0000     1.9066     0.7547
 2262.5000     1.7214     0.7547
 2263.0000     1.8097     0.7642
 2263.5000     1.9198     1.0472
 2264.0000     1.9252     1.0566
 2264.5000     1.9298     1.0566
 2265.0000     1.9345     1.0566
 2265.5000     1.9391     1.0660
 2266.0000     1.9438     1.0189
 2266.5000     1.9485     0.8774
 2267.0000     1.9531     0.8868
 2267.5000     1.9578     0.8962
 2268.0000     1.9624     0.8962
 2268.5000     1.9670     0.7358
 2269.0000     1.7830     0.7453
 2269.5000     1.9764     0.7547
 2270.0000     1.9811     0.7547
 2270.5000     1.9858     0.7547
 2271.0000     1.9915     0.7547
 2271.5000     1.9953     0.7546
 2272.0000     2.0008     0.7546
 2272.5000     2.1941     0.7545
 2273.0000     2.0090     0.7544
 2273.5000     2.2035     0.7544
 2274.0000     2.2642     0.7543
 2274.5000     2.2642     0.7543
 2275.0000     2.2642     0.7542
 2275.5000     2.0755     0.7542
 2276.0000     1.8868     0.7541
 2276.5000     1.8601     0.7541
 2277.0000     1.6981     0.7540
 2277.5000     1.6981     0.7540
 2278.0000     1.6981     0.7539
 2278.5000     1.5094     0.7553
 2279.0000     1.5094     0.7637
 2279.5000     1.6981     0.7640
 2280.0000     1.8868     0.7642
 2280.5000     1.8868     0.7644
 2281.0000     1.8868     0.7741
 2281.5000     1.8868     0.7555
 2282.0000     1.8868     0.6141
 2282.5000     1.8868     0.6144
 2283.0000     1.8647     0.6051
 2283.5000     1.6981     0.6054
 2284.0000     1.6981     0.6057
 2284.5000     1.6981     0.6035
 2285.0000     1.6981     0.6013
 2285.5000     1.6981     0.5991
 2286.0000     1.8868     0.5969
 2286.5000     1.6981     0.5947
 2287.0000     1.8868     0.5644
 2287.5000     1.6981     0.5737
 2288.0000     1.8868     0.5830
 2288.5000     1.9325     0.5829
 2289.0000     2.1302     0.5733
 2289.5000     2.2642     0.5732
 2290.0000     2.0755     0.5731
 2290.5000     2.2642     0.5730
 2291.0000     2.2642     0.5634
 2291.5000     2.2642     0.5539
 2292.0000     2.2642     0.5538
 2292.5000     2.2642     0.5537
 2293.0000     2.2642     0.5535
 2293.5000     2.2642     0.5534
 2294.0000     2.2642     0.5627
 2294.5000     2.0755     0.5626
 2295.0000     2.0755     0.5625
 2295.5000     2.0755     0.5718
 2296.0000     2.0755     0.5811
 2296.5000     2.0755     0.5810
 2297.0000     2.0755     0.5809
 2297.5000     2.0755     0.5808
 2298.0000     1.8868     0.5712
 2298.5000     1.8443     0.5711
 2299.0000     1.6981     0.5710
 2299.5000     1.6069     0.5614
 2300.0000     1.5094     0.5613
 2300.5000     1.5031     0.5612
 2301.0000     1.3208     0.5516
 2301.5000     1.4246     0.5515
 2302.0000     1.5094     0.5420
 2302.5000     1.5094     0.5418
 2303.0000     1.5094     0.5417
 2303.5000     1.5676     0.5416
 2304.0000     1.6981     1.0415
 2304.5000     1.6981     1.0414
 2305.0000     1.6667     1.0413
 2305.5000     1.5094     1.0317
 2306.0000     1.5094     0.8712
 2306.5000     1.5094     0.8711
 2307.0000     1.5094     0.8804
 2307.5000     1.5094     0.7765
 2308.0000     1.5094     0.7764
 2308.5000     1.5094     0.7857
 2309.0000     1.6927     0.7856
 2309.5000     1.7973     0.7949
 2310.0000     1.7925     0.7854
 2310.5000     1.5982     0.6815
 2311.0000     1.7822     0.6814
 2311.5000     1.7776     0.6812
 2312.0000     1.8176     0.6906
 2312.5000     1.9582     0.6999
 2313.0000     2.1422     0.6998
 2313.5000     2.1364     0.6885
 2314.0000     2.3216     0.5982
 2314.5000     2.3159     0.5202
 2315.0000     2.3112     0.5106
 2315.5000     2.3066     0.5011
 2316.0000     2.4906     0.5009
 2316.5000     2.4858     0.5103
 2317.0000     2.4811     0.5101
 2317.5000     2.4764     0.5100
 2318.0000     2.6596     0.5104
 2318.5000     2.6550     0.5192
 2319.0000     2.4617     0.5285
 2319.5000     2.4571     0.6227
 2320.0000     2.2638     1.0000
 2320.5000     2.2591     0.9904
 2321.0000     2.2545     0.9903
 2321.5000     2.2499     0.9808
 2322.0000     2.4340     0.8014
 2322.5000     2.2406     0.8108
 2323.0000     2.2358     0.8106
 2323.5000     2.0425     0.8105
 2324.0000     2.0377     0.8009
 2324.5000     2.0330     0.5553
