~VERSION INFORMATION
 VERS.                2.0:   CWLS LOG ASCII STANDARD - VERSION 2.0
 WRAP.                 NO:   ONE LINE PER DEPTH STEP
~WELL INFORMATION
#MNEM.UNIT      DATA TYPE    INFORMATION
#----------   ------------   ------------------------------
 STRT.F           20.0000:   START DEPTH
 STOP.F          632.0000:   STOP DEPTH
 STEP.F            0.5000:   STEP LENGTH
 NULL.          -999.2500:   NO VALUE
 COMP. FENIX & SCISSON INC:   COMPANY
 WELL.    58 SX 34 #34-34:   WELL
 FLD .             TEAPOT:   FIELD
 LOC .      S34 T39N R78W:   LOCATION
 CNTY.            NATRONA:   COUNTY
 STAT.            WYOMING:   STATE
 CTRY. UNITED STATES OF AMERICA:   COUNTRY
 SRVC.            Unknown:   SERVICE COMPANY
 DATE.        30-JAN-1979:   LOGDATE
 API .       490251077300:   API NUMBER
~CURVE INFORMATION
#MNEM.UNIT       API CODE    CURVE DESCRIPTION
#----------   ------------   ------------------------------
 DEPT.F                  :   
 SPR .MV     05 010 01 00:   SPONTANEOUS POTENTIAL FROM RES.
 SN  .OHMM   05 040 16 00:   SHORT NORMAL 16"
 ILD .OHMM   05 120 46 00:   INDUCTION LOG DEEP
 CALD.IN     45 280 60 00:   CALIPER
 CORR.G/C3   45 356 01 00:   DENSITY CORRECTION
 RHOB.G/C3   45 350 01 00:   BULK DENSITY
 GRD .GAPI   45 310 01 00:   GAMMA RAY FROM DENSITY LOG
 DPHI.DEC    45 890 12 00:   DENSITY POROSITY SANDSTONE
~PARAMETER INFORMATION
#MNEM.UNIT          VALUE    DESCRIPTION
#----------   ------------   ------------------------------
 PD  .                 GL:   PERMANENT DATUM
 LMF .                 KB:   LOG MEASURED FROM
 DAPD.F                 4:   FEET ABOVE PERMANENT DATUM
 DMF .                 KB:   DRILLING MEASURED FROM
 DATE.            1-30-79:   RUN DATE
 RUN .                  1:   RUN NUMBER
 DD  .F               635:   DEPTH DRILLER
 DL  .F               632:   DEPTH LOGGER
 BLI .F               626:   BOTTOM LOG INTERVAL
 TLI .F                35:   TOP LOG INTERVAL
 CS  .IN            8.625:   CASING SIZE
 CBD .F                40:   CASING BOTTOM DRILLER
 CBL .F                35:   CASING BOTTOM LOGGER
 BS  .IN            7.875:   BIT SIZE
 BSD .F               635:   BIT SIZE AT DEPTH
 DFT .                KCL:   DRILLING FLUID TYPE
 DFD .                8.9:   DRILLING FLUID DENSITY
 DFV .                230:   DRILLING FLUID VISCOSITY
 DFPH.                  8:   DRILLING FLUID PH
 DFL .                 30:   DRILLING FLUID LOSS
 MSS .           FLOWLINE:   MUD SAMPLE SOURCE
 RMS .OHMM            .18:   RESISTIVITY MUD SAMPLE
 MST .F                62:   MUD SAMPLE TEMPERATURE
 RMF .OHMM            .14:   RESISTIVITY MUD FILTRATE SAMPLE
 MFST.F                59:   MUD FILTRATE SAMPLE TEMPERATURE
 RMC .OHMM            .24:   RESISTIVITY MUD CAKE
 MCST.F                60:   MUD CAKE SAMPLE TEMPERATURE
 MFSS.           MEASURED:   MUD FILTRATE SAMPLE SOURCE
 MCSS.           MEASURED:   MUD CAKE SAMPLE SOURCE
 RMB .OHMM            .17:   RESISTIVITY MUD AT BHT
 BHT .F                70:   BOTTOM HOLE TEMPERATURE
 TCS .HRS               4:   TIME CURCULATED STOPPED
 MRT .F                70:   MAXIMUM RECORDED TEMPERATURE
 LUN .               3006:   LOGGING UNIT NUMBER
 LUL .             CASPER:   LOGGING UNIT LOCATION
 ENGI.            ROLLINS:   RECORDING ENGINEER
 WITN.              AMEND:   WITNESSED BY
 CLNT.            A2DTECH:   CLIENT CODE
 ORIG.         2.5" PRINT:   ORIGIN OF DATA
 UWI .       490251077300:   UNIQUE WELL ID
 DICO. A2D Technologies, Inc.:   DIGITIZING COMPANY
~OTHER INFORMATION
~A   DEPT      SPR         SN        ILD       CALD       CORR       RHOB         GRD      DPHI   
# ...
  384.5000   -45.0745     7.1673     7.6732     8.1002     0.0358     2.4830   108.4688     0.1173
  385.0000   -45.1702     7.1845     7.6963     8.0965     0.0352     2.4840   110.0391     0.1177
  385.5000   -45.2674     7.1644     7.7195     8.0928     0.0327     2.4852   111.6062     0.1182
  386.0000   -45.3638     7.1496     7.7428     8.0891     0.0305     2.4865   113.1784     0.1188
  386.5000   -45.4584     7.1398     7.7662     8.0848     0.0285     2.4876   114.4813     0.1186
  387.0000   -45.5613     7.1299     7.7896     8.0772     0.0338     2.4889   114.7757     0.1180
  387.5000   -45.6505     7.1201     7.8131     8.0673     0.0359     2.4903   115.1211     0.1174
  388.0000   -45.7086     7.1103     7.8367     8.0576     0.0350     2.4903   113.5253     0.1174
  388.5000   -45.3845     7.1005     7.8603     8.0503     0.0343     2.4878   111.6012     0.1178
  389.0000   -45.1165     7.0908     7.8884     8.0219     0.0335     2.4856   111.5364     0.1175
  389.5000   -44.4797     7.0812     7.9575     7.9778     0.0328     2.4831   113.5798     0.1162
  390.0000   -43.4177     7.0718     8.0432     7.9363     0.0322     2.4836   116.0520     0.1148
  390.5000   -42.3619     7.0615     8.1298     7.8947     0.0329     2.4840   118.3632     0.1135
  391.0000   -41.9266     7.0555     8.1875     7.8758     0.0335     2.4849   116.4664     0.1125
  391.5000   -41.7527     7.0571     8.2957     7.8672     0.0342     2.4853   114.5744     0.1133
  392.0000   -41.5756     7.0585     8.4107     7.8583     0.0349     2.4874   113.2652     0.1136
  392.5000   -41.3880     7.0541     8.4979     7.8489     0.0354     2.4948   110.0814     0.1120
  393.0000   -41.2071     6.9820     7.9592     7.8400     0.0357     2.5091   106.5571     0.1140
  393.5000   -41.0255     6.8189     7.3787     7.8309     0.0252     2.5083   101.0187     0.1172
  394.0000   -40.8445     6.4981     6.9251     7.8215     0.0192     2.4969   102.0132     0.1236
  394.5000   -40.6613     6.1924     5.6433     7.8133     0.0182     2.4853   105.6039     0.1341
  395.0000   -40.4521     5.9734     5.7493     7.8035     0.0165     2.4625   107.5702     0.1430
  395.5000   -39.9624     5.9996     5.7493     7.8227     0.0224     2.4297   108.2126     0.1759
  396.0000   -39.3737     6.0259     5.7493     7.8465     0.0409     2.3991   114.1645     0.1960
  396.5000   -38.7769     6.0524     5.7493     7.8715     0.0605     2.3691   122.4453     0.1944
  397.0000   -38.0177     6.0794     5.7493     7.8943     0.0612     2.3628   130.3875     0.1734
  397.5000   -36.9812     6.6529     5.8573     7.9215     0.0332     2.4058   128.7576     0.1541
  398.0000   -35.9381     7.2908     6.6005     7.9231     0.0216     2.4485   122.1128     0.1348
  398.5000   -34.8873     7.9899     7.6272     7.9238     0.0320     2.4978   113.0819     0.1189
  399.0000   -33.8404     8.6575     8.8136     7.9233     0.0321     2.5003   108.1494     0.1173
  399.5000   -32.7927     8.8201    10.2358     7.9234     0.0321     2.5011   106.4855     0.1138
  400.0000   -31.7447     8.9848    10.4280     7.9234     0.0321     2.4997   107.5787     0.1125
  400.5000   -30.6939     9.1587    10.3984     7.9231     0.0321     2.4993   110.1413     0.1116
  401.0000   -29.6492     9.3359    10.3276     7.9274     0.0321     2.4997   108.8634     0.1108
  401.5000   -28.6036     9.5016    10.2573     7.9432     0.0321     2.5012   105.8238     0.1108
  402.0000   -27.5381     9.7496    10.2358     7.9587     0.0322     2.4991   105.2946     0.1100
  402.5000   -26.5245    10.1190    10.7155     7.9743     0.0322     2.4931   109.0267     0.1122
  403.0000   -25.4619    10.5024    11.6919     7.9906     0.0373     2.4873   112.4785     0.1145
  403.5000   -25.4149    10.9004    12.7572     8.0053     0.0439     2.4857   115.1977     0.1168
  404.0000   -25.3873    11.3135    13.9196     8.0208     0.0505     2.4844   110.6530     0.1192
  404.5000   -25.4065    11.7422    15.1878     8.0411     0.0574     2.4824    98.0508     0.1294
  405.0000   -25.4035    12.1871    16.5717     7.9977     0.0605     2.4810    85.8318     0.1408
  405.5000   -25.4020    12.5043    18.2233     7.8878     0.0601     2.4457    74.0122     0.1694
  406.0000   -25.4056    12.7632    19.2725     7.7774     0.0605     2.3982    60.5137     0.1941
  406.5000   -25.4056    13.0368    20.4946     7.7170     0.0563     2.3506    62.7641     0.2187
  407.0000   -25.4067    13.0368    21.5453     7.7224     0.0442     2.3118    68.3474     0.2305
  407.5000   -25.4071    13.3542    21.5453     7.7219     0.0508     2.2892    68.9482     0.2363
  408.0000   -25.4079    13.4458    21.2671     7.7207     0.0655     2.2770    69.4732     0.2377
  408.5000   -25.4074    13.5379    20.9976     7.7220     0.0791     2.2742    72.8366     0.2373
  409.0000   -25.4090    13.6307    20.7315     7.7213     0.0912     2.2749    74.5884     0.2313
  409.5000   -25.4094    13.7242    20.4688     7.7199     0.0835     2.2940    73.2732     0.2213
  410.0000   -25.4039    13.7852    20.2095     7.6904     0.0771     2.3108    72.0371     0.2116
  410.5000   -25.4100    14.1057    20.0000     7.6459     0.0814     2.3343    71.9714     0.2020
  411.0000   -25.0767    14.4470    20.1419     7.6869     0.0860     2.3552    73.7462     0.1925
  411.5000   -24.6009    14.7966    20.2637     7.7406     0.0871     2.3769    77.5136     0.1829
  412.0000   -24.1241    15.1546    20.3850     7.7884     0.0823     2.3942    80.4441     0.1720
  412.5000   -23.6240    15.4134    20.5074     7.8327     0.0801     2.4005    79.5523     0.1720
  413.0000   -23.3484    15.4387    20.6305     7.6843     0.0804     2.4053    78.2485     0.1703
  413.5000   -23.3748    15.4880    20.7589     7.5307     0.0806     2.4053    77.7376     0.1653
  414.0000   -23.3712    15.5374    21.7301     7.3748     0.0764     2.4172    77.2887     0.1575
  414.5000   -23.3708    15.5870    23.6705     7.2450     0.0657     2.4276    77.0094     0.1522
  415.0000   -23.3717    15.6368    26.0446     7.3105     0.0561     2.4363    77.8683     0.1442
  415.5000   -23.6173    15.7029    28.6624     7.3666     0.0504     2.4539    78.6581     0.1330
  416.0000   -23.9701    15.5798    31.2586     7.5262     0.0491     2.4778    76.3347     0.1277
  416.5000   -24.3201    15.1599    30.8382     7.6621     0.0505     2.4874    73.1137     0.1388
  417.0000   -24.6650    14.7512    30.0297     7.7984     0.0623     2.4762    69.7694     0.1613
  417.5000   -25.0151    14.3536    29.2424     7.8344     0.0820     2.4324    69.6386     0.1890
  418.0000   -25.3605    13.9667    28.4817     7.5969     0.1004     2.3790    70.8190     0.2117
  418.5000   -25.7066    13.5311    27.1416     7.3147     0.1159     2.3240    70.3754     0.2215
  419.0000   -26.0666    13.2817    25.9514     7.4033     0.1075     2.3095    72.4052     0.2233
  419.5000   -26.2547    13.0368    25.6239     7.5482     0.0962     2.3105    75.4472     0.2221
  420.0000   -26.2842    13.0310    24.4172     7.7210     0.0850     2.3113    78.3317     0.2201
  420.5000   -26.3271    13.0421    22.3622     7.6454     0.0875     2.3120    79.9544     0.2155
  421.0000   -26.3717    13.0422    22.8757     7.4891     0.0902     2.3120    77.2064     0.2075
  421.5000   -26.4121    13.0430    23.2101     7.3666     0.0928     2.3278    75.1712     0.1960
  422.0000   -26.4548    13.0444    23.2101     7.4543     0.0956     2.3501    77.3153     0.1992
  422.5000   -26.4970    13.0462    23.2101     7.7769     0.0860     2.3620    80.0845     0.2047
  423.0000   -26.5391    12.7522    22.7992     7.8518     0.0741     2.3447    78.2834     0.2104
  423.5000   -26.5816    12.3239    21.3909     7.6422     0.0627     2.3305    75.1395     0.2160
  424.0000   -26.6240    11.8624    20.0000     7.4466     0.0537     2.3255    76.3391     0.2217
  424.5000   -26.6665    11.8666    19.8001     7.5033     0.0477     2.3142    79.9835     0.2264
