~VERSION INFORMATION
 VERS.                2.0:   CWLS LOG ASCII STANDARD - VERSION 2.0
 WRAP.                 NO:   ONE LINE PER DEPTH STEP
~WELL INFORMATION
#MNEM.UNIT      DATA TYPE    INFORMATION
#----------   ------------   ------------------------------
 STRT.F           30.0000:   START DEPTH
 STOP.F         2441.0000:   STOP DEPTH
 STEP.F            0.5000:   STEP LENGTH
 NULL.          -999.2500:   NO VALUE
 COMP. FENIX & SCISSON INC:   COMPANY
 WELL.      NPR 3 #81 S-4:   WELL
 FLD .             TEAPOT:   FIELD
 LOC .       S4 T38N R78W:   LOCATION
 CNTY.            NATRONA:   COUNTY
 STAT.            WYOMING:   STATE
 CTRY. UNITED STATES OF AMERICA:   COUNTRY
 SRVC.            Unknown:   SERVICE COMPANY
 DATE.        28-MAR-1978:   LOGDATE
 API .       490251060700:   API NUMBER
~CURVE INFORMATION
#MNEM.UNIT       API CODE    CURVE DESCRIPTION
#----------   ------------   ------------------------------
 DEPT.F                  :   
 CALD.IN     45 280 60 00:   CALIPER
 RHOB.G/C3   45 350 01 00:   BULK DENSITY
 DPHI.DEC    45 890 12 00:   DENSITY POROSITY SANDSTONE
 CORR.G/C3   45 356 01 00:   DENSITY CORRECTION
 GRD .GAPI   45 310 01 00:   GAMMA RAY FROM DENSITY LOG
~PARAMETER INFORMATION
#MNEM.UNIT          VALUE    DESCRIPTION
#----------   ------------   ------------------------------
 PD  .                 GL:   PERMANENT DATUM
 EPD .F              5169:   ELEVATION PERMANENT DATUM
 LMF .                 KB:   LOG MEASURED FROM
 DAPD.F                10:   FEET ABOVE PERMANENT DATUM
 DMF .                 KB:   DRILLING MEASURED FROM
 EKB .F              5179:   KELLING BUSHING
 EGL .F              5169:   GROUND LEVEL
 DATE.          3-28-1978:   RUN DATE
 RUN .                  1:   RUN NUMBER
 DD  .F              2454:   DEPTH DRILLER
 DL  .F              2443:   DEPTH LOGGER
 BLI .F              2441:   BOTTOM LOG INTERVAL
 TLI .F                40:   TOP LOG INTERVAL
 CS  .IN            9.625:   CASING SIZE
 CBD .F               660:   CASING BOTTOM DRILLER
 CBL .F               660:   CASING BOTTOM LOGGER
 BS  .IN             8.75:   BIT SIZE
 BSD .F              2454:   BIT SIZE AT DEPTH
 DFT .           AIR MIST:   DRILLING FLUID TYPE
 TCS .HRS               2:   TIME CURCULATED STOPPED
 LUN .               2958:   LOGGING UNIT NUMBER
 LUL .               CASP:   LOGGING UNIT LOCATION
 ENGI.             MILLER:   RECORDING ENGINEER
 CLNT.            A2DTECH:   CLIENT CODE
 ORIG.       2"  5" PRINT:   ORIGIN OF DATA
 UWI .       490251060700:   UNIQUE WELL ID
 DICO. A2D Technologies, Inc.:   DIGITIZING COMPANY
~OTHER INFORMATION
~A   DEPT     CALD       RHOB       DPHI       CORR        GRD   
# ...
  884.0000    10.6221     2.5051     0.0870     0.0626   158.4467
  884.5000    10.6163     2.5056     0.0920     0.0639   158.9987
  885.0000    10.6105     2.5017     0.0974     0.0591   159.5028
  885.5000    10.6047     2.4979     0.0996     0.0538   157.1777
  886.0000    10.5989     2.4943     0.1014     0.0498   154.4781
  886.5000    10.5931     2.4982     0.0970     0.0506   154.3107
  887.0000    10.5883     2.5033     0.0882     0.0514   154.3533
  887.5000    10.5855     2.5014     0.0962     0.0508   155.6050
  888.0000    10.5827     2.5009     0.0949     0.0476   159.4596
  888.5000    10.5799     2.5049     0.0930     0.0443   160.6420
  889.0000    10.5771     2.5035     0.0963     0.0411   155.8497
  889.5000    10.5743     2.4983     0.0990     0.0380   156.0470
  890.0000    10.5715     2.4997     0.0984     0.0389   156.1993
  890.5000    10.5687     2.5025     0.0959     0.0404   153.4186
  891.0000    10.5660     2.5022     0.0934     0.0419   147.7824
  891.5000    10.5632     2.4994     0.0982     0.0411   143.7264
  892.0000    10.5604     2.5011     0.0914     0.0401   142.6134
  892.5000    10.5576     2.5048     0.0907     0.0392   145.7963
  893.0000    10.5547     2.5083     0.0889     0.0381   149.6671
  893.5000    10.5519     2.5108     0.0865     0.0397   151.5291
  894.0000    10.5521     2.5116     0.0895     0.0414   151.5011
  894.5000    10.5731     2.5044     0.0945     0.0373   151.4300
  895.0000    10.5942     2.4970     0.0978     0.0344   151.3538
  895.5000    10.6151     2.5087     0.0918     0.0384   151.2816
  896.0000    10.6359     2.5282     0.0798     0.0423   151.2153
  896.5000    10.6488     2.5010     0.0943     0.0395   151.4029
  897.0000    10.6487     2.4894     0.1009     0.0284   152.0042
  897.5000    10.6487     2.4885     0.1026     0.0219   152.1716
  898.0000    10.6487     2.4887     0.1034     0.0220   151.7162
  898.5000    10.6487     2.4808     0.1034     0.0219   151.6425
  899.0000    10.6487     2.4814     0.1061     0.0220   152.0099
  899.5000    10.6487     2.4813     0.1074     0.0220   149.0949
  900.0000    10.6487     2.4794     0.1082     0.0250   145.6511
  900.5000    10.6487     2.4892     0.0996     0.0311   144.8376
  901.0000    10.6487     2.5029     0.0918     0.0372   146.2456
  901.5000    10.6487     2.5055     0.0923     0.0433   148.2182
  902.0000    10.6487     2.5069     0.0964     0.0459   152.2348
  902.5000    10.6486     2.5029     0.0934     0.0458   154.9607
  903.0000    10.6485     2.4994     0.0981     0.0405   150.3319
  903.5000    10.6497     2.4966     0.0984     0.0350   145.5408
  904.0000    10.6780     2.4939     0.0966     0.0300   146.4756
  904.5000    10.7104     2.4966     0.0985     0.0287   147.6997
  905.0000    10.7439     2.5006     0.1004     0.0275   146.1346
  905.5000    10.7775     2.4903     0.1022     0.0261   144.6723
  906.0000    10.8083     2.4818     0.1030     0.0295   143.6142
  906.5000    10.8158     2.4921     0.0974     0.0343   143.7226
  907.0000    10.8249     2.4975     0.0945     0.0391   143.8366
  907.5000    10.8340     2.4966     0.0954     0.0441   143.9558
  908.0000    10.8433     2.4956     0.0990     0.0461   144.1030
  908.5000    10.8469     2.4973     0.0946     0.0467   144.5340
  909.0000    10.8469     2.4996     0.0955     0.0473   144.9602
  909.5000    10.8469     2.5017     0.0966     0.0478   145.3755
  910.0000    10.8469     2.5107     0.0854     0.0499   145.2023
  910.5000    10.8469     2.5175     0.0852     0.0523   144.2763
  911.0000    10.8469     2.5146     0.0854     0.0546   143.6375
  911.5000    10.8461     2.5168     0.0839     0.0569   144.9505
  912.0000    10.8389     2.5109     0.0866     0.0556   149.2660
  912.5000    10.8317     2.5028     0.0935     0.0516   147.6292
  913.0000    10.8245     2.5031     0.0962     0.0476   144.9204
  913.5000    10.8173     2.5024     0.0962     0.0437   142.2219
  914.0000    10.8100     2.4946     0.0984     0.0399   139.5087
  914.5000    10.8054     2.4917     0.0998     0.0422   137.4781
  915.0000    10.8022     2.4971     0.0939     0.0456   137.2495
  915.5000    10.7990     2.5022     0.0947     0.0491   138.1395
  916.0000    10.7959     2.5003     0.0978     0.0496   140.5258
  916.5000    10.7927     2.4930     0.1009     0.0476   146.7638
  917.0000    10.7896     2.4924     0.1022     0.0462   146.4991
  917.5000    10.7877     2.4975     0.0952     0.0485   142.9755
  918.0000    10.7886     2.5025     0.0902     0.0506   141.2338
  918.5000    10.7895     2.5016     0.0945     0.0480   141.5340
  919.0000    10.7904     2.4862     0.0987     0.0388   140.9783
  919.5000    10.7913     2.4894     0.1018     0.0360   140.0579
  920.0000    10.7922     2.4909     0.1004     0.0369   140.7722
  920.5000    10.7931     2.4885     0.1017     0.0378   142.4194
  921.0000    10.7940     2.4858     0.1038     0.0388   141.1172
  921.5000    10.7949     2.4976     0.0914     0.0399   140.6428
  922.0000    10.7958     2.5039     0.0970     0.0345   145.5968
  922.5000    10.7968     2.4797     0.1057     0.0275   149.2944
  923.0000    10.7977     2.4758     0.1082     0.0217   149.0842
  923.5000    10.7985     2.4774     0.1073     0.0215   148.8452
  924.0000    10.7994     2.4761     0.1081     0.0212   148.6203
  924.5000    10.8004     2.4657     0.1122     0.0208   148.3946
  925.0000    10.8013     2.4681     0.1116     0.0205   148.1704
  925.5000    10.8021     2.4732     0.1097     0.0201   147.9983
  926.0000    10.8031     2.4784     0.1078     0.0209   148.4531
  926.5000    10.8040     2.4789     0.1062     0.0227   149.5451
  927.0000    10.8048     2.4742     0.1059     0.0244   150.6044
  927.5000    10.8057     2.4808     0.1044     0.0262   150.3915
  928.0000    10.8067     2.4900     0.1008     0.0280   147.0429
  928.5000    10.8094     2.4916     0.0998     0.0316   143.6758
  929.0000    10.8161     2.4943     0.0953     0.0352   143.5442
  929.5000    10.8229     2.5006     0.0930     0.0388   146.4727
  930.0000    10.8315     2.5068     0.0907     0.0399   149.6707
  930.5000    10.8434     2.5133     0.0879     0.0380   149.1280
  931.0000    10.8553     2.5096     0.0912     0.0358   148.4494
  931.5000    10.8671     2.5037     0.0926     0.0337   149.7846
  932.0000    10.8790     2.5006     0.0918     0.0314   149.6454
  932.5000    10.8909     2.5019     0.0945     0.0282   148.5746
  933.0000    10.9029     2.4985     0.0978     0.0252   147.9932
  933.5000    10.9043     2.4931     0.0981     0.0181   148.3624
  934.0000    10.9015     2.4913     0.1006     0.0090   148.7563
  934.5000    10.8986     2.4863     0.1035     0.0066   146.5205
  935.0000    10.8957     2.4795     0.1064     0.0066   147.2349
  935.5000    10.8929     2.4730     0.1090     0.0007   148.7649
  936.0000    10.8900     2.4681     0.1090    -0.0020   148.9037
  936.5000    10.8871     2.4845     0.1002     0.0033   148.4304
  937.0000    10.8852     2.4962     0.0943     0.0127   148.0859
  937.5000    10.8835     2.5015     0.0882     0.0223   150.2306
  938.0000    10.8818     2.5057     0.0899     0.0252   152.4549
  938.5000    10.8801     2.5008     0.0894     0.0237   153.3946
  939.0000    10.8785     2.4949     0.0974     0.0221   154.7246
  939.5000    10.8768     2.4894     0.1010     0.0205   157.0930
  940.0000    10.8751     2.4931     0.0995     0.0214   158.8089
  940.5000    10.8734     2.4980     0.0965     0.0243   156.9415
  941.0000    10.8717     2.5034     0.0939     0.0273   154.6121
  941.5000    10.8701     2.5116     0.0901     0.0293   152.3985
  942.0000    10.8686     2.5301     0.0723     0.0388   153.3903
  942.5000    10.8655     2.5333     0.0767     0.0483   154.7849
  943.0000    10.8321     2.5267     0.0801     0.0517   153.4569
  943.5000    10.8270     2.5201     0.0848     0.0482   151.3974
  944.0000    10.8270     2.5117     0.0941     0.0447   147.2914
  944.5000    10.8271     2.4949     0.0998     0.0351   146.7933
