~VERSION INFORMATION
 VERS.                2.0:   CWLS LOG ASCII STANDARD - VERSION 2.0
 WRAP.                 NO:   ONE LINE PER DEPTH STEP
~WELL INFORMATION
#MNEM.UNIT      DATA TYPE    INFORMATION
#----------   ------------   ------------------------------
 STRT.F            0.0000:   START DEPTH
 STOP.F          533.0000:   STOP DEPTH
 STEP.F            0.1000:   STEP LENGTH
 NULL.          -999.2500:   NO VALUE
 COMP.   FLUOR DANIEL INC:   COMPANY
 WELL.   84-4 X 10 #81-10:   WELL
 FLD .             TEAPOT:   FIELD
 LOC .      S10 T38N R78W:   LOCATION
 CNTY.            NATRONA:   COUNTY
 STAT.            WYOMING:   STATE
 CTRY. UNITED STATES OF AMERICA:   COUNTRY
 SRVC.     Atlas Wireline:   SERVICE COMPANY
 DATE.        25-SEP-1994:   LOGDATE
 API .       490252264000:   API NUMBER
~CURVE INFORMATION
#MNEM.UNIT       API CODE    CURVE DESCRIPTION
#----------   ------------   ------------------------------
 DEPT.F                  :   
 GRR .GAPI   07 310 01 00:   GAMMA RAY
 RILD.OHMM   07 120 46 00:   INDUCTION LOG DEEP RESISTIVITY
 RILM.OHMM   07 120 44 00:   INDUCTION LOG MEDIUM RESISTIVITY
~PARAMETER INFORMATION
#MNEM.UNIT          VALUE    DESCRIPTION
#----------   ------------   ------------------------------
 PD  .                 GL:   PERMANENT DATUM
 EPD .F              5150:   ELEVATION PERMANENT DATUM
 LMF .                 KB:   LOG MEASURED FROM
 DAPD.F                10:   FEET ABOVE PERMANENT DATUM
 DMF .                 KB:   DRILLING MEASURED FROM
 EKB .F              5160:   KELLING BUSHING
 EDF .F              5159:   DRILLING FLOOR
 EGL .F              5150:   GROUND LEVEL
 DATE.        25-SEP-1994:   RUN DATE
 RUN .                  1:   RUN NUMBER
 DD  .F               545:   DEPTH DRILLER
 DL  .F               541:   DEPTH LOGGER
 BLI .F               533:   BOTTOM LOG INTERVAL
 CS  .IN            9.625:   CASING SIZE
 CBD .F                76:   CASING BOTTOM DRILLER
 CBL .F                76:   CASING BOTTOM LOGGER
 BS  .IN             8.75:   BIT SIZE
 BSD .F               545:   BIT SIZE AT DEPTH
 DFT .                AIR:   DRILLING FLUID TYPE
 MRT .F                85:   MAXIMUM RECORDED TEMPERATURE
 LUN .            HL 6401:   LOGGING UNIT NUMBER
 LUL .         FT. MORGAN:   LOGGING UNIT LOCATION
 ENGI.    DAVE FREDERICKS:   RECORDING ENGINEER
 WITN.        GARY STRONG:   WITNESSED BY
 CLNT.            A2DTECH:   CLIENT CODE
 ORIG.           5' PRINT:   ORIGIN OF DATA
 UWI .       490252264000:   UNIQUE WELL ID
 DICO. A2D Technologies, Inc.:   DIGITIZING COMPANY
~OTHER INFORMATION
~A    DEPT      GRR      RILD       RILM   
# ...
  109.2000   150.2622     8.2217     8.7590
  109.3000   150.2634     8.2215     8.7591
  109.4000   150.2647     8.2212     8.7592
  109.5000   150.2215     8.2366     8.7594
  109.6000   149.9650     8.2779     8.7595
  109.7000   149.9664     8.2777     8.7596
  109.8000   149.7563     8.2774     8.7597
  109.9000   149.5005     8.3164     8.7598
  110.0000   149.1239     8.3345     8.7600
  110.1000   148.4596     8.3343     8.7601
  110.2000   147.4941     8.3478     8.7602
  110.3000   146.9523     8.3917     8.7603
  110.4000   146.7110     8.3915     8.8008
  110.5000   146.0604     8.3913     8.8214
  110.6000   144.8339     8.4287     8.8215
  110.7000   143.4002     8.4491     8.8217
  110.8000   142.1785     8.4489     8.8218
  110.9000   141.1348     8.4486     8.8219
  111.0000   139.7101     8.4484     8.8686
  111.1000   138.7960     8.4481     8.8834
  111.2000   137.9529     8.4924     8.8835
  111.3000   137.3217     8.5064     8.8836
  111.4000   137.0892     8.5062     8.8838
  111.5000   137.3474     8.5059     8.8839
  111.6000   137.6121     8.5057     8.8840
  111.7000   138.5102     8.5055     8.8841
  111.8000   139.3716     8.5052     8.8843
  111.9000   140.5708     8.5050     8.8844
  112.0000   141.9819     8.5048     8.8845
  112.1000   143.3656     8.5045     8.8846
  112.2000   144.3601     8.5043     8.8848
  112.3000   145.1638     8.5040     8.8849
  112.4000   145.6580     8.5038     8.8850
  112.5000   146.1732     8.5035     8.8851
  112.6000   146.5321     8.5033     8.8852
  112.7000   146.6792     8.5031     8.8854
  112.8000   146.6143     8.5029     8.8855
  112.9000   146.3376     8.5026     8.8856
  113.0000   145.7766     8.5024     8.8857
  113.1000   145.3120     8.5021     8.8859
  113.2000   144.7992     8.5019     8.8860
  113.3000   144.2864     8.5017     8.8861
  113.4000   143.8711     8.5015     8.8862
  113.5000   143.6153     8.4805     8.8864
  113.6000   143.3595     8.4423     8.8865
  113.7000   143.0660     8.4421     8.8866
  113.8000   143.0671     8.4418     8.8535
  113.9000   143.0683     8.4416     8.8256
  114.0000   143.0695     8.4414     8.8111
  114.1000   143.3221     8.4411     8.7649
  114.2000   144.0556     8.4409     8.7651
  114.3000   144.5837     8.4407     8.7652
  114.4000   145.3365     8.4404     8.7268
  114.5000   146.3142     8.4402     8.7050
  114.6000   147.3434     8.3977     8.6849
  114.7000   148.4878     8.3815     8.6452
  114.8000   149.7039     8.3813     8.6432
  114.9000   150.7331     8.3648     8.5858
  115.0000   151.8430     8.3230     8.5859
  115.1000   152.7915     8.3227     8.5515
  115.2000   154.0124     8.3225     8.5270
  115.3000   155.1521     8.3223     8.5271
  115.4000   156.2828     8.3220     8.5272
  115.5000   157.4562     8.3218     8.5273
  115.6000   158.2284     8.3075     8.4787
  115.7000   159.1023     8.2639     8.4687
  115.8000   159.5497     8.2637     8.4689
  115.9000   160.0648     8.2635     8.4469
  116.0000   160.3142     8.2632     8.4107
  116.1000   160.1398     8.2630     8.4064
  116.2000   159.6270     8.2424     8.3529
  116.3000   159.1094     8.2055     8.3084
  116.4000   158.5066     8.2053     8.2956
  116.5000   157.8791     8.2051     8.2686
  116.6000   157.1093     8.2048     8.2386
  116.7000   156.3396     8.2046     8.2289
  116.8000   155.5698     8.1778     8.1820
  116.9000   154.7710     8.1295     8.1821
  117.0000   153.6798     8.0911     8.1416
  117.1000   152.4765     8.0895     8.0940
  117.2000   151.3885     8.0348     8.0700
  117.3000   150.5124     7.9942     8.0701
  117.4000   149.7426     7.9469     8.0702
  117.5000   148.9728     7.8999     8.0703
  117.6000   148.2184     7.8687     8.0250
  117.7000   147.6461     7.8611     8.0149
  117.8000   147.6471     7.8140     8.0150
  117.9000   147.8304     7.8137     8.0151
  118.0000   148.6365     7.7762     8.0034
  118.1000   149.9227     7.7594     7.9600
  118.2000   151.2556     7.7379     7.9602
  118.3000   152.7956     7.6922     7.9603
  118.4000   153.9990     7.6521     7.9604
  118.5000   154.6405     7.6518     7.9605
  118.6000   155.2443     7.6516     7.9606
  118.7000   155.7595     7.6514     7.9520
  118.8000   156.1966     7.6512     7.9059
  118.9000   156.4218     7.6510     7.9061
  119.0000   156.4230     7.6508     7.9061
  119.1000   156.6691     7.6471     7.9063
  119.2000   156.7275     7.5976     7.9064
  119.3000   156.5740     7.5974     7.9065
  119.4000   156.4278     7.5972     7.9066
  119.5000   156.3646     7.5969     7.9067
  119.6000   156.1088     7.5967     7.9068
  119.7000   155.8273     7.5965     7.9069
  119.8000   155.3660     7.5963     7.9070
  119.9000   154.8531     7.5961     7.9071
  120.0000   154.3404     7.5959     7.9072
  120.1000   153.7317     7.6266     7.9073
  120.2000   153.0127     7.6483     7.9075
  120.3000   152.4942     7.6480     7.9076
  120.4000   151.6062     7.6478     7.9077
  120.5000   151.1722     7.6476     7.9078
  120.6000   150.6594     7.6474     7.9079
  120.7000   150.0193     7.6472     7.9080
  120.8000   149.2495     7.6762     7.9081
  120.9000   148.4798     7.7214     7.9082
  121.0000   147.6858     7.7532     7.9464
  121.1000   147.1891     7.7587     7.9634
  121.2000   146.6763     7.8066     7.9635
  121.3000   146.3223     7.8064     7.9769
  121.4000   146.0665     7.8062     8.0190
  121.5000   145.8792     7.8060     8.0191
  121.6000   145.8804     7.8256     8.0192
  121.7000   145.8817     7.8598     8.0549
  121.8000   145.8828     7.8596     8.0751
  121.9000   146.0741     7.8594     8.0752
  122.0000   146.1873     7.9014     8.0753
  122.1000   146.2884     7.9135     8.0775
  122.2000   146.4919     7.9396     8.1317
  122.3000   146.4834     7.9681     8.1318
  122.4000   146.1923     7.9779     8.1648
  122.5000   145.9718     8.0230     8.1884
  122.6000   145.7160     8.0228     8.2046
  122.7000   145.3289     8.0226     8.2455
  122.8000   144.7299     8.0552     8.2456
  122.9000   143.9601     8.0779     8.2458
  123.0000   143.1783     8.0777     8.2459
  123.1000   142.2733     8.0856     8.2763
  123.2000   141.8586     8.1333     8.3034
  123.3000   141.1831     8.1896     8.3035
  123.4000   140.8838     8.1894     8.3036
  123.5000   141.2870     8.2207     8.3037
  123.6000   142.0044     8.2459     8.3486
  123.7000   142.2804     8.2604     8.3616
  123.8000   142.7601     8.3027     8.3893
  123.9000   142.8870     8.3025     8.4199
  124.0000   142.8882     8.3022     8.4301
  124.1000   142.8894     8.3404     8.4786
  124.2000   142.8906     8.3595     8.4787
  124.3000   142.8918     8.3807     8.4788
  124.4000   142.8932     8.4171     8.5125
  124.5000   142.8943     8.4212     8.5379
  124.6000   142.8955     8.4751     8.5381
  124.7000   142.8967     8.4749     8.5382
  124.8000   142.8979     8.4746     8.5383
  124.9000   142.8991     8.5028     8.5384
  125.0000   142.9003     8.5331     8.5781
  125.1000   142.9017     8.5328     8.6287
  125.2000   142.9027     8.5348     8.6578
  125.3000   142.9039     8.5916     8.6708
  125.4000   142.9051     8.6357     8.7181
  125.5000   142.9064     8.6509     8.7183
  125.6000   142.8761     8.6774     8.7184
  125.7000   142.6067     8.7105     8.7555
  125.8000   142.6078     8.7103     8.7791
  125.9000   142.6091     8.7100     8.7793
  126.0000   142.4572     8.7703     8.7794
  126.1000   142.3094     8.7701     8.7795
  126.2000   142.3734     8.7698     8.7797
  126.3000   142.6139     8.7696     8.7798
  126.4000   142.6152     8.7693     8.7799
  126.5000   142.8459     8.7691     8.7800
  126.6000   143.1041     8.7688     8.7801
  126.7000   143.3623     8.7686     8.7802
  126.8000   143.8091     8.7684     8.7804
  126.9000   144.5322     8.7681     8.7805
  127.0000   145.0474     8.7679     8.7806
  127.1000   145.6449     8.7676     8.7807
  127.2000   146.2936     8.7674     8.7808
  127.3000   146.8951     8.7671     8.7810
