~VERSION INFORMATION
 VERS.                2.0:   CWLS LOG ASCII STANDARD - VERSION 2.0
 WRAP.                 NO:   ONE LINE PER DEPTH STEP
~WELL INFORMATION
#MNEM.UNIT      DATA TYPE    INFORMATION
#----------   ------------   ------------------------------
 STRT.F           40.0000:   START DEPTH
 STOP.F          821.0000:   STOP DEPTH
 STEP.F            0.5000:   STEP LENGTH
 NULL.          -999.2500:   NO VALUE
 COMP. FENIX & SCISSON INC:   COMPANY
 WELL. NPR 3 -68 SX #68-27:   WELL
 FLD .             TEAPOT:   FIELD
 LOC .      S27 T39N R78W:   LOCATION
 CNTY.            NATRONA:   COUNTY
 STAT.            WYOMING:   STATE
 CTRY. UNITED STATES OF AMERICA:   COUNTRY
 SRVC.           BIRDWELL:   SERVICE COMPANY
 DATE.        11-SEP-1978:   LOGDATE
 API .       490251069500:   API NUMBER
~CURVE INFORMATION
#MNEM.UNIT       API CODE    CURVE DESCRIPTION
#----------   ------------   ------------------------------
 DEPT.F                  :   
 SPR .MV     05 010 01 00:   SPONTANEOUS POTENTIAL FROM RES.
 SN  .OHMM   05 040 16 00:   SHORT NORMAL 16"
 ILD .OHMM   05 120 46 00:   INDUCTION LOG DEEP
 GRD .GAPI   45 310 01 00:   GAMMA RAY FROM DENSITY LOG
 CALD.IN     45 280 60 00:   CALIPER
 RHOB.G/C3   45 350 01 00:   BULK DENSITY
 CORR.G/C3   45 356 01 00:   DENSITY CORRECTION
 DPHI.DEC    45 890 12 00:   DENSITY POROSITY SANDSTONE
~PARAMETER INFORMATION
#MNEM.UNIT          VALUE    DESCRIPTION
#----------   ------------   ------------------------------
 PD  .                 GL:   PERMANENT DATUM
 EPD .F              5032:   ELEVATION PERMANENT DATUM
 LMF .                 GL:   LOG MEASURED FROM
 DAPD.F                 4:   FEET ABOVE PERMANENT DATUM
 DMF .                 GL:   DRILLING MEASURED FROM
 EKB .F              5036:   KELLING BUSHING
 EGL .F              5032:   GROUND LEVEL
 DATE.            9-11-78:   RUN DATE
 RUN .                  1:   RUN NUMBER
 DD  .F               820:   DEPTH DRILLER
 DL  .F               822:   DEPTH LOGGER
 BLI .F               818:   BOTTOM LOG INTERVAL
 TLI .F                40:   TOP LOG INTERVAL
 CS  .IN            8.625:   CASING SIZE
 CBD .F                40:   CASING BOTTOM DRILLER
 CBL .F                40:   CASING BOTTOM LOGGER
 BS  .IN            7.875:   BIT SIZE
 BSD .F               820:   BIT SIZE AT DEPTH
 DFT .                KCL:   DRILLING FLUID TYPE
 DFD .                8.6:   DRILLING FLUID DENSITY
 DFV .                 34:   DRILLING FLUID VISCOSITY
 DFPH.                  9:   DRILLING FLUID PH
 DFL .                  8:   DRILLING FLUID LOSS
 MSS .           FLOWLINE:   MUD SAMPLE SOURCE
 RMS .OHMM            .24:   RESISTIVITY MUD SAMPLE
 MST .F                62:   MUD SAMPLE TEMPERATURE
 RMF .OHMM            .18:   RESISTIVITY MUD FILTRATE SAMPLE
 MFST.F                64:   MUD FILTRATE SAMPLE TEMPERATURE
 RMC .OHMM             .3:   RESISTIVITY MUD CAKE
 MCST.F                66:   MUD CAKE SAMPLE TEMPERATURE
 MFSS.               MEAS:   MUD FILTRATE SAMPLE SOURCE
 MCSS.               MEAS:   MUD CAKE SAMPLE SOURCE
 RMB .OHMM            .22:   RESISTIVITY MUD AT BHT
 BHT .F                68:   BOTTOM HOLE TEMPERATURE
 TCS .HRS               1:   TIME CURCULATED STOPPED
 MRT .F                68:   MAXIMUM RECORDED TEMPERATURE
 LUN .               3006:   LOGGING UNIT NUMBER
 LUL .               CASP:   LOGGING UNIT LOCATION
 ENGI.            POINTER:   RECORDING ENGINEER
 WITN.              AMEND:   WITNESSED BY
 CLNT.            A2DTECH:   CLIENT CODE
 ORIG.           5" PRINT:   ORIGIN OF DATA
 UWI .       490251069500:   UNIQUE WELL ID
 DICO. A2D Technologies, Inc.:   DIGITIZING COMPANY
~OTHER INFORMATION
~A   DEPT       SPR        SN        ILD         GRD        CALD     RHOB       CORR       DPHI   
# ...
  688.0000   -33.1659    12.8421    13.2457    97.4354     8.2250     2.5025     0.0263     0.1307
  688.5000   -33.1484    12.8355    13.2508    98.5372     8.2312     2.5110     0.0246     0.1283
  689.0000   -33.1258    12.8288    13.2559    99.5261     8.2695     2.5106     0.0229     0.1258
  689.5000   -33.1032    12.8222    13.2611    98.5520     8.3091     2.5092     0.0213     0.1234
  690.0000   -33.0807    12.8155    13.2662   100.0091     8.3458     2.5079     0.0196     0.1208
  690.5000   -33.0582    12.8089    13.2713   102.7363     8.3125     2.5070     0.0179     0.1169
  691.0000   -33.0356    12.8022    13.2764   103.5463     8.2567     2.5079     0.0162     0.1116
  691.5000   -33.0131    12.7956    13.2815    98.0733     8.2002     2.5090     0.0155     0.1072
  692.0000   -32.9906    12.7889    13.2866    93.5469     8.1439     2.5098     0.0155     0.1096
  692.5000   -32.9681    12.7823    13.2917    90.2854     8.0885     2.5067     0.0167     0.1121
  693.0000   -32.9456    12.7757    13.2968    94.5305     8.0499     2.5038     0.0188     0.1144
  693.5000   -32.9231    12.7690    13.3019   100.5184     8.0744     2.5018     0.0209     0.1135
  694.0000   -32.9006    12.7624    13.3071   106.4372     8.0955     2.4998     0.0230     0.1124
  694.5000   -32.8781    12.7558    13.3122   104.2955     8.1174     2.4978     0.0250     0.1112
  695.0000   -32.8555    12.7492    13.3173   101.9256     8.1396     2.4958     0.0292     0.1101
  695.5000   -32.8330    12.7410    13.3224   102.5542     8.1617     2.4938     0.0337     0.1090
  696.0000   -32.8105    12.7611    13.3276   103.0365     8.1840     2.4917     0.0382     0.1088
  696.5000   -32.7880    12.7895    13.3327   102.6026     8.2067     2.4897     0.0428     0.1116
  697.0000   -32.7655    12.8184    13.3379   105.4186     8.2083     2.4896     0.0439     0.1146
  697.5000   -32.7430    12.8473    13.3416   107.0258     8.1617     2.4910     0.0445     0.1175
  698.0000   -32.7205    12.8763    13.3426   100.5673     8.1139     2.4920     0.0450     0.1204
  698.5000   -32.6980    12.9053    13.2931    91.9723     8.0665     2.4911     0.0447     0.1233
  699.0000   -32.6754    12.9344    13.2487    85.4392     8.0190     2.4893     0.0411     0.1260
  699.5000   -32.6529    12.9636    13.2044    81.2435     7.9716     2.4871     0.0345     0.1260
  700.0000   -32.6304    12.9783    13.1602    78.7056     7.9242     2.4903     0.0244     0.1235
  700.5000   -32.6078    12.8241    13.1162    88.3065     7.8768     2.4902     0.0139     0.1208
  701.0000   -32.5851    12.7066    13.0723    98.1424     7.8294     2.4881     0.0104     0.1206
  701.5000   -32.5707    12.6181    13.0286    97.3436     7.7820     2.4809     0.0088     0.1203
  702.0000   -32.6228    12.5500    12.9850    96.3439     7.7347     2.4736     0.0072     0.1201
  702.5000   -32.6759    12.4821    12.9415    97.7776     7.6868     2.4678     0.0057     0.1198
  703.0000   -32.7287    12.3974    12.8982    99.0569     7.6284     2.4722     0.0041     0.1196
  703.5000   -32.7675    12.4145    12.8593    98.3673     7.5887     2.4776     0.0046     0.1224
  704.0000   -32.7643    12.4432    12.8841    98.0562     7.5915     2.4831     0.0100     0.1266
  704.5000   -32.5083    12.4720    12.9118   102.1039     7.6016     2.4835     0.0101     0.1308
  705.0000   -32.2212    12.5007    12.9395   107.7710     7.6109     2.4809     0.0085     0.1350
  705.5000   -31.9654    12.5295    12.9672   109.3247     7.6202     2.4792     0.0069     0.1344
  706.0000   -31.9630    12.5583    12.9950   107.8972     7.6294     2.4796     0.0055     0.1300
  706.5000   -31.9630    12.5872    13.0228   106.2844     7.6387     2.4791     0.0059     0.1264
  707.0000   -31.8196    12.6161    13.0507   102.7262     7.6480     2.4778     0.0064     0.1232
  707.5000   -30.5592    12.6790    13.0787    97.6897     7.6573     2.4765     0.0068     0.1249
  708.0000   -29.2806    12.7572    13.1587    96.1355     7.6662     2.4778     0.0072     0.1268
  708.5000   -29.1268    12.8348    13.3415   100.4635     7.6840     2.4869     0.0076     0.1288
  709.0000   -29.0270    13.0782    13.6430   105.5184     7.7758     2.4960     0.0081     0.1271
  709.5000   -28.8799    13.2650    14.0064   105.6430     7.8778     2.4976     0.0085     0.1248
  710.0000   -28.6099    13.7307    14.3795   101.7692     7.9798     2.4872     0.0089     0.1225
  710.5000   -28.3421    14.2128    14.7626    97.4074     8.0823     2.4684     0.0092     0.1307
  711.0000   -28.1548    14.7117    15.1558    92.9624     8.1095     2.4319     0.0180     0.1463
  711.5000   -28.5648    15.2282    15.5595    90.8531     8.0733     2.3959     0.0320     0.1618
  712.0000   -29.0270    15.7628    16.7247    91.6384     8.0361     2.3792     0.0461     0.1774
  712.5000   -29.1712    16.3162    18.2314    92.4973     7.9997     2.4216     0.0591     0.1903
  713.0000   -29.2020    16.8891    19.8755    92.9442     7.9841     2.4717     0.0554     0.1752
  713.5000   -29.2301    17.4819    21.2360    91.4013     7.9988     2.5007     0.0510     0.1448
  714.0000   -29.2585    18.0956    22.2358    89.8399     8.0089     2.4670     0.0413     0.1360
  714.5000   -29.2871    18.5807    22.7496    89.4689     8.0192     2.4312     0.0318     0.1352
  715.0000   -29.3158    18.5234    22.5473    91.4935     8.0296     2.3963     0.0232     0.1493
  715.5000   -29.3444    18.4408    22.3650    92.8340     8.0399     2.3755     0.0229     0.1636
  716.0000   -29.3730    18.3581    22.1842    89.3174     8.0503     2.3639     0.0225     0.1778
  716.5000   -29.4017    18.2761    21.5153    85.3046     8.0606     2.3576     0.0220     0.1900
  717.0000   -29.4303    18.1947    20.6546    86.8523     8.0710     2.3512     0.0215     0.1919
  717.5000   -29.4589    18.1136    20.3682    89.2597     8.0813     2.3494     0.0211     0.1952
  718.0000   -29.4876    18.0329    20.1580    90.9596     8.0917     2.3567     0.0206     0.2065
  718.5000   -29.5162    17.9525    19.9507    91.3680     8.1020     2.3638     0.0201     0.2067
  719.0000   -29.5448    17.8725    19.7450    92.3917     8.1124     2.3682     0.0197     0.2034
  719.5000   -29.5734    17.7929    19.5414    97.9244     8.1230     2.3683     0.0192     0.2000
  720.0000   -29.6021    17.7136    19.3398    95.7895     8.1316     2.3718     0.0187     0.1967
  720.5000   -29.6307    17.6346    19.1404    92.2432     8.0644     2.3753     0.0183     0.1939
  721.0000   -29.6593    17.5560    18.9430    89.7551     7.9733     2.3772     0.0178     0.1917
  721.5000   -29.6879    17.4778    18.7476    92.9974     7.8820     2.3741     0.0173     0.1897
  722.0000   -29.7166    17.3999    18.5542    91.5222     7.7894     2.3699     0.0169     0.1875
  722.5000   -29.7451    17.3224    18.3629    90.5414     7.7489     2.3660     0.0164     0.1874
  723.0000   -29.8410    17.2452    18.1735    95.1294     7.7334     2.3666     0.0159     0.1894
  723.5000   -30.0042    17.1683    17.9860   108.0393     7.7069     2.3682     0.0154     0.1914
  724.0000   -30.1672    17.0918    17.8005   106.7185     7.6803     2.3690     0.0150     0.1935
  724.5000   -30.3304    17.0156    17.5827   103.4670     7.6538     2.3635     0.0145     0.1955
  725.0000   -30.4935    16.9473    17.5209    99.2105     7.5921     2.3577     0.0140     0.1975
  725.5000   -30.6567    16.8890    17.4329    90.6059     7.5123     2.3545     0.0136     0.1995
  726.0000   -30.8199    16.8060    17.3454    82.4669     7.4334     2.3557     0.0137     0.2013
  726.5000   -30.9836    16.7233    17.2584    78.7040     7.4294     2.3568     0.0141     0.2039
  727.0000   -31.1453    16.6411    17.1718    86.8124     7.4299     2.3579     0.0144     0.2043
  727.5000   -31.1629    16.5592    17.0856    92.6806     7.4300     2.3590     0.0147     0.2008
  728.0000   -31.1626    16.4778    16.9998    96.1306     7.4299     2.3580     0.0151     0.1979
