~VERSION INFORMATION
 VERS.                2.0:   CWLS LOG ASCII STANDARD - VERSION 2.0
 WRAP.                 NO:   ONE LINE PER DEPTH STEP
~WELL INFORMATION
#MNEM.UNIT      DATA TYPE    INFORMATION
#----------   ------------   ------------------------------
 STRT.F           19.5000:   START DEPTH
 STOP.F          635.0000:   STOP DEPTH
 STEP.F            0.5000:   STEP LENGTH
 NULL.          -999.2500:   NO VALUE
 COMP. FENIX & SCISSON INC:   COMPANY
 WELL. NPR-3 68-S-34 #3-34:   WELL
 FLD .  TEAPOT DOME NPR-3:   FIELD
 LOC .      S34 T39N R78W:   LOCATION
 CNTY.            NATRONA:   COUNTY
 STAT.            WYOMING:   STATE
 CTRY. UNITED STATES OF AMERICA:   COUNTRY
 SRVC.           BIRDWELL:   SERVICE COMPANY
 DATE.        01-AUG-1978:   LOGDATE
 API .       490251070600:   API NUMBER
~CURVE INFORMATION
#MNEM.UNIT       API CODE    CURVE DESCRIPTION
#----------   ------------   ------------------------------
 DEPT.F                  :   
 SPR .MV     05 010 01 00:   SPONTANEOUS POTENTIAL
 SN  .OHMM   05 040 16 00:   SHORT NORMAL 16'
 ILD .OHMM   05 120 46 00:   INDUCTION LOG DEEP RESISTIVITY
 GRD .GAPI   45 310 01 00:   GAMMA RAY FROM DENSITY LOG
 CALD.IN     45 280 60 00:   CALIPER
 RHOB.G/C3   45 350 01 00:   BULK DENSITY
 DPHI.DEC    45 890 12 00:   DENSITY POROSITY SANDSTONE
 CORR.G/C3   45 356 01 00:   DENSITY CORRECTION
~PARAMETER INFORMATION
#MNEM.UNIT          VALUE    DESCRIPTION
#----------   ------------   ------------------------------
 PD  .                 GL:   PERMANENT DATUM
 EPD .F              5100:   ELEVATION PERMANENT DATUM
 LMF .                 KB:   LOG MEASURED FROM
 DAPD.F                 4:   FEET ABOVE PERMANENT DATUM
 DMF .                 KB:   DRILLING MEASURED FROM
 EKB .F              5104:   KELLING BUSHING
 EGL .F              5100:   GROUND LEVEL
 DATE.           9-1-1978:   RUN DATE
 RUN .                  1:   RUN NUMBER
 DD  .F               635:   DEPTH DRILLER
 DL  .F               635:   DEPTH LOGGER
 BLI .F               629:   BOTTOM LOG INTERVAL
 TLI .F                40:   TOP LOG INTERVAL
 CS  .IN            8.625:   CASING SIZE
 CBD .F                40:   CASING BOTTOM DRILLER
 CBL .F                40:   CASING BOTTOM LOGGER
 BS  .IN            7.875:   BIT SIZE
 BSD .F               635:   BIT SIZE AT DEPTH
 DFT .                KCL:   DRILLING FLUID TYPE
 DFD .                8.6:   DRILLING FLUID DENSITY
 DFV .                 32:   DRILLING FLUID VISCOSITY
 DFPH.                  9:   DRILLING FLUID PH
 DFL .                  7:   DRILLING FLUID LOSS
 MSS .          FLOW LINE:   MUD SAMPLE SOURCE
 RMS .OHMM             .4:   RESISTIVITY MUD SAMPLE
 MST .F                76:   MUD SAMPLE TEMPERATURE
 RMF .OHMM             .3:   RESISTIVITY MUD FILTRATE SAMPLE
 MFST.F                80:   MUD FILTRATE SAMPLE TEMPERATURE
 RMC .OHMM             .4:   RESISTIVITY MUD CAKE
 MCST.F                80:   MUD CAKE SAMPLE TEMPERATURE
 MFSS.               MEAS:   MUD FILTRATE SAMPLE SOURCE
 MCSS.               MEAS:   MUD CAKE SAMPLE SOURCE
 RMB .OHMM            .43:   RESISTIVITY MUD AT BHT
 BHT .F                70:   BOTTOM HOLE TEMPERATURE
 TCS .HRS               3:   TIME CURCULATED STOPPED
 MRT .F                70:   MAXIMUM RECORDED TEMPERATURE
 LUN .               2958:   LOGGING UNIT NUMBER
 LUL .               CASP:   LOGGING UNIT LOCATION
 ENGI.            POINTER:   RECORDING ENGINEER
 WITN.           MCGINLEY:   WITNESSED BY
 CLNT.            A2DTECH:   CLIENT CODE
 ORIG.           5" PRINT:   ORIGIN OF DATA
 UWI .       490251070600:   UNIQUE WELL ID
 DICO. A2D Technologies, Inc.:   DIGITIZING COMPANY
~OTHER INFORMATION
~A   DEPT      SPR         SN        ILD         GRD      CALD       RHOB       DPHI       CORR   
# ...
  546.0000   -14.8700    10.2709    11.8284    80.6310     7.3264     2.4474     0.1320     0.0388
  546.5000   -14.8706    10.2709    11.7540    80.5547     7.3291     2.4565     0.1366     0.0366
  547.0000   -14.9859    10.2709    11.6800    80.5495     7.3258     2.4598     0.1436     0.0288
  547.5000   -15.2228    10.2709    11.6065    81.5064     7.3226     2.4448     0.1505     0.0153
  548.0000   -15.1917    10.2709    11.4726    85.1943     7.3194     2.4325     0.1535     0.0072
  548.5000   -15.0898    10.2709    11.2923    85.6047     7.3162     2.4231     0.1516     0.0062
  549.0000   -14.9873    10.2709    11.1084    86.7269     7.3132     2.4262     0.1443     0.0078
  549.5000   -14.9014    10.2709    10.8984    88.2955     7.3088     2.4342     0.1370     0.0168
  550.0000   -14.2051    10.2709    10.6919    88.8392     7.2786     2.4474     0.1296     0.0260
  550.5000   -13.6458    10.2707    10.5599    89.1060     7.2484     2.4602     0.1273     0.0351
  551.0000   -13.5837    10.2693    10.6028    89.1000     7.1972     2.4701     0.1276     0.0364
  551.5000   -13.5058    10.2709    10.6367    89.1046     7.1111     2.4709     0.1279     0.0372
  552.0000   -13.1065    10.4081    10.8478    88.9718     7.0851     2.4682     0.1322     0.0352
  552.5000   -12.2554    10.6281    11.2289    88.8143     7.0612     2.4653     0.1389     0.0318
  553.0000   -11.4083    10.8517    11.6343    88.3359     7.0513     2.4561     0.1495     0.0303
  553.5000   -10.5602    11.1496    12.0672    85.5943     7.0531     2.4311     0.1619     0.0330
  554.0000    -9.7955    11.5127    12.8778    79.8396     7.0551     2.4033     0.1856     0.0355
  554.5000    -9.4291    11.9745    14.2907    76.8152     7.0572     2.3607     0.2190     0.0375
  555.0000    -9.0727    12.7448    15.8665    73.9535     7.0592     2.3187     0.2481     0.0394
  555.5000    -8.7930    13.5647    17.6157    69.7121     7.0613     2.2770     0.2435     0.0411
  556.0000    -8.5238    14.4373    19.5518    66.0276     7.0633     2.2408     0.2388     0.0522
  556.5000    -8.2552    15.5328    21.3295    65.2039     7.0654     2.2380     0.2304     0.0660
  557.0000    -7.9855    15.4361    21.7303    64.8714     7.0673     2.2958     0.2196     0.0716
  557.5000    -7.7140    15.2849    22.1483    65.0084     7.0691     2.3066     0.2145     0.0635
  558.0000    -7.7963    15.1353    22.4352    65.4228     7.0816     2.3203     0.2151     0.0557
  558.5000    -7.9267    14.9870    20.6160    64.8358     7.1308     2.3202     0.2255     0.0468
  559.0000    -8.0598    14.8403    19.3668    64.8141     7.2320     2.3035     0.2363     0.0329
  559.5000    -8.0841    14.6960    19.3668    65.5501     7.3144     2.2917     0.2435     0.0193
  560.0000    -8.0842    14.5632    19.3668    65.6092     7.3710     2.2799     0.2484     0.0071
  560.5000    -8.0834    14.3496    19.9388    65.0717     7.3701     2.2682     0.2496     0.0136
  561.0000    -8.0841    14.1538    20.4649    64.5236     7.3690     2.2613     0.2444     0.0250
  561.5000    -8.0809    13.8901    20.4046    63.9812     7.3159     2.2670     0.2375     0.0364
  562.0000    -8.4080    13.5280    20.3549    64.0888     7.1987     2.2730     0.2275     0.0477
  562.5000    -8.9495    13.1753    20.3075    66.4247     7.3990     2.2928     0.2101     0.0602
  563.0000    -9.4982    12.8319    19.7938    68.5166     7.4122     2.3208     0.1907     0.0785
  563.5000   -10.0590    12.4973    18.3791    68.2581     7.4175     2.3602     0.1657     0.0969
  564.0000   -10.3931    12.1715    17.0666    68.2241     7.0693     2.3995     0.1523     0.1151
  564.5000   -10.7245    11.8542    15.8479    70.8782     6.9927     2.4353     0.1526     0.1073
  565.0000   -11.0585    11.5746    15.0324    73.3069     7.0224     2.4294     0.1565     0.0830
  565.5000   -11.3929    11.4118    14.5899    74.3355     7.0528     2.4177     0.1595     0.0604
  566.0000   -11.7292    11.2654    14.1605    76.3842     7.0701     2.4141     0.1593     0.0460
  566.5000   -12.0639    11.1208    13.7433    77.5657     7.0700     2.4141     0.1589     0.0316
  567.0000   -12.1178    10.9780    13.2855    75.4216     7.0700     2.4141     0.1578     0.0216
  567.5000   -12.1572    10.8371    13.3033    73.0462     7.0700     2.4175     0.1542     0.0244
  568.0000   -12.1982    10.6980    13.3235    72.1897     7.0700     2.4212     0.1524     0.0270
  568.5000   -12.2385    10.5581    13.3444    77.2262     7.0700     2.4249     0.1520     0.0295
  569.0000   -12.2804    10.5524    13.3653    80.3618     7.0699     2.4275     0.1472     0.0286
  569.5000   -12.5321    10.5466    13.3858    80.6335     7.0699     2.4318     0.1417     0.0276
  570.0000   -12.8061    10.5408    13.4084    82.2766     7.0750     2.4448     0.1374     0.0266
  570.5000   -13.0782    10.5350    13.2333    85.0992     7.1066     2.4500     0.1387     0.0257
  571.0000   -13.2856    10.5292    13.0423    86.1371     7.1379     2.4501     0.1377     0.0264
  571.5000   -13.3166    10.5234    12.8536    86.2566     7.1691     2.4501     0.1344     0.0285
  572.0000   -13.3500    10.5177    12.6675    87.1492     7.2081     2.4555     0.1311     0.0306
  572.5000   -13.3832    10.5119    12.5630    89.7679     7.2636     2.4614     0.1287     0.0316
  573.0000   -13.4165    10.5061    12.5280    91.1922     7.3189     2.4658     0.1306     0.0319
  573.5000   -13.4498    10.5003    12.4934    89.1990     7.3702     2.4638     0.1312     0.0321
  574.0000   -13.5079    10.4946    12.4588    86.6733     7.3876     2.4619     0.1291     0.0324
  574.5000   -13.6230    10.4888    12.4243    86.1671     7.4037     2.4660     0.1257     0.0326
  575.0000   -13.8739    10.4831    12.3899    87.3421     7.4200     2.4754     0.1244     0.0329
  575.5000   -14.2205    10.4773    12.3556    88.5079     7.4363     2.4751     0.1264     0.0331
  576.0000   -14.2714    10.4715    12.3215    89.4491     7.4527     2.4722     0.1244     0.0333
  576.5000   -14.2740    10.4658    12.2874    89.6784     7.4692     2.4715     0.1216     0.0385
  577.0000   -14.4227    10.4600    12.2534    89.3347     7.4667     2.4779     0.1181     0.0457
  577.5000   -14.8902    10.4543    12.2195    88.8571     7.4629     2.4894     0.1145     0.0517
  578.0000   -15.1566    10.4486    12.1856    88.9310     7.4591     2.4992     0.1168     0.0460
  578.5000   -15.2561    10.4428    12.1519    91.0907     7.4554     2.4851     0.1228     0.0393
  579.0000   -15.7826    10.4371    12.1189    93.1930     7.4516     2.4747     0.1195     0.0337
  579.5000   -16.0004    10.4313    12.1797    95.1118     7.4522     2.4758     0.1155     0.0371
  580.0000   -15.8922    10.4256    12.2395    94.4187     7.4561     2.4873     0.1114     0.0404
  580.5000   -15.9568    10.4199    12.2997    89.5121     7.4600     2.4979     0.1087     0.0432
  581.0000   -16.1795    10.4142    12.3601    84.4824     7.4640     2.4988     0.1099     0.0394
  581.5000   -16.4014    10.4084    12.4209    84.6227     7.4679     2.4986     0.1112     0.0354
  582.0000   -16.6238    10.4027    12.4819    85.3439     7.4718     2.4956     0.1124     0.0315
  582.5000   -16.8466    10.3970    12.5728    85.5838     7.4758     2.4926     0.1136     0.0276
  583.0000   -17.0622    10.3913    12.5587    86.3779     7.4798     2.4900     0.1127     0.0255
  583.5000   -17.1342    10.3856    12.5315    87.9199     7.4844     2.4905     0.1130     0.0255
  584.0000   -17.2002    10.3799    12.5040    89.6946     7.4867     2.4911     0.1141     0.0255
  584.5000   -17.2669    10.3743    12.4764    91.5898     7.4378     2.4956     0.1106     0.0257
  585.0000   -17.3339    10.3681    12.3955    92.3551     6.8602     2.5003     0.1072     0.0264
  585.5000   -17.4014    10.3087    12.1819    90.8783     7.7726     2.5027     0.1088     0.0271
  586.0000   -17.4618    10.1998    11.9720    89.4975     7.4179     2.5013     0.1071     0.0296
