~VERSION INFORMATION
 VERS.                2.0:   CWLS LOG ASCII STANDARD - VERSION 2.0
 WRAP.                 NO:   ONE LINE PER DEPTH STEP
~WELL INFORMATION
#MNEM.UNIT      DATA TYPE    INFORMATION
#----------   ------------   ------------------------------
 STRT.F            0.0000:   START DEPTH
 STOP.F          663.0000:   STOP DEPTH
 STEP.F            0.1000:   STEP LENGTH
 NULL.          -999.2500:   NO VALUE
 COMP.   FLUOR DANIEL INC:   COMPANY
 WELL.     62-6 X 3 #62-3:   WELL
 FLD .             TEAPOT:   FIELD
 LOC .       S3 T38N R78W:   LOCATION
 CNTY.            NATRONA:   COUNTY
 STAT.            WYOMING:   STATE
 CTRY. UNITED STATES OF AMERICA:   COUNTRY
 SRVC.      Western Atlas:   SERVICE COMPANY
 DATE.        11-APR-1995:   LOGDATE
 API .       490252270400:   API NUMBER
~CURVE INFORMATION
#MNEM.UNIT       API CODE    CURVE DESCRIPTION
#----------   ------------   ------------------------------
 DEPT.F                  :   
 GRR .GAPI   07 310 01 00:   GAMMA RAY
 RILD.OHMM   07 120 46 00:   INDUCTION LOG DEEP RESISTIVITY
 RILM.OHMM   07 120 44 00:   INDUCTION LOG MEDIUM RESISTIVITY
~PARAMETER INFORMATION
#MNEM.UNIT          VALUE    DESCRIPTION
#----------   ------------   ------------------------------
 PD  .                 GL:   PERMANENT DATUM
 EPD .F              5157:   ELEVATION PERMANENT DATUM
 LMF .                 KB:   LOG MEASURED FROM
 DAPD.F                10:   FEET ABOVE PERMANENT DATUM
 DMF .                 KB:   DRILLING MEASURED FROM
 EKB .F              5167:   KELLING BUSHING
 EDF .F              5166:   DRILLING FLOOR
 EGL .F              5157:   GROUND LEVEL
 DATE.        11-APR-1995:   RUN DATE
 RUN .                  1:   RUN NUMBER
 DD  .F               671:   DEPTH DRILLER
 DL  .F               671:   DEPTH LOGGER
 BLI .F               663:   BOTTOM LOG INTERVAL
 TLI .F                95:   TOP LOG INTERVAL
 CS  .IN            9.625:   CASING SIZE
 CBD .F                95:   CASING BOTTOM DRILLER
 CBL .F                95:   CASING BOTTOM LOGGER
 BS  .IN             8.75:   BIT SIZE
 BSD .F               671:   BIT SIZE AT DEPTH
 DFT .                AIR:   DRILLING FLUID TYPE
 MRT .F                90:   MAXIMUM RECORDED TEMPERATURE
 LUN .            HL 6530:   LOGGING UNIT NUMBER
 LUL .             CASPER:   LOGGING UNIT LOCATION
 ENGI.      PAT RASMUSSEN:   RECORDING ENGINEER
 WITN.        GARY STRONG:   WITNESSED BY
 CLNT.            A2DTECH:   CLIENT CODE
 ORIG.           5" PRINT:   ORIGIN OF DATA
 UWI .       490252270400:   UNIQUE WELL ID
 DICO. A2D Technologies, Inc.:   DIGITIZING COMPANY
~OTHER INFORMATION
~A    DEPT      GRR      RILD       RILM   
# ...
  418.6000    60.8297    18.4435    19.4477
  418.7000    60.5711    18.4445    19.4486
  418.8000    60.1518    18.4458    19.5256
  418.9000    59.4514    18.4471    19.6450
  419.0000    59.1928    18.4853    19.7254
  419.1000    58.2919    18.5982    19.7474
  419.2000    58.2940    18.7117    19.8658
  419.3000    58.2964    18.8418    19.8671
  419.4000    58.7205    18.8430    20.0763
  419.5000    59.4057    18.9246    20.2347
  419.6000    59.9903    18.9773    20.3584
  419.7000    60.7758    19.0236    20.4828
  419.8000    61.6219    19.1125    20.6080
  419.9000    62.1060    19.1230    20.7339
  420.0000    62.6305    19.2488    20.8704
  420.1000    62.9944    19.3574    20.9882
  420.2000    63.4988    19.3859    21.0189
  420.3000    64.1237    19.3872    21.0977
  420.4000    64.3872    19.4417    21.2267
  420.5000    64.6506    19.5254    21.3564
  420.6000    65.2558    19.5267    21.4687
  420.7000    65.4787    19.5281    21.4699
  420.8000    65.5614    19.5297    21.4713
  420.9000    65.4233    19.5308    21.5799
  421.0000    65.1647    19.5322    21.6239
  421.1000    64.7855    19.5335    21.6251
  421.2000    63.9849    19.5349    21.6263
  421.3000    62.8628    19.5362    21.6275
  421.4000    61.9011    19.5376    21.6288
  421.5000    60.8593    19.5391    21.6301
  421.6000    59.8176    19.5403    21.5156
  421.7000    58.6553    19.5417    21.4819
  421.8000    57.3526    19.5430    21.4087
  421.9000    56.2104    19.5444    21.2810
  422.0000    55.9518    19.5458    21.1541
  422.1000    55.9546    19.5471    21.0279
  422.2000    55.9566    19.5486    20.8960
  422.3000    55.9590    19.5498    20.8971
  422.4000    56.1020    19.4583    20.6996
  422.5000    56.3654    19.4169    20.5307
  422.6000    56.5687    19.4183    20.4083
  422.7000    56.5912    19.4196    20.2473
  422.8000    56.8749    19.4016    20.0252
  422.9000    56.8771    19.2876    19.9057
  423.0000    57.0803    19.2891    19.7697
  423.1000    57.1831    19.1915    19.7706
  423.2000    57.5470    19.1578    19.6065
  423.3000    58.1719    19.0970    19.4352
  423.4000    58.5157    19.0275    19.3640
  423.5000    59.3012    19.0029    19.3651
  423.6000    59.6052    18.8901    19.3662
  423.7000    60.4907    18.7685    19.3673
  423.8000    61.3566    18.6667    19.3683
  423.9000    62.2828    18.5560    19.3694
  424.0000    63.3294    18.5127    19.3705
  424.1000    64.3758    18.5140    19.3716
  424.2000    65.3823    18.5153    19.3727
  424.3000    65.9472    18.5166    19.3737
  424.4000    66.6722    18.5179    19.3748
  424.5000    67.4577    18.6488    19.3761
  424.6000    67.9221    18.6498    19.3770
  424.7000    68.0651    18.6511    19.3781
  424.8000    68.0675    18.7094    19.4385
  424.9000    68.0699    18.7840    19.5546
  425.0000    68.0723    18.8072    19.6660
  425.1000    67.7739    18.9179    19.7774
  425.2000    67.1131    18.9194    19.8888
  425.3000    66.1517    18.9205    20.0002
  425.4000    65.2507    18.9218    20.1116
  425.5000    64.6707    18.9879    20.2230
  425.6000    64.4120    19.0567    20.3344
  425.7000    64.1535    19.0580    20.4458
  425.8000    63.8749    19.0593    20.5040
  425.9000    63.8771    19.0607    20.5864
  426.0000    64.0803    19.0620    20.7947
  426.1000    64.1831    19.0633    20.7975
  426.2000    64.1855    19.0646    20.9429
  426.3000    64.2683    19.0660    20.9439
  426.4000    64.5253    19.0673    20.9451
  426.5000    64.7470    19.0686    20.9462
  426.6000    64.9687    19.0700    20.9474
  426.7000    65.1904    19.0713    20.9486
  426.8000    65.4120    19.0726    20.9497
  426.9000    65.6337    19.0739    20.9510
  427.0000    65.8554    19.0753    20.8364
  427.1000    66.0771    19.0766    20.8074
  427.2000    66.2988    19.0779    20.7329
  427.3000    66.5205    19.0793    20.6093
  427.4000    66.7646    19.0806    20.5223
  427.5000    67.0281    19.0819    20.5068
  427.6000    67.3519    19.0833    20.3818
  427.7000    67.8764    19.0848    20.2413
  427.8000    68.4412    19.0859    20.1421
  427.9000    69.1663    19.0872    20.0220
  428.0000    70.1527    19.0886    19.9026
  428.1000    71.1991    19.0899    19.7839
  428.2000    71.8843    19.0912    19.6658
  428.3000    72.2281    19.0880    19.5485
  428.4000    72.7125    18.9616    19.4183
  428.5000    72.9759    18.7626    19.3161
  428.6000    72.9787    18.5395    19.2009
  428.7000    73.2016    18.1950    19.0213
  428.8000    73.6459    17.8948    18.8406
  428.9000    74.0297    17.8437    18.6994
  429.0000    74.1928    17.9526    18.4869
  429.1000    74.3156    18.0684    18.3704
  429.2000    74.8402    18.0696    18.3714
  429.3000    75.4050    18.0709    18.3724
  429.4000    75.6482    18.0721    18.3037
  429.5000    76.3133    18.0734    18.2466
  429.6000    77.2595    18.0746    18.2127
  429.7000    78.3060    18.0759    18.1041
  429.8000    79.2721    18.0771    17.9960
  429.9000    80.0578    18.0786    17.8725
  430.0000    80.8434    17.9877    17.8733
  430.1000    81.4486    17.8070    17.8743
  430.2000    81.4506    17.6516    17.8178
  430.3000    81.4530    17.5868    17.7519
  430.4000    81.4554    17.5646    17.7292
  430.5000    81.4578    17.4604    17.6234
  430.6000    81.4000    17.3474    17.5087
  430.7000    81.1613    17.2539    17.5096
  430.8000    81.1640    17.1516    17.4313
  430.9000    80.9253    17.1110    17.3897
  431.0000    80.6667    17.0671    17.3907
  431.1000    80.4081    16.9946    17.3917
  431.2000    80.2699    16.9701    17.3794
  431.3000    80.1920    16.7620    17.2726
  431.4000    79.8932    16.7634    17.2737
  431.5000    79.3735    16.6825    17.2745
  431.6000    79.0751    16.6492    17.2072
  431.7000    78.8562    16.6004    17.1562
  431.8000    78.5976    16.5360    17.1217
  431.9000    78.3390    16.5185    17.0386
  432.0000    78.0803    16.4205    17.0397
  432.1000    77.8819    16.3109    17.0408
  432.2000    77.8843    16.2263    16.9520
  432.3000    77.8869    16.1998    16.9240
  432.4000    77.6482    16.2010    16.9249
  432.5000    77.5904    16.2021    16.9259
  432.6000    77.5928    16.2032    16.9268
  432.7000    77.5952    16.2044    16.9278
  432.8000    77.5976    16.2056    16.9288
  432.9000    77.6000    16.2066    16.9296
  433.0000    77.6024    16.2077    16.9306
  433.1000    77.9064    16.2089    16.9315
  433.2000    77.9084    16.2100    16.9325
  433.3000    77.9108    16.2111    16.9334
  433.4000    77.9133    16.2122    16.9344
  433.5000    77.9157    16.2134    16.9353
  433.6000    77.9181    16.2147    17.0551
  433.7000    77.9205    16.2156    17.0559
  433.8000    77.9231    16.2168    17.0569
  433.9000    77.6844    16.2179    17.0578
  434.0000    77.6265    16.2190    17.0970
  434.1000    77.1469    16.2202    17.1793
  434.2000    76.6072    16.2213    17.1802
  434.3000    76.1881    16.2225    17.1813
  434.4000    75.5273    16.2235    17.2759
  434.5000    75.5301    16.2247    17.3035
  434.6000    75.5329    16.2258    17.3045
  434.7000    75.5349    16.2269    17.3054
  434.8000    75.5373    16.2281    17.3064
  434.9000    75.6803    16.2292    17.3074
  435.0000    76.0443    16.2304    17.3084
  435.1000    76.5085    16.2317    17.3095
  435.2000    76.7518    16.2326    17.3103
  435.3000    76.7544    16.2337    17.3112
  435.4000    76.9976    16.2348    17.3122
  435.5000    77.2610    16.2689    17.3132
  435.6000    77.5245    16.3505    17.3141
  435.7000    77.6675    16.3539    17.3151
  435.8000    77.6699    16.4672    17.3162
  435.9000    77.6723    16.5543    17.4079
  436.0000    77.6747    16.5844    17.4394
  436.1000    77.0751    16.5856    17.4403
  436.2000    76.8562    16.5867    17.4413
  436.3000    76.7783    16.6119    17.4423
  436.4000    76.7807    16.7049    17.4433
  436.5000    76.6827    16.7062    17.4443
  436.6000    76.4843    16.7072    17.4452
  436.7000    76.4867    16.7862    17.4462
