~VERSION INFORMATION
 VERS.                2.0:   CWLS LOG ASCII STANDARD - VERSION 2.0
 WRAP.                 NO:   ONE LINE PER DEPTH STEP
~WELL INFORMATION
#MNEM.UNIT      DATA TYPE    INFORMATION
#----------   ------------   ------------------------------
 STRT.F           42.0000:   START DEPTH
 STOP.F         3140.0000:   STOP DEPTH
 STEP.F            0.5000:   STEP LENGTH
 NULL.          -999.2500:   NO VALUE
 COMP. LAWRENCE-ALLISON & AS:   COMPANY
 WELL.     88 X 33 #88-33:   WELL
 FLD .             NPR #3:   FIELD
 LOC .      S33 T39N R78W:   LOCATION
 CNTY.            NATRONA:   COUNTY
 STAT.            WYOMING:   STATE
 CTRY. UNITED STATES OF AMERICA:   COUNTRY
 SRVC.       Schlumberger:   SERVICE COMPANY
 DATE.        13-DEC-1987:   LOGDATE
 API .       490251120300:   API NUMBER
~CURVE INFORMATION
#MNEM.UNIT       API CODE    CURVE DESCRIPTION
#----------   ------------   ------------------------------
 DEPT.F                  :   
 GRR .GAPI   07 310 01 00:   GAMMA RAY FROM RES
 SPR .MV     07 010 01 00:   SPONTANEOUS POTENTIAL
 ILD .OHMM   07 120 46 00:   INDUCTION LOG DEEP RES
 ILM .OHMM   07 120 44 00:   INDUCTION LOG MEDIUM RES
 SFLU.OHMM   07 220 01 00:   SPHERICALLY FOCUSED LOG UNAVERAGED RES
 DPHI.DEC    45 890 12 00:   DENSITY POROSITY SANDSTONE
 NPHI.DEC    42 890 03 00:   NEUTRON POROSITY SANDSTONE
 CALD.IN     45 280 60 00:   CALIPER FROM DENSITY LOG
 DRHO.G/C3   45 356 01 00:   DENSITY CORRECTION
 RHOB.G/C3   45 350 01 00:   BULK DENSITY
~PARAMETER INFORMATION
#MNEM.UNIT          VALUE    DESCRIPTION
#----------   ------------   ------------------------------
 PD  .                 GL:   PERMANENT DATUM
 EPD .F              5746:   ELEVATION PERMANENT DATUM
 LMF .                 KB:   LOG MEASURED FROM
 DAPD.F                11:   FEET ABOVE PERMANENT DATUM
 DMF .                 KB:   DRILLING MEASURED FROM
 EKB .F              5157:   KELLING BUSHING
 EGL .F              5146:   GROUND LEVEL
 DATE.        13-DEC-1987:   RUN DATE
 RUN .                  1:   RUN NUMBER
 DD  .F              3155:   DEPTH DRILLER
 DL  .F              3140:   DEPTH LOGGER
 BLI .F              3132:   BOTTOM LOG INTERVAL
 TLI .F               614:   TOP LOG INTERVAL
 CS  .IN            9.625:   CASING SIZE
 CBD .F               608:   CASING BOTTOM DRILLER
 CBL .F               614:   CASING BOTTOM LOGGER
 BS  .IN            7.875:   BIT SIZE
 BSD .F              3155:   BIT SIZE AT DEPTH
 DFT .       KCL DIS. PAC:   DRILLING FLUID TYPE
 DFD .                  9:   DRILLING FLUID DENSITY
 DFV .                 41:   DRILLING FLUID VISCOSITY
 DFPH.                9.5:   DRILLING FLUID PH
 DFL .                8.4:   DRILLING FLUID LOSS
 MSS .           FLOWLINE:   MUD SAMPLE SOURCE
 RMS .OHMM          0.523:   RESISTIVITY MUD SAMPLE
 MST .F                63:   MUD SAMPLE TEMPERATURE
 RMF .OHMM          0.435:   RESISTIVITY MUD FILTRATE SAMPLE
 MFST.F                63:   MUD FILTRATE SAMPLE TEMPERATURE
 RMC .OHMM          0.489:   RESISTIVITY MUD CAKE
 MCST.F                63:   MUD CAKE SAMPLE TEMPERATURE
 MFSS.              PRESS:   MUD FILTRATE SAMPLE SOURCE
 MCSS.               CALC:   MUD CAKE SAMPLE SOURCE
 RMB .OHMM          0.288:   RESISTIVITY MUD AT BHT
 BHT .F               120:   BOTTOM HOLE TEMPERATURE
 TCS .HRS            0600:   TIME CURCULATED STOPPED
 TLAB.HRS            1430:   TIME LOGGER AT BOTTOM
 MRT .F               120:   MAXIMUM RECORDED TEMPERATURE
 LUN .               8198:   LOGGING UNIT NUMBER
 LUL .             CASPER:   LOGGING UNIT LOCATION
 ENGI.          W. BENSON:   RECORDING ENGINEER
 WITN.        GARY STRONG:   WITNESSED BY
 CLNT.            A2DTECH:   CLIENT CODE
 ORIG.           5" PRINT:   ORIGIN OF DATA
 UWI .       490251120300:   UNIQUE WELL ID
 DICO. A2D Technologies, Inc.:   DIGITIZING COMPANY
~OTHER INFORMATION
~A   DEPT      GRR        SPR        ILD        ILM       SFLU       DPHI       NPHI       CALD       DRHO       RHOB   
# ...
 2923.0000   185.9754   -82.3552     3.1883     3.2535     3.3379     0.1047     0.3315     8.0897    -0.0272     2.4703
 2923.5000   172.7270   -82.0600     3.2102     3.3221     3.1363     0.1050     0.3083     8.0901    -0.0242     2.4688
 2924.0000   149.5726   -82.0884     3.2774     3.4394     3.4321     0.0935     0.2637     8.0906    -0.0212     2.4801
 2924.5000   147.7096   -82.5241     3.4164     3.5857     4.3737     0.0800     0.2510     8.0910    -0.0182     2.5049
 2925.0000   143.5427   -82.6807     3.6109     3.6613     5.6907     0.0722     0.2585     8.0915    -0.0159     2.5206
 2925.5000   142.2874   -82.9880     3.8165     3.7906     6.0153     0.0685     0.2636     8.0919    -0.0151     2.5281
 2926.0000   142.7315   -83.1726     4.1185     4.0070     5.9330     0.0658     0.2600     8.0924    -0.0144     2.5357
 2926.5000   142.9490   -83.4518     4.3833     4.3247     5.8114     0.0667     0.2522     8.0928    -0.0218     2.5349
 2927.0000   142.9396   -83.6096     4.5690     4.5716     5.8522     0.0725     0.2395     8.0933    -0.0247     2.5282
 2927.5000   143.1575   -83.6156     4.7958     4.7992     5.9755     0.0766     0.2356     8.0938    -0.0261     2.5162
 2928.0000   141.7177   -83.7722     4.9991     4.9687     6.2727     0.0737     0.2356     8.0942    -0.0269     2.5193
 2928.5000   136.8921   -83.6262     5.2110     5.1801     6.5393     0.0683     0.2347     8.0947    -0.0268     2.5260
 2929.0000   134.1178   -83.4816     5.2469     5.2527     6.6770     0.0670     0.2332     8.0990    -0.0283     2.5320
 2929.5000   131.7915   -83.1879     5.3567     5.3264     6.7706     0.0682     0.2307     8.0990    -0.0306     2.5336
 2930.0000   131.3275   -83.0433     5.5069     5.4387     6.8181     0.0685     0.2271     8.0990    -0.0380     2.5283
 2930.5000   130.1855   -83.0493     5.7007     5.5919     6.9137     0.0670     0.2235     8.0990    -0.0408     2.5306
 2931.0000   127.9106   -83.1034     5.8201     5.7495     7.2075     0.0667     0.2211     8.1054    -0.0408     2.5336
 2931.5000   127.2218   -83.1957     5.8601     5.8302     7.4105     0.0661     0.2196     8.1139    -0.0399     2.5344
 2932.0000   122.2278   -83.2880     5.9005     5.8711     7.6191     0.0655     0.2199     8.1289    -0.0383     2.5352
 2932.5000   121.0881   -83.3803     5.8593     5.8310     7.8881     0.0667     0.2235     8.1439    -0.0324     2.5367
 2933.0000   131.2731   -83.4726     5.7383     5.7911     7.8342     0.0709     0.2337     8.1289    -0.0295     2.5322
 2933.5000   139.6478   -83.3850     5.6590     5.7515     7.5159     0.0751     0.2411     8.1139    -0.0295     2.5210
 2934.0000   141.2271   -83.2419     5.6979     5.7919     7.2105     0.0745     0.2352     8.0990    -0.0287     2.5150
 2934.5000   139.6297   -83.2479     5.7771     5.8326     6.7285     0.0729     0.2228     8.0990    -0.0294     2.5188
 2935.0000   133.9560   -83.2540     5.8573     5.9144     6.6825     0.0711     0.2111     8.1139    -0.0287     2.5218
 2935.5000   127.6025   -83.2600     5.9799     5.9974     7.1622     0.0690     0.2039     8.1139    -0.0295     2.5241
 2936.0000   120.1161   -83.1139     6.1476     6.1238     7.7297     0.0624     0.2007     8.1139    -0.0316     2.5346
 2936.5000   113.7626   -83.1214     6.1472     6.2964     8.2845     0.0591     0.1993     8.1139    -0.0330     2.5444
 2937.0000   113.0761   -83.1274     6.1895     6.4291     9.0030     0.0588     0.1999     8.1139    -0.0345     2.5481
 2937.5000   120.7687   -82.9828     6.1463     6.4295     9.3208     0.0616     0.2041     8.1289    -0.0352     2.5444
 2938.0000   131.1826   -82.8367     6.1459     6.2542     8.3438     0.0655     0.2153     8.1139    -0.0344     2.5377
 2938.5000   135.0255   -82.5430     5.9362     5.9173     7.1652     0.0672     0.2340     8.1139    -0.0322     2.5347
 2939.0000   135.9228   -82.3984     5.5768     5.6375     6.3699     0.0705     0.2409     8.1139    -0.0290     2.5317
 2939.5000   135.0074   -82.2523     5.4617     5.5218     5.9031     0.0741     0.2409     8.1139    -0.0268     2.5265
 2940.0000   134.5452   -82.1077     5.1668     5.2973     5.8627     0.0753     0.2346     8.1139    -0.0261     2.5198
 2940.5000   141.5603   -82.1152     4.3748     4.8749     5.9862     0.0756     0.2313     8.1139    -0.0291     2.5183
 2941.0000   152.6153   -81.9692     3.8083     3.9601     6.0283     0.0783     0.2391     8.1289    -0.0305     2.5176
 2941.5000   180.5165   -81.0730     3.1801     3.0646     5.6253     0.0888     0.2620     8.1439    -0.0312     2.5116
 2942.0000   216.5346   -79.8742     2.6009     2.4383     4.5388     0.1084     0.3239     8.1589    -0.0312     2.4869
 2942.5000   243.2627   -78.9766     2.2799     2.0791     2.7954     0.1361     0.3905     8.1889    -0.0290     2.4517
 2943.0000   265.6857   -78.3787     2.2174     1.9808     2.0330     0.1680     0.4442     8.2039    -0.0252     2.3752
 2943.5000   252.7612   -78.0835     2.2638     2.0086     1.5955     0.1911     0.4282     8.1889    -0.0200     2.3393
 2944.0000   210.6072   -78.4903     2.3598     2.1233     1.6749     0.1959     0.3727     8.1439    -0.0170     2.3221
 2944.5000   153.2262   -79.2210     2.5290     2.4223     2.3355     0.1384     0.2478     8.1289    -0.0162     2.3986
 2945.0000   135.5891   -79.9517     2.8058     2.8019     4.2664     0.0948     0.1941     8.1139    -0.0162     2.4533
 2945.5000   121.5317   -80.8204     3.2904     3.2411     6.3316     0.0716     0.1727     8.1139    -0.0192     2.5050
 2946.0000   116.5377   -81.1276     3.8588     3.9904     8.4696     0.0674     0.1751     8.1139    -0.0221     2.5306
 2946.5000   111.5437   -81.4348     4.8165     4.7128     8.5883     0.0668     0.1845     8.1139    -0.0265     2.5343
 2947.0000   108.5891   -82.0433     5.7671     5.6437     8.1260     0.0689     0.1911     8.1139    -0.0331     2.5328
 2947.5000   106.9939   -82.1984     6.0115     6.1762     7.6886     0.0716     0.1965     8.1289    -0.0383     2.5284
 2948.0000   106.5317   -81.7526     6.0529     6.2201     7.3762     0.0773     0.2005     8.1289    -0.0398     2.5202
 2948.5000   106.5226   -81.4574     5.8060     5.8439     6.8356     0.0830     0.2068     8.1289    -0.0382     2.5089
 2949.0000   110.5921   -81.1637     5.5691     5.6063     6.3787     0.0842     0.2125     8.1289    -0.0375     2.5052
 2949.5000   113.9819   -81.1697     5.4165     5.5295     6.2913     0.0842     0.2183     8.1139    -0.0367     2.5052
 2950.0000   117.0197   -81.3647     5.2680     5.3787     6.2185     0.0839     0.2222     8.0990    -0.0358     2.5054
 2950.5000   119.3987   -81.4891     5.0530     5.0535     5.9519     0.0836     0.2249     8.1139    -0.0352     2.5060
 2951.0000   124.3723   -81.6134     4.9146     4.8813     5.9084     0.0842     0.2306     8.1139    -0.0351     2.5045
 2951.5000   131.8384   -81.7997     4.7141     4.7151     5.7853     0.0857     0.2354     8.1139    -0.0351     2.5023
 2952.0000   142.0235   -81.8072     4.3677     4.4608     5.6225     0.0887     0.2397     8.0990    -0.0351     2.4963
 2952.5000   151.5495   -81.6640     3.8552     4.1048     5.3916     0.0923     0.2454     8.0840    -0.0350     2.4911
 2953.0000   159.0568   -81.3554     3.3794     3.5489     5.0205     0.0983     0.2605     8.0690    -0.0328     2.4851
 2953.5000   173.3650   -80.9085     3.0036     3.0895     4.3986     0.1061     0.2786     8.0690    -0.0298     2.4664
 2954.0000   190.1509   -80.3112     2.5966     2.6711     3.6808     0.1167     0.3003     8.0690    -0.0283     2.4499
 2954.5000   229.6541   -79.7362     2.3078     2.3254     2.9152     0.1356     0.3507     8.0840    -0.0260     2.4244
 2955.0000   241.6547   -79.2919     2.2759     2.1104     2.0891     0.1525     0.3989     8.0840    -0.0230     2.3907
 2955.5000   230.5379   -78.9710     2.3560     2.1076     1.7327     0.1621     0.3968     8.0840    -0.0223     2.3750
 2956.0000   198.1248   -79.3087     2.4053     2.3093     2.3333     0.1449     0.3564     8.0690    -0.0222     2.3973
