~VERSION INFORMATION
 VERS.                2.0:   CWLS LOG ASCII STANDARD - VERSION 2.0
 WRAP.                 NO:   ONE LINE PER DEPTH STEP
~WELL INFORMATION
#MNEM.UNIT      DATA TYPE    INFORMATION
#----------   ------------   ------------------------------
 STRT.F           10.0000:   START DEPTH
 STOP.F          580.0000:   STOP DEPTH
 STEP.F            0.5000:   STEP LENGTH
 NULL.          -999.2500:   NO VALUE
 COMP. FENIX & SCISSON INC:   COMPANY
 WELL.     NPR 3 #28-S-34:   WELL
 FLD .        TEAPOT DOME:   FIELD
 LOC .      S34 T39N R78W:   LOCATION
 CNTY.            NATRONA:   COUNTY
 STAT.            WYOMING:   STATE
 CTRY. UNITED STATES OF AMERICA:   COUNTRY
 SRVC.           BIRDWELL:   SERVICE COMPANY
 DATE.        05-AUG-1978:   LOGDATE
 API .       490251068200:   API NUMBER
~CURVE INFORMATION
#MNEM.UNIT       API CODE    CURVE DESCRIPTION
#----------   ------------   ------------------------------
 DEPT.F                  :   
 SPR .MV     05 010 01 00:   SPONTANEOUS POTENTIAL FROM RES.
 IL  .OHMM   05 120 00 00:   INDUCTION LOG
 SN  .OHMM   05 040 16 00:   SHORT NORMAL 16"
 GRD .GAPI   45 310 01 00:   GAMMA RAY FROM DENSITY LOG
 CALD.IN     45 280 60 00:   CALIPER
 RHOB.G/C3   45 350 01 00:   BULK DENSITY
 DPHI.DEC    45 890 12 00:   DENSITY POROSITY SANDSTONE
 CORR.G/C3   45 356 01 00:   DENSITY CORRECTION
~PARAMETER INFORMATION
#MNEM.UNIT          VALUE    DESCRIPTION
#----------   ------------   ------------------------------
 PD  .                 GL:   PERMANENT DATUM
 EPD .F              5191:   ELEVATION PERMANENT DATUM
 LMF .                 KB:   LOG MEASURED FROM
 DAPD.F                 4:   FEET ABOVE PERMANENT DATUM
 DMF .                 KB:   DRILLING MEASURED FROM
 EKB .F              5195:   KELLING BUSHING
 EGL .F              5191:   GROUND LEVEL
 DATE.             8-5-78:   RUN DATE
 RUN .                  1:   RUN NUMBER
 DD  .F               570:   DEPTH DRILLER
 DL  .F               586:   DEPTH LOGGER
 BLI .F               580:   BOTTOM LOG INTERVAL
 TLI .F                30:   TOP LOG INTERVAL
 CS  .IN            8.625:   CASING SIZE
 BS  .IN            7.875:   BIT SIZE
 BSD .F               570:   BIT SIZE AT DEPTH
 DFT .                KCL:   DRILLING FLUID TYPE
 DFD .                8.6:   DRILLING FLUID DENSITY
 DFV .                 32:   DRILLING FLUID VISCOSITY
 DFPH.                9.5:   DRILLING FLUID PH
 MSS .          FLOW LINE:   MUD SAMPLE SOURCE
 RMS .OHMM             .9:   RESISTIVITY MUD SAMPLE
 MST .F                74:   MUD SAMPLE TEMPERATURE
 RMF .OHMM            .17:   RESISTIVITY MUD FILTRATE SAMPLE
 MFST.F                79:   MUD FILTRATE SAMPLE TEMPERATURE
 RMC .OHMM            .42:   RESISTIVITY MUD CAKE
 MCST.F                80:   MUD CAKE SAMPLE TEMPERATURE
 MFSS.               MEAS:   MUD FILTRATE SAMPLE SOURCE
 TCS .HRS               3:   TIME CURCULATED STOPPED
 LUN .               3006:   LOGGING UNIT NUMBER
 LUL .               CASP:   LOGGING UNIT LOCATION
 ENGI.             MILLER:   RECORDING ENGINEER
 WITN.           MCGINLEY:   WITNESSED BY
 CLNT.            A2DTECH:   CLIENT CODE
 ORIG.           5" PRINT:   ORIGIN OF DATA
 UWI .       490251068200:   UNIQUE WELL ID
 DICO. A2D Technologies, Inc.:   DIGITIZING COMPANY
~OTHER INFORMATION
~A   DEPT      SPR         IL         SN         GRD      CALD       RHOB       DPHI       CORR   
# ...
  455.5000    -7.9810    12.3200    10.0480    65.2590     7.6830     2.3740     0.1780     0.0070
  456.0000    -7.9370    12.0700    10.0390    65.8280     7.6610     2.3770     0.1760     0.0070
  456.5000    -7.8930    11.7900    10.0290    65.3070     7.6350     2.3810     0.1710     0.0070
  457.0000    -7.8490    11.7970    10.0190    64.0250     7.5890     2.3840     0.1710     0.0050
  457.5000    -7.8040    11.8060    10.0100    63.6360     7.5420     2.3790     0.1750     0.0030
  458.0000    -7.7600    11.8150    10.0000    64.2030     7.5280     2.3700     0.1810     0.0020
  458.5000    -7.7160    11.8230     9.9900    64.7790     7.5360     2.3610     0.1880     0.0000
  459.0000    -7.6720    11.8320     9.9810    65.3410     7.5430     2.3520     0.1920    -0.0020
  459.5000    -7.6280    11.8410     9.9710    65.8480     7.5500     2.3430     0.1940    -0.0030
  460.0000    -7.5830    11.8500     9.9610    68.2860     7.5580     2.3380     0.1950    -0.0050
  460.5000    -7.5390    11.8580     9.9520    70.8830     7.5650     2.3390     0.1910    -0.0060
  461.0000    -7.5220    11.8670     9.9420    73.5120     7.5450     2.3430     0.1870    -0.0050
  461.5000    -7.9110    11.8760     9.9320    77.0380     7.5230     2.3480     0.1870    -0.0060
  462.0000    -8.2890    11.8850     9.9230    75.6380     7.5010     2.3530     0.1870    -0.0030
  462.5000    -8.6790    11.8930     9.9130    72.2750     7.4860     2.3640     0.1810     0.0010
  463.0000    -8.7270    11.8980     9.9040    68.9600     7.4920     2.3740     0.1730     0.0040
  463.5000    -8.7550    11.7130     9.8400    65.9110     7.4980     2.3840     0.1640     0.0080
  464.0000    -8.7840    11.5650     9.7040    65.6170     7.5040     2.3950     0.1630     0.0110
  464.5000    -8.8130    11.4170     9.5690    66.3010     7.4930     2.3990     0.1630     0.0110
  465.0000    -8.8420    11.2690     9.4340    67.9560     7.4760     2.3990     0.1640     0.0100
  465.5000    -8.8710    11.0550     9.2990    69.3190     7.4590     2.3930     0.1690     0.0100
  466.0000    -8.9000    10.9720     9.1300    69.3700     7.4430     2.3830     0.1730     0.0090
  466.5000    -8.9290    10.8920     9.2660    68.0230     7.4260     2.3730     0.1770     0.0090
  467.0000    -8.9580    10.8120     9.4220    64.0950     7.4090     2.3690     0.1740     0.0080
  467.5000    -8.9870    10.7320     9.5430    60.6670     7.4060     2.3770     0.1700     0.0070
  468.0000    -9.0160    10.6520     9.3330    60.5780     7.4090     2.3860     0.1660     0.0060
  468.5000    -9.0450    10.5720     9.1630    61.8950     7.4300     2.3950     0.1660     0.0030
  469.0000    -9.0740    10.5470     9.0310    63.4640     7.4510     2.3920     0.1680     0.0000
  469.5000    -9.1000    10.5210     9.0310    64.4380     7.4720     2.3880     0.1700    -0.0010
  470.0000    -9.1160    10.4950     9.0310    64.5320     7.4930     2.3840     0.1710     0.0010
  470.5000    -9.1330    10.4690     9.0310    67.1140     7.5050     2.3800     0.1680     0.0040
  471.0000    -9.1510    10.4430     9.0310    70.4480     7.4980     2.3890     0.1630     0.0060
  471.5000    -9.1680    10.4170     9.0310    69.4690     7.4910     2.3970     0.1630     0.0080
  472.0000    -9.1860    10.3910     9.0310    68.4430     7.4830     2.3990     0.1630     0.0070
  472.5000    -9.2040    10.3660     9.0300    69.4890     7.4390     2.4000     0.1620     0.0040
  473.0000    -9.2210    10.3190     9.0320    71.0230     7.4060     2.3990     0.1610     0.0000
  473.5000    -9.2390    10.2720     9.0040    68.9120     7.4450     2.3960     0.1630    -0.0030
  474.0000    -9.2560    10.2250     8.9600    68.5710     7.4190     2.3940     0.1650    -0.0060
  474.5000    -9.2740    10.1780     8.9160    69.2590     7.3820     2.3970     0.1640    -0.0070
  475.0000    -9.2910    10.1320     8.8720    68.1690     7.3440     2.4000     0.1630    -0.0050
  475.5000    -9.3090    10.0850     8.8280    66.4280     7.3300     2.3970     0.1620    -0.0040
  476.0000    -9.3260    10.0380     8.7840    65.1470     7.3380     2.3940     0.1610    -0.0030
  476.5000    -9.3440     9.9920     8.7400    67.1670     7.3460     2.4020     0.1520    -0.0020
  477.0000    -9.3610     9.9450     8.7050    70.0980     7.3550     2.4160     0.1470    -0.0010
  477.5000    -9.3790     9.8980     8.7180    73.0930     7.3630     2.4270     0.1480     0.0010
  478.0000    -9.3960     9.8510     8.7280    74.1700     7.3540     2.4210     0.1520     0.0020
  478.5000    -9.4140     9.8050     8.7390    74.4080     7.3340     2.4140     0.1570     0.0030
  479.0000    -9.4320     9.7580     8.7500    73.1230     7.3140     2.4090     0.1580     0.0030
  479.5000    -9.4490     9.7200     8.7610    69.0780     7.2940     2.4160     0.1520     0.0010
  480.0000    -9.4670     9.7490     8.7720    66.6440     7.2740     2.4230     0.1480    -0.0010
  480.5000    -9.4840     9.7740     8.7830    70.3280     7.2540     2.4310     0.1430    -0.0030
  481.0000    -9.5000     9.7990     8.7940    75.2290     7.2430     2.4390     0.1390    -0.0040
  481.5000    -9.5120     9.8240     8.8040    76.7250     7.2400     2.4410     0.1430    -0.0060
  482.0000    -9.5250     9.8490     8.8150    76.7890     7.2360     2.4350     0.1470    -0.0080
  482.5000    -9.5390     9.8740     8.8260    76.3160     7.2320     2.4270     0.1500    -0.0060
  483.0000    -9.5520     9.8990     8.8370    75.7040     7.2290     2.4210     0.1510    -0.0020
  483.5000    -9.5650     9.9230     8.8480    73.8340     7.2260     2.4260     0.1450     0.0020
  484.0000    -9.5790     9.9480     8.8590    69.5020     7.2540     2.4340     0.1400     0.0070
  484.5000    -9.5920     9.9730     8.8690    65.5400     7.3180     2.4420     0.1350     0.0110
  485.0000    -9.6050     9.9980     8.8800    65.7290     7.3820     2.4500     0.1300     0.0070
  485.5000    -9.6190    10.0230     8.8910    69.5240     7.4460     2.4600     0.1290     0.0030
  486.0000    -9.6320    10.0480     8.9020    68.7540     7.5040     2.4520     0.1340    -0.0010
  486.5000    -9.6450    10.0730     8.9130    67.5310     7.4940     2.4410     0.1420     0.0030
  487.0000    -9.6580    10.0840     8.9240    67.4480     7.4770     2.4420     0.1460     0.0070
  487.5000    -9.6740    10.0140     8.9340    68.0440     7.4600     2.4330     0.1520     0.0070
  488.0000    -9.6910     9.9540     8.9490    68.9560     7.4430     2.4220     0.1550     0.0070
  488.5000    -9.6890     9.8930     8.8870    69.8490     7.4270     2.4140     0.1500     0.0060
  489.0000    -9.2730     9.8330     8.7770    70.7390     7.4650     2.4320     0.1450     0.0060
  489.5000    -9.2210     9.7720     8.6660    71.6240     7.5090     2.4320     0.1450     0.0060
  490.0000    -9.1630     9.7120     8.5550    72.3800     7.5620     2.4310     0.1430     0.0060
  490.5000    -9.1060     9.6510     8.4440    72.5950     7.5290     2.4350     0.1400     0.0060
  491.0000    -9.0500     9.5910     8.3340    72.1190     7.5000     2.4420     0.1390     0.0050
  491.5000    -8.9930     9.5300     8.2350    69.0470     7.5470     2.4410     0.1390     0.0050
  492.0000    -8.9310     9.4700     8.2140    66.3290     7.5830     2.4400     0.1380     0.0050
  492.5000    -8.7040     9.4090     8.1930    67.3050     7.5650     2.4390     0.1380     0.0050
  493.0000    -7.9460     9.3490     8.1620    68.8580     7.5480     2.4420     0.1370     0.0040
  493.5000    -7.2490     9.2880     8.1890    70.4450     7.5320     2.4450     0.1360     0.0040
  494.0000    -6.8950     9.2280     8.2390    73.3040     7.5150     2.4470     0.1420     0.0040
  494.5000    -6.7590     9.1670     8.2900    76.2120     7.4980     2.4330     0.1490     0.0040
  495.0000    -6.6240     9.1220     8.4370    76.8930     7.4840     2.4200     0.1560     0.0040
  495.5000    -6.4900     9.5430     8.5820    72.6680     7.5190     2.4070     0.1640     0.0030
