~VERSION INFORMATION
 VERS.                2.0:   CWLS LOG ASCII STANDARD - VERSION 2.0
 WRAP.                 NO:   ONE LINE PER DEPTH STEP
~WELL INFORMATION
#MNEM.UNIT      DATA TYPE    INFORMATION
#----------   ------------   ------------------------------
 STRT.F           20.0000:   START DEPTH
 STOP.F          930.0000:   STOP DEPTH
 STEP.F            0.5000:   STEP LENGTH
 NULL.          -999.2500:   NO VALUE
 COMP. FENIX & SCISSON INC:   COMPANY
 WELL.     NPR 3 #45-S-14:   WELL
 FLD .        TEAPOT DOME:   FIELD
 LOC .      S14 T38N R78W:   LOCATION
 CNTY.            NATRONA:   COUNTY
 STAT.            WYOMING:   STATE
 CTRY. UNITED STATES OF AMERICA:   COUNTRY
 SRVC.           BIRDWELL:   SERVICE COMPANY
 DATE.        02-JAN-1979:   LOGDATE
 API .       490251076200:   API NUMBER
~CURVE INFORMATION
#MNEM.UNIT       API CODE    CURVE DESCRIPTION
#----------   ------------   ------------------------------
 DEPT.F                  :   
 GRD .GAPI   45 310 01 00:   GAMMA RAY FROM DENSITY LOG
 CALD.IN     45 280 60 00:   CALIPER
 RHOB.G/C3   45 350 01 00:   BULK DENSITY
 DPHI.DEC    45 890 12 00:   DENSITY POROSITY SANDSTONE
 CORR.G/C3   45 356 01 00:   DENSITY CORRECTION
~PARAMETER INFORMATION
#MNEM.UNIT          VALUE    DESCRIPTION
#----------   ------------   ------------------------------
 PD  .                 GL:   PERMANENT DATUM
 EPD .F              5261:   ELEVATION PERMANENT DATUM
 LMF .                 KB:   LOG MEASURED FROM
 DAPD.F                 4:   FEET ABOVE PERMANENT DATUM
 DMF .                 KB:   DRILLING MEASURED FROM
 EKB .F              5265:   KELLING BUSHING
 EGL .F              5261:   GROUND LEVEL
 DATE.             1-7-79:   RUN DATE
 RUN .                  1:   RUN NUMBER
 DD  .F               969:   DEPTH DRILLER
 DL  .F               928:   DEPTH LOGGER
 BLI .F               928:   BOTTOM LOG INTERVAL
 TLI .F                20:   TOP LOG INTERVAL
 CS  .IN            8.625:   CASING SIZE
 CBD .F                40:   CASING BOTTOM DRILLER
 CBL .F                46:   CASING BOTTOM LOGGER
 BS  .IN            7.875:   BIT SIZE
 BSD .F               969:   BIT SIZE AT DEPTH
 DFT .                KCL:   DRILLING FLUID TYPE
 DFD .                8.8:   DRILLING FLUID DENSITY
 DFV .                 42:   DRILLING FLUID VISCOSITY
 DFPH.                9.2:   DRILLING FLUID PH
 DFL .                 10:   DRILLING FLUID LOSS
 MSS .           FLOWLINE:   MUD SAMPLE SOURCE
 RMS .OHMM            .95:   RESISTIVITY MUD SAMPLE
 MST .F                60:   MUD SAMPLE TEMPERATURE
 RMF .OHMM            1.7:   RESISTIVITY MUD FILTRATE SAMPLE
 MFST.F                60:   MUD FILTRATE SAMPLE TEMPERATURE
 RMC .OHMM            1.6:   RESISTIVITY MUD CAKE
 MCST.F                60:   MUD CAKE SAMPLE TEMPERATURE
 MFSS.           MEASURED:   MUD FILTRATE SAMPLE SOURCE
 MCSS.           MEASURED:   MUD CAKE SAMPLE SOURCE
 RMB .OHMM            .98:   RESISTIVITY MUD AT BHT
 BHT .F                58:   BOTTOM HOLE TEMPERATURE
 TCS .HRS               4:   TIME CURCULATED STOPPED
 MRT .F                58:   MAXIMUM RECORDED TEMPERATURE
 LUN .               3006:   LOGGING UNIT NUMBER
 LUL .             CASPER:   LOGGING UNIT LOCATION
 ENGI.            ROLLINS:   RECORDING ENGINEER
 WITN.           DINSMORE:   WITNESSED BY
 CLNT.            A2DTECH:   CLIENT CODE
 ORIG.           5" PRINT:   ORIGIN OF DATA
 UWI .       490251076200:   UNIQUE WELL ID
 DICO. A2D Technologies, Inc.:   DIGITIZING COMPANY
~OTHER INFORMATION
~A   DEPT      GRD         CALD     RHOB       DPHI       CORR   
   20.0000  -999.2500     7.9510  -999.2500  -999.2500  -999.2500
   20.5000  -999.2500     7.9510  -999.2500  -999.2500  -999.2500
   21.0000  -999.2500     7.9460  -999.2500  -999.2500  -999.2500
   21.5000  -999.2500     7.9380  -999.2500  -999.2500  -999.2500
   22.0000  -999.2500     7.9350  -999.2500  -999.2500  -999.2500
   22.5000  -999.2500     7.8550  -999.2500  -999.2500  -999.2500
   23.0000    79.4730     7.8300  -999.2500  -999.2500  -999.2500
   23.5000    79.7190     7.9850  -999.2500  -999.2500  -999.2500
   24.0000    79.9640     8.0500  -999.2500  -999.2500  -999.2500
   24.5000    81.1950     8.0500  -999.2500  -999.2500  -999.2500
   25.0000    83.9850     8.0490  -999.2500  -999.2500  -999.2500
   25.5000    85.6860     8.0480  -999.2500  -999.2500  -999.2500
   26.0000    82.2410     8.0470  -999.2500  -999.2500  -999.2500
   26.5000    77.3120     8.0460  -999.2500  -999.2500  -999.2500
   27.0000    76.2940     8.0460  -999.2500  -999.2500  -999.2500
   27.5000    76.2040     8.0450  -999.2500  -999.2500  -999.2500
   28.0000    76.1650     8.0440  -999.2500  -999.2500  -999.2500
   28.5000    76.6990     8.0430  -999.2500  -999.2500  -999.2500
   29.0000    77.5510     8.0420  -999.2500  -999.2500  -999.2500
   29.5000    78.1990     8.0410  -999.2500  -999.2500  -999.2500
   30.0000    80.5750     8.0400  -999.2500  -999.2500  -999.2500
   30.5000    85.3980     8.0390  -999.2500  -999.2500  -999.2500
   31.0000    87.7350     8.0390  -999.2500  -999.2500  -999.2500
   31.5000    85.6470     8.0380  -999.2500  -999.2500  -999.2500
   32.0000    81.9740     8.0370  -999.2500  -999.2500  -999.2500
   32.5000    79.2240     8.0360  -999.2500  -999.2500  -999.2500
   33.0000    78.5460     8.0350  -999.2500  -999.2500  -999.2500
   33.5000    78.5270     8.0340  -999.2500  -999.2500  -999.2500
   34.0000    78.5090     8.0330  -999.2500  -999.2500  -999.2500
   34.5000    78.3440     8.0320  -999.2500  -999.2500  -999.2500
   35.0000    78.1780     8.0320  -999.2500     0.1120  -999.2500
   35.5000    78.0110     8.0280  -999.2500     0.1070  -999.2500
   36.0000    77.8370     8.0210  -999.2500     0.1020  -999.2500
   36.5000    77.4740     8.0150  -999.2500     0.1010    -0.1600
   37.0000    76.5110     8.0080  -999.2500     0.1000    -0.1620
   37.5000    75.8760     8.0010     2.5070     0.1030    -0.1640
   38.0000    76.9420     7.9940     2.5040     0.1030    -0.1660
   38.5000    78.1970     7.9880     2.5010     0.1070    -0.1660
   39.0000    78.8890     7.9810     2.5000     0.1150    -0.1630
   39.5000    77.7960     7.9740     2.4950     0.1190    -0.1600
   40.0000    76.7520     7.9670     2.4910     0.1140    -0.1570
   40.5000    75.9720     7.9600     2.4890     0.1100    -0.1540
   41.0000    75.9270     7.9540     2.4930     0.1080    -0.1510
   41.5000    76.0900     7.9470     2.4980     0.1050    -0.1490
   42.0000    75.8440     7.9400     2.5030     0.1040    -0.1500
   42.5000    81.5170     7.9330     2.5050     0.1040    -0.1500
   43.0000    80.6630     7.9260     2.5060     0.1030    -0.1510
   43.5000    78.8160     7.9200     2.5070     0.1000    -0.1510
   44.0000    78.6460     7.9160     2.5070     0.0990    -0.1520
   44.5000    81.6440     7.8550     2.5080     0.1030    -0.1520
   45.0000    80.5260     7.5560     2.5050     0.1150    -0.1530
   45.5000    78.7110     7.5140     2.5010     0.1580    -0.1490
   46.0000    78.0470     7.4560     2.4480     0.1950    -0.1340
   46.5000    75.1790     7.3960     2.3540     0.2720    -0.0850
   47.0000    74.5580     7.4420     2.2600     0.3380     0.0140
   47.5000    77.7150     7.4880     2.1680     0.3250     0.1130
   48.0000    82.9480     7.6200     2.1230     0.3320     0.1270
   48.5000    84.6810     8.0810     2.1330     0.3480     0.1180
   49.0000    82.8630     8.2210     2.1100     0.3640     0.1010
   49.5000    80.4440     8.2120     2.0830     0.3700     0.0960
   50.0000    79.1620     8.1950     2.0670     0.3710     0.0780
   50.5000    79.1940     8.2600     2.0550     0.3710     0.0540
   51.0000    81.4010     8.3230     2.0470     0.3710     0.0440
   51.5000    82.7180     8.3650     2.0460     0.3710     0.0430
   52.0000    84.7680     8.3170     2.0560     0.3610     0.0420
   52.5000    86.1220     8.2710     2.0730     0.3540     0.0420
   53.0000    85.8900     8.2280     2.0900     0.3520     0.0440
   53.5000    85.6170     8.1970     2.0960     0.3490     0.0460
   54.0000    85.8430     8.1980     2.1020     0.3390     0.0600
   54.5000    88.5520     8.2070     2.1120     0.3280     0.0830
   55.0000    89.2370     8.1540     2.1290     0.3170     0.0940
   55.5000    88.9870     8.1280     2.1520     0.2880     0.0890
   56.0000    83.9890     8.2760     2.2030     0.2880     0.0840
   56.5000    80.1730     7.9070     2.2060     0.2660     0.1350
   57.0000    80.2150     7.9080     2.2230     0.2440     0.1480
   57.5000    84.9770     7.9740     2.2600     0.2330     0.1430
   58.0000    85.2450     8.0390     2.2920     0.2410     0.1180
   58.5000    84.1610     8.0880     2.2870     0.2530     0.0860
   59.0000    83.4800     8.0620     2.2690     0.2630     0.0570
   59.5000    83.4670     8.0380     2.2520     0.2620     0.0460
   60.0000    85.7860     8.0140     2.2410     0.2630     0.0430
   60.5000    90.7100     7.9880     2.2400     0.2670     0.0410
   61.0000    92.6940     7.9690     2.2400     0.2640     0.0410
   61.5000    93.6280     7.8170     2.2410     0.2610     0.0410
   62.0000    93.4990     8.0660     2.2510     0.2590     0.0410
   62.5000    93.1330     7.8360     2.2540     0.2540     0.0450
   63.0000    91.1400     8.0130     2.2540     0.2470     0.0490
   63.5000    89.0830     8.0060     2.2640     0.2390     0.0490
   64.0000    89.3430     7.9960     2.2850     0.2310     0.0450
   64.5000    92.4710     7.9870     2.3070     0.2190     0.0400
   65.0000    93.0500     7.9790     2.3180     0.2140     0.0400
   65.5000    93.3780     7.9700     2.3280     0.2060     0.0420
   66.0000    92.4790     7.9620     2.3490     0.1970     0.0440
   66.5000    93.8510     7.9530     2.3580     0.1920     0.0480
   67.0000    98.4340     7.9510     2.3620     0.1890     0.0620
   67.5000    97.8980     7.9510     2.3700     0.1810     0.0770
   68.0000    96.5640     7.9510     2.3810     0.1730     0.0810
   68.5000    96.4750     7.9520     2.3920     0.1670     0.0820
   69.0000    97.2970     7.9780     2.3970     0.1660     0.0820
   69.5000    98.2510     8.0050     2.3980     0.1700     0.0830
   70.0000    99.6680     8.0300     2.3910     0.1760     0.0830
   70.5000    98.9700     8.0200     2.3860     0.1830     0.0930
   71.0000    97.2620     7.9980     2.3750     0.1870     0.1040
   71.5000    97.0940     7.9400     2.3720     0.1870     0.1150
   72.0000    98.2170     7.8860     2.3730     0.1850     0.1230
   72.5000    98.0420     7.8570     2.3740     0.1780     0.1190
   73.0000    96.9370     7.8270     2.3750     0.1810     0.1070
   73.5000    95.0430     7.8490     2.3730     0.1870     0.0860
   74.0000    91.0150     7.8700     2.3660     0.1910     0.0670
   74.5000    90.3800     7.8710     2.3610     0.1880     0.0430
   75.0000    90.5420     7.8710     2.3610     0.1870     0.0360
   75.5000    90.6880     7.8700     2.3610     0.1900     0.0290
   76.0000    90.8000     7.8700     2.3610     0.1940     0.0280
   76.5000    90.2390     7.8700     2.3610     0.1960     0.0280
   77.0000    90.3830     7.8710     2.3610     0.1930     0.0290
   77.5000    92.0690     7.8710     2.3640     0.1900     0.0300
   78.0000    92.5380     7.8700     2.3660     0.1870     0.0310
   78.5000    90.7920     7.8570     2.3680     0.1840     0.0320
   79.0000    91.4440     7.8300     2.3680     0.1840     0.0330
   79.5000    92.0490     7.7930     2.3660     0.1880     0.0340
   80.0000    91.9640     7.7150     2.3620     0.1880     0.0340
   80.5000    90.9940     7.6680     2.3620     0.1870     0.0330
