~VERSION INFORMATION
 VERS.                2.0:   CWLS LOG ASCII STANDARD - VERSION 2.0
 WRAP.                 NO:   ONE LINE PER DEPTH STEP
~WELL INFORMATION
#MNEM.UNIT      DATA TYPE    INFORMATION
#----------   ------------   ------------------------------
 STRT.F           32.0000:   START DEPTH
 STOP.F          517.0000:   STOP DEPTH
 STEP.F            0.5000:   STEP LENGTH
 NULL.          -999.2500:   NO VALUE
 COMP.    FENIX & SCISSON:   COMPANY
 WELL.        NPR #75-S-3:   WELL
 FLD .             TEAPOT:   FIELD
 LOC .       S3 T38N R78W:   LOCATION
 CNTY.            NATRONA:   COUNTY
 STAT.            WYOMING:   STATE
 CTRY. UNITED STATES OF AMERICA:   COUNTRY
 SRVC.              Welex:   SERVICE COMPANY
 DATE.        08-MAR-1977:   LOGDATE
 API .       490251030900:   API NUMBER
~CURVE INFORMATION
#MNEM.UNIT       API CODE    CURVE DESCRIPTION
#----------   ------------   ------------------------------
 DEPT.F                  :   
 SPR .MV     07 010 01 00:   SPONTANEOUS POTENTIAL
 ILD .OHMM   07 120 46 00:   INDUCTION LOG DEEP RES
 ILM .OHMM   07 120 44 00:   INDUCTION LOG MEDIUM RES
 SGRD.OHMM   07 220 05 00:   SHALLOW  GUARD RESISTIVITY
 CALD.IN     45 280 60 00:   CALIPER FROM DENSITY
 GRD .GAPI   45 310 01 00:   GAMMA RAY FROM DENSITY LOG
 CORR.G/C3   45 356 01 00:   DENSITY CORRECTION
 DPHI.DEC    45 890 12 00:   DENSITY POROSITY SANDSTONE
 RHOB.G/C3   45 350 01 00:   BULK DENSITY
~PARAMETER INFORMATION
#MNEM.UNIT          VALUE    DESCRIPTION
#----------   ------------   ------------------------------
 PD  .                 GL:   PERMANENT DATUM
 EPD .F              5141:   ELEVATION PERMANENT DATUM
 LMF .                 GL:   LOG MEASURED FROM
 DMF .                 GL:   DRILLING MEASURED FROM
 EGL .F              5141:   GROUND LEVEL
 DATE.         03-08-1977:   RUN DATE
 RUN .                  1:   RUN NUMBER
 DD  .F               521:   DEPTH DRILLER
 DL  .F               521:   DEPTH LOGGER
 BLI .F               519:   BOTTOM LOG INTERVAL
 TLI .F                35:   TOP LOG INTERVAL
 CS  .IN            8.625:   CASING SIZE
 CBD .F                40:   CASING BOTTOM DRILLER
 CBL .F                42:   CASING BOTTOM LOGGER
 BS  .IN            7.875:   BIT SIZE
 BSD .F               521:   BIT SIZE AT DEPTH
 DFT .            KCL MUD:   DRILLING FLUID TYPE
 DFD .                8.5:   DRILLING FLUID DENSITY
 DFV .                 32:   DRILLING FLUID VISCOSITY
 DFPH.                  8:   DRILLING FLUID PH
 DFL .                8.5:   DRILLING FLUID LOSS
 MSS .            MUD PIT:   MUD SAMPLE SOURCE
 RMS .OHMM            .65:   RESISTIVITY MUD SAMPLE
 MST .F                53:   MUD SAMPLE TEMPERATURE
 RMF .OHMM            .51:   RESISTIVITY MUD FILTRATE SAMPLE
 MFST.F                58:   MUD FILTRATE SAMPLE TEMPERATURE
 RMC .OHMM            .67:   RESISTIVITY MUD CAKE
 MCST.F                54:   MUD CAKE SAMPLE TEMPERATURE
 MFSS.           FANN KIT:   MUD FILTRATE SAMPLE SOURCE
 MCSS.           FANN KIT:   MUD CAKE SAMPLE SOURCE
 RMB .OHMM            .53:   RESISTIVITY MUD AT BHT
 BHT .F                64:   BOTTOM HOLE TEMPERATURE
 TCS .HRS             1.5:   TIME CURCULATED STOPPED
 MRT .F                64:   MAXIMUM RECORDED TEMPERATURE
 LUN .               8611:   LOGGING UNIT NUMBER
 LUL .           GILLETTE:   LOGGING UNIT LOCATION
 ENGI.               DOAK:   RECORDING ENGINEER
 WITN.           S. BURKE:   WITNESSED BY
 CLNT.            A2DTECH:   CLIENT CODE
 ORIG.           5" PRINT:   ORIGIN OF DATA
 UWI .       490251030900:   UNIQUE WELL ID
 DICO. A2D Technologies, Inc.:   DIGITIZING COMPANY
~OTHER INFORMATION
~A   DEPT      SPR        ILD        ILM       SGRD       CALD        GRD        CORR        DPHI       RHOB 
# ...
  360.5000   -37.7434    15.5862    20.2231    23.0657     7.9577    79.2003     0.0552     0.1498     2.3953
  361.0000   -38.0236    15.4909    20.3734    22.9200     7.9584    78.6222     0.0493     0.1570     2.3880
  361.5000   -38.3038    15.2934    19.9739    21.2579     7.9591    78.9336     0.0435     0.1593     2.3828
  362.0000   -38.7316    15.0927    19.7108    19.3128     7.9597    82.0596     0.0406     0.1554     2.3852
  362.5000   -39.0118    14.7979    19.4578    18.9253     7.9604    83.5559     0.0407     0.1515     2.3935
  363.0000   -38.9971    14.7047    19.2048    18.8057     7.9611    83.7188     0.0424     0.1466     2.3989
  363.5000   -38.9823    14.6148    19.0861    19.2120     7.9617    83.5852     0.0471     0.1409     2.3967
  364.0000   -38.9676    14.5282    18.8347    19.4895     7.9624    83.0078     0.0502     0.1376     2.3938
  364.5000   -38.9528    14.4366    18.5898    19.7710     7.9631    81.5411     0.0534     0.1369     2.3901
  365.0000   -38.7906    14.3483    18.3481    20.0566     7.9637    80.8152     0.0536     0.1378     2.3879
  365.5000   -38.7758    14.2606    18.1095    20.3463     7.9644    83.4967     0.0522     0.1396     2.3850
  366.0000   -38.6136    14.1734    17.8740    20.2177     7.9651    85.4374     0.0493     0.1417     2.3813
  366.5000   -38.5988    13.9901    17.6446    20.0872     7.9657    85.9126     0.0480     0.1422     2.3776
  367.0000   -38.5841    13.8117    17.2957    19.6896     7.9664    82.9486     0.0481     0.1407     2.3852
  367.5000   -38.5693    13.6330    17.0708    19.5625     7.9671    81.2643     0.0483     0.1371     2.3876
  368.0000   -38.7021    13.5471    16.7331    19.4389     7.9677    84.7560     0.0499     0.1331     2.3989
  368.5000   -38.8348    13.3718    16.4022    19.3160     7.9684    86.1042     0.0501     0.1274     2.4223
  369.0000   -39.1150    13.2013    15.9674    18.9337     7.9691    86.2374     0.0502     0.1220     2.4374
  369.5000   -39.2478    13.1206    15.6516    18.5539     7.9698    83.8699     0.0534     0.1174     2.4495
  370.0000   -39.2330    13.0379    15.2367    17.8144     7.9704    82.6886     0.0551     0.1150     2.4586
  370.5000   -39.5133    12.9582    15.1399    17.2203     7.9686    85.6728     0.0567     0.1177     2.4564
  371.0000   -39.6460    12.8790    15.1529    16.7612     7.9659    87.9115     0.0569     0.1216     2.4438
  371.5000   -39.6313    12.7123    15.1634    16.8865     7.9632    89.2587     0.0555     0.1216     2.4476
  372.0000   -39.6165    12.5503    15.1739    17.4884     7.9605    90.0116     0.0526     0.1155     2.4612
  372.5000   -39.6018    12.5597    15.1843    18.7470     7.9578    90.1701     0.0513     0.1116     2.4703
  373.0000   -39.7345    12.3949    14.9869    19.8209     7.9551    89.8828     0.0515     0.1118     2.4644
  373.5000   -39.7198    12.3191    14.6905    17.5175     7.9524    88.4068     0.0516     0.1175     2.4524
  374.0000   -39.7050    12.2438    14.3974    16.7921     7.9497    84.4048     0.0548     0.1166     2.4698
  374.5000   -39.6903    12.1689    14.1127    16.5936     7.9470    83.8179     0.0595     0.1015     2.4834
  375.0000   -39.6755    12.0115    14.0254    16.7181     7.9443    88.2879     0.0641     0.0937     2.4887
  375.5000   -39.6608    11.9403    14.0375    16.8430     7.9416    90.5267     0.0658     0.0931     2.4918
  376.0000   -39.7923    11.9494    14.1443    16.8523     7.9389    90.6827     0.0644     0.0969     2.4904
  376.5000   -39.7788    11.9584    14.3504    16.8616     7.9362    86.8318     0.0570     0.1026     2.4815
  377.0000   -39.9103    12.0502    14.1614    16.8708     7.9335    89.9620     0.0541     0.1092     2.4680
  377.5000   -39.8968    12.2266    13.8813    16.8900     7.9308    91.7550     0.0543     0.1188     2.4523
  378.0000   -39.8820    12.3204    13.7008    17.7328     7.9281    92.0621     0.0545     0.1218     2.4449
  378.5000   -39.8685    12.5872    13.8074    18.6241     7.9254    90.8833     0.0546     0.1217     2.4427
  379.0000   -39.8537    12.6838    13.8169    19.6818     7.9227    89.4073     0.0548     0.1184     2.4586
  379.5000   -39.8365    12.7811    13.8264    19.5417     7.9200    87.6341     0.0564     0.1154     2.4624
  380.0000   -39.8230    12.7908    13.9316    16.4664     7.9173    85.5638     0.0550     0.1169     2.4547
  380.5000   -39.6608    12.8889    14.1346    16.8198     7.9146    83.7906     0.0537     0.1298     2.4288
  381.0000   -39.4985    12.8987    14.2422    17.7834     7.9119    82.9090     0.0493     0.1354     2.4134
  381.5000   -39.3363    12.8174    14.1517    18.2907     7.9092    82.7679     0.0450     0.1375     2.4055
  382.0000   -39.0265    12.6540    13.4971    17.8031     7.9063    83.2260     0.0421     0.1378     2.4085
  382.5000   -38.8643    12.4879    13.0491    16.8571     7.9056    84.8704     0.0438     0.1302     2.4242
  383.0000   -38.9971    12.3287    12.7032    16.1830     7.9047    87.2577     0.0454     0.1251     2.4356
  383.5000   -39.2773    12.0856    12.5380    15.9700     7.9039    89.7936     0.0501     0.1209     2.4461
  384.0000   -39.4100    11.9293    12.4584    15.9791     7.9031    91.2894     0.0548     0.1169     2.4574
  384.5000   -39.3953    11.6941    12.5553    15.9880     7.9023    91.4454     0.0564     0.1139     2.4664
  385.0000   -39.5280    11.4614    12.7383    15.9968     7.9014    88.9318     0.0566     0.1106     2.4732
  385.5000   -39.6608    11.2354    12.7471    16.0057     7.9006    85.9699     0.0552     0.1087     2.4762
  386.0000   -39.6460    11.0160    12.3240    16.0146     7.8998    85.2344     0.0536     0.1184     2.4823
  386.5000   -39.6313    10.7989    12.0782    16.0234     7.8990    87.7728     0.0495     0.1176     2.4687
  387.0000   -39.4690    10.5860    12.4813    16.0323     7.8981    91.2003     0.0481     0.1131     2.4629
  387.5000   -39.3068    10.5193    13.3770    16.1522     7.8973    92.6961     0.0485     0.1098     2.4735
  388.0000   -39.2920    10.7491    12.0661    16.3855     7.8965    91.3687     0.0517     0.1068     2.4826
  388.5000   -39.1298    11.4453    11.7405    16.6222     7.8957    88.2582     0.0561     0.1077     2.4812
  389.0000   -38.6726    12.1029    12.6723    17.0964     7.8948    86.9283     0.0595     0.1104     2.4775
  389.5000   -38.0678    12.8867    13.8671    17.5841     7.8940    89.6153     0.0627     0.1137     2.4723
  390.0000   -37.4631    13.7213    15.1745    18.4637     7.8932    86.3563     0.0658     0.1173     2.4664
  390.5000   -36.8584    14.6100    16.9527    19.7925     7.8942    81.9085     0.0688     0.1291     2.4229
  391.0000   -36.2537    15.4495    18.6796    20.7825     7.8949    77.4608     0.0719     0.1451     2.3952
  391.5000   -35.6490    16.5638    21.0132    21.8221     7.8951    73.3102     0.0736     0.1612     2.3750
  392.0000   -35.1917    18.6358    24.1330    51.3328     7.8953    68.2681     0.0738     0.1750     2.3556
  392.5000   -35.0295    21.1119    27.3359    52.4346     7.8956    65.3038     0.0707     0.1869     2.3316
  393.0000   -34.7185    23.7529    29.0984    44.7709     7.8958    67.5450     0.0649     0.1947     2.3197
  393.5000   -34.4100    25.8194    30.7615    38.2274     7.8961    70.9724     0.0621     0.1988     2.3122
  394.0000   -34.3953    27.4916    31.1999    37.9805     7.8963    73.0626     0.0669     0.1894     2.3379
  394.5000   -34.3805    28.4765    30.9932    39.6119     7.8965    74.1126     0.0760     0.1708     2.3560
  395.0000   -34.3658    28.8934    30.5787    45.1806     7.8968    75.0140     0.0822     0.1692     2.3621
  395.5000   -34.4985    28.9153    29.7585    46.1439     7.8970    75.4697     0.0869     0.1722     2.3621
  396.0000   -34.6313    28.9371    29.3580    39.6723     7.8973    75.9254     0.0823     0.1845     2.3577
  396.5000   -34.6165    29.1592    30.8250    44.9448     7.8975    75.7842     0.0704     0.1899     2.3285
