~VERSION INFORMATION
 VERS.                2.0:   CWLS LOG ASCII STANDARD - VERSION 2.0
 WRAP.                 NO:   ONE LINE PER DEPTH STEP
~WELL INFORMATION
#MNEM.UNIT      DATA TYPE    INFORMATION
#----------   ------------   ------------------------------
 STRT.F            0.0000:   START DEPTH
 STOP.F          479.0000:   STOP DEPTH
 STEP.F            0.5000:   STEP LENGTH
 NULL.          -999.2500:   NO VALUE
 COMP. BROWN JOHN E&C INC:   COMPANY
 WELL.  63-3 SX-10 #63-10:   WELL
 FLD .             TEAPOT:   FIELD
 LOC .      S10 T38N R78W:   LOCATION
 CNTY.            NATRONA:   COUNTY
 STAT.            WYOMING:   STATE
 CTRY. UNITED STATES OF AMERICA:   COUNTRY
 SRVC.     Atlas Wireline:   SERVICE COMPANY
 DATE.        25-APR-1992:   LOGDATE
 API .       490252252900:   API NUMBER
~CURVE INFORMATION
#MNEM.UNIT       API CODE    CURVE DESCRIPTION
#----------   ------------   ------------------------------
 DEPT.F                  :   
 GRR .GAPI   07 310 01 00:   GAMMA RAY
 SPR .MV     07 010 01 00:   SPONTANEOUS POTENTIAL
 RILD.OHMM   07 120 46 00:   INDUCTION LOG DEEP RESISTIVITY
 RILM.OHMM   07 120 44 00:   INDUCTION LOG MEDIUM RESISTIVITY
 RFOC.OHMM   07 220 04 00:   RESISTIVITY FOCUSED LOG
 PORD.DEC    45 890 12 00:   POROSITY DENSITY SANDSTONE
 CNC .DEC    42 890 03 00:   NEUTRON POROSITY SANDSTONE
 CALD.IN     45 280 60 00:   CALIPER FROM DENSITY
 CORR.G/C3   45 356 01 00:   DENSITY CORRECTION
 DEN .G/C3   45 350 01 00:   COMPENSATED BULK DENSTIY
~PARAMETER INFORMATION
#MNEM.UNIT          VALUE    DESCRIPTION
#----------   ------------   ------------------------------
 PD  .                 GL:   PERMANENT DATUM
 EPD .F              5189:   ELEVATION PERMANENT DATUM
 LMF .                 KB:   LOG MEASURED FROM
 DAPD.F                10:   FEET ABOVE PERMANENT DATUM
 DMF .                 KB:   DRILLING MEASURED FROM
 EKB .F              5199:   KELLING BUSHING
 EGL .F              5189:   GROUND LEVEL
 DATE.        25-APR-1992:   RUN DATE
 RUN .                  1:   RUN NUMBER
 DD  .F               480:   DEPTH DRILLER
 DL  .F               482:   DEPTH LOGGER
 BLI .F               480:   BOTTOM LOG INTERVAL
 CS  .IN            8.625:   CASING SIZE
 CBD .F               130:   CASING BOTTOM DRILLER
 CBL .F               143:   CASING BOTTOM LOGGER
 BS  .IN            7.875:   BIT SIZE
 BSD .F               480:   BIT SIZE AT DEPTH
 DFT .     DISP. WEIGHTED:   DRILLING FLUID TYPE
 DFD .               15.1:   DRILLING FLUID DENSITY
 DFV .                 44:   DRILLING FLUID VISCOSITY
 DFPH.                8.4:   DRILLING FLUID PH
 DFL .                  7:   DRILLING FLUID LOSS
 MSS .           FLOWLINE:   MUD SAMPLE SOURCE
 TCS .HRS            0230:   TIME CURCULATED STOPPED
 LUN .           HL- 6272:   LOGGING UNIT NUMBER
 LUL .             CASPER:   LOGGING UNIT LOCATION
 ENGI.       P. RASMUSSEN:   RECORDING ENGINEER
 WITN.          G. STRONG:   WITNESSED BY
 CLNT.            A2DTECH:   CLIENT CODE
 ORIG.           5" PRINT:   ORIGIN OF DATA
 UWI .       490252252900:   UNIQUE WELL ID
 DICO. A2D Technologies, Inc.:   DIGITIZING COMPANY
~OTHER INFORMATION
~A    DEPT      GRR       SPR       RILD       RILM       RFOC       PORD        CNC       CALD       CORR        DEN   
# ...
  268.0000    57.7673   -70.8604    23.0789    22.1474    22.5588     0.1819     0.3106     7.7714    -0.0137     2.3781
  268.5000    59.3152   -70.5662    24.2257    22.3011    21.1524     0.1611     0.2997     7.7708    -0.0077     2.4031
  269.0000    60.4724   -70.2720    24.7305    22.4551    19.5435     0.1493     0.2771     7.7702    -0.0078     2.4083
  269.5000    60.7660   -70.2795    25.0723    22.7686    18.9449     0.1454     0.2762     7.7696    -0.0169     2.4106
  270.0000    59.2419   -70.2869    24.8897    23.0869    22.0792     0.1451     0.2795     7.7689    -0.0288     2.4128
  270.5000    57.7201   -70.4453    24.7101    23.4092    23.5047     0.1436     0.2804     7.7683    -0.0443     2.4166
  271.0000    58.0159   -70.6036    24.8777    23.2447    22.6969     0.1402     0.2792     7.7525    -0.0489     2.4136
  271.5000    58.6121   -70.7619    25.2181    23.8999    21.4635     0.1468     0.2828     7.7519    -0.0399     2.3841
  272.0000    57.6931   -71.0710    25.7436    24.9185    22.3766     0.1660     0.2925     7.7513    -0.0264     2.3538
  272.5000    56.7764   -71.3801    26.0994    25.0909    25.7187     0.1844     0.2994     7.7507    -0.0129     2.3372
  273.0000    55.8597   -71.6893    26.6433    24.5702    26.8128     0.1888     0.2994     7.7501    -0.0024     2.3372
  273.5000    55.5504   -71.8477    27.1967    24.3980    25.7116     0.1888     0.2994     7.7495     0.0006     2.3424
  274.0000    58.5649   -71.6904    27.3812    24.3963    23.6461     0.1873     0.2985     7.7489     0.0005     2.3470
  274.5000    61.2790   -71.4100    27.3717    24.3946    21.7466     0.1833     0.2954     7.7483    -0.0041     2.3507
  275.0000    63.0855   -71.7194    26.6121    24.5635    21.1467     0.1755     0.2907     7.7477    -0.0193     2.3643
  275.5000    62.7739   -72.0301    25.8736    24.3908    22.6686     0.1673     0.2888     7.7623    -0.0209     2.3824
  276.0000    61.2521   -71.8868    25.1556    24.2198    23.9646     0.1631     0.2900     7.7617    -0.0164     2.3839
  276.5000    63.6637   -71.7416    24.4575    23.7172    24.1297     0.1622     0.2918     7.7611    -0.0120     2.3809
  277.0000    64.0103   -71.2984    23.9439    22.9037    21.7316     0.1649     0.2921     7.7604    -0.0105     2.3794
  277.5000    62.7380   -70.8515    23.4351    21.9645    19.9858     0.1646     0.2891     7.7751    -0.0212     2.3809
  278.0000    63.0316   -70.2576    22.9369    21.2111    18.8998     0.1639     0.2894     7.7744    -0.0258     2.3839
  278.5000    67.2586   -69.8125    22.4496    20.2001    19.1630     0.1639     0.2900     7.7739    -0.0259     2.3815
  279.0000    67.5522   -69.5184    22.1260    19.5072    18.7634     0.1651     0.2912     7.7732    -0.0244     2.3786
  279.5000    67.5431   -69.2242    21.6883    18.9698    18.3727     0.1657     0.2921     7.7726    -0.0169     2.3804
  280.0000    68.7646   -69.0789    21.2339    18.8368    18.1160     0.1620     0.2897     7.7720    -0.0095     2.3941
  280.5000    69.0381   -68.9375    20.6446    18.8355    17.7388     0.1506     0.2839     7.7562    -0.0035     2.4091
  281.0000    68.0766   -68.7922    20.0717    18.8342    17.3695     0.1434     0.2782     7.7556    -0.0005     2.4172
  281.5000    67.1478   -68.4980    19.7885    18.8329    17.1268     0.1403     0.2767     7.7550    -0.0006     2.4185
  282.0000    67.4960   -68.0549    19.6457    18.8316    16.6538     0.1424     0.2847     7.7544    -0.0052     2.4154
  282.5000    67.7918   -67.6099    19.6403    18.8049    17.2418     0.1476     0.2909     7.7538    -0.0098     2.4049
  283.0000    65.6626   -67.3138    19.6349    18.8065    18.1010     0.1494     0.2907     7.7532    -0.0069     2.4041
  283.5000    66.2587   -67.7757    19.6295    18.5478    18.0944     0.1460     0.2893     7.7526    -0.0024     2.4124
  284.0000    71.0909   -68.0848    19.7626    18.2926    16.7517     0.1436     0.2869     7.7520     0.0005     2.4139
  284.5000    74.1099   -68.3939    19.4824    18.1666    16.1849     0.1445     0.2836     7.7362     0.0020     2.4071
  285.0000    72.2832   -68.5522    19.2075    17.9170    16.0702     0.1475     0.2806     7.7356     0.0019     2.4033
  285.5000    68.9459   -68.8614    18.9365    17.6704    16.0826     0.1496     0.2787     7.7198     0.0003     2.4026
  286.0000    65.9112   -69.0197    18.6694    17.3064    16.1782     0.1490     0.2793     7.7190    -0.0043     2.4071
  286.5000    67.7177   -69.1780    18.5346    17.1872    16.1758     0.1481     0.2817     7.7184    -0.0059     2.4086
  287.0000    70.1293   -69.3364    18.5295    17.0692    16.2868     0.1487     0.2845     7.7178    -0.0045     2.4025
  287.5000    71.0302   -69.4948    18.6539    16.9519    15.9471     0.1542     0.2848     7.7172    -0.0030     2.3904
  288.0000    71.0190   -69.6531    18.7793    16.9534    15.5067     0.1596     0.2847     7.7166    -0.0031     2.3851
  288.5000    70.4049   -69.6370    19.0374    17.1923    15.2900     0.1607     0.2847     7.7312    -0.0032     2.3851
  289.0000    69.1856   -69.0664    19.4341    17.8025    15.2879     0.1589     0.2850     7.7154    -0.0033     2.3881
  289.5000    68.2689   -68.4705    19.7137    18.4343    15.6087     0.1565     0.2868     7.7148    -0.0063     2.3941
  290.0000    69.7728   -67.7238    19.9723    18.8247    16.2727     0.1544     0.2883     7.7142    -0.0094     2.3964
  290.5000    71.5792   -66.9772    20.1064    19.0899    17.0836     0.1532     0.2901     7.7136    -0.0125     2.3948
  291.0000    71.8729   -66.5322    20.2414    19.0912    17.5646     0.1543     0.2968     7.7130    -0.0126     2.3918
  291.5000    70.9561   -65.9363    19.9544    18.9601    17.0789     0.1586     0.2995     7.7277    -0.0112     2.3910
  292.0000    69.1155   -65.6421    19.5363    18.3127    16.7233     0.1564     0.2994     7.7270    -0.0082     2.3948
  292.5000    68.2150   -65.6496    19.1270    17.6855    16.3751     0.1543     0.2980     7.7417    -0.0068     2.3986
  293.0000    71.0257   -65.6571    18.7262    17.3159    16.0342     0.1534     0.2892     7.7409    -0.0069     2.3978
  293.5000    73.3407   -65.8154    18.4620    17.0848    15.7004     0.1525     0.2826     7.7403    -0.0070     2.3993
  294.0000    71.9515   -65.8228    18.2015    17.0859    15.5892     0.1501     0.2795     7.7397    -0.0055     2.4031
  294.5000    70.2970   -65.9811    17.9447    17.0872    15.4789     0.1476     0.2786     7.7391    -0.0041     2.4068
  295.0000    72.5668   -66.1395    17.8152    17.0886    15.4767     0.1467     0.2789     7.7385    -0.0026     2.4091
  295.5000    74.2125   -66.2978    17.8103    17.0898    15.4746     0.1458     0.2810     7.7379     0.0003     2.4098
  296.0000    71.7807   -66.6069    17.8054    17.0909    15.4724     0.1452     0.2829     7.7373     0.0033     2.4113
  296.5000    72.3768   -66.9160    17.8004    16.9735    15.4703     0.1446     0.2825     7.7519     0.0047     2.4105
  297.0000    74.4859   -67.0743    17.7955    16.9747    15.4682     0.1455     0.2792     7.7513     0.0076     2.4120
  297.5000    76.2923   -67.0818    17.7906    16.8578    15.5743     0.1446     0.2744     7.7507     0.0091     2.4120
  298.0000    75.3756   -67.2205    17.9103    16.8593    15.5720     0.1453     0.2701     7.7501     0.0044     2.4097
  298.5000    74.1563   -67.2205    18.0305    16.8604    15.4617     0.1495     0.2680     7.7343     0.0013     2.4022
  299.0000    73.8448   -67.2205    18.0253    16.7443    15.4596     0.1551     0.2677     7.7185     0.0013     2.3984
  299.5000    73.8358   -67.2205    17.7710    16.7458    15.4575     0.1563     0.2677     7.7027     0.0027     2.3923
  300.0000    73.9077   -67.2218    17.3987    16.8638    15.4556     0.1559     0.2747     7.6869     0.0026     2.3932
  300.5000    74.4197   -67.3803    17.2779    17.1003    15.4544     0.1551     0.2768     7.6862     0.0012     2.3945
  301.0000    74.4077   -67.2349    17.8903    17.1003    15.4531     0.1554     0.2765     7.7006    -0.0002     2.3953
