~VERSION INFORMATION
 VERS.                2.0:   CWLS LOG ASCII STANDARD - VERSION 2.0
 WRAP.                 NO:   ONE LINE PER DEPTH STEP
~WELL INFORMATION
#MNEM.UNIT      DATA TYPE    INFORMATION
#----------   ------------   ------------------------------
 STRT.F         1700.0000:   START DEPTH
 STOP.F         2172.0000:   STOP DEPTH
 STEP.F            0.5000:   STEP LENGTH
 NULL.          -999.2500:   NO VALUE
 COMP.   FENIX & SCISSONS:   COMPANY
 WELL. NPR ##3 57-22-SX-3:   WELL
 FLD .             TEAPOT:   FIELD
 LOC .       S3 T38N R78W:   LOCATION
 CNTY.            NATRONA:   COUNTY
 STAT.            WYOMING:   STATE
 CTRY. UNITED STATES OF AMERICA:   COUNTRY
 SRVC.      NL McCullough:   SERVICE COMPANY
 DATE.        08-AUG-1988:   LOGDATE
 API .       490251123900:   API NUMBER
~CURVE INFORMATION
#MNEM.UNIT       API CODE    CURVE DESCRIPTION
#----------   ------------   ------------------------------
 DEPT.F                  :   
 ROP .FT/HR  91 810 01 00:   RAT OF DRILLING PENETRATION
 TGAS.TC/CC  91 830 01 00:   TOTAL GAS UNIT
~PARAMETER INFORMATION
#MNEM.UNIT          VALUE    DESCRIPTION
#----------   ------------   ------------------------------
 PD  .                 GL:   PERMANENT DATUM
 EPD .F              5184:   ELEVATION PERMANENT DATUM
 LMF .                 KB:   LOG MEASURED FROM
 DAPD.F                10:   FEET ABOVE PERMANENT DATUM
 DMF .                 KB:   DRILLING MEASURED FROM
 EKB .F              5194:   KELLING BUSHING
 EGL .F              5184:   GROUND LEVEL
 DATE.             8-8-88:   RUN DATE
 RUN .                  1:   RUN NUMBER
 DD  .F               454:   DEPTH DRILLER
 DL  .F               454:   DEPTH LOGGER
 BLI .F               450:   BOTTOM LOG INTERVAL
 CS  .IN            9.625:   CASING SIZE
 BS  .IN             8.75:   BIT SIZE
 BSD .F               454:   BIT SIZE AT DEPTH
 DFT .              WATER:   DRILLING FLUID TYPE
 TCS .HRS               1:   TIME CURCULATED STOPPED
 LUN .              84026:   LOGGING UNIT NUMBER
 ENGI.            SCHULTZ:   RECORDING ENGINEER
 WITN.              SLACK:   WITNESSED BY
 CLNT.            A2DTECH:   CLIENT CODE
 ORIG.           5" PRINT:   ORIGIN OF DATA
 UWI .       490251123900:   UNIQUE WELL ID
 DICO. A2D Technologies, Inc.:   DIGITIZING COMPANY
~OTHER INFORMATION
~A  DEPT         ROP       TGAS 
 1700.0000     0.7519     4.7054
 1700.5000     0.7594     4.7065
 1701.0000     0.8651     4.7077
 1701.5000     1.0811     5.6454
 1702.0000     1.1279     5.6418
 1702.5000     1.1372     5.6383
 1703.0000     1.1278     5.6347
 1703.5000     1.1278     5.6312
 1704.0000     1.1374     5.6276
 1704.5000     1.2036     5.6240
 1705.0000     1.3164     5.6205
 1705.5000     1.4011     5.6169
 1706.0000     1.4286     5.6134
 1706.5000     1.1813     5.6098
 1707.0000     0.8428     5.6062
 1707.5000     0.6189     5.6027
 1708.0000     0.5545     5.5991
 1708.5000     0.5644     5.5956
 1709.0000     0.5833     5.5920
 1709.5000     0.6409     5.5884
 1710.0000     0.7143     5.5849
 1710.5000     0.7042     5.5813
 1711.0000     0.6955     5.5778
 1711.5000     0.6955     5.5742
 1712.0000     0.6955     5.5706
 1712.5000     0.6861     5.5671
 1713.0000     0.6861     5.5635
 1713.5000     0.6861     5.5600
 1714.0000     0.6861     5.5564
 1714.5000     0.6861     5.5528
 1715.0000     0.7152     5.5493
 1715.5000     0.7717     5.5457
 1716.0000     0.7801     5.5421
 1716.5000     0.7498     5.5386
 1717.0000     0.6829     5.5350
 1717.5000     0.6192     5.5315
 1718.0000     0.5816     5.5279
 1718.5000     0.6320     5.5243
 1719.0000     0.6779     5.5208
 1719.5000     0.6767     5.5172
 1720.0000     0.6767     5.5137
 1720.5000     0.6767     5.5101
 1721.0000     0.6767     5.5065
 1721.5000     0.6767     5.5030
 1722.0000     0.6767     5.4994
 1722.5000     0.7157     5.4959
 1723.0000     0.7909     5.4923
 1723.5000     0.8771     5.4887
 1724.0000     0.9507     5.4852
 1724.5000     0.9180     5.4816
 1725.0000     0.8522     5.4781
 1725.5000     0.7675     5.4745
 1726.0000     0.6845     5.4709
 1726.5000     0.6374     5.4674
 1727.0000     0.6092     5.4638
 1727.5000     0.5827     5.4603
 1728.0000     0.5621     5.4567
 1728.5000     0.5339     5.4531
 1729.0000     0.4963     5.4496
 1729.5000     0.4587     5.4460
 1730.0000     0.4041     5.4425
 1730.5000     0.3853     5.4389
 1731.0000     0.4605     5.4353
 1731.5000     0.5263     5.4318
 1732.0000     0.5827     5.4282
 1732.5000     0.6579     5.4247
 1733.0000     0.7425     5.4211
 1733.5000     0.8271     5.4175
 1734.0000     0.8177     5.4140
 1734.5000     0.7425     5.4104
 1735.0000     0.6861     5.4069
 1735.5000     0.6297     5.4033
 1736.0000     0.6391     5.3997
 1736.5000     0.6485     5.3962
 1737.0000     0.6485     5.3926
 1737.5000     0.6485     5.3891
 1738.0000     0.6485     6.4560
 1738.5000     0.6391    10.6891
 1739.0000     0.6203    14.9222
 1739.5000     0.5733    19.4508
 1740.0000     0.5357    29.7511
 1740.5000     0.5263    39.1160
 1741.0000     0.5263    51.2875
 1741.5000     0.5357    58.7812
 1742.0000     0.5357    67.2105
 1742.5000     0.5451    75.6398
 1743.0000     0.5545    83.1335
 1743.5000     0.5733    87.8206
 1744.0000     0.5733    89.7010
 1744.5000     0.5733    89.7103
 1745.0000     0.6015    89.7197
 1745.5000     0.5921    88.7934
 1746.0000     0.5827    84.1250
 1746.5000     0.5733    77.5855
 1747.0000     0.5545    71.9815
 1747.5000     0.5075    67.3130
 1748.0000     0.4699    64.5156
 1748.5000     0.4511    60.7828
 1749.0000     0.4417    57.0500
 1749.5000     0.4323    53.3171
 1750.0000     0.4344    49.5842
 1750.5000     0.4429    44.4996
 1751.0000     0.4714    38.6591
 1751.5000     0.4999    35.0561
 1752.0000     0.5661    31.4531
 1752.5000     0.6229    28.7856
 1753.0000     0.6609    27.9544
 1753.5000     0.6800    27.1580
 1754.0000     0.6897    27.3320
 1754.5000     0.6805    26.5008
 1755.0000     0.6713    26.6748
 1755.5000     0.6622    26.8140
 1756.0000     0.6437    26.9531
 1756.5000     0.6345    26.1220
 1757.0000     0.6349    26.2959
 1757.5000     0.6257    25.4938
 1758.0000     0.6260    25.6387
 1758.5000     0.6074    25.7779
 1759.0000     0.6077    24.9792
 1759.5000     0.6080    24.1840
 1760.0000     0.6083    24.3243
 1760.5000     0.6180    23.5280
 1761.0000     0.6371    23.6671
 1761.5000     0.6656    22.8707
 1762.0000     0.7036    22.0743
 1762.5000     0.6662    21.2780
 1763.0000     0.6194    21.4520
 1763.5000     0.5820    20.6208
 1764.0000     0.5728    19.8244
 1764.5000     0.5826    19.0280
 1765.0000     0.5923    18.2316
 1765.5000     0.6020    17.4701
 1766.0000     0.6023    17.6092
 1766.5000     0.5931    17.7484
 1767.0000     0.5840    17.8876
 1767.5000     0.5748    15.1853
 1768.0000     0.5657    15.3430
 1768.5000     0.5660    15.4833
 1769.0000     0.5946    15.6237
 1769.5000     0.6325    15.7640
 1770.0000     0.6704    15.9043
 1770.5000     0.6990    16.0447
 1771.0000     0.7087    16.1850
 1771.5000     0.7184    16.3254
 1772.0000     0.7469    16.4657
 1772.5000     0.7754    16.6060
 1773.0000     0.8322    16.7464
 1773.5000     0.8890    16.8867
 1774.0000     0.9364    17.0270
 1774.5000     0.9555    17.1674
 1775.0000     0.9463    17.3077
 1775.5000     0.9372    17.4480
 1776.0000     0.9187    17.5884
 1776.5000     0.9001    17.7287
 1777.0000     0.8721    17.8690
 1777.5000     0.8253    18.0094
 1778.0000     0.7691    18.1497
 1778.5000     0.7223    18.2900
 1779.0000     0.6473    18.4304
 1779.5000     0.5722    18.5707
 1780.0000     0.5524    18.7111
 1780.5000     0.5916    18.8514
 1781.0000     0.6202    19.0010
 1781.5000     0.6487    18.1698
 1782.0000     0.6584    16.4727
 1782.5000     0.6587    14.7407
 1783.0000     0.6495    13.9397
 1783.5000     0.6498    14.0835
 1784.0000     0.6501    13.2848
 1784.5000     0.6598    13.4263
 1785.0000     0.6601    13.5655
 1785.5000     0.6792    14.6414
 1786.0000     0.6512    16.7763
 1786.5000     0.6609    22.4996
 1787.0000     0.6800    27.6003
 1787.5000     0.7180    35.1624
 1788.0000     0.7371    45.3085
 1788.5000     0.7562    52.9321
 1789.0000     0.7565    60.5557
 1789.5000     0.7474    68.1792
 1790.0000     0.7477    74.8673
 1790.5000     0.7291    81.5553
 1791.0000     0.7106    87.3078
 1791.5000     0.6826    88.3825
 1792.0000     0.6546    84.7795
 1792.5000     0.6361    77.4342
 1793.0000     0.6363    67.2823
 1793.5000     0.6366    59.0015
 1794.0000     0.6369    51.6563
 1794.5000     0.6466    46.1822
 1795.0000     0.6469    41.6436
 1795.5000     0.6378    37.1050
 1796.0000     0.6192    31.6309
 1796.5000     0.6007    27.0923
 1797.0000     0.5350    23.4545
 1797.5000     0.4882    21.7516
 1798.0000     0.4979    19.0899
 1798.5000     0.5359    17.3579
 1799.0000     0.5738    15.6260
 1799.5000     0.6118    14.8284
 1800.0000     0.6309    15.9044
 1800.5000     0.6372    18.6249
 1801.0000     0.6435    23.3013
 1801.5000     0.6498    26.1181
 1802.0000     0.6561    29.8647
 1802.5000     0.6671    33.6113
 1803.0000     0.6857    38.2877
 1803.5000     0.6854    42.0343
 1804.0000     0.6757    44.8632
 1804.5000     0.6660    48.6506
 1805.0000     0.6466    52.3451
 1805.5000     0.5988    55.2961
 1806.0000     0.5616    58.1528
 1806.5000     0.5707    61.7316
 1807.0000     0.5816    65.4781
 1807.5000     0.6454    68.2950
 1808.0000     0.7205    70.1821
 1808.5000     0.7391    72.0692
 1809.0000     0.7576    73.0265
 1809.5000     0.7573    73.9839
 1810.0000     0.7476    74.0115
 1810.5000     0.7379    74.9688
 1811.0000     0.7282    74.9964
 1811.5000     0.6809    75.9538
 1812.0000     0.6523    75.9814
 1812.5000     0.6332    75.0723
 1813.0000     0.6329    74.1702
 1813.5000     0.6232    71.4143
 1814.0000     0.6230    68.6529
 1814.5000     0.6133    65.8921
 1815.0000     0.6225    64.0600
 1815.5000     0.6221    62.2191
 1816.0000     0.6313    60.3471
 1816.5000     0.6404    57.5454
 1817.0000     0.6589    54.7436
 1817.5000     0.6775    51.9420
 1818.0000     0.7149    49.3497
 1818.5000     0.7430    46.5880
 1819.0000     0.7520    43.8264
 1819.5000     0.7611    41.0716
 1820.0000     0.7608    38.3099
 1820.5000     0.7606    35.5483
 1821.0000     0.7131    32.7866
