~VERSION INFORMATION
 VERS.                2.0:   CWLS LOG ASCII STANDARD - VERSION 2.0
 WRAP.                 NO:   ONE LINE PER DEPTH STEP
~WELL INFORMATION
#MNEM.UNIT      DATA TYPE    INFORMATION
#----------   ------------   ------------------------------
 STRT.F           29.0000:   START DEPTH
 STOP.F          539.0000:   STOP DEPTH
 STEP.F            0.1000:   STEP LENGTH
 NULL.          -999.2500:   NO VALUE
 COMP. LAWRENCE/ALLISON INC:   COMPANY
 WELL. NPR 3 81-11 STX #10-10:   WELL
 FLD .             TEAPOT:   FIELD
 LOC .      S10 T38N R78W:   LOCATION
 CNTY.            NATRONA:   COUNTY
 STAT.            WYOMING:   STATE
 CTRY. UNITED STATES OF AMERICA:   COUNTRY
 SRVC.           Gearhart:   SERVICE COMPANY
 DATE.        01-JUN-1987:   LOGDATE
 API .       490251113000:   API NUMBER
~CURVE INFORMATION
#MNEM.UNIT       API CODE    CURVE DESCRIPTION
#----------   ------------   ------------------------------
 DEPT.F                  :   
 GRR .GAPI   07 310 01 00:   GAMMA RAY FROM RES. LOG.
 ILD .OHMM   07 120 46 00:   INDUCTION LOG DEEP RESISTIVITY
 RILM.OHMM   07 120 44 00:   INDUCTION LOG MEDIUM RESISTIVITY
~PARAMETER INFORMATION
#MNEM.UNIT          VALUE    DESCRIPTION
#----------   ------------   ------------------------------
 PD  .                 GL:   PERMANENT DATUM
 EPD .F              5156:   ELEVATION PERMANENT DATUM
 LMF .                 KB:   LOG MEASURED FROM
 DAPD.F                 8:   FEET ABOVE PERMANENT DATUM
 DMF .                 KB:   DRILLING MEASURED FROM
 EKB .F              5164:   KELLING BUSHING
 EDF .F              5162:   DRILLING FLOOR
 EGL .F              5156:   GROUND LEVEL
 DATE.             6-1-87:   RUN DATE
 RUN .                  1:   RUN NUMBER
 DD  .F               550:   DEPTH DRILLER
 DL  .F               546:   DEPTH LOGGER
 BLI .F               540:   BOTTOM LOG INTERVAL
 TLI .F                30:   TOP LOG INTERVAL
 CS  .IN            8.625:   CASING SIZE
 CBD .F                50:   CASING BOTTOM DRILLER
 CBL .F                49:   CASING BOTTOM LOGGER
 BS  .IN            7.875:   BIT SIZE
 BSD .F               550:   BIT SIZE AT DEPTH
 DFT .                AIR:   DRILLING FLUID TYPE
 TLAB.HRS            0634:   TIME LOGGER AT BOTTOM
 MRT .F                80:   MAXIMUM RECORDED TEMPERATURE
 LUN .               7597:   LOGGING UNIT NUMBER
 LUL .           GILLETTE:   LOGGING UNIT LOCATION
 ENGI. WEATHERMON/JOHNSTON:   RECORDING ENGINEER
 WITN.             STRONG:   WITNESSED BY
 CLNT.            A2DTECH:   CLIENT CODE
 ORIG.       2", 5" PRINT:   ORIGIN OF DATA
 UWI .       490251113000:   UNIQUE WELL ID
 DICO. A2D Technologies, Inc.:   DIGITIZING COMPANY
~OTHER INFORMATION
~A   DEPT       GRR       ILD       RILM   
# ...
  356.6000    90.5547    24.8559    25.5062
  356.7000    90.4311    24.8126    25.4453
  356.8000    90.3074    24.7693    25.3844
  356.9000    90.1837    24.7261    25.3235
  357.0000    90.0601    24.6828    25.2626
  357.1000    89.9350    24.6173    25.1967
  357.2000    89.8098    24.5518    25.1309
  357.3000    89.6847    24.4864    25.0650
  357.4000    89.5596    24.4209    24.9992
  357.5000    89.4345    24.3554    24.9333
  357.6000    89.3480    24.2906    24.8683
  357.7000    89.2615    24.2258    24.8033
  357.8000    89.1750    24.1610    24.7383
  357.9000    89.0885    24.0962    24.6733
  358.0000    89.0020    24.0313    24.6084
  358.1000    89.2658    23.9675    24.5442
  358.2000    89.5295    23.9036    24.4801
  358.3000    89.7932    23.8397    24.4159
  358.4000    90.0570    23.7758    24.3518
  358.5000    90.3207    23.7119    24.2876
  358.6000    90.6129    23.6489    24.2243
  358.7000    90.9051    23.5859    24.1610
  358.8000    91.1973    23.5229    24.0977
  358.9000    91.4895    23.4599    24.0344
  359.0000    91.7818    23.3969    23.9711
  359.1000    92.0750    23.3347    23.9086
  359.2000    92.3681    23.2725    23.8461
  359.3000    92.6613    23.2103    23.7836
  359.4000    92.9545    23.1481    23.7211
  359.5000    93.2477    23.0860    23.6587
  359.6000    93.2409    23.0246    23.5970
  359.7000    93.2341    22.9633    23.5353
  359.8000    93.2273    22.9019    23.4736
  359.9000    93.2205    22.8406    23.4120
  360.0000    93.2138    22.7792    23.3503
  360.1000    93.1063    22.7187    23.2894
  360.2000    92.9989    22.6582    23.2286
  360.3000    92.8915    22.5976    23.1677
  360.4000    92.7840    22.5371    23.1068
  360.5000    92.6766    22.4766    23.0460
  360.6000    92.8508    22.4168    22.9859
  360.7000    93.0251    22.3571    22.9258
  360.8000    93.1993    22.2974    22.8658
  360.9000    93.3735    22.2376    22.8057
  361.0000    93.5478    22.1779    22.7456
  361.1000    93.7481    22.0950    22.6735
  361.2000    93.9483    22.0121    22.6014
  361.3000    94.1486    21.9292    22.5293
  361.4000    94.3489    21.8463    22.4572
  361.5000    94.5491    21.7634    22.3851
  361.6000    94.7349    21.7969    22.4243
  361.7000    94.9206    21.8304    22.4635
  361.8000    95.1064    21.8639    22.5027
  361.9000    95.2921    21.8973    22.5418
  362.0000    95.4779    21.9308    22.5810
  362.1000    94.9704    21.9882    22.6316
  362.2000    94.4630    22.0455    22.6822
  362.3000    93.9555    22.1029    22.7328
  362.4000    93.4481    22.1603    22.7833
  362.5000    92.9406    22.2176    22.8339
  362.6000    92.4287    22.2757    22.8851
  362.7000    91.9167    22.3339    22.9362
  362.8000    91.4048    22.3920    22.9874
  362.9000    90.8928    22.4501    23.0385
  363.0000    90.3809    22.5082    23.0897
  363.1000    89.9221    22.5671    23.1414
  363.2000    89.4633    22.6260    23.1931
  363.3000    89.0044    22.6848    23.2448
  363.4000    88.5456    22.7437    23.2966
  363.5000    88.0868    22.8026    23.3483
  363.6000    87.7704    22.8622    23.4007
  363.7000    87.4540    22.9219    23.4531
  363.8000    87.1377    22.9815    23.5055
  363.9000    86.8213    23.0412    23.5579
  364.0000    86.5049    23.1008    23.6103
  364.1000    86.1966    23.1612    23.6632
  364.2000    85.8883    23.2217    23.7161
  364.3000    85.5800    23.2821    23.7689
  364.4000    85.2717    23.3425    23.8218
  364.5000    84.9634    23.4030    23.8747
  364.6000    84.9613    23.4146    23.9268
  364.7000    84.9592    23.4262    23.9790
  364.8000    84.9571    23.4378    24.0312
  364.9000    84.9550    23.4494    24.0833
  365.0000    84.9529    23.4610    24.1355
  365.1000    85.1205    23.4612    24.0556
  365.2000    85.2881    23.4615    23.9758
  365.3000    85.4557    23.4617    23.8959
  365.4000    85.6232    23.4619    23.8160
  365.5000    85.7908    23.4621    23.7362
  365.6000    85.9528    23.4620    23.6448
  365.7000    86.1148    23.4618    23.5535
  365.8000    86.2769    23.4616    23.4621
  365.9000    86.4389    23.4615    23.3707
  366.0000    86.6009    23.4613    23.2794
  366.1000    86.6494    23.4224    23.1894
  366.2000    86.6978    23.3836    23.0993
  366.3000    86.7463    23.3447    23.0093
  366.4000    86.7948    23.3058    22.9193
  366.5000    86.8432    23.2669    22.8293
  366.6000    86.6571    23.1944    22.7411
  366.7000    86.4709    23.1218    22.6530
  366.8000    86.2848    23.0493    22.5648
  366.9000    86.0987    22.9767    22.4767
  367.0000    85.9125    22.9042    22.3885
  367.1000    85.8781    22.8330    22.3021
  367.2000    85.8437    22.7618    22.2156
  367.3000    85.8093    22.6906    22.1292
  367.4000    85.7749    22.6194    22.0428
  367.5000    85.7404    22.5482    21.9564
  367.6000    85.7406    22.4781    21.8716
  367.7000    85.7407    22.4081    21.7868
  367.8000    85.7408    22.3380    21.7021
  367.9000    85.7409    22.2679    21.6173
  368.0000    85.7410    22.1978    21.5325
  368.1000    85.7922    22.1290    21.4578
  368.2000    85.8434    22.0602    21.3831
  368.3000    85.8946    21.9914    21.3084
  368.4000    85.9458    21.9225    21.2337
  368.5000    85.9970    21.8537    21.1590
  368.6000    86.2082    21.7943    21.1590
  368.7000    86.4194    21.7349    21.1590
  368.8000    86.6306    21.6755    21.1590
  368.9000    86.8418    21.6161    21.1590
  369.0000    87.0530    21.5566    21.1590
  369.1000    87.2553    21.5773    21.1687
  369.2000    87.4575    21.5979    21.1785
  369.3000    87.6598    21.6185    21.1883
  369.4000    87.8620    21.6391    21.1980
  369.5000    88.0643    21.6597    21.2078
  369.6000    88.2675    21.6809    21.2182
  369.7000    88.4708    21.7020    21.2285
  369.8000    88.6740    21.7232    21.2388
  369.9000    88.8773    21.7443    21.2492
  370.0000    89.0806    21.7655    21.2595
  370.1000    89.2879    21.7867    21.2699
  370.2000    89.4952    21.8080    21.2803
  370.3000    89.7026    21.8293    21.2907
  370.4000    89.9099    21.8505    21.3010
  370.5000    90.1172    21.8718    21.3114
  370.6000    89.9673    21.8912    21.3208
  370.7000    89.8173    21.9106    21.3303
  370.8000    89.6673    21.9299    21.3397
  370.9000    89.5174    21.9493    21.3491
  371.0000    89.3674    21.9687    21.3586
  371.1000    89.1656    21.9227    21.2945
  371.2000    88.9638    21.8767    21.2304
  371.3000    88.7620    21.8307    21.1664
  371.4000    88.5602    21.7848    21.1023
  371.5000    88.3584    21.7388    21.0382
  371.6000    88.1585    21.6882    20.9797
  371.7000    87.9585    21.6377    20.9212
  371.8000    87.7586    21.5871    20.8626
  371.9000    87.5587    21.5366    20.8041
  372.0000    87.3588    21.4860    20.7456
  372.1000    87.1919    21.4360    20.6882
  372.2000    87.0249    21.3861    20.6308
  372.3000    86.8579    21.3361    20.5734
  372.4000    86.6910    21.2862    20.5160
  372.5000    86.5240    21.2362    20.4586
  372.6000    86.8732    21.1868    20.4020
  372.7000    87.2225    21.1374    20.3455
  372.8000    87.5717    21.0881    20.2889
  372.9000    87.9209    21.0387    20.2323
  373.0000    88.2702    20.9893    20.1757
  373.1000    88.6697    20.9445    20.1199
  373.2000    89.0692    20.8997    20.0641
  373.3000    89.4687    20.8549    20.0083
  373.4000    89.8683    20.8102    19.9525
  373.5000    90.2678    20.7654    19.8967
  373.6000    90.1593    20.6530    19.8101
  373.7000    90.0508    20.5406    19.7234
  373.8000    89.9423    20.4282    19.6368
  373.9000    89.8338    20.3158    19.5501
  374.0000    89.7254    20.2034    19.4635
  374.1000    89.5865    20.1023    19.3654
  374.2000    89.4477    20.0012    19.2673
  374.3000    89.3088    19.9001    19.1692
  374.4000    89.1700    19.7990    19.0711
  374.5000    89.0312    19.6979    18.9730
  374.6000    89.0077    19.5993    18.8774
  374.7000    88.9842    19.5007    18.7817
