~VERSION INFORMATION
 VERS.                2.0:   CWLS LOG ASCII STANDARD - VERSION 2.0
 WRAP.                 NO:   ONE LINE PER DEPTH STEP
~WELL INFORMATION
#MNEM.UNIT      DATA TYPE    INFORMATION
#----------   ------------   ------------------------------
 STRT.F            0.0000:   START DEPTH
 STOP.F          551.0000:   STOP DEPTH
 STEP.F            0.1000:   STEP LENGTH
 NULL.          -999.2500:   NO VALUE
 COMP.       F D SERV INC:   COMPANY
 WELL.    62-2 SX-3 #62-3:   WELL
 FLD .          N.P.R. #3:   FIELD
 LOC .       S3 T38N R78W:   LOCATION
 CNTY.            NATRONA:   COUNTY
 STAT.            WYOMING:   STATE
 CTRY. UNITED STATES OF AMERICA:   COUNTRY
 SRVC.     Atlas Wireline:   SERVICE COMPANY
 DATE.        17-APR-1992:   LOGDATE
 API .       490252250700:   API NUMBER
~CURVE INFORMATION
#MNEM.UNIT       API CODE    CURVE DESCRIPTION
#----------   ------------   ------------------------------
 DEPT.F                  :   
 GRR .GAPI   07 310 01 00:   GAMMA RAY
 RILD.OHMM   07 120 46 00:   INDUCTION LOG DEEP RESISTIVITY
 RILM.OHMM   07 120 44 00:   INDUCTION LOG MEDIUM RESISTIVITY
~PARAMETER INFORMATION
#MNEM.UNIT          VALUE    DESCRIPTION
#----------   ------------   ------------------------------
 PD  .                 GL:   PERMANENT DATUM
 EPD .F              5130:   ELEVATION PERMANENT DATUM
 LMF .                 KB:   LOG MEASURED FROM
 DAPD.F                 5:   FEET ABOVE PERMANENT DATUM
 DMF .                 KB:   DRILLING MEASURED FROM
 EKB .F              5135:   KELLING BUSHING
 EDF .F              5134:   DRILLING FLOOR
 EGL .F              5130:   GROUND LEVEL
 DATE.        17-APR-1992:   RUN DATE
 RUN .                  1:   RUN NUMBER
 DD  .F               560:   DEPTH DRILLER
 DL  .F               560:   DEPTH LOGGER
 BLI .F               558:   BOTTOM LOG INTERVAL
 CS  .IN            8.625:   CASING SIZE
 CBD .F                47:   CASING BOTTOM DRILLER
 CBL .F                50:   CASING BOTTOM LOGGER
 BS  .IN            7.875:   BIT SIZE
 BSD .F               560:   BIT SIZE AT DEPTH
 DFT .                AIR:   DRILLING FLUID TYPE
 TCS .HRS               2:   TIME CURCULATED STOPPED
 MRT .F                83:   MAXIMUM RECORDED TEMPERATURE
 LUN .           HL- 6274:   LOGGING UNIT NUMBER
 LUL .             CASPER:   LOGGING UNIT LOCATION
 ENGI.            LEBSOCK:   RECORDING ENGINEER
 WITN.        GARY STRONG:   WITNESSED BY
 CLNT.            A2DTECH:   CLIENT CODE
 ORIG.           5" PRINT:   ORIGIN OF DATA
 UWI .       490252250700:   UNIQUE WELL ID
 DICO. A2D Technologies, Inc.:   DIGITIZING COMPANY
~OTHER INFORMATION
~A    DEPT      GRR      RILD       RILM   
# ...
  527.8000   131.2519     9.6363     8.9242
  527.9000   130.5095     9.5942     8.8714
  528.0000   129.7185     9.5699     8.8232
  528.1000   128.7057     9.5703     8.8103
  528.2000   127.9793     9.5644     8.7844
  528.3000   127.4263     9.5044     8.7497
  528.4000   126.9327     9.5048     8.7459
  528.5000   126.5205     9.4683     8.6896
  528.6000   126.2753     9.4144     8.6899
  528.7000   126.0046     9.3738     8.6903
  528.8000   125.7853     9.3730     8.6906
  528.9000   125.5402     9.3093     8.6910
  529.0000   125.4100     9.3096     8.6914
  529.1000   125.4136     9.2788     8.6425
  529.2000   125.4172     9.2260     8.5934
  529.3000   125.4216     9.1735     8.5718
  529.4000   125.4245     9.1178     8.5721
  529.5000   125.4281     9.0696     8.5668
  529.6000   125.4317     9.0549     8.5132
  529.7000   125.4354     9.0553     8.4698
  529.8000   125.4391     9.0415     8.4546
  529.9000   125.4427     8.9929     8.4550
  530.0000   125.4466     8.9933     8.4553
  530.1000   125.4499     8.9936     8.4557
  530.2000   125.6280     8.9621     8.4561
  530.3000   125.7598     8.9317     8.4564
  530.4000   125.8305     8.9321     8.4283
  530.5000   126.0696     8.9324     8.3982
  530.6000   126.0738     8.9328     8.3986
  530.7000   126.4932     8.9331     8.3989
  530.8000   126.6856     8.9335     8.3993
  530.9000   126.9901     8.9339     8.3653
  531.0000   127.6935     8.9343     8.3415
  531.1000   128.2095     8.9347     8.3418
  531.2000   128.9366     8.9351     8.3421
  531.3000   129.4991     8.9354     8.3426
  531.4000   130.1335     8.8916     8.3028
  531.5000   130.8036     8.8011     8.2851
  531.6000   131.2791     8.7509     8.2854
  531.7000   131.5599     8.6026     8.2771
  531.8000   131.5631     8.4938     8.2285
  531.9000   131.7336     8.4240     8.2288
  532.0000   131.8730     8.3598     8.2291
  532.1000   131.8766     8.2645     8.2046
  532.2000   131.8801     8.1614     8.1725
  532.3000   131.5820     8.1195     8.1685
  532.4000   131.5849     8.0417     8.1163
  532.5000   131.5885     7.9715     8.0761
  532.6000   131.5921     7.9262     8.0604
  532.7000   131.5958     7.8784     8.0407
  532.8000   131.5996     7.7190     8.0050
  532.9000   131.6030     7.5773     8.0053
  533.0000   131.7863     7.4057     7.9146
  533.1000   132.1646     7.2635     7.8596
  533.2000   132.5936     7.1673     7.8150
  533.3000   132.8458     7.0710     7.7859
  533.4000   133.1346     6.9748     7.7807
  533.5000   133.3506     6.8786     7.7324
  533.6000   133.7619     6.7823     7.6927
  533.7000   134.1578     6.7024     7.6490
  533.8000   134.4612     6.6643     7.6261
  533.9000   134.9677     6.6205     7.6154
  534.0000   135.4634     6.6208     7.5736
  534.1000   135.9648     6.6211     7.5739
  534.2000   136.4659     6.6369     7.5390
  534.3000   136.9667     6.6681     7.5218
  534.4000   137.4059     6.6684     7.5059
  534.5000   137.1078     6.7060     7.4700
  534.6000   135.9833     6.7449     7.4703
  534.7000   134.5718     6.7840     7.4706
  534.8000   133.2011     6.8234     7.4709
  534.9000   132.0253     6.8630     7.4713
  535.0000   131.0441     6.9076     7.4716
  535.1000   130.1707     6.9428     7.4719
  535.2000   129.5592     7.0097     7.4723
  535.3000   128.9679     7.0730     7.4725
  535.4000   128.5710     7.1140     7.4728
  535.5000   128.3685     7.1555     7.4908
  535.6000   128.6755     7.2384     7.5342
  535.7000   128.9173     7.2894     7.5790
  535.8000   129.1697     7.3558     7.5793
  535.9000   129.6832     7.4261     7.6125
  536.0000   130.3561     7.4635     7.6566
  536.1000   130.8800     7.4639     7.7010
  536.2000   131.7233     7.5034     7.7455
  536.3000   131.9442     7.5772     7.7958
  536.4000   132.1965     7.6440     7.8754
  536.5000   132.2290     7.6998     7.9363
  536.6000   131.9840     7.7906     7.9822
  536.7000   131.7343     7.9512     8.0285
  536.8000   130.9913     8.0268     8.0753
  536.9000   130.6434     8.1199     8.1689
  537.0000   130.2551     8.2141     8.2261
  537.1000   129.8508     8.3092     8.2738
  537.2000   129.6056     8.4108     8.3386
  537.3000   129.3425     8.5030     8.4286
  537.4000   129.3458     8.6017     8.4816
  537.5000   129.1730     8.7015     8.5265
  537.6000   128.9280     8.7875     8.6104
  537.7000   128.8202     8.8386     8.6862
  537.8000   129.0876     8.8974     8.7364
  537.9000   129.6671     8.9855     8.7870
  538.0000   130.5093     9.0565     8.8471
  538.1000   131.5083     9.1090     8.9313
  538.2000   132.4047     9.1618     9.0034
  538.3000   133.2026     9.2162     9.0757
  538.4000   134.2234     9.3209     9.1719
  538.5000   135.1993     9.3878     9.2278
  538.6000   136.0082     9.4423     9.3291
  538.7000   136.8934     9.5148     9.4372
  538.8000   137.8107     9.6192     9.5184
  538.9000   138.5326     9.6814     9.5898
  539.0000   139.0866     9.7312     9.6965
  539.1000   139.0898     9.8253     9.7609
  539.2000   139.2622     9.9135     9.8092
  539.3000   139.3997     9.9711     9.8660
  539.4000   139.3424    10.0288     9.9232
  539.5000   139.0834    10.0871     9.9807
  539.6000   138.2010    10.1457    10.0396
  539.7000   137.5981    10.1708    10.0400
  539.8000   137.0038    10.1921    10.0845
  539.9000   136.4159    10.2513    10.1429
  540.0000   135.7541    10.3156    10.2017
  540.1000   135.4955    10.3707    10.2607
  540.2000   134.7936    10.4309    10.3268
  540.3000   134.4137    10.4623    10.3272
  540.4000   134.2959    10.4627    10.3674
  540.5000   134.2996    10.4658    10.4275
  540.6000   134.3032    10.5371    10.4739
  540.7000   134.3073    10.5375    10.4743
  540.8000   134.3104    10.5379    10.4747
  540.9000   134.1532    10.5384    10.4752
  541.0000   133.9082    10.5389    10.4756
  541.1000   133.6631    10.5393    10.4760
  541.2000   133.4173    10.5397    10.4765
  541.3000   133.1730    10.5402    10.4770
  541.4000   132.7338    10.5406    10.4774
  541.5000   132.2400    10.5410    10.4357
  541.6000   131.7464    10.5415    10.4053
  541.7000   131.2527    10.5420    10.4057
  541.8000   130.7162    10.5424    10.4034
  541.9000   130.0371    10.5428    10.3342
  542.0000   129.4683    10.5433    10.3345
  542.1000   129.0943    10.5314    10.3350
  542.2000   128.8493    10.4706    10.3355
  542.3000   128.6159    10.4711    10.3257
  542.4000   128.6203    10.4715    10.2643
  542.5000   129.0368    10.4719    10.2088
  542.6000   129.3849    10.4724    10.1937
  542.7000   129.8350    10.4728    10.1640
  542.8000   130.5396    10.4733    10.1235
  542.9000   131.0585    10.4202    10.1194
  543.0000   131.7825    10.4011    10.0540
  543.1000   132.1596    10.4015    10.0544
  543.2000   132.1471    10.4020    10.0178
  543.3000   131.4302    10.4013     9.9852
  543.4000   129.2491    10.3304     9.9856
  543.5000    71.4739    10.3307     9.9860
  543.6000    24.9477    10.3311     9.9864
  543.7000     6.0013    10.3316     9.9429
  543.8000     4.0008    10.3235     9.9177
  543.9000     2.0004    10.2604     9.9181
  544.0000     0.0000    10.2608     9.9185
  544.1000  -999.2500    10.2612     9.9190
  544.2000  -999.2500    10.2330     9.9194
  544.3000  -999.2500    10.1905     9.9198
  544.4000  -999.2500    10.1909     9.9202
  544.5000  -999.2500    10.1915     9.9206
  544.6000  -999.2500    10.1432     9.9210
  544.7000  -999.2500    10.0855     9.9215
  544.8000  -999.2500    10.0510     9.9218
  544.9000  -999.2500    10.0411     9.9222
  545.0000  -999.2500     9.9818     9.9227
  545.1000  -999.2500     9.9822     9.9231
  545.2000  -999.2500     9.9403     9.9236
  545.3000  -999.2500     9.9134     9.9240
  545.4000  -999.2500     9.9138     9.9244
  545.5000  -999.2500     9.9094     9.9248
  545.6000  -999.2500     9.8455     9.9252
  545.7000  -999.2500     9.8459     9.9256
  545.8000  -999.2500     9.8463     9.9261
  545.9000  -999.2500     9.8467     9.9264
