~VERSION INFORMATION
 VERS.                2.0:   CWLS LOG ASCII STANDARD - VERSION 2.0
 WRAP.                 NO:   ONE LINE PER DEPTH STEP
~WELL INFORMATION
#MNEM.UNIT      DATA TYPE    INFORMATION
#----------   ------------   ------------------------------
 STRT.F           40.0000:   START DEPTH
 STOP.F          950.5000:   STOP DEPTH
 STEP.F            0.5000:   STEP LENGTH
 NULL.          -999.2500:   NO VALUE
 COMP. FENIX & SCISSON INC:   COMPANY
 WELL.       NPR 3 #44-14:   WELL
 FLD .             TEAPOT:   FIELD
 LOC .      S14 T38N R78W:   LOCATION
 CNTY.            NATRONA:   COUNTY
 STAT.            WYOMING:   STATE
 CTRY. UNITED STATES OF AMERICA:   COUNTRY
 SRVC.            Unknown:   SERVICE COMPANY
 DATE.        05-JAN-1979:   LOGDATE
 API .       490251076100:   API NUMBER
~CURVE INFORMATION
#MNEM.UNIT       API CODE    CURVE DESCRIPTION
#----------   ------------   ------------------------------
 DEPT.F                  :   
 SPR .MV     05 010 01 00:   SPONTANEOUS POTENTIAL FROM RES.
 SN  .OHMM   05 040 16 00:   SHORT NORMAL 16"
 IL  .OHMM   05 120 00 00:   INDUCTION LOG
 CALD.IN     45 280 60 00:   CALIPER
 GRD .GAPI   45 310 01 00:   GAMMA RAY FROM DENSITY LOG
 RHOB.G/C3   45 350 01 00:   BULK DENSITY
 DPHI.DEC    45 890 12 00:   DENSITY POROSITY SANDSTONE
 CORR.G/C3   45 356 01 00:   DENSITY CORRECTION
~PARAMETER INFORMATION
#MNEM.UNIT          VALUE    DESCRIPTION
#----------   ------------   ------------------------------
 PD  .                 GL:   PERMANENT DATUM
 EPD .F              5266:   ELEVATION PERMANENT DATUM
 LMF .                 KB:   LOG MEASURED FROM
 DAPD.F                 4:   FEET ABOVE PERMANENT DATUM
 DMF .                 KB:   DRILLING MEASURED FROM
 EKB .F              5270:   KELLING BUSHING
 EGL .F              5266:   GROUND LEVEL
 DATE.             1-5-79:   RUN DATE
 RUN .                  1:   RUN NUMBER
 DD  .F               950:   DEPTH DRILLER
 DL  .F               943:   DEPTH LOGGER
 BLI .F               937:   BOTTOM LOG INTERVAL
 TLI .F                40:   TOP LOG INTERVAL
 CS  .IN            8.625:   CASING SIZE
 CBL .F                40:   CASING BOTTOM LOGGER
 BS  .IN            7.875:   BIT SIZE
 BSD .F               950:   BIT SIZE AT DEPTH
 DFT .                KCL:   DRILLING FLUID TYPE
 DFV .                 42:   DRILLING FLUID VISCOSITY
 DFL .               10.5:   DRILLING FLUID LOSS
 MSS .           FLOWLINE:   MUD SAMPLE SOURCE
 RMS .OHMM            .23:   RESISTIVITY MUD SAMPLE
 RMF .OHMM            .23:   RESISTIVITY MUD FILTRATE SAMPLE
 RMC .OHMM             .2:   RESISTIVITY MUD CAKE
 MFSS.           MEASURED:   MUD FILTRATE SAMPLE SOURCE
 MCSS.           MEASURED:   MUD CAKE SAMPLE SOURCE
 RMB .OHMM             .2:   RESISTIVITY MUD AT BHT
 BHT .F                70:   BOTTOM HOLE TEMPERATURE
 TCS .HRS               5:   TIME CURCULATED STOPPED
 MRT .F                70:   MAXIMUM RECORDED TEMPERATURE
 LUL .             CASPER:   LOGGING UNIT LOCATION
 ENGI.             MILLER:   RECORDING ENGINEER
 WITN.           DINSMORE:   WITNESSED BY
 CLNT.            A2DTECH:   CLIENT CODE
 ORIG.           5" PRINT:   ORIGIN OF DATA
 UWI .       490251076100:   UNIQUE WELL ID
 DICO. A2D Technologies, Inc.:   DIGITIZING COMPANY
~OTHER INFORMATION
~A   DEPT      SPR           SN         IL     CALD        GRD       RHOB       DPHI       CORR   
# ...
  283.0000   -42.0030     3.0720     2.8060     8.1050   106.3860     2.2800     0.2530     0.0390
  283.5000   -42.0820     2.9750     2.6750     8.0550   105.8420     2.2680     0.2660     0.0540
  284.0000   -42.2850     2.9750     2.5910     7.9920   106.1390     2.2490     0.2710     0.0900
  284.5000   -41.9020     3.1320     2.6640     7.8820   107.4610     2.2590     0.2690     0.1370
  285.0000   -41.4300     3.3400     2.8720     7.7730   107.5670     2.2940     0.2430     0.1840
  285.5000   -40.8510     3.5480     3.0800     7.6660   104.2010     2.3580     0.2060     0.2310
  286.0000   -40.2570     3.7570     3.2880     7.5710   100.6960     2.4230     0.1760     0.2740
  286.5000   -40.3250     3.9650     3.4960     7.5290    98.3520     2.5070     0.1460     0.2400
  287.0000   -40.5480     4.1350     3.7040     7.4850   100.9930     2.4930     0.1260     0.1930
  287.5000   -40.7770     4.2700     3.9120     7.4410   102.7800     2.4500     0.1650     0.1410
  288.0000   -40.9790     4.3370     4.1200     7.3970   100.9760     2.4080     0.1900     0.0950
  288.5000   -41.1450     4.2930     4.1420     7.3530    98.6030     2.3670     0.2030     0.0620
  289.0000   -41.3080     4.2430     4.0950     7.3380    98.3390     2.3440     0.2110     0.0450
  289.5000   -41.4710     4.1940     4.0510     7.3790   103.9350     2.3440     0.2110     0.0380
  290.0000   -41.7150     4.1440     4.0080     7.4190   107.0180     2.3440     0.2130     0.0300
  290.5000   -41.9430     4.0940     3.8890     7.4590   103.0450     2.3360     0.2190     0.0200
  291.0000   -42.0390     3.9930     3.7320     7.4990   103.2560     2.3270     0.2250     0.0150
  291.5000   -42.1360     3.8290     3.5150     7.5390   105.9770     2.3180     0.2300     0.0130
  292.0000   -42.2320     3.6650     3.2640     7.5790   110.8690     2.3080     0.2390     0.0110
  292.5000   -42.2730     3.5010     3.0140     7.6390   115.7340     2.2880     0.2490     0.0090
  293.0000   -42.1140     3.3370     2.7640     7.7020   120.5960     2.2670     0.2610     0.0070
  293.5000   -41.9600     3.1730     2.5740     7.7640   125.4640     2.2460     0.2700     0.0070
  294.0000   -41.8060     3.0080     2.4710     7.8270   130.3900     2.2250     0.2800     0.0080
  294.5000   -41.5970     2.9750     2.4300     7.9690   133.4860     2.2040     0.2920     0.0090
  295.0000   -41.3050     3.2860     2.6260     8.2190   123.6570     2.1890     0.2980     0.0100
  295.5000   -41.0150     3.6020     2.7920     8.1830   114.3460     2.2420     0.2800     0.0110
  296.0000   -40.7250     3.9170     2.9570     8.0960   105.1970     2.2940     0.2370     0.0120
  296.5000   -40.4350     4.2320     3.2700     8.0230    99.8280     2.3460     0.2000     0.0130
  297.0000   -40.1440     4.5480     3.7000     8.0490   101.3620     2.3970     0.1820     0.0140
  297.5000   -39.8520     4.8180     4.1290     8.0720    99.8810     2.4150     0.1690     0.0160
  298.0000   -39.5570     5.0030     4.5580     8.0960    99.5910     2.4100     0.1750     0.0170
  298.5000   -39.4850     5.1880     4.9330     8.1190   101.4140     2.4000     0.1810     0.0190
  299.0000   -39.2750     5.3730     5.0670     8.0840   101.8190     2.3920     0.1820     0.0220
  299.5000   -39.0720     5.5580     5.2120     8.0440    96.4260     2.3930     0.1800     0.0420
  300.0000   -38.8700     5.7420     5.3560     8.0050   100.8780     2.3950     0.1780     0.0850
  300.5000   -38.6670     5.9270     5.5090     7.9650   105.5750     2.3990     0.1770     0.1300
  301.0000   -38.6020     6.0610     5.6460     7.8530   100.8300     2.4440     0.1580     0.1760
  301.5000   -38.6860     6.1720     5.7710     7.7310    96.3760     2.4880     0.1310     0.2220
  302.0000   -38.7690     6.2830     5.8960     7.6420   100.4490     2.5330     0.1060     0.2730
  302.5000   -38.8520     6.3940     6.0210     7.5940   102.4990     2.5880     0.0730     0.2400
  303.0000   -38.9350     6.5040     6.1460     7.5460   100.2630     2.5690     0.0840     0.1890
  303.5000   -39.0180     6.6150     6.2710     7.4990    97.5930     2.5330     0.1110     0.1390
  304.0000   -39.1000     6.7260     6.3960     7.4510   100.2690     2.4960     0.1340     0.0910
  304.5000   -39.1020     6.7480     6.5100     7.4040   103.6720     2.4590     0.1530     0.0480
  305.0000   -38.8500     6.7530     6.6830     7.3660   107.0610     2.4300     0.1640     0.0360
  305.5000   -38.8790     6.7570     6.6540     7.3890   110.2110     2.4150     0.1720     0.0250
  306.0000   -38.3800     6.7620     6.5830     7.4100   110.7310     2.4000     0.1790     0.0220
  306.5000   -37.8920     6.7660     6.5130     7.4320   109.0280     2.3910     0.1810     0.0230
  307.0000   -38.2880     6.7710     6.4410     7.4530   106.5620     2.3930     0.1800     0.0260
  307.5000   -38.1230     6.7750     6.4910     7.4990   105.8760     2.3960     0.1790     0.0290
  308.0000   -37.8170     6.7800     6.5530     7.5690   104.7820     2.3980     0.1780     0.0280
  308.5000   -37.5080     6.7840     6.6160     7.6390   102.7750     2.4010     0.1770     0.0250
  309.0000   -37.2050     6.7890     6.6780     7.7090   109.6890     2.4030     0.1750     0.0210
  309.5000   -37.1030     6.7930     6.7400     7.7790   115.0540     2.4060     0.1710     0.0180
  310.0000   -37.5600     6.7980     6.8030     7.8480   114.8500     2.4150     0.1660     0.0150
  310.5000   -37.9990     6.8010     6.8700     7.9170   113.0110     2.4260     0.1590     0.0120
  311.0000   -38.4330     6.8030     6.8420     7.9870   111.2020     2.4360     0.1540     0.0080
  311.5000   -38.7420     6.8070     6.8130     8.0150   111.2650     2.4390     0.1510     0.0050
  312.0000   -38.6440     6.6670     6.7840     8.0340   113.6410     2.4320     0.1590     0.0020
  312.5000   -38.5680     6.5980     6.7550     8.0520   116.0720     2.4240     0.1640     0.0000
  313.0000   -38.7150     6.5290     6.7250     8.0700   119.6140     2.4180     0.1660     0.0010
  313.5000   -38.8660     6.4600     6.6960     8.0880   122.6730     2.4210     0.1650     0.0030
  314.0000   -38.9540     6.3910     6.6670     8.0950   120.9800     2.4230     0.1640     0.0120
  314.5000   -38.9590     6.3820     6.6220     8.0710   120.8850     2.4240     0.1640     0.0200
  315.0000   -38.7800     6.4770     6.6700     8.0480   121.3240     2.4220     0.1640     0.0440
  315.5000   -38.5710     6.5650     6.7740     8.0260   120.5030     2.4200     0.1640     0.0690
  316.0000   -38.3590     6.6530     6.8780     8.0030   117.8810     2.4340     0.1580     0.0950
  316.5000   -38.1500     6.7410     6.9820     7.9770   103.4940     2.4510     0.1480     0.1210
  317.0000   -37.9910     6.8290     7.0640     7.8710   100.9400     2.4670     0.1340     0.1410
  317.5000   -38.1670     6.9170     7.0750     7.7640   101.0340     2.4830     0.1290     0.1560
  318.0000   -38.3410     6.9330     7.0860     7.6880   103.0720     2.4990     0.1210     0.1590
  318.5000   -38.5200     6.9330     7.0970     7.6320   111.4220     2.5100     0.1100     0.1550
  319.0000   -38.4140     6.9330     7.1080     7.5760   110.4770     2.5030     0.1090     0.1310
  319.5000   -38.2230     6.8820     7.1180     7.5200   108.6950     2.4960     0.1200     0.1070
  320.0000   -38.0280     6.7940     7.1270     7.4640   106.8180     2.4900     0.1250     0.0820
  320.5000   -37.8240     6.7070     7.0640     7.4070   104.0150     2.4730     0.1310     0.0580
  321.0000   -37.8780     6.6200     7.0110     7.4330    98.2790     2.4540     0.1530     0.0340
  321.5000   -38.0250     6.5330     6.9330     7.4640    95.1850     2.4350     0.1610     0.0210
  322.0000   -38.1630     6.4410     6.9450     7.4950    94.5080     2.4250     0.1650     0.0180
  322.5000   -38.1680     6.3420     6.9660     7.5260    94.7570     2.4200     0.1670     0.0150
  323.0000   -38.2200     6.2370     6.9970     7.5680    95.3710     2.4130     0.1710     0.0120
