~VERSION INFORMATION
 VERS.                2.0:   CWLS LOG ASCII STANDARD - VERSION 2.0
 WRAP.                 NO:   ONE LINE PER DEPTH STEP
~WELL INFORMATION
#MNEM.UNIT      DATA TYPE    INFORMATION
#----------   ------------   ------------------------------
 STRT.F           10.0000:   START DEPTH
 STOP.F          756.0000:   STOP DEPTH
 STEP.F            0.1000:   STEP LENGTH
 NULL.          -999.2500:   NO VALUE
 COMP. BROWN JOHN E&C INC:   COMPANY
 WELL. N P R 3 SHX- #31-1-X-14:   WELL
 FLD .             TEAPOT:   FIELD
 LOC .      S14 T38N R78W:   LOCATION
 CNTY.            NATRONA:   COUNTY
 STAT.            WYOMING:   STATE
 CTRY. UNITED STATES OF AMERICA:   COUNTRY
 SRVC.     Atlas Wireline:   SERVICE COMPANY
 DATE.        07-JAN-1992:   LOGDATE
 API .       490252249700:   API NUMBER
~CURVE INFORMATION
#MNEM.UNIT       API CODE    CURVE DESCRIPTION
#----------   ------------   ------------------------------
 DEPT.F                  :   
 GRR .GAPI   07 310 01 00:   GAMMA RAY
 RFOC.OHMM   07 220 04 00:   RESISTIVITY FOCUSED LOG RES.
 RILD.OHMM   07 120 46 00:   INDUCTION LOG DEEP RESISTIVITY
 RILM.OHMM   07 120 44 00:   INDUCTION LOG MEDIUM  RESISTIVITY
~PARAMETER INFORMATION
#MNEM.UNIT          VALUE    DESCRIPTION
#----------   ------------   ------------------------------
 PD  .                 GL:   PERMANENT DATUM
 EPD .F              5210:   ELEVATION PERMANENT DATUM
 LMF .                 KB:   LOG MEASURED FROM
 DAPD.F                10:   FEET ABOVE PERMANENT DATUM
 DMF .                 KB:   DRILLING MEASURED FROM
 EKB .F              5220:   KELLING BUSHING
 EDF .F              5219:   DRILLING FLOOR
 EGL .F              5210:   GROUND LEVEL
 DATE.        07-JAN-1992:   RUN DATE
 RUN .                  1:   RUN NUMBER
 DD  .F               762:   DEPTH DRILLER
 DL  .F               760:   DEPTH LOGGER
 BLI .F               758:   BOTTOM LOG INTERVAL
 CS  .IN            9.625:   CASING SIZE
 CBD .F                48:   CASING BOTTOM DRILLER
 CBL .F                50:   CASING BOTTOM LOGGER
 BS  .IN             8.75:   BIT SIZE
 BSD .F               762:   BIT SIZE AT DEPTH
 DFT .    FORMATION FLUID:   DRILLING FLUID TYPE
 MRT .F                90:   MAXIMUM RECORDED TEMPERATURE
 LUN .            HL-6274:   LOGGING UNIT NUMBER
 LUL .             CASPER:   LOGGING UNIT LOCATION
 ENGI.             RAUTIC:   RECORDING ENGINEER
 WITN.        GARY STRONG:   WITNESSED BY
 CLNT.            A2DTECH:   CLIENT CODE
 ORIG.           5" PRINT:   ORIGIN OF DATA
 UWI .       490252249700:   UNIQUE WELL ID
 DICO. A2D Technologies, Inc.:   DIGITIZING COMPANY
~OTHER INFORMATION
~A   DEPT       GRR      RFOC       RILD       RILM   
# ...
   97.6000   106.0366     2.7679     2.0113     2.0482
   97.7000   106.4306     2.7396     2.0238     2.0710
   97.8000   106.6852     2.7079     2.0509     2.0952
   97.9000   106.9398     2.6843     2.0613     2.1129
   98.0000   107.2267     2.6642     2.0735     2.1297
   98.1000   107.4490     2.6350     2.0857     2.1545
   98.2000   107.7035     2.6184     2.1015     2.1806
   98.3000   107.9581     2.6185     2.1250     2.1929
   98.4000   108.1378     2.6186     2.1388     2.2155
   98.5000   108.1652     2.6187     2.1501     2.2340
   98.6000   108.4424     2.6239     2.1718     2.2422
   98.7000   108.4435     2.6373     2.1907     2.2445
   98.8000   108.4447     2.6374     2.2036     2.2579
   98.9000   108.4459     2.6521     2.2183     2.2837
   99.0000   108.3625     2.6677     2.2460     2.2896
   99.1000   108.1461     2.6922     2.2584     2.2974
   99.2000   108.1475     2.7297     2.2816     2.3160
   99.3000   107.9082     2.7808     2.3085     2.3405
   99.4000   107.4643     2.8483     2.3307     2.3543
   99.5000   106.8158     2.9140     2.3468     2.3815
   99.6000   106.0568     2.9694     2.3751     2.4205
   99.7000   105.2068     3.0014     2.3887     2.4631
   99.8000   103.9251     3.8194     2.4028     2.5240
   99.9000   102.6755     4.1807     2.4253     2.6133
  100.0000   101.4098     4.2997     2.4596     2.7055
  100.1000   100.8580     4.4051     2.5377     2.7626
  100.2000   100.6083     4.4719     2.5821     2.8016
  100.3000   100.3585     4.5240     2.6426     2.7723
  100.4000   100.5051     4.5770     2.6921     2.8536
  100.5000   100.6103     4.6034     2.7392     2.9336
  100.6000   100.6115     4.6089     2.7937     3.0021
  100.7000   100.7021     4.6088     2.8557     3.0725
  100.8000   101.2182     4.5984     2.9060     3.1299
  100.9000   101.9529     4.5669     2.9567     3.1958
  101.0000   103.4804     4.5132     3.0085     3.2629
  101.1000   105.0961     4.4620     3.0506     3.3199
  101.2000   106.5120     4.4105     3.0932     3.3778
  101.3000   107.6883     4.3451     3.1438     3.4250
  101.4000   108.4762     4.2700     3.1808     3.4568
  101.5000   108.9567     4.1962     3.2175     3.4848
  101.6000   109.0828     4.1218     3.2550     3.5049
  101.7000   108.9466     4.1218     3.2929     3.5252
  101.8000   108.6107     4.1033     3.3312     3.5455
  101.9000   108.0749     4.0930     3.3700     3.5454
  102.0000   107.2750     4.0930     3.4098     3.5453
  102.1000   106.1019     4.0969     3.4293     3.5452
  102.2000   105.0320     4.1215     3.4336     3.5451
  102.3000   104.0294     4.1214     3.4336     3.5410
  102.4000   103.1082     4.1214     3.4260     3.5204
  102.5000   102.2961     4.1213     3.4063     3.5203
  102.6000   100.9379     4.1212     3.3862     3.5040
  102.7000   100.2490     4.1212     3.3670     3.4836
  102.8000    99.6761     4.1211     3.3627     3.4634
  102.9000    99.1754     4.1211     3.3515     3.4473
  103.0000    98.7513     4.1210     3.3322     3.4472
  103.1000    98.5015     4.1210     3.3163     3.4233
  103.2000    98.2261     4.1209     3.3163     3.3917
  103.3000    98.2272     4.1208     3.2791     3.3642
  103.4000    98.2284     4.1208     3.2705     3.3447
  103.5000    98.3525     4.1207     3.2597     3.3253
  103.6000    98.6046     4.1207     3.2409     3.3060
  103.7000    98.8774     4.1077     3.2222     3.2679
  103.8000    99.4418     4.0919     3.2030     3.2451
  103.9000   100.1039     4.0886     3.1851     3.2152
  104.0000   100.8580     4.0634     3.1527     3.1854
  104.1000   101.8481     4.0413     3.1266     3.1633
  104.2000   103.1041     4.0179     3.1020     3.1267
  104.3000   104.3444     3.9946     3.0692     3.0907
  104.4000   105.4914     3.9791     3.0509     3.0692
  104.5000   106.1389     3.9760     3.0171     3.0409
  104.6000   106.8931     3.9513     2.9823     3.0058
  104.7000   107.5340     3.9301     2.9480     2.9711
  104.8000   108.0371     3.9073     2.9141     2.9368
  104.9000   108.5293     3.8846     2.8805     2.8962
  105.0000   108.8219     3.8621     2.8460     2.8695
  105.1000   108.8230     3.8424     2.8146     2.8364
  105.2000   108.6646     3.8423     2.7822     2.8036
  105.3000   108.4149     3.8219     2.7502     2.7713
  105.4000   108.1651     3.7997     2.7186     2.7393
  105.5000   107.9094     3.7777     2.6872     2.6921
  105.6000   107.3186     3.7558     2.6549     2.6579
  105.7000   107.1138     3.7317     2.6258     2.6273
  105.8000   106.8641     3.6846     2.5956     2.5970
  105.9000   106.6143     3.6652     2.5576     2.5670
  106.0000   106.3646     3.6291     2.5186     2.5373
  106.1000   106.1160     3.5977     2.4874     2.4849
  106.2000   106.1175     3.5706     2.4424     2.4620
  106.3000   105.9174     3.5293     2.4157     2.4336
  106.4000   105.8175     3.4844     2.3880     2.4000
  106.5000   105.8187     3.4305     2.3531     2.3613
  106.6000   105.8199     3.3848     2.3171     2.3340
  106.7000   105.8212     3.3457     2.2904     2.3071
  106.8000   105.8224     3.3016     2.2626     2.2805
  106.9000   106.0197     3.2461     2.2380     2.2620
  107.0000   106.1269     3.2044     2.2123     2.2489
  107.1000   106.1281     3.1716     2.1868     2.2359
  107.2000   106.1720     3.1350     2.1659     2.2229
  107.3000   106.4327     3.0988     2.1517     2.2228
  107.4000   106.9188     3.0630     2.1254     2.2228
  107.5000   107.6133     3.0290     2.1139     2.2227
  107.6000   108.3674     3.0093     2.1017     2.2226
  107.7000   109.2995     2.9637     2.0961     2.2226
  107.8000   110.5176     2.9240     2.1002     2.2225
  107.9000   111.5759     2.8902     2.1107     2.2224
  108.0000   112.5276     2.8568     2.1107     2.2224
  108.1000   113.7192     2.8238     2.1222     2.2223
  108.2000   114.7045     2.7869     2.1345     2.2223
  108.3000   115.2902     2.7452     2.1402     2.2222
  108.4000   115.5424     2.7082     2.1444     2.2222
  108.5000   115.8128     2.6698     2.1568     2.2350
  108.6000   116.0467     2.6276     2.1702     2.2902
  108.7000   116.2989     2.5990     2.1819     2.3492
  108.8000   116.5511     2.5990     2.1946     2.4041
  108.9000   116.7239     2.5990     2.2142     2.4574
  109.0000   116.7251     2.6089     2.2357     2.5002
  109.1000   116.7264     2.6380     2.2503     2.5589
  109.2000   116.4995     2.6883     2.2784     2.6066
  109.3000   116.4266     2.7520     2.3030     2.6430
  109.4000   116.3021     2.8453     2.3299     2.6799
  109.5000   115.9779     2.9606     2.3570     2.7235
  109.6000   115.4771     3.0777     2.3889     2.7551
  109.7000   114.9210     3.1951     2.4290     2.8034
  109.8000   114.0295     3.3272     2.4595     2.8525
  109.9000   112.1669     3.4681     2.4992     2.9024
  110.0000   110.0302     3.7341     2.5430     2.9531
  110.1000   108.2328     3.9030     2.5797     3.0083
  110.2000   106.9977     4.1282     2.6147     3.0785
  110.3000   105.8648     4.3745     2.6604     3.1432
  110.4000   104.5559     4.6022     2.7108     3.2022
  110.5000   102.8842     4.7354     2.7545     3.2771
  110.6000   101.2447     4.8327     2.8027     3.3537
  110.7000    99.9996     4.8560     2.8691     3.4321
  110.8000    99.5262     4.8664     2.9478     3.5122
  110.9000    99.5277     4.8663     3.0208     3.5612
  111.0000    99.5287     4.8599     3.1369     3.5943
  111.1000    99.5299     4.8317     3.2211     3.6361
  111.2000    99.5311     4.7987     3.3158     3.6698
  111.3000    99.5923     4.7759     3.4030     3.6910
  111.4000    99.8445     4.7482     3.4826     3.7123
  111.5000   100.1392     4.7207     3.5640     3.7380
  111.6000   100.1402     4.6991     3.6552     3.8081
  111.7000   100.4564     4.6990     3.7134     3.9110
  111.8000   100.7468     4.6990     3.7785     3.9974
  111.9000   100.8032     4.6989     3.8447     4.0391
  112.0000   101.0554     4.6988     3.9050     4.0624
  112.1000   101.3549     4.6988     3.9457     4.0859
