~VERSION INFORMATION
 VERS.                2.0:   CWLS LOG ASCII STANDARD - VERSION 2.0
 WRAP.                 NO:   ONE LINE PER DEPTH STEP
~WELL INFORMATION
#MNEM.UNIT      DATA TYPE    INFORMATION
#----------   ------------   ------------------------------
 STRT.F           12.0000:   START DEPTH
 STOP.F          563.5000:   STOP DEPTH
 STEP.F            0.5000:   STEP LENGTH
 NULL.          -999.2500:   NO VALUE
 COMP.       F D SERV INC:   COMPANY
 WELL. N P R 3 SX-3 #52-3:   WELL
 FLD .             TEAPOT:   FIELD
 LOC .       S3 T38N R78W:   LOCATION
 CNTY.            NATRONA:   COUNTY
 STAT.            WYOMING:   STATE
 CTRY. UNITED STATES OF AMERICA:   COUNTRY
 SRVC.     Atlas Wireline:   SERVICE COMPANY
 DATE.        27-APR-1992:   LOGDATE
 API .       490252252000:   API NUMBER
~CURVE INFORMATION
#MNEM.UNIT       API CODE    CURVE DESCRIPTION
#----------   ------------   ------------------------------
 DEPT.F                  :   
 PORZ.DEC    45 890 12 00:   DENSITY POROSITY
 CNC .DEC    42 890 03 00:   NEUTRON POROSITY SANDSTONE
 CALD.IN     45 280 60 00:   CALIPER FROM DENSITY
 GRD .GAPI   45 310 01 00:   GAMMA RAY FROM DENSITY LOG
 ZCOR.G/C3   45 356 01 00:   DENSITY CORRECTION
 ZDEN.G/C3   45 350 01 00:   BULK DENSITY
 RILD.OHMM   07 120 46 00:   INDUCTION LOG DEEP RESISTIVITY
 RILM.OHMM   07 120 44 00:   INDUCTION LOG MEDIUM RESISTIVITY
 RFOC.OHMM   07 220 04 00:   RESISTIVITY FOCUSED LOG
~PARAMETER INFORMATION
#MNEM.UNIT          VALUE    DESCRIPTION
#----------   ------------   ------------------------------
 PD  .                 GL:   PERMANENT DATUM
 EPD .F              5145:   ELEVATION PERMANENT DATUM
 LMF .                 KB:   LOG MEASURED FROM
 DAPD.F                 5:   FEET ABOVE PERMANENT DATUM
 DMF .                 KB:   DRILLING MEASURED FROM
 EKB .F              5150:   KELLING BUSHING
 EDF .F              5149:   DRILLING FLOOR
 EGL .F              5145:   GROUND LEVEL
 DATE.        27-APR-1992:   RUN DATE
 RUN .                  1:   RUN NUMBER
 DD  .F               565:   DEPTH DRILLER
 DL  .F               565:   DEPTH LOGGER
 BLI .F               563:   BOTTOM LOG INTERVAL
 CS  .IN            8.625:   CASING SIZE
 CBD .F                48:   CASING BOTTOM DRILLER
 CBL .F                51:   CASING BOTTOM LOGGER
 BS  .IN            7.875:   BIT SIZE
 BSD .F               565:   BIT SIZE AT DEPTH
 DFT .              WATER:   DRILLING FLUID TYPE
 TCS .HRS            0200:   TIME CURCULATED STOPPED
 MRT .F                88:   MAXIMUM RECORDED TEMPERATURE
 LUN .           HL- 6274:   LOGGING UNIT NUMBER
 LUL .             CASPER:   LOGGING UNIT LOCATION
 ENGI.             RAUTIO:   RECORDING ENGINEER
 WITN.        GARY STRONG:   WITNESSED BY
 CLNT.            A2DTECH:   CLIENT CODE
 ORIG.           5" PRINT:   ORIGIN OF DATA
 UWI .       490252252000:   UNIQUE WELL ID
 DICO. A2D Technologies, Inc.:   DIGITIZING COMPANY
~OTHER INFORMATION
~A   DEPT     PORZ        CNC       CALD        GRD       ZCOR       ZDEN       RILD       RILM       RFOC   
# ...
  340.5000     0.0961     0.2781     8.1917    75.1654     0.0515     2.4893    15.8610    16.9513    14.8074
  341.0000     0.0946     0.2817     8.1916    68.8723     0.0200     2.4925    16.6467    18.0436    19.4092
  341.5000     0.0975     0.3037     8.1914    72.3202     0.0140     2.4497    17.6060    18.5507    22.2979
  342.0000     0.1388     0.3143     8.1913    81.2005     0.0191     2.4090    18.8517    18.8090    16.7742
  342.5000     0.1620     0.3345     8.1912    81.8102     0.0369     2.3722    20.0619    18.9385    16.4277
  343.0000     0.1791     0.3429     8.1910    78.5349     0.0430     2.3481    21.0557    19.0692    17.4852
  343.5000     0.1842     0.3499     8.1908    75.8547     0.0446     2.3391    21.9460    19.3350    19.0029
  344.0000     0.1879     0.3640     8.1907    73.4740     0.0402     2.3345    22.8740    20.7240    18.8699
  344.5000     0.1926     0.3676     8.1905    71.0933     0.0328     2.3264    23.5433    22.2308    19.1448
  345.0000     0.2047     0.3595     8.1904    66.9162     0.0087     2.3136    24.8480    24.3103    21.6766
  345.5000     0.2170     0.3534     8.1903    60.9032     0.0058     2.2851    25.8986    25.8768    25.2509
  346.0000     0.2263     0.3528     8.1901    61.5595     0.0210     2.2708    26.8071    26.9763    27.0639
  346.5000     0.2323     0.3562     8.1899    63.3704     0.0211     2.2572    27.3667    27.7344    28.4094
  347.0000     0.2411     0.3589     8.1898    61.8879     0.0243     2.2423    27.7421    28.5139    31.3065
  347.5000     0.2507     0.3595     8.1896    59.2078     0.0334     2.2247    28.7417    32.6145    33.8193
  348.0000     0.2579     0.3534     8.2045    58.3205     0.0365     2.2277    30.5570    33.2173    34.9783
  348.5000     0.2522     0.3495     8.2043    61.9314     0.0276     2.2352    31.8491    32.3044    34.7340
  349.0000     0.2470     0.3456     8.2042    64.0619     0.0201     2.2435    31.8427    31.6361    34.7317
  349.5000     0.2421     0.3399     8.2040    64.6586     0.0233     2.2504    30.9653    30.9816    34.2506
  350.0000     0.2386     0.3365     8.2039    65.5680     0.0264     2.2592    30.1121    29.7150    33.3100
  350.5000     0.2346     0.3377     8.2033    65.5719     0.0249     2.2645    28.4484    28.5708    31.0703
  351.0000     0.2284     0.3428     8.2027    66.8004     0.0357     2.2735    26.7846    27.5025    30.4197
  351.5000     0.2220     0.3425     8.2021    68.2729     0.0461     2.2870    25.1209    25.1356    29.3789
  352.0000     0.2070     0.3374     8.2014    70.3716     0.0446     2.3225    23.6089    23.4443    28.7678
  352.5000     0.1738     0.3217     8.2008    72.7697     0.0416     2.3706    23.2806    23.1162    27.0203
  353.0000     0.1607     0.3196     8.2003    75.7665     0.0432     2.3849    22.9561    22.9517    24.5134
  353.5000     0.1644     0.3253     8.1997    77.2671     0.0496     2.3766    22.7944    22.9471    23.1848
  354.0000     0.1650     0.3246     8.1840    76.6704     0.0598     2.3788    22.7914    23.1280    22.8606
  354.5000     0.1548     0.2996     8.1834    77.2727     0.0644     2.3954    22.7884    23.7474    24.3293
  355.0000     0.1506     0.2975     8.1829    78.4732     0.0569     2.4014    22.9440    23.9094    23.3311
  355.5000     0.1521     0.2918     8.1673    79.6777     0.0433     2.3968    23.1006    23.9034    23.0049
  356.0000     0.1702     0.2937     8.1666    79.3778     0.0235     2.3877    23.4194    23.8986    23.4842
  356.5000     0.1786     0.2972     8.1660    78.1823     0.0268     2.3606    24.0750    24.0759    24.6485
  357.0000     0.1801     0.2953     8.1655    77.8858     0.0329     2.3492    24.5779    24.3922    24.8393
  357.5000     0.1789     0.2917     8.1649    78.7875     0.0299     2.3537    25.4418    24.5573    24.9831
  358.0000     0.1738     0.2854     8.1643    79.7126     0.0254     2.3620    26.5185    24.7235    23.7923
  358.5000     0.1660     0.2757     8.1636    78.7939     0.0284     2.3695    27.0733    24.8899    22.3471
  359.0000     0.1496     0.2573     8.1631    76.7010     0.0375     2.3936    27.2582    25.2375    22.3427
  359.5000     0.1185     0.2258     8.1625    75.2061     0.0571     2.4305    27.2537    26.3001    23.2957
  360.0000     0.1125     0.2208     8.1619    74.6108     0.0496     2.4644    27.0617    26.8485    27.1232
  360.5000     0.1309     0.2343     8.1612    74.6138     0.0210     2.4606    26.5001    26.4729    29.6799
  361.0000     0.1553     0.2591     8.1758    75.8148     0.0180     2.4228    25.9510    26.1024    28.6604
  361.5000     0.1628     0.2742     8.1902    78.5123     0.0286     2.3859    25.0632    25.5591    24.5969
  362.0000     0.1565     0.2889     8.2045    81.2097     0.0316     2.3798    24.3742    24.6317    22.1605
  362.5000     0.1553     0.2904     8.2038    83.9072     0.0317     2.3964    23.5404    23.0198    20.5155
  363.0000     0.1574     0.2913     8.2184    85.4077     0.0317     2.3911    22.5772    22.0758    19.6853
  363.5000     0.1596     0.2892     8.2177    86.0094     0.0287     2.3820    21.9565    21.4666    19.5462
  364.0000     0.1620     0.2847     8.2171    85.7121     0.0257     2.3804    21.2054    20.4437    20.5152
  364.5000     0.1623     0.2789     8.2164    84.8175     0.0242     2.3804    20.6225    20.2868    20.0874
  365.0000     0.1629     0.2741     8.2158    83.9022     0.0213     2.3819    20.1951    19.8746    19.6696
  365.5000     0.1620     0.2729     8.2003    80.9316     0.0183     2.3834    20.0522    19.7331    19.2032
  366.0000     0.1611     0.2729     8.1997    79.7369     0.0168     2.3841    20.0496    19.7292    18.4711
  366.5000     0.1607     0.2735     8.1991    80.3385     0.0138     2.3848    20.0470    19.8638    18.5960
  367.0000     0.1622     0.2759     8.1984    83.6348     0.0108     2.3795    20.1845    19.8588    18.8522
  367.5000     0.1677     0.2792     8.1978    84.8353     0.0109     2.3735    20.3216    19.8539    18.8475
  368.0000     0.1713     0.2828     8.1823    84.8388     0.0142     2.3697    20.4603    19.9893    18.8438
  368.5000     0.1722     0.2837     8.1967    84.8416     0.0185     2.3659    20.4569    20.1246    18.9712
  369.0000     0.1725     0.2822     8.1960    85.1439     0.0170     2.3643    20.7399    20.2608    19.3656
  369.5000     0.1718     0.2788     8.1954    84.8473     0.0170     2.3658    20.8815    20.3971    19.6333
  370.0000     0.1712     0.2764     8.1949    83.6533     0.0170     2.3673    21.1704    20.6973    19.4927
  370.5000     0.1727     0.2791     8.1943    82.7579     0.0171     2.3695    21.6119    21.4036    19.3540
  371.0000     0.1745     0.2836     8.1936    81.8625     0.0171     2.3627    22.2169    22.3100    19.3500
  371.5000     0.1727     0.2854     8.2082    81.2659     0.0186     2.3627    22.6810    23.2549    19.3453
  372.0000     0.1628     0.2833     8.2075    80.6546     0.0307     2.3694    23.1556    24.2397    19.6128
  372.5000     0.1335     0.2724     8.2219    80.0754     0.0534     2.3905    23.3129    24.2235    20.1599
  373.0000     0.1071     0.2498     8.2212    80.0782     0.0640     2.4288    23.3090    23.7292    22.9971
  373.5000     0.1008     0.2269     8.2206    80.0811     0.0565     2.4747    23.1449    23.3971    23.8045
  374.0000     0.1125     0.2293     8.2200    81.2815     0.0384     2.4883    23.1418    22.9101    23.2621
  374.5000     0.1327     0.2377     8.2195    82.8173     0.0173     2.4830    22.8200    22.4331    21.7409
  375.0000     0.1567     0.2685     8.2188    83.3837     0.0173     2.4334    22.5027    22.1193    19.7238
  375.5000     0.1688     0.2914     8.2182    83.6860     0.0310     2.3942    21.8834    21.6577    19.0473
  376.0000     0.1733     0.2986     8.2176    84.2876     0.0355     2.3724    21.1348    20.9143    19.1761
  376.5000     0.1718     0.2968     8.2171    86.3862     0.0355     2.3649    20.5538    20.1964    19.3058
