~VERSION INFORMATION
 VERS.                2.0:   CWLS LOG ASCII STANDARD - VERSION 2.0
 WRAP.                 NO:   ONE LINE PER DEPTH STEP
~WELL INFORMATION
#MNEM.UNIT      DATA TYPE    INFORMATION
#----------   ------------   ------------------------------
 STRT.F           30.0000:   START DEPTH
 STOP.F          562.0000:   STOP DEPTH
 STEP.F            0.5000:   STEP LENGTH
 NULL.          -999.2500:   NO VALUE
 COMP. LAWRENCE/ALLISON INC:   COMPANY
 WELL. NPR 3 #53-16-SX-10:   WELL
 FLD .             TEAPOT:   FIELD
 LOC .      S10 T38N R78W:   LOCATION
 CNTY.            NATRONA:   COUNTY
 STAT.            WYOMING:   STATE
 CTRY. UNITED STATES OF AMERICA:   COUNTRY
 SRVC.      Dresser Atlas:   SERVICE COMPANY
 DATE.        27-AUG-1984:   LOGDATE
 API .       490251098200:   API NUMBER
~CURVE INFORMATION
#MNEM.UNIT       API CODE    CURVE DESCRIPTION
#----------   ------------   ------------------------------
 DEPT.F                  :   
 RILD.OHMM   07 120 46 00:   INDUCTION LOG DEEP RESISTIVITY
 RILM.OHMM   07 120 44 00:   INDUCTION LOG MEDIUM RESISTIVITY
 RFOC.OHMM   07 220 04 00:   RESISTIVITY FOCUSED LOG
 SPR .MV     07 010 01 00:   SPONTANEOUS POTENTIAL
 AC  .US/F   60 520 00 00:   ACOUSTIC SONIC
 DEN .G/C3   45 350 01 00:   COMPENSATED BULK DENSTIY
 CORR.G/C3   45 356 01 00:   DENSITY CORRECTION
 CNC .DEC    42 890 01 00:   NEUTRON POROSITY LIMESTONE
 CALD.IN     45 280 60 00:   CALIPER
 GRD .GAPI   45 310 01 00:   GAMMA RAY FROM DENSITY LOG
 PORD.DEC    45 890 10 00:   POROSITY DENSITY LIMESTONE
~PARAMETER INFORMATION
#MNEM.UNIT          VALUE    DESCRIPTION
#----------   ------------   ------------------------------
 PD  .                 GL:   PERMANENT DATUM
 EPD .F              5199:   ELEVATION PERMANENT DATUM
 LMF .                 GL:   LOG MEASURED FROM
 DMF .                 GL:   DRILLING MEASURED FROM
 EGL .F              5199:   GROUND LEVEL
 DATE.            8-27-84:   RUN DATE
 RUN .                  1:   RUN NUMBER
 DD  .F               550:   DEPTH DRILLER
 DL  .F               549:   DEPTH LOGGER
 BLI .F               547:   BOTTOM LOG INTERVAL
 TLI .F                30:   TOP LOG INTERVAL
 CS  .IN            9.625:   CASING SIZE
 CBD .F                40:   CASING BOTTOM DRILLER
 CBL .F                44:   CASING BOTTOM LOGGER
 BS  .IN            7.875:   BIT SIZE
 BSD .F               550:   BIT SIZE AT DEPTH
 DFT .          KCL/WATER:   DRILLING FLUID TYPE
 MSS .           MUD TANK:   MUD SAMPLE SOURCE
 RMS .OHMM            .28:   RESISTIVITY MUD SAMPLE
 MST .F                78:   MUD SAMPLE TEMPERATURE
 TCS .HRS               4:   TIME CURCULATED STOPPED
 LUN .               4082:   LOGGING UNIT NUMBER
 LUL .          ROOSEVELT:   LOGGING UNIT LOCATION
 ENGI.            FRANCIS:   RECORDING ENGINEER
 WITN.              FIVAS:   WITNESSED BY
 CLNT.            A2DTECH:   CLIENT CODE
 ORIG.       2", 5" PRINT:   ORIGIN OF DATA
 UWI .       490251098200:   UNIQUE WELL ID
 DICO. A2D Technologies, Inc.:   DIGITIZING COMPANY
~OTHER INFORMATION
~A   DEPT     RILD       RILM       RFOC        SPR         AC        DEN       CORR          CNC     CALD         GRD      PORD   
# ...
   91.0000    11.1453    11.4897    12.1080    30.4901   119.7655     2.4613     0.0476     0.2091     8.7037   103.4437     0.1305
   91.5000    11.2197    11.6573    12.0821    29.9642   119.3968     2.4686     0.0329     0.2146     8.7033   102.6786     0.1258
   92.0000    11.2947    11.7978    12.0558    29.4352   118.1148     2.4760     0.0263     0.2156     8.7029   101.9041     0.1213
   92.5000    11.3702    11.9401    12.0328    28.8326   116.6175     2.4859     0.0262     0.2099     8.7024   101.2903     0.1142
   93.0000    11.4461    12.1061    12.5981    28.1175   115.2004     2.5055     0.0310     0.2051     8.7020    97.0183     0.1050
   93.5000    11.5226    12.3152    13.3147    27.4040   115.4008     2.5210     0.0267     0.2046     8.7016    91.1011     0.0948
   94.0000    11.5963    12.6017    14.0720    26.6885   116.1244     2.5096    -0.0051     0.2041     8.7012    89.1134     0.1017
   94.5000    11.5022    12.4888    14.3416    25.9702   118.2972     2.4886    -0.0119     0.2027     8.7008    90.0189     0.1118
   95.0000    11.2960    12.2729    13.0541    25.3201   120.4808     2.4773     0.0265     0.1993     8.7003    93.9130     0.1216
   95.5000    11.0815    11.9601    11.9222    25.5032   122.6425     2.4743     0.0395     0.2003     8.6999    97.6980     0.1219
   96.0000    10.8710    11.6553    11.6370    25.6916   123.8176     2.4713     0.0526     0.2114     8.6995   101.1152     0.1225
   96.5000    10.6645    11.3580    11.3470    25.3341   122.6948     2.4641     0.0645     0.2208     8.6991   102.4136     0.1267
   97.0000    10.4619    11.0682    11.0642    24.9364   119.1002     2.4575     0.0503     0.2231     8.6987   103.2745     0.1309
   97.5000    10.2638    10.8627    10.8683    24.5541   113.6461     2.4602     0.0373     0.2255     8.6983   104.1119     0.1329
   98.0000    10.0970    10.7923    11.1069    24.0772   108.0428     2.4666     0.0306     0.2253     8.6979   104.7526     0.1280
   98.5000    10.1223    10.7223    11.4455    23.6025   103.7213     2.4729     0.0251     0.2152     8.6974   103.9761     0.1242
   99.0000    10.1453    10.6529    11.7935    23.1276   101.8216     2.4736     0.0323     0.2050     8.6970   103.1941     0.1225
   99.5000    10.1687    10.5838    11.9222    22.6533   100.7445     2.4711     0.0397     0.2035     8.6966   101.7117     0.1233
  100.0000    10.1874    10.5153    11.6327    22.1790   100.7445     2.4586     0.0474     0.2105     8.6962    99.8224     0.1293
  100.5000    10.0776    10.4471    11.4364    21.7046   101.3168     2.4450     0.0395     0.2161     8.6958    99.1475     0.1364
  101.0000     9.9762    10.3794    11.2435    21.2299   101.8955     2.4363     0.0206     0.2173     8.6954   100.5853     0.1436
  101.5000     9.8759    10.3122    11.0538    20.7517   102.4750     2.4422     0.0183     0.2170     8.6949   103.7444     0.1465
  102.0000     9.7767    10.2453    10.8674    20.4962   102.4929     2.4546     0.0288     0.2164     8.6945   108.0633     0.1382
  102.5000     9.6786    10.1789    10.7621    20.2875   102.5217     2.4563     0.0363     0.2227     8.6941   107.4871     0.1333
  103.0000     9.5814    10.0958    10.7449    20.0776   102.5506     2.4560     0.0327     0.2292     8.6937   104.2093     0.1335
  103.5000     9.4628    10.1168    10.7277    19.8688   102.4990     2.4613     0.0336     0.2266     8.6933   100.9785     0.1337
  104.0000     9.4639    10.1454    10.7107    19.9546   101.9800     2.4665     0.0402     0.2231     8.6929    98.6321     0.1294
  104.5000     9.4634    10.1740    10.6941    20.0609    96.4554     2.4701     0.0467     0.2215     8.6924    98.4213     0.1259
  105.0000     9.4635    10.2028    10.6712    20.1663    89.6430     2.4720     0.0534     0.2265     8.6920    99.2981     0.1249
  105.5000     9.4636    10.2316    10.8376    20.2588    82.8307     2.4772     0.0493     0.2315     8.6916    99.9552     0.1234
  106.0000     9.4636    10.2605    11.0828    20.2072    78.9247     2.4865     0.0421     0.2313     8.6912    99.5869     0.1190
  106.5000     9.4636    10.2840    11.3840    20.1542    77.2565     2.4986     0.0348     0.2285     8.6908    99.2246     0.1115
  107.0000     9.4636    10.1568    11.2170    20.1020    76.3547     2.5094     0.0354     0.2283     8.6904    97.8125     0.1040
  107.5000     9.4652    10.0508    11.0120    20.0499    76.3507     2.5054     0.0454     0.2315     8.6899    96.2077     0.1000
  108.0000     9.3893     9.9460    10.8631    19.9978    76.9647     2.4890     0.0549     0.2340     8.6895    96.9070     0.1054
  108.5000     9.3203     9.8423    10.7953    19.9459    78.1897     2.4685     0.0546     0.2336     8.6891   101.1514     0.1164
  109.0000     9.2519     9.7403    10.7280    19.8935    79.4863     2.4561     0.0507     0.2206     8.6887   103.1829     0.1274
  109.5000     9.1839     9.6393    10.6617    19.8039    79.7438     2.4485     0.0389     0.2143     8.6883   103.8817     0.1368
  110.0000     9.1186     9.3860    10.5947    19.6346    79.8211     2.4472     0.0312     0.2200     8.6879   104.5536     0.1393
  110.5000     8.7762     9.1437    10.5051    19.4664    79.8990     2.4523     0.0441     0.2289     8.6874   105.3627     0.1367
  111.0000     8.4597     8.9077    10.0827    19.2981    79.9769     2.4590     0.0579     0.2343     8.6870   108.5767     0.1334
  111.5000     8.1564     8.6778     9.5536    19.1295    80.1533     2.4610     0.0717     0.2313     8.6866   111.4511     0.1313
  112.0000     7.8671     8.4538     9.0509    18.9632    80.8675     2.4540     0.0794     0.2315     8.6862   112.1321     0.1321
  112.5000     7.8812     8.1632     8.5746    18.8612    81.8537     2.4469     0.0530     0.2393     8.6861   112.9958     0.1372
  113.0000     7.8952     8.1886     8.1601    18.9503    82.2345     2.4400     0.0142     0.2443     8.6861   116.2787     0.1417
  113.5000     7.9093     8.2270     8.1604    19.0369    81.6567     2.4363     0.0051     0.2411     8.6861   119.7046     0.1449
  114.0000     7.9233     8.2655     9.3594    19.1240    81.0830     2.4406     0.0166     0.2356     8.6861   116.5635     0.1414
  114.5000     7.9372     8.3043    10.3855    19.2108    80.9313     2.4502     0.0277     0.2288     8.6861   110.2570     0.1333
  115.0000     7.9689     8.3432    10.1179    19.2974    81.4404     2.4598     0.0348     0.2321     8.6861   104.0170     0.1269
  115.5000     8.0044     8.3824     9.7952    19.3843    82.3347     2.4693     0.0331     0.2375     8.6861   100.7143     0.1236
  116.0000     8.0402     8.4217     9.4636    19.4939    85.4401     2.4733     0.0415     0.2392     8.6861    98.1251     0.1250
  116.5000     8.0762     8.4612     9.5948    19.7147    92.0237     2.4696     0.0463     0.2269     8.6861    97.3122     0.1296
  117.0000     8.1123     8.5397     9.7396    19.9344    98.6804     2.4616     0.0444     0.2187     8.6861    97.7008     0.1333
  117.5000     8.1485     8.6312     9.9109    20.1539   101.8440     2.4564     0.0454     0.2192     8.6861    98.0660     0.1309
  118.0000     8.1848     8.7236     9.8348    20.3733   103.0914     2.4632     0.0523     0.2258     8.6861    98.7988     0.1269
  118.5000     8.2212     8.8170     9.7176    20.5929   103.5771     2.4703     0.0490     0.2264     8.6861   101.6051     0.1248
  119.0000     8.3169     8.9115     9.6018    20.8132   103.4770     2.4708     0.0437     0.2235     8.6861   103.6566     0.1247
  119.5000     8.4677     9.0069     9.4874    21.0406   103.4770     2.4712     0.0384     0.2231     8.6861   104.1321     0.1245
  120.0000     8.6215     9.1034     9.4636    20.8533   103.3376     2.4749     0.0329     0.2270     8.6861   107.0307     0.1202
  120.5000     8.7782     9.2009     9.7169    20.5924   102.9129     2.4812     0.0392     0.2310     8.6861   110.6467     0.1158
  121.0000     8.9375     9.2994    10.0325    20.3304   102.4092     2.4875     0.0489     0.2272     8.6861   110.5042     0.1132
