~VERSION INFORMATION
 VERS.                2.0:   CWLS LOG ASCII STANDARD - VERSION 2.0
 WRAP.                 NO:   ONE LINE PER DEPTH STEP
~WELL INFORMATION
#MNEM.UNIT      DATA TYPE    INFORMATION
#----------   ------------   ------------------------------
 STRT.F          717.0000:   START DEPTH
 STOP.F         2448.0000:   STOP DEPTH
 STEP.F            0.5000:   STEP LENGTH
 NULL.          -999.2500:   NO VALUE
 COMP.   FLUOR DANIEL INC:   COMPANY
 WELL. NAVAL PETROLEUM RESERVE 3X27 #34-27:   WELL
 FLD .             TEAPOT:   FIELD
 LOC .      S27 T39N R78W:   LOCATION
 CNTY.            NATRONA:   COUNTY
 STAT.            WYOMING:   STATE
 CTRY. UNITED STATES OF AMERICA:   COUNTRY
 SRVC.            Unknown:   SERVICE COMPANY
 DATE.        17-MAY-1996:   LOGDATE
 API .       490252279300:   API NUMBER
~CURVE INFORMATION
#MNEM.UNIT       API CODE    CURVE DESCRIPTION
#----------   ------------   ------------------------------
 DEPT.F                  :   
 TGAS.TC/CC  91 830 01 00:   TOTAL GAS UNIT
 ROP .FT/HR  91 810 01 00:   RAT OF DRILLING PENETRATION
~PARAMETER INFORMATION
#MNEM.UNIT          VALUE    DESCRIPTION
#----------   ------------   ------------------------------
 EPD .F              5039:   ELEVATION PERMANENT DATUM
 EKB .F              5049:   KELLING BUSHING
 EGL .F              5039:   GROUND LEVEL
 DATE.        17-MAY-1996:   RUN DATE
 RUN .                  1:   RUN NUMBER
 ENGI.     R.HUSK/C.TOWER:   RECORDING ENGINEER
 CLNT.            A2DTECH:   CLIENT CODE
 ORIG.           5" PRINT:   ORIGIN OF DATA
 UWI .       490252279300:   UNIQUE WELL ID
 DICO. A2D Technologies, Inc.:   DIGITIZING COMPANY
~OTHER INFORMATION
~A   DEPT       TGAS        ROP 
# ...
 1932.0000     1.9484     0.5609
 1932.5000     1.9411     0.5578
 1933.0000     1.9337     0.5577
 1933.5000     1.9264     0.5576
 1934.0000     1.9191     0.5575
 1934.5000     1.9118     1.0086
 1935.0000     1.9044     1.0179
 1935.5000     1.8971     1.0178
 1936.0000     1.8896     1.0177
 1936.5000     2.0692     0.6886
 1937.0000     2.0600     0.6885
 1937.5000     2.2394     0.6884
 1938.0000     2.4207     0.6883
 1938.5000     2.5982     0.6882
 1939.0000     3.1511     0.6881
 1939.5000     2.7703     0.6881
 1940.0000     2.3896     0.6880
 1940.5000     2.3822     1.5243
 1941.0000     2.1882     1.5242
 1941.5000     2.1809     1.5242
 1942.0000     2.1734     1.5241
 1942.5000     1.9793     1.0446
 1943.0000     1.7836     1.0351
 1943.5000     1.7763     1.0350
 1944.0000     1.7690     1.0350
 1944.5000     1.7617     1.0349
 1945.0000     1.5676     1.0160
 1945.5000     1.5603     1.0065
 1946.0000     1.5530     0.9970
 1946.5000     1.5456     0.9969
 1947.0000     1.5383     1.0062
 1947.5000     1.5310     1.0061
 1948.0000     1.5237     1.0060
 1948.5000     1.5162     1.7954
 1949.0000     1.5087     1.7953
 1949.5000     1.4999     1.7952
 1950.0000     1.4631     0.6297
 1950.5000     1.1160     0.6296
 1951.0000     1.3000     0.6280
 1951.5000     1.4830     0.6208
 1952.0000     1.4784     0.6125
 1952.5000     1.4747     0.7914
 1953.0000     1.4710     0.7823
 1953.5000     1.4674     0.7827
 1954.0000     1.4637     0.7831
 1954.5000     1.4600     0.7835
 1955.0000     1.4563     0.7838
 1955.5000     1.2659     0.7842
 1956.0000     1.0755     0.7846
 1956.5000     0.8851     0.6158
 1957.0000     0.8813     0.6162
 1957.5000     0.8776     0.6166
 1958.0000     0.8739     0.6170
 1958.5000     0.8694     0.6267
 1959.0000     0.8657     0.6176
 1959.5000     0.8621     0.6181
 1960.0000     0.8584     0.6184
 1960.5000     0.8547     0.7692
 1961.0000     1.0386     0.7696
 1961.5000     1.0340     0.7699
 1962.0000     0.8436     0.7703
 1962.5000     1.2134     0.7707
 1963.0000     1.3973     0.7711
 1963.5000     1.3927     0.7715
 1964.0000     1.3891     0.7719
 1964.5000     1.3854     0.7816
 1965.0000     1.1950     0.7820
 1965.5000     0.8178     0.7824
 1966.0000     0.6274     0.7639
 1966.5000     0.6237     0.6421
 1967.0000     0.6199     0.6331
 1967.5000     0.6154     0.6335
 1968.0000     0.7985     0.6244
 1968.5000     0.6081     0.6249
 1969.0000     0.7920     0.6253
 1969.5000     0.7874     0.6256
 1970.0000     0.9714     0.5226
 1970.5000     0.9668     0.5135
 1971.0000     0.9631     0.5139
 1971.5000     0.9594     0.5143
 1972.0000     1.1434     0.5147
 1972.5000     1.2469     0.5150
 1973.0000     1.3227     0.5154
 1973.5000     1.3181     0.5158
 1974.0000     1.3144     0.5162
 1974.5000     1.3107     0.6670
 1975.0000     1.3071     0.6674
 1975.5000     1.3033     0.6677
 1976.0000     1.2996     0.6681
 1976.5000     1.2959     0.8564
 1977.0000     1.4790     0.8568
 1977.5000     1.6621     0.8572
 1978.0000     1.6575     0.8575
 1978.5000     1.6538     0.8579
 1979.0000     1.6501     0.8583
 1979.5000     1.6464     0.8586
 1980.0000     1.6427     0.9813
 1980.5000     1.6390     0.9816
 1981.0000     1.6354     0.9820
 1981.5000     1.4449     0.9730
 1982.0000     1.4413     0.9733
 1982.5000     1.2509     0.8797
 1983.0000     1.4340     0.8612
 1983.5000     1.2435     0.8617
 1984.0000     1.2398     0.9372
 1984.5000     1.2361     1.0128
 1985.0000     1.2324     1.0132
 1985.5000     1.0419     1.0135
 1986.0000     1.2251     0.8636
 1986.5000     1.2212     0.7887
 1987.0000     1.2174     0.7892
 1987.5000     1.2137     0.7895
 1988.0000     1.2100     0.7429
 1988.5000     1.2062     0.6587
 1989.0000     1.2025     0.6496
 1989.5000     1.1988     0.6500
 1990.0000     1.1947     0.6504
 1990.5000     1.1910     0.6414
 1991.0000     1.1873     0.6417
 1991.5000     1.1836     0.6421
 1992.0000     1.1799     0.6425
 1992.5000     1.1762     0.6429
 1993.0000     1.1725     0.6433
 1993.5000     1.1689     0.6437
 1994.0000     1.1651     0.7850
 1994.5000     1.1614     0.7948
 1995.0000     1.1577     0.7951
 1995.5000     1.1539     0.7955
 1996.0000     1.3372     0.7959
 1996.5000     1.5202     0.7962
 1997.0000     1.5156     0.7966
 1997.5000     1.5119     0.7971
 1998.0000     1.5082     0.7880
 1998.5000     1.5045     0.7884
 1999.0000     1.3141     0.7793
 1999.5000     1.3104     0.7797
 2000.0000     1.3067     0.9117
 2000.5000     1.3031     0.9121
 2001.0000     1.2996     0.9124
 2001.5000     1.2957     0.9128
 2002.0000     1.4788     0.9132
 2002.5000     1.6618     0.9135
 2003.0000     1.6581     0.9140
 2003.5000     1.6544     0.9144
 2004.0000     1.6506     0.8583
 2004.5000     1.6469     0.7646
 2005.0000     1.4557     0.7745
 2005.5000     1.6397     0.7842
 2006.0000     1.6350     0.7751
 2006.5000     1.6314     0.7661
 2007.0000     2.2143     0.7666
 2007.5000     2.2125     0.7669
 2008.0000     2.2106     0.7673
 2008.5000     2.2088     0.7677
 2009.0000     2.2070     0.7775
 2009.5000     2.2051     0.7779
 2010.0000     2.2033     0.7783
 2010.5000     2.2171     0.7880
 2011.0000     2.3864     0.7884
 2011.5000     2.1974     0.7888
 2012.0000     2.1955     0.7891
 2012.5000     2.1937     0.8271
 2013.0000     2.1919     0.8838
 2013.5000     2.1901     0.8843
 2014.0000     2.1882     0.9043
 2014.5000     1.9997     0.9977
 2015.0000     1.9978     0.9982
 2015.5000     2.1827     0.9986
 2016.0000     2.1809     0.9989
 2016.5000     2.1790     0.9993
 2017.0000     2.1772     0.9997
 2017.5000     2.1750     1.0000
 2018.0000     2.1731     0.8688
 2018.5000     2.1713     0.8504
 2019.0000     2.1695     0.8602
 2019.5000     2.1677     0.8605
 2020.0000     2.1658     0.8609
 2020.5000     2.1640     0.8613
 2021.0000     2.1622     0.8617
 2021.5000     2.1603     0.8692
 2022.0000     1.9718     0.8657
 2022.5000     1.9699     0.8622
 2023.0000     1.9680     0.8509
 2023.5000     1.9658     0.8508
 2024.0000     1.9640     0.8414
 2024.5000     1.9622     0.8318
 2025.0000     1.9604     0.8318
 2025.5000     1.9585     0.8317
 2026.0000     1.9567     0.8504
 2026.5000     1.9549     1.2638
 2027.0000     1.9530     1.2637
 2027.5000     1.9512     1.2636
 2028.0000     1.9494     1.2635
 2028.5000     1.9475     1.5078
 2029.0000     1.9456     1.5077
 2029.5000     1.9434     1.5076
 2030.0000     1.9416     0.9624
 2030.5000     1.9398     0.9717
 2031.0000     1.9379     0.9716
 2031.5000     1.9361     0.9715
 2032.0000     1.9343     0.9620
 2032.5000     1.9325     0.7552
 2033.0000     1.9306     0.7551
 2033.5000     1.9288     0.7550
 2034.0000     1.9270     0.7549
 2034.5000     1.9251     0.6138
 2035.0000     1.9232     0.6231
 2035.5000     1.9210     0.6230
 2036.0000     1.9192     0.6323
 2036.5000     1.9174     0.6322
 2037.0000     1.9155     0.6227
 2037.5000     1.9137     0.6226
 2038.0000     1.9119     0.7729
 2038.5000     1.9101     0.7728
 2039.0000     1.9082     0.7727
 2039.5000     1.9064     0.7726
 2040.0000     1.9046     0.7726
 2040.5000     1.9027     0.7725
 2041.0000     1.9008     0.7724
 2041.5000     1.8986     0.7723
 2042.0000     1.8968     0.7722
 2042.5000     1.8950     0.9883
 2043.0000     1.8931     0.9976
 2043.5000     1.8913     0.9975
 2044.0000     1.8895     1.5425
 2044.5000     1.8876     1.5330
 2045.0000     1.8858     1.5423
 2045.5000     1.8840     1.5422
 2046.0000     1.8822     1.5421
 2046.5000     1.8803     1.1567
 2047.0000     1.8784     1.1660
 2047.5000     1.8762     1.1659
 2048.0000     1.8744     1.9553
 2048.5000     1.8726     1.9552
 2049.0000     1.8707     1.9551
 2049.5000     1.8689     1.9550
 2050.0000     1.8671     1.8421
 2050.5000     1.8652     1.2687
 2051.0000     1.8634     1.2686
 2051.5000     1.8616     1.2685
 2052.0000     1.8598     0.7891
 2052.5000     1.8579     0.7890
 2053.0000     1.8879     0.7889
