~VERSION INFORMATION
 VERS.                2.0:   CWLS LOG ASCII STANDARD - VERSION 2.0
 WRAP.                 NO:   ONE LINE PER DEPTH STEP
~WELL INFORMATION
#MNEM.UNIT      DATA TYPE    INFORMATION
#----------   ------------   ------------------------------
 STRT.F            3.0000:   START DEPTH
 STOP.F          523.0000:   STOP DEPTH
 STEP.F            0.1000:   STEP LENGTH
 NULL.          -999.2500:   NO VALUE
 COMP.     BROWN JOHN E&C:   COMPANY
 WELL.   NPR 3 #52-2-SX-3:   WELL
 FLD .             TEAPOT:   FIELD
 LOC .       S3 T38N R78W:   LOCATION
 CNTY.            NATRONA:   COUNTY
 STAT.            WYOMING:   STATE
 CTRY. UNITED STATES OF AMERICA:   COUNTRY
 SRVC.     Atlas Wireline:   SERVICE COMPANY
 DATE.        18-APR-1992:   LOGDATE
 API .       490252251500:   API NUMBER
~CURVE INFORMATION
#MNEM.UNIT       API CODE    CURVE DESCRIPTION
#----------   ------------   ------------------------------
 DEPT.F                  :   
 GRR .GAPI   07 310 01 00:   GAMMA RAY
 RILD.OHMM   07 120 46 00:   INDUCTION LOG DEEP RESISTIVITY
 RILM.OHMM   07 120 44 00:   INDUCTION LOG MEDIUM RESISTIVITY
~PARAMETER INFORMATION
#MNEM.UNIT          VALUE    DESCRIPTION
#----------   ------------   ------------------------------
 PD  .                 GL:   PERMANENT DATUM
 EPD .F              5128:   ELEVATION PERMANENT DATUM
 LMF .                 KB:   LOG MEASURED FROM
 DAPD.F                 5:   FEET ABOVE PERMANENT DATUM
 DMF .                 KB:   DRILLING MEASURED FROM
 EKB .F              5133:   KELLING BUSHING
 EDF .F              5132:   DRILLING FLOOR
 EGL .F              5128:   GROUND LEVEL
 DATE.        18-APR-1992:   RUN DATE
 RUN .                  1:   RUN NUMBER
 DD  .F               525:   DEPTH DRILLER
 DL  .F               526:   DEPTH LOGGER
 BLI .F               524:   BOTTOM LOG INTERVAL
 CS  .IN            8.625:   CASING SIZE
 CBD .F                48:   CASING BOTTOM DRILLER
 CBL .F                49:   CASING BOTTOM LOGGER
 BS  .IN            7.875:   BIT SIZE
 BSD .F               525:   BIT SIZE AT DEPTH
 DFT .                AIR:   DRILLING FLUID TYPE
 TCS .HRS               2:   TIME CURCULATED STOPPED
 MRT .F                87:   MAXIMUM RECORDED TEMPERATURE
 LUN .            HL 6274:   LOGGING UNIT NUMBER
 LUL .             CASPER:   LOGGING UNIT LOCATION
 ENGI.            LEBSOCK:   RECORDING ENGINEER
 WITN.             STRONG:   WITNESSED BY
 CLNT.            A2DTECH:   CLIENT CODE
 ORIG.       2", 5" PRINT:   ORIGIN OF DATA
 UWI .       490252251500:   UNIQUE WELL ID
 DICO. A2D Technologies, Inc.:   DIGITIZING COMPANY
~OTHER INFORMATION
~A    DEPT     GRR       RILD       RILM   
# ...
   75.8000   137.8788     8.9137     8.7979
   75.9000   137.8788     8.8550     8.7978
   76.0000   137.8788     8.8109     8.7977
   76.1000   137.8788     8.7922     8.7976
   76.2000   137.8788     8.7702     8.7974
   76.3000   137.7661     8.7195     8.7973
   76.4000   137.2581     8.6683     8.7972
   76.5000   135.7637     8.6677     8.7971
   76.6000   134.4667     8.6671     8.7969
   76.7000   133.3649     8.6393     8.7968
   76.8000   132.1891     8.6220     8.7967
   76.9000   130.8018     8.6653     8.7966
   77.0000   130.0000     8.6646     8.7965
   77.1000   129.3073     8.7087     8.7963
   77.2000   128.5600     8.7582     8.7962
   77.3000   128.0588     8.8079     8.7842
   77.4000   127.8788     8.8458     8.7347
   77.5000   127.8788     8.8452     8.7346
   77.6000   127.8788     8.9064     8.7345
   77.7000   127.8788     8.9059     8.7343
   77.8000   127.8788     8.9053     8.7342
   77.9000   127.9812     8.9047     8.7341
   78.0000   128.1818     8.9041     8.7340
   78.1000   128.1818     8.9034     8.7339
   78.2000   128.4254     8.8556     8.7337
   78.3000   128.8642     8.8402     8.7336
   78.4000   129.2267     8.8396     8.7335
   78.5000   129.6394     8.8390     8.7334
   78.6000   130.3867     8.8384     8.7332
   78.7000   131.2121     8.8376     8.7331
   78.8000   132.1042     8.8371     8.7632
   78.9000   133.1006     8.8365     8.7941
   79.0000   134.0970     8.8511     8.7940
   79.1000   135.0321     8.8886     8.7939
   79.2000   135.7794     8.8966     8.7938
   79.3000   136.6667     8.8960     8.7936
   79.4000   137.0715     8.8954     8.7935
   79.5000   137.5697     8.8947     8.7934
   79.6000   138.0679     8.8941     8.7933
   79.7000   138.5661     8.8935     8.7931
   79.8000   139.0909     8.8928     8.7930
   79.9000   139.3267     8.8923     8.7929
   80.0000   139.5758     8.8586     8.7928
   80.1000   139.6970     8.8291     8.7926
   80.2000   139.6970     8.8285     8.7925
   80.3000   139.7170     8.8279     8.7924
   80.4000   140.0000     8.8272     8.7923
   80.5000   140.0000     8.7875     8.7922
   80.6000   140.0000     8.7645     8.7920
   80.7000   139.8927     8.7639     8.7919
   80.8000   139.6436     8.7633     8.7918
   80.9000   139.3939     8.7627     8.7917
   81.0000   139.1454     8.7621     8.7915
   81.1000   138.5073     8.7615     8.7914
   81.2000   137.7600     8.7609     8.7913
   81.3000   137.0994     8.7603     8.7912
   81.4000   136.6012     8.7596     8.7910
   81.5000   136.0606     8.7589     8.7909
   81.6000   135.6048     8.7584     8.7908
   81.7000   134.9327     8.7578     8.7907
   81.8000   134.3055     8.7760     8.7963
   81.9000   133.8073     8.8181     8.8521
   82.0000   133.3091     8.8173     8.8520
   82.1000   132.7273     8.8168     8.8518
   82.2000   132.7273     8.8161     8.8517
   82.3000   132.7273     8.8408     8.8516
   82.4000   132.8267     8.8767     8.8515
   82.5000   133.0303     8.8792     8.8513
   82.6000   133.0303     8.9376     8.8512
   82.7000   133.2709     8.9371     8.8511
   82.8000   133.3333     8.9365     8.8510
   82.9000   133.7315     8.9567     8.8508
   83.0000   134.4000     8.9980     8.8507
   83.1000   134.9230     8.9972     8.8506
   83.2000   135.7576     8.9966     8.8505
   83.3000   136.4176     8.9960     8.8503
   83.4000   136.9988     8.9954     8.8502
   83.5000   137.6091     8.9947     8.8501
   83.6000   138.2982     8.9941     8.8500
   83.7000   138.7963     8.9934     8.8084
   83.8000   139.3939     8.9479     8.7881
   83.9000   139.5933     8.9296     8.7880
   84.0000   139.9879     8.9066     8.7879
   84.1000   140.3030     8.8662     8.7877
   84.2000   140.3030     8.8655     8.7876
   84.3000   140.3030     8.8142     8.7875
   84.4000   140.3030     8.8026     8.7874
   84.5000   140.3030     8.8020     8.7730
   84.6000   140.3030     8.7840     8.7259
   84.7000   140.3030     8.7395     8.7258
   84.8000   140.2691     8.7389     8.7257
   84.9000   139.6970     8.7383     8.7256
   85.0000   139.2727     8.7376     8.7254
   85.1000   138.6164     8.7370     8.7160
   85.2000   137.5564     8.7364     8.6644
   85.3000   135.9109     8.7341     8.6643
   85.4000   133.6364     8.6743     8.6642
   85.5000   131.9181     8.6738     8.6379
   85.6000   130.9406     8.6732     8.6036
   85.7000   130.3309     8.6726     8.6035
   85.8000   129.8327     8.6640     8.6034
   85.9000   129.3939     8.6109     8.6033
   86.0000   129.3939     8.6104     8.5712
   86.1000   130.5182     8.6097     8.5431
   86.2000   131.5928     8.5843     8.5327
   86.3000   132.5891     8.5486     8.4834
   86.4000   133.5224     8.5480     8.4833
   86.5000   134.2788     8.5473     8.4457
   86.6000   135.4545     8.5468     8.3974
   86.7000   136.0673     8.5462     8.3652
   86.8000   136.6643     8.5456     8.3596
   86.9000   137.1624     8.5450     8.3067
   87.0000   137.5758     8.5444     8.2641
   87.1000   137.5758     8.5438     8.2168
   87.2000   137.5758     8.5432     8.1910
   87.3000   137.3921     8.5426     8.1799
   87.4000   137.1430     8.5420     8.1338
   87.5000   136.8939     8.5414     8.1337
   87.6000   136.6449     8.5408     8.1708
   87.7000   136.3636     8.5402     8.1905
   87.8000   136.1467     8.5396     8.2072
   87.9000   136.0606     8.5390     8.2608
   88.0000   136.1697     8.5384     8.3636
   88.1000   136.4188     8.5379     8.4077
   88.2000   136.6679     8.5373     8.4221
   88.3000   136.9170     8.5367     8.3989
   88.4000   137.3624     8.5361     8.3632
   88.5000   137.7182     8.5528     8.3611
   88.6000   137.9673     8.5948     8.3047
   88.7000   138.2509     8.5941     8.2657
   88.8000   138.7879     8.5935     8.2466
   88.9000   139.0176     8.5929     8.2285
   89.0000   139.0909     8.5923     8.1890
   89.1000   139.0909     8.5917     8.1889
   89.2000   139.1588     8.5932     8.1888
   89.3000   139.4079     8.6507     8.2227
   89.4000   139.6970     8.6502     8.2699
   89.5000   140.1151     8.6496     8.3309
   89.6000   140.7684     8.6682     8.4236
   89.7000   141.4145     8.7091     8.4793
   89.8000   141.9127     8.7084     8.5620
   89.9000   142.4242     8.7078     8.6294
   90.0000   142.6667     8.7072     8.6789
   90.1000   142.9158     8.7066     8.7380
   90.2000   143.0303     8.7059     8.8418
   90.3000   143.0303     8.7053     8.8909
   90.4000   143.0303     8.7046     8.9036
   90.5000   143.0303     8.7471     8.9034
   90.6000   142.8085     8.7645     8.9033
   90.7000   142.7273     8.7639     8.9032
   90.8000   142.6133     8.7633     8.9031
   90.9000   142.3042     8.7627     8.9029
   91.0000   141.7939     8.7621     8.9028
   91.1000   140.6061     8.7615     8.9027
   91.2000   140.2036     8.7609     8.9026
   91.3000   139.5582     8.7603     8.9024
   91.4000   138.7175     8.7651     8.9531
   91.5000   137.7212     8.8204     8.9646
   91.6000   136.6667     8.8198     8.9930
   91.7000   135.9630     8.8192     9.0272
   91.8000   135.3964     8.8416     9.0271
   91.9000   135.2782     8.8918     9.0903
   92.0000   135.5273     8.9415     9.0902
   92.1000   135.7764     8.9409     9.0900
   92.2000   136.0606     8.9813     9.0899
   92.3000   136.2745     9.0023     9.1021
   92.4000   136.3636     9.0017     9.1534
   92.5000   136.3636     9.0084     9.1533
   92.6000   136.3636     9.0635     9.1418
   92.7000   136.3636     9.0629     9.1274
   92.8000   136.3636     9.0990     9.1130
   92.9000   136.1703     9.1507     9.0986
   93.0000   135.9212     9.1885     9.0889
   93.1000   135.5867     9.1879     9.0888
   93.2000   135.0885     9.1871     9.0886
   93.3000   134.5455     9.2305     9.0885
   93.4000   133.6388     9.2504     9.0884
   93.5000   132.9879     9.2497     9.0883
   93.6000   132.3709     9.2584     9.0881
   93.7000   131.5588     9.3133     9.0884
   93.8000   130.5734     9.3639     9.1406
   93.9000   129.6970     9.3773     9.1515
