~VERSION INFORMATION
 VERS.                2.0:   CWLS LOG ASCII STANDARD - VERSION 2.0
 WRAP.                 NO:   ONE LINE PER DEPTH STEP
~WELL INFORMATION
#MNEM.UNIT      DATA TYPE    INFORMATION
#----------   ------------   ------------------------------
 STRT.F           10.0000:   START DEPTH
 STOP.F          485.0000:   STOP DEPTH
 STEP.F            0.5000:   STEP LENGTH
 NULL.          -999.2500:   NO VALUE
 COMP. FENIX & SCISSON INC:   COMPANY
 WELL.    56 S 3 SX #56-3:   WELL
 FLD .             TEAPOT:   FIELD
 LOC .       S3 T38N R78W:   LOCATION
 CNTY.            NATRONA:   COUNTY
 STAT.            WYOMING:   STATE
 CTRY. UNITED STATES OF AMERICA:   COUNTRY
 SRVC.            Unknown:   SERVICE COMPANY
 DATE.        09-OCT-1978:   LOGDATE
 API .       490251071900:   API NUMBER
~CURVE INFORMATION
#MNEM.UNIT       API CODE    CURVE DESCRIPTION
#----------   ------------   ------------------------------
 DEPT.F                  :   
 SPR .MV     05 010 01 00:   SPONTANEOUS POTENTIAL FROM RES.
 SN  .OHMM   05 040 16 00:   SHORT NORMAL 16"
 ILD .OHMM   05 120 46 00:   INDUCTION LOG DEEP
 CALD.IN     45 280 60 00:   CALIPER
 GRD .GAPI   45 310 01 00:   GAMMA RAY FROM DENSITY LOG
 CORR.G/C3   45 356 01 00:   DENSITY CORRECTION
 RHOB.G/C3   45 350 01 00:   BULK DENSITY
 DPHI.DEC    45 890 12 00:   DENSITY POROSITY SANDSTONE
~PARAMETER INFORMATION
#MNEM.UNIT          VALUE    DESCRIPTION
#----------   ------------   ------------------------------
 PD  .                 GL:   PERMANENT DATUM
 EPD .F              5188:   ELEVATION PERMANENT DATUM
 LMF .                 KB:   LOG MEASURED FROM
 DAPD.F                 4:   FEET ABOVE PERMANENT DATUM
 DMF .                 KB:   DRILLING MEASURED FROM
 EKB .F              5192:   KELLING BUSHING
 EGL .F              5188:   GROUND LEVEL
 DATE.            10-9-78:   RUN DATE
 RUN .                  1:   RUN NUMBER
 DD  .F               485:   DEPTH DRILLER
 DL  .F               485:   DEPTH LOGGER
 BLI .F               479:   BOTTOM LOG INTERVAL
 TLI .F                32:   TOP LOG INTERVAL
 CS  .IN            8.625:   CASING SIZE
 BS  .IN            7.875:   BIT SIZE
 BSD .F               485:   BIT SIZE AT DEPTH
 DFT .                KCL:   DRILLING FLUID TYPE
 DFD .                8.8:   DRILLING FLUID DENSITY
 DFV .                 41:   DRILLING FLUID VISCOSITY
 DFPH.                  9:   DRILLING FLUID PH
 DFL .                7.6:   DRILLING FLUID LOSS
 MSS .          FLOW LINE:   MUD SAMPLE SOURCE
 RMS .OHMM            .18:   RESISTIVITY MUD SAMPLE
 MST .F                60:   MUD SAMPLE TEMPERATURE
 RMF .OHMM            .16:   RESISTIVITY MUD FILTRATE SAMPLE
 MFST.F                70:   MUD FILTRATE SAMPLE TEMPERATURE
 RMC .OHMM            .26:   RESISTIVITY MUD CAKE
 MCST.F                70:   MUD CAKE SAMPLE TEMPERATURE
 MFSS.               MEAS:   MUD FILTRATE SAMPLE SOURCE
 MCSS.               MEAS:   MUD CAKE SAMPLE SOURCE
 TCS .HRS             1.5:   TIME CURCULATED STOPPED
 LUN .               2958:   LOGGING UNIT NUMBER
 LUL .               CASP:   LOGGING UNIT LOCATION
 ENGI.             MILLER:   RECORDING ENGINEER
 WITN.              AMEND:   WITNESSED BY
 CLNT.            A2DTECH:   CLIENT CODE
 ORIG.           5" PRINT:   ORIGIN OF DATA
 UWI .       490251071900:   UNIQUE WELL ID
 DICO. A2D Technologies, Inc.:   DIGITIZING COMPANY
~OTHER INFORMATION
~A   DEPT      SPR         SN        ILD       CALD         GRD      CORR       RHOB       DPHI   
   10.0000  -999.2500  -999.2500  -999.2500  -999.2500    81.1417  -999.2500  -999.2500  -999.2500
   10.5000  -999.2500  -999.2500  -999.2500  -999.2500    78.7426  -999.2500  -999.2500  -999.2500
   11.0000  -999.2500  -999.2500  -999.2500  -999.2500    76.0236  -999.2500  -999.2500  -999.2500
   11.5000  -999.2500  -999.2500  -999.2500  -999.2500    76.0236  -999.2500  -999.2500  -999.2500
   12.0000  -999.2500  -999.2500  -999.2500  -999.2500    79.3652  -999.2500  -999.2500  -999.2500
   12.5000  -999.2500  -999.2500  -999.2500  -999.2500    81.6133  -999.2500  -999.2500  -999.2500
   13.0000  -999.2500  -999.2500  -999.2500  -999.2500    81.9291  -999.2500  -999.2500  -999.2500
   13.5000  -999.2500  -999.2500  -999.2500  -999.2500    82.0077  -999.2500  -999.2500  -999.2500
   14.0000  -999.2500  -999.2500  -999.2500  -999.2500    78.7761  -999.2500  -999.2500  -999.2500
   14.5000  -999.2500  -999.2500  -999.2500  -999.2500    75.6953  -999.2500  -999.2500  -999.2500
   15.0000  -999.2500  -999.2500  -999.2500  -999.2500    75.6208  -999.2500  -999.2500  -999.2500
   15.5000  -999.2500  -999.2500  -999.2500  -999.2500    75.9869  -999.2500  -999.2500  -999.2500
   16.0000  -999.2500  -999.2500  -999.2500  -999.2500    76.6748  -999.2500  -999.2500  -999.2500
   16.5000  -999.2500  -999.2500  -999.2500  -999.2500    77.3336  -999.2500  -999.2500  -999.2500
   17.0000  -999.2500  -999.2500  -999.2500  -999.2500    77.6121  -999.2500  -999.2500  -999.2500
   17.5000  -999.2500  -999.2500  -999.2500  -999.2500    77.5941  -999.2500  -999.2500  -999.2500
   18.0000  -999.2500  -999.2500  -999.2500  -999.2500    77.6030  -999.2500  -999.2500  -999.2500
   18.5000  -999.2500  -999.2500  -999.2500  -999.2500    77.5958  -999.2500  -999.2500  -999.2500
   19.0000  -999.2500  -999.2500  -999.2500  -999.2500    77.5777  -999.2500  -999.2500  -999.2500
   19.5000  -999.2500  -999.2500  -999.2500  -999.2500    76.9339  -999.2500  -999.2500  -999.2500
   20.0000  -999.2500  -999.2500  -999.2500  -999.2500    76.1508  -999.2500  -999.2500  -999.2500
   20.5000  -999.2500  -999.2500  -999.2500  -999.2500    75.3018  -999.2500  -999.2500  -999.2500
   21.0000  -999.2500  -999.2500  -999.2500  -999.2500    74.7473  -999.2500  -999.2500  -999.2500
   21.5000  -999.2500  -999.2500  -999.2500  -999.2500    75.2426  -999.2500  -999.2500  -999.2500
   22.0000  -999.2500  -999.2500  -999.2500  -999.2500    76.1512  -999.2500  -999.2500  -999.2500
   22.5000  -999.2500  -999.2500  -999.2500  -999.2500    76.6476  -999.2500  -999.2500  -999.2500
   23.0000  -999.2500  -999.2500  -999.2500  -999.2500    75.6884  -999.2500  -999.2500  -999.2500
   23.5000  -999.2500  -999.2500  -999.2500     8.3398    77.3413  -999.2500  -999.2500  -999.2500
   24.0000  -999.2500  -999.2500  -999.2500     8.3398    80.7245     0.0964     2.3072     0.1924
   24.5000  -999.2500  -999.2500  -999.2500     8.2417    85.4477     0.2360     2.5007     0.1819
   25.0000  -999.2500  -999.2500  -999.2500     8.1055    96.3050     0.2654     2.5497     0.1100
   25.5000  -999.2500  -999.2500  -999.2500     8.1055   109.6997     0.2319     2.5433     0.0866
   26.0000  -999.2500  -999.2500  -999.2500     8.1055   108.4505     0.2111     2.5435     0.0881
   26.5000  -999.2500  -999.2500  -999.2500     8.1084   105.7668     0.1921     2.5518     0.0825
   27.0000  -999.2500  -999.2500  -999.2500     8.1234   104.3782     0.1759     2.5349     0.0915
   27.5000  -999.2500  -999.2500  -999.2500     8.1134   104.3821     0.1405     2.5413     0.1008
   28.0000  -999.2500  -999.2500  -999.2500     8.1162   104.3879     0.0697     2.5030     0.1171
   28.5000  -999.2500  -999.2500  -999.2500     8.1195   104.7898     0.0242     2.4692     0.1350
   29.0000  -999.2500  -999.2500  -999.2500     8.1229   107.6275     0.0181     2.4559     0.1350
   29.5000  -999.2500  -999.2500  -999.2500     8.1262   111.0926     0.0169     2.4579     0.1343
   30.0000  -999.2500  -999.2500  -999.2500     8.1294   112.6803     0.0163     2.4589     0.1338
   30.5000  -999.2500  -999.2500  -999.2500     8.1327   112.2085     0.0169     2.4597     0.1332
   31.0000  -999.2500  -999.2500  -999.2500     8.1358   111.3359     0.0168     2.4616     0.1326
   31.5000  -999.2500  -999.2500  -999.2500     8.1391   111.3546     0.0173     2.4637     0.1319
   32.0000   -66.1706    14.5374     7.8549     8.1426   111.2320     0.0248     2.4659     0.1307
   32.5000   -65.7738    14.2727     7.8549     8.1451   111.1330     0.0311     2.4681     0.1295
   33.0000   -59.6561    10.9342     7.6897     8.1459   111.0794     0.0376     2.4727     0.1282
   33.5000   -51.0913    20.0642     7.5295     8.1470   111.0284     0.0449     2.4807     0.1238
   34.0000   -55.5198    20.0514     7.5530     8.1481   111.3947     0.0393     2.4860     0.1183
   34.5000   -65.1075     9.8899     7.3656     8.1491   112.6210     0.0291     2.4772     0.1210
   35.0000   -66.2539     9.3674     7.3532     8.1502   114.5050     0.0176     2.4698     0.1266
   35.5000   -66.1635     8.8514     7.3375     8.1513   116.3712     0.0174     2.4670     0.1318
   36.0000   -65.6952    11.2264     7.3218     8.1523   116.9900     0.0173     2.4702     0.1287
   36.5000   -62.0008    14.2072     7.3062     8.1534   116.0633     0.0179     2.4739     0.1258
   37.0000   -56.6051    16.1952     7.2982     8.1545   115.6010     0.0181     2.4780     0.1230
   37.5000   -53.5207    19.5077     7.4871     8.1555   115.4216     0.0184     2.4826     0.1201
   38.0000   -53.3227    20.6485     7.7089     8.1566   115.5641     0.0188     2.4871     0.1172
   38.5000   -53.3626    20.7921     7.9373     8.1576   115.6683     0.0191     2.4922     0.1144
   39.0000   -53.4213    20.9323     8.1724     8.1587   115.7885     0.0194     2.4922     0.1119
   39.5000   -53.5426    21.0735     8.2241     8.1598   114.8031     0.0198     2.4876     0.1167
   40.0000   -53.9581    21.2177     8.2104     8.1608   112.6143     0.0201     2.4845     0.1175
   40.5000   -54.3746    21.3632     8.1924     8.1619   110.4420     0.0204     2.4847     0.1147
   41.0000   -54.7906    21.5098     8.1745     8.1630   108.2667     0.0207     2.4944     0.1101
   41.5000   -55.2063    21.6573     8.1566     8.1640   106.0360     0.0209     2.5046     0.1072
   42.0000   -55.5742    21.8111     8.1388     8.1651   104.7785     0.0209     2.5086     0.1072
   42.5000   -55.8651    21.9792     8.1210     8.1662   104.2899     0.0209     2.5023     0.1072
   43.0000   -55.8759    21.3582     8.1032     8.1672   103.6798     0.0209     2.4967     0.1088
   43.5000   -55.8937    20.6156     8.0854     8.1683   103.0631     0.0209     2.4913     0.1135
   44.0000   -55.9124    18.8664     8.0743     8.1693   101.1896     0.0209     2.4855     0.1180
   44.5000   -55.9308    17.3937     8.0744     8.1704    99.3571     0.0209     2.4830     0.1193
   45.0000   -55.9491    16.2830     8.0738     8.1715    98.7884     0.0209     2.4824     0.1197
   45.5000   -55.9674    15.2426     8.0748     8.1725    99.2908     0.0209     2.4838     0.1199
   46.0000   -55.9857    14.5012     8.1442     8.1736   101.0239     0.0209     2.4852     0.1191
   46.5000   -56.0040    13.8951     8.2081     8.1747   102.4198     0.0209     2.4866     0.1180
   47.0000   -56.0222    13.3126     8.2725     8.1757   103.9478     0.0208     2.4880     0.1169
   47.5000   -56.0403    12.7551     8.3368     8.1768   105.3975     0.0213     2.4900     0.1157
   48.0000   -56.0515    12.2301     8.4419     8.1779   106.6431     0.0222     2.4937     0.1151
   48.5000   -56.0515    11.7682     8.6098     8.1789   106.1159     0.0231     2.4982     0.1124
   49.0000   -56.0516    11.3493     8.7809     8.1800   105.6085     0.0239     2.5025     0.1083
   49.5000   -56.0516    10.9531     8.9356     8.1811   105.0518     0.0248     2.5072     0.1041
   50.0000   -56.0516    10.5708     8.9557     8.1821   104.5325     0.0256     2.5113     0.0992
