~VERSION INFORMATION
 VERS.                2.0:   CWLS LOG ASCII STANDARD - VERSION 2.0
 WRAP.                 NO:   ONE LINE PER DEPTH STEP
~WELL INFORMATION
#MNEM.UNIT      DATA TYPE    INFORMATION
#----------   ------------   ------------------------------
 STRT.F            0.0000:   START DEPTH
 STOP.F          545.0000:   STOP DEPTH
 STEP.F            0.1000:   STEP LENGTH
 NULL.          -999.2500:   NO VALUE
 COMP.       F D SERV INC:   COMPANY
 WELL. NAVAL PETROLEUM RESERVE 3 SX-3 #88-5-3:   WELL
 FLD .             TEAPOT:   FIELD
 LOC .       S3 T38N R78W:   LOCATION
 CNTY.            NATRONA:   COUNTY
 STAT.            WYOMING:   STATE
 CTRY. UNITED STATES OF AMERICA:   COUNTRY
 SRVC.     Atlas Wireline:   SERVICE COMPANY
 DATE.        14-OCT-1992:   LOGDATE
 API .       490252255700:   API NUMBER
~CURVE INFORMATION
#MNEM.UNIT       API CODE    CURVE DESCRIPTION
#----------   ------------   ------------------------------
 DEPT.F                  :   
 GRR .GAPI   07 310 01 00:   GAMMA RAY
 RILD.OHMM   07 120 46 00:   INDUCTION LOG DEEP RESISTIVITY
 RILM.OHMM   07 120 44 00:   INDUCTION LOG MEDIUM RESISTIVITY
~PARAMETER INFORMATION
#MNEM.UNIT          VALUE    DESCRIPTION
#----------   ------------   ------------------------------
 PD  .                 GL:   PERMANENT DATUM
 EPD .F              5152:   ELEVATION PERMANENT DATUM
 LMF .                 KB:   LOG MEASURED FROM
 DAPD.F                10:   FEET ABOVE PERMANENT DATUM
 DMF .                 KB:   DRILLING MEASURED FROM
 EKB .F              5162:   KELLING BUSHING
 EDF .F              5161:   DRILLING FLOOR
 EGL .F              5152:   GROUND LEVEL
 DATE.        14-OCT-1992:   RUN DATE
 RUN .                  1:   RUN NUMBER
 DD  .F               555:   DEPTH DRILLER
 DL  .F               552:   DEPTH LOGGER
 BLI .F               546:   BOTTOM LOG INTERVAL
 CS  .IN            8.625:   CASING SIZE
 CBD .F                85:   CASING BOTTOM DRILLER
 CBL .F                96:   CASING BOTTOM LOGGER
 BS  .IN            7.875:   BIT SIZE
 BSD .F               555:   BIT SIZE AT DEPTH
 DFT .           AIR FOAM:   DRILLING FLUID TYPE
 BHT .F                72:   BOTTOM HOLE TEMPERATURE
 TCS .HRS               2:   TIME CURCULATED STOPPED
 MRT .F                72:   MAXIMUM RECORDED TEMPERATURE
 LUN .            HL-6274:   LOGGING UNIT NUMBER
 LUL .             CASPER:   LOGGING UNIT LOCATION
 ENGI.             RAUTIO:   RECORDING ENGINEER
 WITN.        GARY STRONG:   WITNESSED BY
 CLNT.            A2DTECH:   CLIENT CODE
 ORIG.           5" PRINT:   ORIGIN OF DATA
 UWI .       490252255700:   UNIQUE WELL ID
 DICO. A2D Technologies, Inc.:   DIGITIZING COMPANY
~OTHER INFORMATION
~A    DEPT      GRR      RILD       RILM   
# ...
  182.0000   118.1101     8.2577     8.3243
  182.1000   118.3407     8.3016     8.3385
  182.2000   118.3386     8.3010     8.3381
  182.3000   118.5774     8.3006     8.3568
  182.4000   118.6354     8.3001     8.3953
  182.5000   118.9439     8.2997     8.3950
  182.6000   119.3449     8.2992     8.3946
  182.7000   119.6008     8.2988     8.3943
  182.8000   119.9384     8.2983     8.3939
  182.9000   121.0287     8.2978     8.3651
  183.0000   121.9959     8.3439     8.3354
  183.1000   123.0248     8.3545     8.3350
  183.2000   124.2106     8.3541     8.3347
  183.3000   125.6115     8.3536     8.3343
  183.4000   126.8689     8.3532     8.3800
  183.5000   127.3533     8.3583     8.3915
  183.6000   127.6227     8.4102     8.4213
  183.7000   127.6210     8.4098     8.4491
  183.8000   127.6192     8.4093     8.4487
  183.9000   127.6174     8.4088     8.4542
  184.0000   127.6156     8.4084     8.5067
  184.1000   127.6138     8.4222     8.5548
  184.2000   127.5812     8.4718     8.5650
  184.3000   127.3098     8.5241     8.6294
  184.4000   127.0622     8.5237     8.6837
  184.5000   127.0060     8.5232     8.6833
  184.6000   126.8436     8.5544     8.6904
  184.7000   126.7021     8.6048     8.7429
  184.8000   126.6250     8.6405     8.7425
  184.9000   126.3982     8.6400     8.7422
  185.0000   126.3963     8.6396     8.7762
  185.1000   125.8993     8.6886     8.8021
  185.2000   125.7922     8.6986     8.8018
  185.3000   125.4657     8.7308     8.8014
  185.4000   124.9486     8.7580     8.8010
  185.5000   124.4315     8.7575     8.8006
  185.6000   123.8799     8.7640     8.8003
  185.7000   123.0804     8.8174     8.8361
  185.8000   122.4777     8.8780     8.8607
  185.9000   122.2695     8.8776     8.8795
  186.0000   122.0100     8.8771     8.9215
  186.1000   121.7506     8.8766     8.9211
  186.2000   121.5700     8.8923     8.9207
  186.3000   121.5682     8.9374     8.9204
  186.4000   121.5663     8.9368     8.9200
  186.5000   121.5642     8.9983     8.9196
  186.6000   121.5628     8.9979     8.9192
  186.7000   121.5610     8.9974     8.9189
  186.8000   121.4358     8.9969     8.9185
  186.9000   121.1764     8.9964     8.9181
  187.0000   120.9550     8.9959     8.9178
  187.1000   120.9531     8.9954     8.9174
  187.2000   120.6507     8.9948     8.9170
  187.3000   120.4389     9.0381     8.9167
  187.4000   120.3471     9.0563     8.9163
  187.5000   120.3453     9.0558     8.9211
  187.6000   120.3435     9.0553     8.9774
  187.7000   120.3816     9.0548     8.9771
  187.8000   120.6402     9.0543     8.9767
  187.9000   120.9384     9.0537     8.9763
  188.0000   120.9369     9.0533     8.9760
  188.1000   121.2743     9.0528     8.9910
  188.2000   121.6609     9.0523     9.0376
  188.3000   122.1696     9.0518     9.0372
  188.4000   123.1984     9.0513     9.0367
  188.5000   124.2312     9.0508     9.0364
  188.6000   126.0309     9.0502     9.0360
  188.7000   127.0995     9.0498     9.0615
  188.8000   128.2146     9.0493     9.0980
  188.9000   129.5010     9.0757     9.1060
  189.0000   130.7868     9.1111     9.1604
  189.1000   131.5579     9.1106     9.1600
  189.2000   132.3283     9.1101     9.1597
  189.3000   132.9252     9.1095     9.1593
  189.4000   132.9237     9.1091     9.1589
  189.5000   133.0951     9.1451     9.1585
  189.6000   133.3510     9.1714     9.1582
  189.7000   133.5189     9.1708     9.1578
  189.8000   133.5171     9.1608     9.1573
  189.9000   133.5153     9.1066     9.1570
  190.0000   133.5132     9.1060     9.1566
  190.1000   133.5117     9.0601     9.1272
  190.2000   133.5099     9.0060     9.0726
  190.3000   133.5081     8.9794     9.0297
  190.4000   133.5063     8.9789     9.0266
  190.5000   133.5045     8.9687     8.9666
  190.6000   133.5027     8.9160     8.9190
  190.7000   133.5006     8.9155     8.9041
  190.8000   133.4991     8.8701     8.8739
  190.9000   133.3205     8.8531     8.8208
  191.0000   133.0611     8.8526     8.7806
  191.1000   132.6186     8.8521     8.7802
  191.2000   131.7949     8.8417     8.7798
  191.3000   130.7564     8.7901     8.7318
  191.4000   129.2838     8.7895     8.7186
  191.5000   128.1763     8.7445     8.6876
  191.6000   127.4219     8.7280     8.6578
  191.7000   127.0406     8.7275     8.6574
  191.8000   126.8745     8.7271     8.6570
  191.9000   126.8727     8.7266     8.6567
  192.0000   126.8869     8.7261     8.6563
  192.1000   127.4694     8.7255     8.6560
  192.2000   128.3599     8.7251     8.6556
  192.3000   129.5692     8.7246     8.6552
  192.4000   130.8557     8.7242     8.6549
  192.5000   132.0471     8.7046     8.6545
  192.6000   133.0235     8.6630     8.6542
  192.7000   133.7946     8.6626     8.6537
  192.8000   134.6640     8.6620     8.6535
  192.9000   135.1121     8.6616     8.6531
  193.0000   135.6257     8.6611     8.6527
  193.1000   135.9996     8.6606     8.6524
  193.2000   136.1586     8.6602     8.6605
  193.3000   136.1025     8.6597     8.7117
  193.4000   135.8547     8.6592     8.7113
  193.5000   135.8526     8.6587     8.7110
  193.6000   135.3978     8.7036     8.7106
  193.7000   135.0647     8.7179     8.7103
  193.8000   134.8052     8.7174     8.7099
  193.9000   134.5457     8.7169     8.7096
  194.0000   134.2302     8.7164     8.7092
  194.1000   133.7265     8.7160     8.7088
  194.2000   133.4376     8.7154     8.7085
  194.3000   132.9792     8.7150     8.7081
  194.4000   132.4621     8.7145     8.7078
  194.5000   131.9450     8.7140     8.7074
  194.6000   131.4279     8.7338     8.7070
  194.7000   130.9107     8.7736     8.7067
  194.8000   130.3935     8.7731     8.7063
  194.9000   129.8214     8.7725     8.7059
  195.0000   129.3593     8.8188     8.7056
  195.1000   128.4671     8.8325     8.7052
  195.2000   127.4347     8.8320     8.7049
  195.3000   126.4022     8.8315     8.7045
  195.4000   125.4293     8.8311     8.7087
  195.5000   124.6376     8.8306     8.7642
  195.6000   123.5025     8.8300     8.7638
  195.7000   123.0369     8.8296     8.7635
  195.8000   122.7091     8.8678     8.7631
  195.9000   122.5964     8.8899     8.7628
  196.0000   122.5946     8.8894     8.7624
  196.1000   122.5928     8.8889     8.7620
  196.2000   122.6098     8.8884     8.7617
  196.3000   122.8893     8.8879     8.7613
  196.4000   123.5892     8.8875     8.7609
  196.5000   124.1691     8.8870     8.7606
  196.6000   124.9798     8.8865     8.7602
  196.7000   126.1145     8.8860     8.7598
  196.8000   127.3377     8.8855     8.7595
  196.9000   128.3872     8.8808     8.7591
  197.0000   129.7836     8.8232     8.7587
  197.1000   130.7244     8.8228     8.7584
  197.2000   131.9464     8.8223     8.7580
  197.3000   133.2329     8.8218     8.7577
  197.4000   134.4116     8.8213     8.7573
  197.5000   135.3754     8.8208     8.7569
  197.6000   136.1241     8.8203     8.7566
  197.7000   136.6779     8.8198     8.7562
  197.8000   136.9137     8.8193     8.7558
  197.9000   136.9748     8.8188     8.7555
  198.0000   136.9730     8.7875     8.7551
  198.1000   136.7522     8.7571     8.7548
  198.2000   136.2351     8.7566     8.7438
  198.3000   135.7179     8.7561     8.6937
  198.4000   135.1638     8.7556     8.6933
  198.5000   134.6837     8.7551     8.6929
  198.6000   134.5598     8.7546     8.6926
  198.7000   134.4040     8.7232     8.6922
  198.8000   134.2559     8.6933     8.6716
  198.9000   134.1854     8.6928     8.6316
  199.0000   133.9520     8.6923     8.6312
  199.1000   133.9500     8.6918     8.6308
  199.2000   133.9483     8.6914     8.6305
  199.3000   133.7481     8.6909     8.6301
  199.4000   133.4887     8.6904     8.6298
  199.5000   133.3423     8.6899     8.6294
  199.6000   133.1996     8.6754     8.6291
  199.7000   132.6825     8.6291     8.6287
  199.8000   132.1356     8.6285     8.6283
  199.9000   131.6482     8.5800     8.6280
  200.0000   130.2383     8.5683     8.6150
  200.1000   128.5720     8.5680     8.5983
