~VERSION INFORMATION
 VERS.                2.0:   CWLS LOG ASCII STANDARD - VERSION 2.0
 WRAP.                 NO:   ONE LINE PER DEPTH STEP
~WELL INFORMATION
#MNEM.UNIT      DATA TYPE    INFORMATION
#----------   ------------   ------------------------------
 STRT.F            0.0000:   START DEPTH
 STOP.F          497.0000:   STOP DEPTH
 STEP.F            0.1000:   STEP LENGTH
 NULL.          -999.2500:   NO VALUE
 COMP.       F D SERV INC:   COMPANY
 WELL. NAVAL PETROLEUM RESERVE 3 SX-1 #81-1-10:   WELL
 FLD .             NPR #3:   FIELD
 LOC .      S10 T38N R78W:   LOCATION
 CNTY.            NATRONA:   COUNTY
 STAT.            WYOMING:   STATE
 CTRY. UNITED STATES OF AMERICA:   COUNTRY
 SRVC.     Atlas Wireline:   SERVICE COMPANY
 DATE.        14-DEC-1997:   LOGDATE
 API .       490252257400:   API NUMBER
~CURVE INFORMATION
#MNEM.UNIT       API CODE    CURVE DESCRIPTION
#----------   ------------   ------------------------------
 DEPT.F                  :   
 GRR .GAPI   07 310 01 00:   GAMMA RAY
 RILD.OHMM   07 120 46 00:   INDUCTION LOG DEEP RESISTIVITY
 RILM.OHMM   07 120 44 00:   INDUCTION LOG MEDIUM RESISTIVITY
~PARAMETER INFORMATION
#MNEM.UNIT          VALUE    DESCRIPTION
#----------   ------------   ------------------------------
 PD  .                 GL:   PERMANENT DATUM
 EPD .F              5132:   ELEVATION PERMANENT DATUM
 LMF .                 KB:   LOG MEASURED FROM
 DAPD.F                10:   FEET ABOVE PERMANENT DATUM
 DMF .                 KB:   DRILLING MEASURED FROM
 EKB .F              5142:   KELLING BUSHING
 EDF .F              5141:   DRILLING FLOOR
 EGL .F              5132:   GROUND LEVEL
 DATE.        14-DEC-1992:   RUN DATE
 RUN .                  1:   RUN NUMBER
 DD  .F               513:   DEPTH DRILLER
 DL  .F               505:   DEPTH LOGGER
 BLI .F               497:   BOTTOM LOG INTERVAL
 CS  .IN            8.625:   CASING SIZE
 CBD .F                53:   CASING BOTTOM DRILLER
 CBL .F                54:   CASING BOTTOM LOGGER
 BS  .IN            7.875:   BIT SIZE
 BSD .F               513:   BIT SIZE AT DEPTH
 DFT .           AIR FOAM:   DRILLING FLUID TYPE
 BHT .F                68:   BOTTOM HOLE TEMPERATURE
 MRT .F                68:   MAXIMUM RECORDED TEMPERATURE
 LUN .           HL- 6274:   LOGGING UNIT NUMBER
 LUL .             CASPER:   LOGGING UNIT LOCATION
 ENGI.             RAUTIO:   RECORDING ENGINEER
 WITN.          G. STRONG:   WITNESSED BY
 CLNT.            A2DTECH:   CLIENT CODE
 ORIG.           5" PRINT:   ORIGIN OF DATA
 UWI .       490252257400:   UNIQUE WELL ID
 DICO. A2D Technologies, Inc.:   DIGITIZING COMPANY
~OTHER INFORMATION
~A    DEPT      GRR      RILD       RILM   
# ...
  382.2000    88.4880    14.2628    14.0313
  382.3000    88.4849    14.1927    14.0311
  382.4000    88.6827    14.1648    14.0309
  382.5000    89.0813    14.1650    14.0307
  382.6000    89.4799    14.1652    14.0305
  382.7000    89.7279    14.1654    14.0303
  382.8000    89.9759    14.1657    14.0301
  382.9000    90.2735    14.1658    14.0299
  383.0000    90.4719    14.1660    14.0297
  383.1000    90.5693    14.1284    14.0295
  383.2000    90.6667    14.0687    14.0293
  383.3000    90.8645    14.0635    14.0292
  383.4000    90.8614    13.9721    14.0290
  383.5000    91.4602    13.9723    14.0288
  383.6000    91.8594    13.9188    14.0286
  383.7000    92.2078    13.8763    14.0284
  383.8000    92.5562    13.8765    14.0282
  383.9000    93.0050    13.8767    14.0280
  384.0000    93.2530    13.8769    14.0278
  384.1000    93.2494    13.8771    14.0276
  384.2000    93.4478    13.8773    13.8817
  384.3000    93.5452    13.8775    13.7782
  384.4000    93.5422    13.8557    13.6989
  384.5000    93.5392    13.7821    13.6433
  384.6000    93.5361    13.7824    13.6431
  384.7000    93.2821    13.7825    13.6429
  384.8000    93.0281    13.7290    13.6428
  384.9000    92.6235    13.6879    13.6426
  385.0000    92.1184    13.6881    13.6424
  385.1000    91.6134    13.6882    13.6205
  385.2000    91.1084    13.6885    13.5478
  385.3000    90.8544    13.6192    13.5476
  385.4000    90.6004    13.5944    13.4798
  385.5000    90.0452    13.5568    13.4537
  385.6000    89.1887    13.5010    13.4178
  385.7000    88.3323    13.5012    13.3604
  385.8000    88.0782    13.5014    13.3602
  385.9000    87.1711    13.4328    13.3600
  386.0000    86.9678    13.4087    13.2946
  386.1000    86.5631    13.3712    13.2674
  386.2000    85.7569    13.3166    13.2672
  386.3000    84.5996    13.3099    13.2670
  386.4000    83.8434    13.2251    13.2668
  386.5000    83.5894    13.1575    13.2666
  386.6000    83.5361    13.1343    13.2664
  386.7000    83.5331    13.0972    13.2185
  386.8000    83.5301    13.0441    13.1745
  386.9000    83.6777    13.0371    13.1743
  387.0000    84.4277    12.9545    13.1741
  387.1000    85.6289    12.8879    13.1739
  387.2000    86.4298    12.8139    13.1123
  387.3000    87.1295    12.7770    13.0826
  387.4000    87.7288    12.7771    13.0520
  387.5000    88.5290    12.7700    12.9919
  387.6000    89.5301    12.6894    12.9917
  387.7000    90.5311    12.6896    12.9172
  387.8000    91.1305    12.6385    12.9016
  387.9000    91.4789    12.6024    12.9014
  388.0000    91.7269    12.5806    12.8444
  388.1000    91.9247    12.5158    12.7102
  388.2000    91.9217    12.5160    12.6354
  388.3000    91.9181    12.4510    12.5644
  388.4000    91.5140    12.4300    12.5478
  388.5000    91.0090    12.4302    12.5476
  388.6000    90.6044    12.4304    12.5475
  388.7000    90.2499    12.4227    12.5473
  388.8000    89.4939    12.3450    12.5471
  388.9000    89.2400    12.3452    12.5469
  389.0000    88.9860    12.3453    12.5468
  389.1000    88.7319    12.3455    12.3897
  389.2000    88.5783    12.3234    12.2034
  389.3000    88.6255    12.2607    12.1932
  389.4000    88.8735    12.2609    12.1188
  389.5000    89.1214    12.2611    12.1186
  389.6000    89.1687    12.2612    12.1184
  389.7000    89.3162    12.2614    12.0813
  389.8000    89.6646    12.2391    12.0344
  389.9000    90.1636    12.1772    12.0257
  390.0000    90.6627    12.1774    11.9510
  390.1000    91.8639    12.1775    11.9508
  390.2000    92.4639    12.1777    11.9506
  390.3000    92.9127    12.1779    11.9505
  390.4000    93.0602    12.1780    11.9503
  390.5000    93.1074    12.1869    11.9501
  390.6000    93.3554    12.2629    11.9500
  390.7000    93.8544    12.2631    11.9498
  390.8000    94.1526    12.2633    11.9496
  390.9000    94.0994    12.2634    11.9495
  391.0000    93.6445    12.2636    11.9493
  391.1000    92.9889    12.2638    11.9491
  391.2000    92.7349    12.2640    11.9490
  391.3000    92.4301    12.3301    12.0096
  391.4000    92.2268    12.3494    12.0317
  391.5000    91.9729    12.3496    12.0316
  391.6000    91.8193    12.3498    12.0314
  391.7000    91.8664    12.3500    12.0358
  391.8000    92.1145    12.3501    12.1147
  391.9000    92.3624    12.4171    12.1146
  392.0000    92.6104    12.4362    12.1605
  392.1000    92.7078    12.4364    12.1985
  392.2000    92.8052    12.4366    12.1983
  392.3000    93.0030    12.4368    12.1982
  392.4000    93.0000    12.4369    12.1980
  392.5000    92.9964    12.4371    12.2572
  392.6000    93.1948    12.4373    12.3278
  392.7000    93.7439    12.4764    12.3677
  392.8000    94.4939    12.5240    12.3841
  392.9000    95.2439    12.5241    12.4553
  393.0000    95.9940    12.5243    12.5398
  393.1000    96.8940    12.5930    12.5396
  393.2000    97.6949    12.6116    12.5395
  393.3000    98.5453    12.6118    12.5694
  393.4000    99.0944    12.6373    12.6418
  393.5000    99.3927    12.6997    12.7145
  393.6000    99.8916    12.6999    12.8022
  393.7000    99.8885    12.7001    12.8020
  393.8000    99.8855    12.7003    12.8462
  393.9000    99.7319    12.7004    12.8907
  394.0000    99.4779    12.7006    12.8905
  394.1000    99.2741    12.7008    12.8903
  394.2000    99.2711    12.7010    12.9638
  394.3000    99.0171    12.7011    13.0385
  394.4000    98.7631    12.7013    13.0697
  394.5000    98.3584    12.7424    13.0980
  394.6000    97.9538    12.7899    13.1603
  394.7000    97.6999    12.7900    13.1600
  394.8000    97.4458    12.7902    13.1599
  394.9000    96.9408    12.7904    13.1597
  395.0000    96.6366    12.7906    13.2022
  395.1000    95.9308    12.7908    13.2508
  395.2000    95.2249    12.7909    13.2506
  395.3000    94.8705    12.7911    13.2504
  395.4000    94.1144    12.7913    13.2503
  395.5000    92.9060    12.7915    13.1934
  395.6000    92.3011    12.7916    13.1584
  395.7000    91.6958    12.7918    13.1326
  395.8000    91.0904    12.7920    13.0571
  395.9000    90.4347    12.7922    12.9767
  396.0000    90.1807    12.7924    12.9072
  396.1000    89.2735    12.7213    12.8868
  396.2000    89.2711    12.7045    12.8479
  396.3000    89.2681    12.7047    12.7974
  396.4000    89.3655    12.7048    12.7887
  396.5000    89.6637    12.7050    12.7087
  396.6000    90.1627    12.7052    12.7085
  396.7000    90.4602    12.6343    12.6567
  396.8000    90.8594    12.6179    12.5839
  396.9000    91.2078    12.6181    12.5330
  397.0000    91.4558    12.6183    12.5329
  397.1000    91.6542    12.6056    12.5327
  397.2000    91.6506    12.5316    12.5325
  397.3000    91.6476    12.5318    12.5323
  397.4000    91.6446    12.5320    12.4973
  397.5000    91.6416    12.5321    12.4454
  397.6000    91.6385    12.5049    12.4398
  397.7000    91.6355    12.4460    12.3591
  397.8000    91.6325    12.4462    12.3590
  397.9000    91.3785    12.4464    12.3588
  398.0000    91.3253    12.3905    12.3256
  398.1000    91.4729    12.3609    12.2547
  398.2000    91.6205    12.3337    12.1882
  398.3000    91.6677    12.2629    12.1880
  398.4000    91.9157    12.1915    12.1878
  398.5000    92.8157    12.1225    12.1877
  398.6000    93.4158    12.1078    12.1875
  398.7000    94.1658    12.0669    12.1704
  398.8000    95.0162    11.9976    12.1030
  398.9000    96.0170    11.9288    12.1028
  399.0000    97.0181    11.8597    12.1027
  399.1000    97.6169    11.7922    12.0587
  399.2000    98.0161    11.7782    12.0187
  399.3000    98.5151    11.7784    12.0186
  399.4000    98.8133    11.7518    12.0171
  399.5000    98.8102    11.6843    11.9352
  399.6000    98.8072    11.6170    11.9351
  399.7000    98.3022    11.5505    11.9349
  399.8000    97.7972    11.4843    11.9347
  399.9000    96.1131    11.4578    11.9089
  400.0000    95.2811    11.4579    11.7505
  400.1000    94.7645    11.4581    11.7488
  400.2000    94.2759    11.4583    11.6141
  400.3000    94.2752    11.4584    11.5380
