~VERSION INFORMATION
 VERS.                2.0:   CWLS LOG ASCII STANDARD - VERSION 2.0
 WRAP.                 NO:   ONE LINE PER DEPTH STEP
~WELL INFORMATION
#MNEM.UNIT      DATA TYPE    INFORMATION
#----------   ------------   ------------------------------
 STRT.F           30.0000:   START DEPTH
 STOP.F          770.5000:   STOP DEPTH
 STEP.F            0.5000:   STEP LENGTH
 NULL.          -999.2500:   NO VALUE
 COMP. FENIX & SCISSON INC:   COMPANY
 WELL. TEAPOT DOME 63 SX 34 #63-34:   WELL
 FLD .             TEAPOT:   FIELD
 LOC .      S34 T39N R78W:   LOCATION
 CNTY.            NATRONA:   COUNTY
 STAT.            WYOMING:   STATE
 CTRY. UNITED STATES OF AMERICA:   COUNTRY
 SRVC.           BIRDWELL:   SERVICE COMPANY
 DATE.        18-AUG-1978:   LOGDATE
 API .       490251070300:   API NUMBER
~CURVE INFORMATION
#MNEM.UNIT       API CODE    CURVE DESCRIPTION
#----------   ------------   ------------------------------
 DEPT.F                  :   
 SPR .MV     05 010 01 00:   SPONTANEOUS POTENTIAL
 SN  .OHMM   05 040 16 00:   SHORT NORMAL 16'
 ILD .OHMM   05 120 46 00:   INDUCTION LOG DEEP RESISTIVITY
 CALD.IN     45 280 60 00:   CALIPER
 GRD .GAPI   45 310 01 00:   GAMMA RAY FROM DENSITY LOG
 RHOB.G/C3   45 350 01 00:   BULK DENSITY
 DPHI.DEC    45 890 12 00:   DENSITY POROSITY SANDSTONE
 CORR.G/C3   45 356 01 00:   DENSITY CORRECTION
~PARAMETER INFORMATION
#MNEM.UNIT          VALUE    DESCRIPTION
#----------   ------------   ------------------------------
 PD  .                 GL:   PERMANENT DATUM
 EPD .F              5063:   ELEVATION PERMANENT DATUM
 LMF .                 KB:   LOG MEASURED FROM
 DAPD.F                 4:   FEET ABOVE PERMANENT DATUM
 DMF .                 KB:   DRILLING MEASURED FROM
 EKB .F              5067:   KELLING BUSHING
 EGL .F              5063:   GROUND LEVEL
 DATE.          8-18-1978:   RUN DATE
 RUN .                  1:   RUN NUMBER
 DD  .F               760:   DEPTH DRILLER
 DL  .F               770:   DEPTH LOGGER
 BLI .F               763:   BOTTOM LOG INTERVAL
 TLI .F                40:   TOP LOG INTERVAL
 CS  .IN            8.625:   CASING SIZE
 CBD .F                40:   CASING BOTTOM DRILLER
 CBL .F                40:   CASING BOTTOM LOGGER
 BS  .IN            7.875:   BIT SIZE
 BSD .F               760:   BIT SIZE AT DEPTH
 DFT .            MUD KCL:   DRILLING FLUID TYPE
 DFL .               10.6:   DRILLING FLUID LOSS
 MSS .          FLOW LINE:   MUD SAMPLE SOURCE
 RMS .OHMM             .2:   RESISTIVITY MUD SAMPLE
 MST .F                56:   MUD SAMPLE TEMPERATURE
 RMF .OHMM             .2:   RESISTIVITY MUD FILTRATE SAMPLE
 MFST.F                64:   MUD FILTRATE SAMPLE TEMPERATURE
 RMC .OHMM            .36:   RESISTIVITY MUD CAKE
 MCST.F                64:   MUD CAKE SAMPLE TEMPERATURE
 MFSS.               MEAS:   MUD FILTRATE SAMPLE SOURCE
 MCSS.               MEAS:   MUD CAKE SAMPLE SOURCE
 TCS .HRS               3:   TIME CURCULATED STOPPED
 MRT .F                72:   MAXIMUM RECORDED TEMPERATURE
 LUN .               3006:   LOGGING UNIT NUMBER
 LUL .               CASP:   LOGGING UNIT LOCATION
 ENGI.           REYNOLDS:   RECORDING ENGINEER
 WITN.              AMEND:   WITNESSED BY
 CLNT.            A2DTECH:   CLIENT CODE
 ORIG.           5" PRINT:   ORIGIN OF DATA
 UWI .       490251070300:   UNIQUE WELL ID
 DICO. A2D Technologies, Inc.:   DIGITIZING COMPANY
~OTHER INFORMATION
~A   DEPT      SPR         SN        ILD       CALD         GRD      RHOB       DPHI       CORR   
# ...
  394.5000   -75.3046     8.3806     6.6086     7.1169    77.6584     2.4381     0.1349     0.0184
  395.0000   -75.3312     8.3218     6.5681     7.1131    77.3672     2.4353     0.1373     0.0180
  395.5000   -75.3577     8.2928     6.5278     7.1093    77.1736     2.4325     0.1397     0.0180
  396.0000   -75.3839     8.2685     6.4877     7.1055    77.4542     2.4295     0.1421     0.0180
  396.5000   -75.4094     8.2444     6.4479     7.1017    77.7125     2.4268     0.1421     0.0180
  397.0000   -75.4381     8.2203     6.4271     7.0979    77.7184     2.4268     0.1414     0.0180
  397.5000   -75.5541     8.1963     6.4404     7.0941    77.0266     2.4271     0.1411     0.0180
  398.0000   -76.0018     8.1723     6.4494     7.0900    76.3569     2.4274     0.1418     0.0180
  398.5000   -76.4350     8.1484     6.4584     7.0973    75.6734     2.4276     0.1431     0.0180
  399.0000   -76.7373     8.1246     6.4675     7.1076    75.2870     2.4264     0.1450     0.0180
  399.5000   -76.9081     8.1009     6.4765     7.1180    75.4548     2.4216     0.1469     0.0180
  400.0000   -77.0786     8.0772     6.4865     7.1284    75.7144     2.4169     0.1487     0.0183
  400.5000   -77.2492     8.0536     6.4436     7.1389    77.2231     2.4173     0.1488     0.0194
  401.0000   -77.4199     8.0301     6.3963     7.1495    78.7136     2.4205     0.1481     0.0205
  401.5000   -77.5907     7.9913     6.3493     7.1477    80.2615     2.4201     0.1482     0.0216
  402.0000   -77.7614     7.9162     6.3026     7.1450    81.3575     2.4190     0.1492     0.0258
  402.5000   -77.9327     7.8418     6.2564     7.1423    82.3915     2.4237     0.1449     0.0312
  403.0000   -78.1034     7.7681     6.2104     7.1396    80.3694     2.4332     0.1356     0.0367
  403.5000   -78.2611     7.6950     6.1648     7.1370    74.0347     2.4427     0.1266     0.0366
  404.0000   -78.2573     7.6227     6.1195     7.1343    75.0599     2.4524     0.1249     0.0348
  404.5000   -78.2565     7.5511     6.0746     7.1317    77.2370     2.4557     0.1238     0.0329
  405.0000   -78.2565     7.5142     6.0300     7.1319    79.4480     2.4544     0.1252     0.0311
  405.5000   -78.2565     7.6113     5.9714     7.1376    79.0301     2.4522     0.1286     0.0293
  406.0000   -78.2565     7.6881     6.0005     7.1432    77.9523     2.4501     0.1273     0.0275
  406.5000   -78.2565     7.7656     6.0437     7.1489    78.0558     2.4479     0.1303     0.0259
  407.0000   -78.2565     7.8439     6.0871     7.1491    77.6900     2.4456     0.1333     0.0266
  407.5000   -78.2565     7.9230     6.1309     7.1481    75.3616     2.4499     0.1269     0.0274
  408.0000   -78.2565     8.0029     6.1750     7.1470    75.0964     2.4543     0.1242     0.0281
  408.5000   -78.2565     8.0135     6.2194     7.1459    78.0909     2.4586     0.1221     0.0288
  409.0000   -78.2565     8.0135     6.2523     7.1448    80.5182     2.4630     0.1201     0.0295
  409.5000   -78.2565     8.0135     6.2446     7.1437    81.1437     2.4656     0.1181     0.0302
  410.0000   -78.2565     8.0135     6.2385     7.1426    80.6726     2.4666     0.1189     0.0310
  410.5000   -78.2565     8.0135     6.2324     7.1415    80.3105     2.4686     0.1180     0.0317
  411.0000   -78.2565     8.0135     6.2263     7.1405    80.2326     2.4723     0.1114     0.0298
  411.5000   -78.2565     8.0135     6.2203     7.1394    80.1730     2.4754     0.1149     0.0265
  412.0000   -78.2565     8.0135     6.2142     7.1383    80.1476     2.4674     0.1230     0.0231
  412.5000   -78.2565     8.0135     6.2081     7.1372    78.9814     2.4591     0.1250     0.0246
  413.0000   -78.2565     8.0135     6.2021     7.1361    77.7020     2.4556     0.1220     0.0286
  413.5000   -78.2566     8.0136     6.1960     7.1350    78.3952     2.4605     0.1190     0.0326
  414.0000   -78.2563     8.0134     6.1900     7.1339    81.2976     2.4662     0.1160     0.0368
  414.5000   -78.2582     8.0135     6.1839     7.1328    84.1450     2.4718     0.1138     0.0349
  415.0000   -78.1708     7.9632     6.1779     7.1318    85.3962     2.4725     0.1178     0.0305
  415.5000   -78.0523     7.8853     6.1719     7.1307    86.2691     2.4704     0.1161     0.0314
  416.0000   -77.9319     7.8082     6.1659     7.1296    85.4037     2.4741     0.1130     0.0330
  416.5000   -77.8121     7.7735     6.1599     7.1285    82.6380     2.4854     0.1099     0.0314
  417.0000   -77.6819     7.7471     6.1539     7.1274    81.1178     2.4894     0.1078     0.0264
  417.5000   -77.8661     7.7208     6.1479     7.1263    84.0800     2.4827     0.1145     0.0220
  418.0000   -78.1565     7.6946     6.1417     7.1252    85.9252     2.4715     0.1196     0.0219
  418.5000   -78.4464     7.6686     6.1270     7.1241    82.1874     2.4647     0.1245     0.0220
  419.0000   -78.6155     7.6536     6.1005     7.1231    79.6777     2.4578     0.1261     0.0220
  419.5000   -78.4231     7.6536     6.0740     7.1220    81.4776     2.4520     0.1291     0.0219
  420.0000   -78.2437     7.6536     6.0477     7.1209    83.8664     2.4461     0.1329     0.0220
  420.5000   -78.0638     7.6536     6.0215     7.1198    86.2441     2.4433     0.1269     0.0259
  421.0000   -77.8840     7.6536     5.9953     7.1187    88.0955     2.4543     0.1187     0.0301
  421.5000   -77.7037     7.6538     5.9693     7.1176    88.5679     2.4684     0.1106     0.0299
  422.0000   -77.5248     7.6549     5.9435     7.1165    88.7927     2.4788     0.1090     0.0264
  422.5000   -77.3425     7.6009     5.9177     7.1154    89.0629     2.4767     0.1136     0.0227
  423.0000   -77.6192     7.5368     5.8920     7.1143    89.2325     2.4717     0.1172     0.0226
  423.5000   -78.2220     7.4730     5.8665     7.1133    86.4878     2.4666     0.1210     0.0233
  424.0000   -78.8330     7.4097     5.8411     7.1122    83.5757     2.4614     0.1204     0.0241
  424.5000   -78.6172     7.3471     5.8157     7.1112    80.6500     2.4700     0.1157     0.0249
  425.0000   -78.3275     7.3098     5.7905     7.1097    79.5132     2.4793     0.1134     0.0256
  425.5000   -78.2899     7.3231     5.7654     7.0980    79.7266     2.4741     0.1204     0.0264
  426.0000   -78.3330     7.3344     5.7404     7.0859    80.9365     2.4643     0.1261     0.0272
  426.5000   -78.3787     7.3457     5.7155     7.0738    82.1366     2.4643     0.1197     0.0280
  427.0000   -78.4256     7.3569     5.6908     7.0616    80.3036     2.4657     0.1197     0.0287
  427.5000   -78.5135     7.3680     5.6663     7.0505    78.0971     2.4628     0.1214     0.0295
  428.0000   -78.7423     7.3766     5.6218     7.0580    77.2967     2.4597     0.1212     0.0299
  428.5000   -78.6444     7.3061     5.5476     7.0661    78.1239     2.4607     0.1197     0.0300
  429.0000   -78.2226     7.2468     5.4741     7.0741    79.4041     2.4632     0.1186     0.0278
  429.5000   -77.8886     7.1880     5.4017     7.0820    80.6986     2.4644     0.1205     0.0235
  430.0000   -78.7140     7.1296     5.3302     7.0900    81.9222     2.4583     0.1233     0.0181
  430.5000   -79.4981     7.0717     5.2597     7.0979    79.8408     2.4523     0.1276     0.0127
  431.0000   -80.0497     7.0142     5.2005     7.1058    77.1965     2.4464     0.1317     0.0143
  431.5000   -79.9501     6.9573     5.1902     7.1138    76.9543     2.4463     0.1303     0.0173
  432.0000   -79.8683     6.9008     5.1798     7.1217    79.1531     2.4476     0.1289     0.0205
  432.5000   -79.7846     6.8542     5.1695     7.1297    81.1079     2.4476     0.1305     0.0236
  433.0000   -79.7010     6.9120     5.1547     7.1376    81.3504     2.4476     0.1305     0.0238
  433.5000   -79.6188     6.9617     5.1828     7.1455    82.7093     2.4484     0.1283     0.0235
  434.0000   -79.5403     7.0118     5.2325     7.1535    82.2345     2.4514     0.1257     0.0233
  434.5000   -79.4128     7.0622     5.2828     7.1615    80.5677     2.4546     0.1253     0.0231
