~VERSION INFORMATION
 VERS.                2.0:   CWLS LOG ASCII STANDARD - VERSION 2.0
 WRAP.                 NO:   ONE LINE PER DEPTH STEP
~WELL INFORMATION
#MNEM.UNIT      DATA TYPE    INFORMATION
#----------   ------------   ------------------------------
 STRT.F           50.0000:   START DEPTH
 STOP.F         1152.0000:   STOP DEPTH
 STEP.F            0.5000:   STEP LENGTH
 NULL.          -999.2500:   NO VALUE
 COMP. FENIX & SCISSON INC:   COMPANY
 WELL.  NPR 3 #65 SX14-14:   WELL
 FLD .             TEAPOT:   FIELD
 LOC .      S14 T38N R78W:   LOCATION
 CNTY.            NATRONA:   COUNTY
 STAT.            WYOMING:   STATE
 CTRY. UNITED STATES OF AMERICA:   COUNTRY
 SRVC.              Welex:   SERVICE COMPANY
 DATE.        13-JAN-1979:   LOGDATE
 API .       490251073800:   API NUMBER
~CURVE INFORMATION
#MNEM.UNIT       API CODE    CURVE DESCRIPTION
#----------   ------------   ------------------------------
 DEPT.F                  :   
 SPR .MV     07 010 01 00:   SPONTANEOUS POTENTIAL
 SGRD.OHMM   07 220 05 00:   SHALLOW GUARD RESISTIVITY
 ILD .OHMM   07 120 46 00:   INDUCTION LOG DEEP
 ILM .OHMM   07 120 44 00:   INDUCTION LOG MEDIUM
 CALD.IN     45 280 60 00:   CALIPER
 GRD .GAPI   45 310 01 00:   GAMMA RAY FROM DENSITY LOG
 RHOB.G/C3   45 350 01 00:   BULK DENSITY
 DPHI.DEC    45 890 12 00:   DENSITY POROSITY SANDSTONE
 CORR.G/C3   45 356 01 00:   DENSITY CORRECTION
~PARAMETER INFORMATION
#MNEM.UNIT          VALUE    DESCRIPTION
#----------   ------------   ------------------------------
 PD  .                 GL:   PERMANENT DATUM
 EPD .F              5312:   ELEVATION PERMANENT DATUM
 LMF .                 KB:   LOG MEASURED FROM
 DAPD.F                 4:   FEET ABOVE PERMANENT DATUM
 DMF .                 KB:   DRILLING MEASURED FROM
 EKB .F              5316:   KELLING BUSHING
 EGL .F              5312:   GROUND LEVEL
 DATE.            1-13-79:   RUN DATE
 RUN .                  1:   RUN NUMBER
 DD  .F              1167:   DEPTH DRILLER
 DL  .F              1154:   DEPTH LOGGER
 BLI .F              1152:   BOTTOM LOG INTERVAL
 TLI .F                50:   TOP LOG INTERVAL
 CS  .IN            8.625:   CASING SIZE
 CBD .F                40:   CASING BOTTOM DRILLER
 CBL .F                60:   CASING BOTTOM LOGGER
 BS  .IN            7.875:   BIT SIZE
 BSD .F              1167:   BIT SIZE AT DEPTH
 DFT .            KCL MUD:   DRILLING FLUID TYPE
 DFD .                8.8:   DRILLING FLUID DENSITY
 DFV .                 42:   DRILLING FLUID VISCOSITY
 DFPH.                8.2:   DRILLING FLUID PH
 DFL .                7.7:   DRILLING FLUID LOSS
 MSS .                PIT:   MUD SAMPLE SOURCE
 RMS .OHMM            .29:   RESISTIVITY MUD SAMPLE
 MST .F                40:   MUD SAMPLE TEMPERATURE
 RMF .OHMM            .19:   RESISTIVITY MUD FILTRATE SAMPLE
 MFST.F                40:   MUD FILTRATE SAMPLE TEMPERATURE
 RMC .OHMM            .87:   RESISTIVITY MUD CAKE
 MCST.F                40:   MUD CAKE SAMPLE TEMPERATURE
 MFSS.           MEASURED:   MUD FILTRATE SAMPLE SOURCE
 MCSS.           MEASURED:   MUD CAKE SAMPLE SOURCE
 RMB .OHMM           .119:   RESISTIVITY MUD AT BHT
 BHT .F                97:   BOTTOM HOLE TEMPERATURE
 TCS .HRS              30:   TIME CURCULATED STOPPED
 MRT .F                97:   MAXIMUM RECORDED TEMPERATURE
 LUN .               8611:   LOGGING UNIT NUMBER
 LUL .             CASPER:   LOGGING UNIT LOCATION
 ENGI.            BENTSEN:   RECORDING ENGINEER
 WITN.              AMEND:   WITNESSED BY
 CLNT.            A2DTECH:   CLIENT CODE
 ORIG.       2", 5" PRINT:   ORIGIN OF DATA
 UWI .       490251073800:   UNIQUE WELL ID
 DICO. A2D Technologies, Inc.:   DIGITIZING COMPANY
~OTHER INFORMATION
~A   DEPT      SPR       SGRD        ILD        ILM       CALD        GRD       RHOB       DPHI       CORR   
# ...
 1035.5000   -20.4816    10.6254    10.1913    12.5495     8.0019   102.7087     2.5063     0.1007     0.0270
 1036.0000   -20.7031    10.6287    10.1193    12.1058     7.9988   103.7283     2.5287     0.0928     0.0400
 1036.5000   -20.9247    10.1326    10.0477    11.9835     7.9930   104.7681     2.5416     0.0851     0.0417
 1037.0000   -21.1466     9.6614     9.9764    12.0948     7.9872   105.7858     2.5213     0.0934     0.0373
 1037.5000   -21.3680     9.1697     9.8726    12.1735     7.9813   106.2273     2.5066     0.1014     0.0328
 1038.0000   -21.5896     9.1697     9.8950    12.2528     7.9755   104.6174     2.5118     0.1077     0.0329
 1038.5000   -21.6392    12.6863     9.9414    12.3200     7.9697   103.0426     2.5181     0.0960     0.0408
 1039.0000   -21.5176    13.7627     9.9873    12.2902     7.9641   102.9170     2.5196     0.0963     0.0486
 1039.5000   -21.3960    12.0862    10.0335    12.2595     7.9510   103.6996     2.5096     0.0990     0.0543
 1040.0000   -21.2741    11.7644    10.0799    12.2288     7.9364   104.4851     2.5001     0.0954     0.0553
 1040.5000   -21.1524    13.8904    10.1264    12.2075     7.9216   105.2827     2.4907     0.0934     0.0564
 1041.0000   -21.0295    11.9509    10.1732    12.2507     7.9069   105.1844     2.4812     0.0993     0.0575
 1041.5000   -20.9061    10.6290    10.2202    12.2852     7.8922   104.1693     2.4717     0.1038     0.0586
 1042.0000   -20.9597    10.2435    10.2674    12.3200     7.8775   104.3508     2.4622     0.1084     0.0597
 1042.5000   -21.0268    10.5157    10.3148    12.2512     7.8628   105.1146     2.4472     0.1130     0.0599
 1043.0000   -21.0930    10.9849    10.3625    12.1650     7.8481   101.0710     2.4238     0.1185     0.0595
 1043.5000   -21.1590    11.3380    10.4295    12.0794     7.8334    96.3038     2.4005     0.1241     0.0562
 1044.0000   -21.2250    10.9737    10.3627    11.9945     7.8188    93.6191     2.3772     0.1296     0.0514
 1044.5000   -21.2910    10.5772    10.2208    11.9102     7.8038    95.2483     2.3568     0.1335     0.0430
 1045.0000   -21.3570    10.1951    10.0809    11.8735     7.7870    93.9972     2.3541     0.1345     0.0349
 1045.5000   -21.4236     9.6917     9.9429    11.9597     7.8283    98.1191     2.3512     0.1356     0.0268
 1046.0000   -21.4922     9.8923     9.8067    12.0232     7.8729   101.2676     2.3483     0.1366     0.0188
 1046.5000   -21.4880    10.3748     9.6725    12.0870     7.9183   102.6888     2.3455     0.1376     0.0108
 1047.0000   -21.1934    10.8267     9.5401    12.1511     7.9654   100.0564     2.3427     0.1387     0.0095
 1047.5000   -20.8994    10.5014     9.4271    12.2068     7.9778    98.0037     2.3473     0.1381     0.0178
 1048.0000   -20.6076    10.1451     9.4952    12.1171     7.9725    99.2895     2.3635     0.1336     0.0260
 1048.5000   -20.3160    11.1865     9.6195    12.0387     7.9664   100.8667     2.3795     0.1291     0.0342
 1049.0000   -20.0246    12.3140     9.7454    11.9607     7.9603   100.0857     2.3867     0.1266     0.0371
 1049.5000   -19.7334    12.3322     9.8729    11.8735     7.9543    99.4765     2.3827     0.1285     0.0316
 1050.0000   -19.4419    11.4522    10.0021    11.9230     7.9482   100.8989     2.3697     0.1335     0.0260
 1050.5000   -18.9349    10.8834    10.1330    11.9799     7.9422   102.4536     2.3411     0.1409     0.0205
 1051.0000   -18.2220    10.3452    10.2815    12.0375     7.9362   103.3820     2.3195     0.1437     0.0150
 1051.5000   -17.5108    10.2334    10.5135    12.0948     7.9301   102.3152     2.3201     0.1437     0.0120
 1052.0000   -16.8586    10.6025    10.7506    12.1531     7.9237   101.3009     2.3355     0.1397     0.0127
 1052.5000   -16.2887    10.9110    10.9932    12.2068     7.9313   100.2937     2.3526     0.1360     0.0142
 1053.0000   -15.7184    11.2285    11.2416    12.6248     7.9409    99.2845     2.3650     0.1322     0.0157
 1053.5000   -15.1478    11.5552    11.4948    13.0256     7.9507    98.2446     2.3758     0.1293     0.0126
 1054.0000   -14.5762    16.1006    11.6563    13.4392     7.9604    98.4322     2.3630     0.1328     0.0045
 1054.5000   -13.9970    14.2119    11.3305    13.8659     7.9702    99.1440     2.3416     0.1397    -0.0034
 1055.0000   -13.8982    12.6658    11.0284    14.2803     7.9801    99.7734     2.3490     0.1370    -0.0101
 1055.5000   -13.9020    17.9455    11.0284    14.6124     7.9811    99.5220     2.3621     0.1343    -0.0061
 1056.0000   -13.6811    13.8118    14.0191    14.9547     7.9796    99.2723     2.3942     0.1287    -0.0020
 1056.5000   -13.3706    15.6699    13.7763    15.0934     7.9781    99.0316     2.4313     0.1178     0.0020
 1057.0000   -13.0546    14.4652    13.3442    14.5521     7.9766    99.0374     2.4635     0.1063     0.0060
 1057.5000   -12.7402    13.7120    12.9686    14.1626     7.9751   100.5984     2.4633     0.1065     0.0100
 1058.0000   -12.4942    13.2291    12.7433    13.7799     7.9736   102.1802     2.4185     0.1189     0.0101
 1058.5000   -12.4995    12.7632    12.5218    13.2714     7.9721   103.5574     2.3766     0.1302     0.0066
 1059.0000   -12.4998    12.4342    12.3043    13.5708     7.9706   103.1978     2.3427     0.1371     0.0030
 1059.5000   -12.4996    12.4342    12.0905    14.1943     7.9692   102.7893     2.3249     0.1425    -0.0005
 1060.0000   -12.4998    13.3153    11.8804    14.8398     7.9676   102.4973     2.3321     0.1433    -0.0040
 1060.5000   -12.5254    14.4127    11.7335    15.1009     7.9662   104.5053     2.3476     0.1384    -0.0042
 1061.0000   -12.6662    13.0961    11.6636    15.3347     7.9647   106.4974     2.3821     0.1294    -0.0002
 1061.5000   -12.8042    12.5354    11.5940    15.5726     7.9632   106.3659     2.4152     0.1204     0.0037
 1062.0000   -12.9421    12.7799    11.5250    15.8142     7.9662   105.3064     2.4333     0.1144     0.0075
 1062.5000   -13.0800    12.7802    11.4562    16.0572     7.9725   103.3561     2.4058     0.1173     0.0081
 1063.0000   -13.2179    13.2591    11.3881    16.2499     7.9788   100.8441     2.3887     0.1230    -0.0019
 1063.5000   -13.3555    12.6658    11.3380    15.7069     7.9852    98.3377     2.3878     0.1274    -0.0119
 1064.0000   -13.4934    13.6363    11.4545    15.2782     7.9915    97.5919     2.4063     0.1247    -0.0214
 1064.5000   -13.6320    13.5576    11.5646    14.8611     7.9979    99.4227     2.4319     0.1184    -0.0144
 1065.0000   -13.9237    13.4088    11.6757    14.6812     8.0042   100.2067     2.4453     0.1122    -0.0063
 1065.5000   -14.3486    13.2640    11.7879    15.7752     8.0106    99.6317     2.4591     0.1060    -0.0063
 1066.0000   -14.6100    13.1421    11.9012    16.2499     8.0168   101.2096     2.4730     0.1016    -0.0067
 1066.5000   -14.8799    13.6703    12.0168    15.5171     8.0208   104.6698     2.4864     0.0989    -0.0071
 1067.0000   -15.1496    14.1021    12.0941    15.7692     8.0157   102.5934     2.5001     0.0962    -0.0075
 1067.5000   -15.4248    17.1223    11.9614    16.2769     8.0109   100.5083     2.5168     0.0900    -0.0079
 1068.0000   -15.3160    21.0414    11.8610    16.7024     8.0061    98.1245     2.5447     0.0746    -0.0040
 1068.5000   -15.1444    16.5702    11.7613    15.7817     8.0013   100.4715     2.5721     0.0594     0.0042
 1069.0000   -15.4967    12.5356    11.6625    15.0459     7.9965   102.0618     2.5979     0.0479     0.0125
 1069.5000   -15.8454    12.7413    11.5645    14.5464     7.9917    99.5204     2.6001     0.0507     0.0208
 1070.0000   -15.9339    12.9044    11.4674    14.7280     7.9869    98.5215     2.5838     0.0634     0.0290
 1070.5000   -15.9736    12.1542    11.3710    14.8190     7.9821   100.2989     2.5464     0.0820     0.0335
 1071.0000   -16.0126    11.6563    11.2755    14.3455     7.9773   102.0133     2.5092     0.1006     0.0308
 1071.5000   -16.0521    12.0981    11.1808    13.7658     7.9725   103.7116     2.4738     0.1185     0.0288
