~VERSION INFORMATION
 VERS.                2.0:   CWLS LOG ASCII STANDARD - VERSION 2.0
 WRAP.                 NO:   ONE LINE PER DEPTH STEP
~WELL INFORMATION
#MNEM.UNIT      DATA TYPE    INFORMATION
#----------   ------------   ------------------------------
 STRT.F           45.5000:   START DEPTH
 STOP.F          740.0000:   STOP DEPTH
 STEP.F            0.5000:   STEP LENGTH
 NULL.          -999.2500:   NO VALUE
 COMP. FENIX & SCISSON INC:   COMPANY
 WELL.       NPR 3 #22-14:   WELL
 FLD .             TEAPOT:   FIELD
 LOC .      S14 T38N R78W:   LOCATION
 CNTY.            NATRONA:   COUNTY
 STAT.            WYOMING:   STATE
 CTRY. UNITED STATES OF AMERICA:   COUNTRY
 SRVC.           BIRDWELL:   SERVICE COMPANY
 DATE.        23-DEC-1978:   LOGDATE
 API .       490251075800:   API NUMBER
~CURVE INFORMATION
#MNEM.UNIT       API CODE    CURVE DESCRIPTION
#----------   ------------   ------------------------------
 DEPT.F                  :   
 SPR .MV     05 010 01 00:   SPONTANEOUS POTENTIAL FROM RES.
 SN  .OHMM   05 040 16 00:   SHORT NORMAL 16"
 IL  .OHMM   05 120 00 00:   INDUCTION LOG
 CALD.IN     45 280 60 00:   CALIPER
 GRD .GAPI   45 310 01 00:   GAMMA RAY FROM DENSITY LOG
 RHOB.G/C3   45 350 01 00:   BULK DENSITY
 DPHI.DEC    45 890 12 00:   DENSITY POROSITY SANDSTONE
 CORR.G/C3   45 356 01 00:   DENSITY CORRECTION
~PARAMETER INFORMATION
#MNEM.UNIT          VALUE    DESCRIPTION
#----------   ------------   ------------------------------
 PD  .                 GL:   PERMANENT DATUM
 EPD .F              5212:   ELEVATION PERMANENT DATUM
 LMF .                 KB:   LOG MEASURED FROM
 DAPD.F                 4:   FEET ABOVE PERMANENT DATUM
 DMF .                 KB:   DRILLING MEASURED FROM
 EKB .F              5216:   KELLING BUSHING
 EGL .F              5212:   GROUND LEVEL
 DATE.           12-23-78:   RUN DATE
 RUN .                  1:   RUN NUMBER
 DD  .F               735:   DEPTH DRILLER
 DL  .F               740:   DEPTH LOGGER
 BLI .F               733:   BOTTOM LOG INTERVAL
 TLI .F                50:   TOP LOG INTERVAL
 CS  .IN            8.625:   CASING SIZE
 CBD .F                40:   CASING BOTTOM DRILLER
 CBL .F                40:   CASING BOTTOM LOGGER
 BS  .IN            7.875:   BIT SIZE
 BSD .F               735:   BIT SIZE AT DEPTH
 DFT .                KCL:   DRILLING FLUID TYPE
 DFD .                8.7:   DRILLING FLUID DENSITY
 DFV .                 35:   DRILLING FLUID VISCOSITY
 DFPH.               10.5:   DRILLING FLUID PH
 DFL .               11.6:   DRILLING FLUID LOSS
 MSS .           FLOWLINE:   MUD SAMPLE SOURCE
 RMS .OHMM             .5:   RESISTIVITY MUD SAMPLE
 MST .F                60:   MUD SAMPLE TEMPERATURE
 RMF .OHMM             .5:   RESISTIVITY MUD FILTRATE SAMPLE
 MFST.F                60:   MUD FILTRATE SAMPLE TEMPERATURE
 RMC .OHMM             .7:   RESISTIVITY MUD CAKE
 MCST.F                60:   MUD CAKE SAMPLE TEMPERATURE
 MFSS.           MEASURED:   MUD FILTRATE SAMPLE SOURCE
 MCSS.           MEASURED:   MUD CAKE SAMPLE SOURCE
 RMB .OHMM           .518:   RESISTIVITY MUD AT BHT
 BHT .F                58:   BOTTOM HOLE TEMPERATURE
 TCS .HRS               5:   TIME CURCULATED STOPPED
 MRT .F                58:   MAXIMUM RECORDED TEMPERATURE
 LUN .               2958:   LOGGING UNIT NUMBER
 LUL .             CASPER:   LOGGING UNIT LOCATION
 ENGI.         B. ROLLINS:   RECORDING ENGINEER
 WITN.              IMMEL:   WITNESSED BY
 CLNT.            A2DTECH:   CLIENT CODE
 ORIG.           5" PRINT:   ORIGIN OF DATA
 UWI .       490251075800:   UNIQUE WELL ID
 DICO. A2D Technologies, Inc.:   DIGITIZING COMPANY
~OTHER INFORMATION
~A   DEPT      SPR         SN         IL       CALD         GRD      RHOB       DPHI       CORR   
# ...
  693.5000   -41.7990    12.4120    13.5410     7.8140    86.2740     2.5330     0.0820     0.1360
  694.0000   -41.8090    12.4910    13.5310     7.8170    84.4100     2.5420     0.0790     0.1200
  694.5000   -41.8180    12.4380    13.5220     7.8210    84.6620     2.5500     0.0760     0.0940
  695.0000   -41.8280    12.3800    13.5120     7.8250    86.5330     2.5510     0.0740     0.0700
  695.5000   -41.8370    12.3220    13.5030     7.8300    88.5260     2.5520     0.0780     0.0540
  696.0000   -41.8460    12.2640    13.4930     7.7890    90.6130     2.5480     0.0890     0.0560
  696.5000   -41.8560    12.2050    13.4840     7.7270    91.0870     2.5400     0.0990     0.0610
  697.0000   -41.8650    12.1470    13.4740     7.7300    89.1940     2.5260     0.1060     0.0790
  697.5000   -41.8740    12.0890    13.4650     7.7580    87.6920     2.5120     0.1050     0.0960
  698.0000   -41.8840    12.0310    13.4550     7.7860    87.3190     2.5030     0.0980     0.0980
  698.5000   -41.8930    11.9720    13.4450     7.7900    87.2420     2.5120     0.0880     0.0990
  699.0000   -41.9030    11.9140    13.3120     7.7900    87.4110     2.5240     0.0790     0.0810
  699.5000   -41.9120    11.8560    13.1650     7.7900    87.6030     2.5350     0.0860     0.0580
  700.0000   -41.9210    11.7980    13.0190     7.7910    88.8050     2.5500     0.0940     0.0600
  700.5000   -41.9310    11.7400    12.8720     7.8070    90.1490     2.5420     0.1020     0.0650
  701.0000   -41.9400    11.6810    12.7250     7.8220    91.5360     2.5250     0.1090     0.0710
  701.5000   -41.9490    11.6230    12.5780     7.8370    91.9970     2.5080     0.1070     0.0770
  702.0000   -41.9580    11.5330    12.4310     7.8520    92.1820     2.4980     0.1060     0.0770
  702.5000   -41.9680    11.4290    12.2840     7.8680    92.0040     2.5050     0.0990     0.0660
  703.0000   -41.9780    11.3250    12.1370     7.8830    91.5460     2.5120     0.0930     0.0550
  703.5000   -42.0130    11.2210    11.9910     7.8850    91.0380     2.5180     0.0860     0.0480
  704.0000   -42.1270    11.1170    11.8440     7.8500    91.5990     2.5250     0.0860     0.0440
  704.5000   -42.2380    11.0130    11.6970     7.8140    93.0840     2.5280     0.0860     0.0490
  705.0000   -42.3490    10.9090    11.5500     7.7760    93.1720     2.5300     0.0860     0.0540
  705.5000   -42.5790    10.8050    11.4410     7.8280    91.7810     2.5330     0.0840     0.0550
  706.0000   -42.8650    10.7010    11.3520     7.8620    90.7940     2.5350     0.0830     0.0550
  706.5000   -43.1500    10.5960    11.2640     7.8020    90.8130     2.5400     0.0810     0.0560
  707.0000   -43.4340    10.4920    11.1750     7.7900    91.4370     2.5440     0.0820     0.0560
  707.5000   -43.5860    10.3880    11.0870     7.7900    93.2550     2.5420     0.0840     0.0570
  708.0000   -43.5870    10.2840    10.9980     7.7900    93.3130     2.5400     0.0860     0.0580
  708.5000   -43.5870    10.1930    10.9090     7.7900    92.1590     2.5370     0.0880     0.0580
  709.0000   -43.5870    10.1480    10.8210     7.7900    91.0370     2.5350     0.0900     0.0590
  709.5000   -43.5870    10.1030    10.7320     7.7900    90.8560     2.5320     0.0890     0.0590
  710.0000   -43.5870    10.0590    10.6430     7.7900    90.7850     2.5330     0.0880     0.0600
  710.5000   -43.5870    10.0140    10.5550     7.7900    91.4310     2.5340     0.0880     0.0600
  711.0000   -43.5850     9.9690    10.4660     7.7900    92.1880     2.5350     0.0890     0.0610
  711.5000   -43.5880     9.9240    10.3780     7.7900    92.7880     2.5340     0.0890     0.0620
  712.0000   -44.3800     9.8800    10.2890     7.7900    92.6030     2.5330     0.0880     0.0620
  712.5000   -44.5890     9.8350    10.2000     7.7940    92.4350     2.5310     0.0850     0.0590
  713.0000   -44.6250     9.7900    10.1090     7.7990    92.2750     2.5350     0.0820     0.0560
  713.5000   -44.6580     9.7440    10.0230     7.8040    92.4660     2.5400     0.0790     0.0520
  714.0000   -44.6910     9.6710     9.9340     7.8090    93.6730     2.5440     0.0800     0.0490
  714.5000   -44.7240     9.5750     9.8450     7.8120    94.7540     2.5470     0.0830     0.0460
  715.0000   -44.7580     9.4780     9.7570     7.8150    94.0590     2.5460     0.0870     0.0460
  715.5000   -44.7910     9.3820     9.6680     7.8180    92.4630     2.5390     0.0900     0.0530
  716.0000   -44.8240     9.2860     9.5790     7.8200    92.0100     2.5320     0.0940     0.0590
  716.5000   -44.8580     9.1900     9.4900     7.8230    92.2090     2.5250     0.0960     0.0610
  717.0000   -44.8910     9.0940     9.4020     7.8250    96.6860     2.5190     0.0940     0.0640
  717.5000   -44.9240     8.9980     9.3130     7.8280    99.6780     2.5200     0.0930     0.0630
  718.0000   -44.9570     8.9020     9.2240     7.8280    97.9030     2.5240     0.0920     0.0610
  718.5000   -44.9910     8.8060     9.1350     7.8200    97.1980     2.5270     0.0890     0.0590
  719.0000   -45.0690     8.7100     9.0460     7.8120    97.9570     2.5300     0.0870     0.0540
  719.5000   -45.1480     8.6140     8.9580     7.8040    98.6410     2.5350     0.0840     0.0490
  720.0000   -45.4320     8.5180     8.8690     7.7960    99.1670     2.5400     0.0810     0.0470
  720.5000   -45.9800     8.4220     8.7800     7.7880    99.6580     2.5440     0.0800     0.0460
  721.0000   -46.0190     8.3260     8.6460     7.7810   100.9350     2.5430     0.0820     0.0450
  721.5000   -46.0390     8.2570     8.6610     7.7730   102.0990     2.5430     0.0830     0.0430
  722.0000   -46.0610     8.2760     8.6910     7.7650   102.2660     2.5430     0.0840     0.0420
  722.5000   -46.0840     8.2930     8.7220     7.7570   102.5910     2.5420     0.0890     0.0430
  723.0000   -46.1070     8.3100     8.7530     7.7560   103.8790     2.5400     0.0930     0.0440
  723.5000   -46.1300     8.3280     8.7840     7.7990   104.6890     2.5350     0.1020     0.0520
  724.0000   -46.1530     8.4650     8.8800     7.8100   102.3140     2.5190     0.1080     0.0600
  724.5000   -46.1760     8.7500     9.1620     7.7370   100.5500     2.5060     0.1000     0.0680
  725.0000   -46.1990     9.0350     9.4430     7.6660    98.9070     2.5120     0.0930     0.0670
  725.5000   -46.2220     9.3200     9.7250     7.6810    95.9140     2.5190     0.0860     0.0670
  726.0000   -46.2450     9.6050    10.0070     7.7340    93.3320     2.5300     0.0780     0.0660
  726.5000   -46.2680     9.8900    10.2890     7.7870    93.3890     2.5400     0.0810     0.0650
  727.0000   -46.2910    10.1090    10.3920     7.7410    94.8810     2.5460     0.0860     0.0660
  727.5000   -46.3140    10.2030    10.3920     7.6900    96.7740     2.5390     0.0910     0.0750
  728.0000   -46.3370    10.3920    10.5150     7.7480    96.7070     2.5300     0.0930     0.0980
  728.5000   -46.3600    10.3600    10.5800     7.8100    96.6310     2.5260     0.0870     0.1230
  729.0000   -46.3830    10.3210    10.6830     7.8430    97.6740     2.5270     0.0830     0.1470
  729.5000   -46.3930    10.2820    10.6770     7.8240   100.1480     2.5310     0.0780     0.1560
  730.0000   -46.3930    10.2430    10.6640     7.8050   100.3670     2.5430     0.0730     0.1510
  730.5000   -46.3930    10.2040    10.6500     7.7990   100.6370     2.5560     0.0690     0.1390
  731.0000   -46.3770    10.1660    10.6370     7.8490   100.4990     2.5620     0.0670     0.1080
  731.5000   -46.2810    10.1270    10.6230     7.8770    99.7040     2.5630     0.0670     0.0770
  732.0000   -46.1850    10.0880    10.6100     7.8030    98.9110     2.5650     0.0730     0.0520
  732.5000   -46.0900    10.0490    10.5960     7.7320    98.4770     2.5650     0.0830     0.0460
  733.0000   -45.9950    10.0170    10.5850     7.6910    98.2410     2.5550     0.0930     0.0460
  733.5000  -999.2500  -999.2500  -999.2500     7.6940    98.0390     2.5370     0.1030     0.0470
