~VERSION INFORMATION
 VERS.                2.0:   CWLS LOG ASCII STANDARD - VERSION 2.0
 WRAP.                 NO:   ONE LINE PER DEPTH STEP
~WELL INFORMATION
#MNEM.UNIT      DATA TYPE    INFORMATION
#----------   ------------   ------------------------------
 STRT.F           44.0000:   START DEPTH
 STOP.F          510.0000:   STOP DEPTH
 STEP.F            0.5000:   STEP LENGTH
 NULL.          -999.2500:   NO VALUE
 COMP. FENIX & SCISSON INC:   COMPANY
 WELL. NPR-3 76-SX-3 #76-3:   WELL
 FLD . TEAPOT DOME NPR #3:   FIELD
 LOC .       S3 T38N R78W:   LOCATION
 CNTY.            NATRONA:   COUNTY
 STAT.            WYOMING:   STATE
 CTRY. UNITED STATES OF AMERICA:   COUNTRY
 SRVC.            Unknown:   SERVICE COMPANY
 DATE.        13-OCT-1978:   LOGDATE
 API .       490251072300:   API NUMBER
~CURVE INFORMATION
#MNEM.UNIT       API CODE    CURVE DESCRIPTION
#----------   ------------   ------------------------------
 DEPT.F                  :   
 CALD.IN     45 280 60 00:   CALIPER
 RHOB.G/C3   45 350 01 00:   BULK DENSITY
 CORR.G/C3   45 356 01 00:   DENSITY CORRECTION
 SPR .MV     05 010 01 00:   SPONTANEOUS POTENTIAL FROM RES.
 SN  .OHMM   05 040 16 00:   SHORT NORMAL 16"
 ILD .OHMM   05 120 46 00:   INDUCTION LOG DEEP
 DPHI.DEC    45 890 12 00:   DENSITY POROSITY SANDSTONE
~PARAMETER INFORMATION
#MNEM.UNIT          VALUE    DESCRIPTION
#----------   ------------   ------------------------------
 PD  .                 GL:   PERMANENT DATUM
 EPD .F              5151:   ELEVATION PERMANENT DATUM
 LMF .                 KB:   LOG MEASURED FROM
 DAPD.F                 4:   FEET ABOVE PERMANENT DATUM
 DMF .                 KB:   DRILLING MEASURED FROM
 EKB .F              5155:   KELLING BUSHING
 EGL .F              5151:   GROUND LEVEL
 DATE.         10-13-1978:   RUN DATE
 RUN .                  1:   RUN NUMBER
 DD  .F               515:   DEPTH DRILLER
 DL  .F               517:   DEPTH LOGGER
 BLI .F               511:   BOTTOM LOG INTERVAL
 TLI .F                50:   TOP LOG INTERVAL
 CS  .IN            8.625:   CASING SIZE
 CBD .F                40:   CASING BOTTOM DRILLER
 BS  .IN            7.875:   BIT SIZE
 BSD .F               515:   BIT SIZE AT DEPTH
 DFT .                KCL:   DRILLING FLUID TYPE
 MSS .            MUD PIT:   MUD SAMPLE SOURCE
 RMS .OHMM             .2:   RESISTIVITY MUD SAMPLE
 MST .F                54:   MUD SAMPLE TEMPERATURE
 RMF .OHMM            .19:   RESISTIVITY MUD FILTRATE SAMPLE
 MFST.F                63:   MUD FILTRATE SAMPLE TEMPERATURE
 RMC .OHMM            .26:   RESISTIVITY MUD CAKE
 MCST.F                64:   MUD CAKE SAMPLE TEMPERATURE
 MFSS.               MEAS:   MUD FILTRATE SAMPLE SOURCE
 MCSS.               MEAS:   MUD CAKE SAMPLE SOURCE
 TCS .HRS               2:   TIME CURCULATED STOPPED
 LUN .               3006:   LOGGING UNIT NUMBER
 LUL .               CASP:   LOGGING UNIT LOCATION
 ENGI.             MILLER:   RECORDING ENGINEER
 WITN.           DINSMORE:   WITNESSED BY
 CLNT.            A2DTECH:   CLIENT CODE
 ORIG.           5" PRINT:   ORIGIN OF DATA
 UWI .       490251072300:   UNIQUE WELL ID
 DICO. A2D Technologies, Inc.:   DIGITIZING COMPANY
~OTHER INFORMATION
~A   DEPT     CALD       RHOB        CORR       SPR         SN        ILD         DPHI 
   44.0000  -999.2500  -999.2500    -0.0450  -999.2500  -999.2500  -999.2500     0.2938
   44.5000     7.9834  -999.2500     0.0230  -999.2500  -999.2500  -999.2500     0.2035
   45.0000     8.0517  -999.2500     0.0850  -999.2500  -999.2500  -999.2500     0.1502
   45.5000     8.1077     2.4221     0.1031  -999.2500  -999.2500  -999.2500     0.1275
   46.0000     8.1945     2.4593     0.1229  -999.2500  -999.2500  -999.2500     0.1137
   46.5000     8.2338     2.4665     0.1303  -999.2500  -999.2500  -999.2500     0.0999
   47.0000     8.1933     2.4633     0.1472  -999.2500  -999.2500  -999.2500     0.0870
   47.5000     8.3085     2.5041     0.1975  -999.2500  -999.2500  -999.2500     0.0774
   48.0000     8.1844     2.5384     0.2205  -999.2500  -999.2500  -999.2500     0.0781
   48.5000     7.9921     2.5426     0.2231  -999.2500     4.2173  -999.2500     0.0805
   49.0000     7.8283     2.5408     0.2062    -9.0517     5.0296     4.7537     0.0851
   49.5000     7.6951     2.5337     0.1809    -9.6611     5.2364     4.9321     0.0950
   50.0000     7.5612     2.5195     0.1338   -10.2704     6.3075     5.4595     0.1049
   50.5000     7.4804     2.5049     0.0865   -10.7818     6.2975     5.9603     0.1150
   51.0000     7.4227     2.4904     0.0690   -10.8175     6.4511     6.2922     0.1184
   51.5000     7.4140     2.4771     0.0689   -10.8175     6.5546     6.4005     0.1194
   52.0000     7.4486     2.4767     0.0719   -11.0369     6.6611     6.5107     0.1204
   52.5000     7.4836     2.4760     0.0746   -11.7372     6.7769     6.6228     0.1184
   53.0000     7.5360     2.4755     0.0874   -12.2088     6.7897     6.6532     0.1104
   53.5000     7.6988     2.4840     0.1091   -12.1955     6.8073     6.6532     0.1023
   54.0000     7.8613     2.5006     0.1422   -12.4555     6.8247     6.6532     0.0971
   54.5000     7.9741     2.5110     0.1954   -12.7875     6.8423     6.6532     0.0927
   55.0000     7.9719     2.5200     0.2515   -13.1197     6.8599     6.6540     0.0806
   55.5000     7.9725     2.5294     0.3102   -13.5885     6.8776     6.5131     0.0569
   56.0000     7.9311     2.5540     0.4045   -13.7863     6.8953     6.3696     0.0030
   56.5000     7.8565     2.6077     0.5032   -13.7901     6.9131     6.2293    -0.0534
   57.0000     7.7819     2.6703     0.5683   -13.7901     6.9309     6.0923    -0.0305
   57.5000     7.7019     2.7486     0.5458   -13.7897     6.9488     5.9570     0.0108
   58.0000     7.6131     2.7117     0.4325   -13.7897     6.9664     5.7688     0.0522
   58.5000     7.5241     2.6461     0.3130   -13.7897     6.9467     5.5847     0.0935
   59.0000     7.4326     2.5808     0.1947   -13.7897     6.9265     5.4065     0.1320
   59.5000     7.4440     2.5154     0.1324   -13.7897     6.9029     5.2364     0.1566
   60.0000     7.4805     2.4499     0.1170   -13.7897     6.9319     5.3734     0.1722
   60.5000     7.5181     2.3993     0.1170   -13.7890     6.9668     5.5121     0.1612
   61.0000     7.5518     2.4083     0.1153   -13.7893     7.0882     5.6543     0.1501
   61.5000     7.4916     2.4260     0.1108   -13.7969     7.2086     5.7947     0.1389
   62.0000     7.4272     2.4443     0.1031   -14.1587     7.3311     6.1264     0.1277
   62.5000     7.3867     2.4626     0.0910   -14.9042     7.4994     6.4640     0.1194
   63.0000     7.4592     2.4812     0.0785   -14.9434     7.4942     6.8203     0.1154
   63.5000     7.5447     2.4859     0.0658   -14.8987     7.4849     7.1886     0.1122
   64.0000     7.7000     2.4860     0.0624   -14.8532     7.4759     7.5544     0.1136
   64.5000     7.8549     2.4843     0.0693   -14.8132     7.4670     7.9399     0.1201
   65.0000     7.9261     2.4765     0.0758   -14.9607     7.4581     8.1490     0.1266
   65.5000     7.9501     2.4684     0.0847   -15.5122     7.4493     8.1056     0.1278
   66.0000     7.9724     2.4666     0.1473   -15.9856     7.4404     8.0729     0.1126
   66.5000     7.9517     2.4721     0.2637   -16.0101     7.4307     7.8793     0.0651
   67.0000     7.9220     2.4789     0.3792   -16.0466     7.5645     7.7060     0.0062
   67.5000     7.8707     2.5736     0.4936   -16.0845     7.7162     7.5366    -0.0442
   68.0000     7.8028     2.6660     0.5625   -16.1225     7.8709     7.3708    -0.0146
   68.5000     7.6614     2.7369     0.4820   -16.1604     8.0287     7.2201     0.0207
   69.0000     7.5230     2.6851     0.3883   -16.1984     8.0729     7.1539     0.0559
   69.5000     7.3847     2.6260     0.2949   -16.2364     8.0729     7.0964     0.0912
   70.0000     7.2462     2.5667     0.2014   -16.2744     8.0729     7.3040     0.1265
   70.5000     7.1132     2.5075     0.1075   -16.3123     8.0727     7.4926     0.1454
   71.0000     7.1036     2.4480     0.0852   -16.3503     8.0730     7.6855     0.1386
   71.5000     7.2325     2.4469     0.0740   -16.3883     8.1293     7.8710     0.1311
   72.0000     7.4058     2.4544     0.0631   -16.4263     8.2331     7.9777     0.1241
   72.5000     7.5951     2.4621     0.0548   -16.4643     8.3377     8.0871     0.1186
   73.0000     7.7165     2.4696     0.0559   -16.5023     8.4438     8.2230     0.1247
   73.5000     7.8126     2.4705     0.0564   -16.5401     8.5316     8.1902     0.1338
   74.0000     7.9055     2.4580     0.0771   -16.5680     8.4732     8.1481     0.1390
   74.5000     7.9504     2.4492     0.1035   -16.5675     8.3993     8.1063     0.0986
   75.0000     7.9421     2.4526     0.2523   -16.5675     8.3260     8.0648     0.0346
   75.5000     7.9322     2.5311     0.4082   -16.5675     8.2533     8.0245    -0.0586
   76.0000     7.8027     2.6398     0.5559   -16.5675     8.1813     7.9012    -0.0289
   76.5000     7.6400     2.7580     0.5723   -16.5675     8.1098     7.6701     0.0133
   77.0000     7.3690     2.7596     0.4482   -16.5675     8.0389     7.4450     0.0555
   77.5000     7.2389     2.6478     0.3341   -16.5675     7.9923     7.3626     0.0976
   78.0000     7.2363     2.5631     0.2196   -16.5675     7.9769     7.3626     0.1398
   78.5000     7.2469     2.4782     0.0989   -16.5675     7.9615     7.7096     0.1594
   79.0000     7.3313     2.4212     0.1008   -16.5675     7.9461     7.7033     0.1409
   79.5000     7.4160     2.4458     0.1042   -16.5675     7.9308     7.6959     0.1312
   80.0000     7.5403     2.4666     0.0818   -16.5675     7.9155     7.6884     0.1262
   80.5000     7.6985     2.4694     0.0645   -16.5675     7.9003     7.6810     0.1276
   81.0000     7.8419     2.4656     0.0762   -16.5675     7.8850     7.6736     0.1292
   81.5000     7.8766     2.4617     0.1014   -16.5675     7.8699     7.6662     0.1207
   82.0000     7.8923     2.4634     0.1839   -16.5676     7.8530     7.6588     0.0844
   82.5000     7.8932     2.4802     0.3041   -16.5673     7.8562     7.6517    -0.0226
   83.0000     7.8363     2.5535     0.4242   -16.5689     7.8609     7.6442    -0.0042
   83.5000     7.7190     2.6435     0.5261   -16.4666     7.8657     7.6255     0.0284
   84.0000     7.5686     2.6983     0.3216   -16.3102     7.8705     7.4921     0.0611
   84.5000     7.4191     2.5901     0.2634   -16.1522     7.8752     7.3607     0.0938
   85.0000     7.2922     2.5494     0.1939   -15.9942     7.8800     7.2309     0.1210
   85.5000     7.2620     2.4795     0.1259   -15.8362     7.8848     7.0969     0.1206
   86.0000     7.3130     2.4754     0.0870   -15.6774     7.8895     7.1931     0.1203
   86.5000     7.4080     2.4778     0.0694   -15.5164     7.8943     7.2991     0.1168
   87.0000     7.5037     2.4868     0.0634   -15.3991     7.8991     7.4067     0.1125
   87.5000     7.5996     2.4973     0.0579   -15.8218     7.9039     7.5054     0.1082
   88.0000     7.6963     2.5045     0.0593   -16.2381     7.9087     7.5457     0.1038
   88.5000     7.7367     2.5084     0.0620   -16.6678     7.9135     7.5861     0.1015
   89.0000     7.7653     2.5069     0.0649   -16.7161     7.9183     7.6268     0.0997
