~VERSION INFORMATION
 VERS.                2.0:   CWLS LOG ASCII STANDARD - VERSION 2.0
 WRAP.                 NO:   ONE LINE PER DEPTH STEP
~WELL INFORMATION
#MNEM.UNIT      DATA TYPE    INFORMATION
#----------   ------------   ------------------------------
 STRT.F           22.0000:   START DEPTH
 STOP.F          533.0000:   STOP DEPTH
 STEP.F            0.5000:   STEP LENGTH
 NULL.          -999.2500:   NO VALUE
 COMP. FENIX & SCISSON INC:   COMPANY
 WELL.        NPR 3 #32-3:   WELL
 FLD .        TEAPOT DOME:   FIELD
 LOC .       S3 T38N R78W:   LOCATION
 CNTY.            NATRONA:   COUNTY
 STAT.            WYOMING:   STATE
 CTRY. UNITED STATES OF AMERICA:   COUNTRY
 SRVC.            Unknown:   SERVICE COMPANY
 DATE.        19-JUL-1978:   LOGDATE
 API .       490251067200:   API NUMBER
~CURVE INFORMATION
#MNEM.UNIT       API CODE    CURVE DESCRIPTION
#----------   ------------   ------------------------------
 DEPT.F                  :   
 SPR .MV     05 010 01 00:   SPONTANEOUS POTENTIAL FROM RES.
 SN  .OHMM   05 040 16 00:   SHORT NORMAL 16"
 IL  .OHMM   05 120 00 00:   INDUCTION LOG
 RHOB.G/C3   45 350 01 00:   BULK DENSITY
 DPHI.DEC    45 890 12 00:   DENSITY POROSITY SANDSTONE
 CORR.G/C3   45 356 01 00:   DENSITY CORRECTION
 CALD.IN     45 280 60 00:   CALIPER
 GRD .GAPI   45 310 01 00:   GAMMA RAY FROM DENSITY LOG
~PARAMETER INFORMATION
#MNEM.UNIT          VALUE    DESCRIPTION
#----------   ------------   ------------------------------
 PD  .                 GL:   PERMANENT DATUM
 EPD .F              5179:   ELEVATION PERMANENT DATUM
 LMF .                 KB:   LOG MEASURED FROM
 DAPD.F                 4:   FEET ABOVE PERMANENT DATUM
 DMF .                 KB:   DRILLING MEASURED FROM
 EKB .F              5183:   KELLING BUSHING
 EGL .F              5179:   GROUND LEVEL
 DATE.            7-19-78:   RUN DATE
 RUN .                  1:   RUN NUMBER
 DD  .F               520:   DEPTH DRILLER
 DL  .F               533:   DEPTH LOGGER
 BLI .F               527:   BOTTOM LOG INTERVAL
 TLI .F                50:   TOP LOG INTERVAL
 CS  .IN            8.625:   CASING SIZE
 CBD .F                40:   CASING BOTTOM DRILLER
 BS  .IN            7.875:   BIT SIZE
 BSD .F               520:   BIT SIZE AT DEPTH
 DFT .                KCL:   DRILLING FLUID TYPE
 DFD .                8.7:   DRILLING FLUID DENSITY
 DFV .                 33:   DRILLING FLUID VISCOSITY
 DFPH.                  9:   DRILLING FLUID PH
 DFL .               12.4:   DRILLING FLUID LOSS
 MSS .          FLOW LINE:   MUD SAMPLE SOURCE
 RMS .OHMM            .28:   RESISTIVITY MUD SAMPLE
 MST .F                70:   MUD SAMPLE TEMPERATURE
 RMF .OHMM            .24:   RESISTIVITY MUD FILTRATE SAMPLE
 MFST.F                76:   MUD FILTRATE SAMPLE TEMPERATURE
 RMC .OHMM             .5:   RESISTIVITY MUD CAKE
 MCST.F                78:   MUD CAKE SAMPLE TEMPERATURE
 MFSS.               MEAS:   MUD FILTRATE SAMPLE SOURCE
 MCSS.               MEAS:   MUD CAKE SAMPLE SOURCE
 TCS .HRS               2:   TIME CURCULATED STOPPED
 LUN .               2958:   LOGGING UNIT NUMBER
 LUL .               CASP:   LOGGING UNIT LOCATION
 ENGI.             MILLER:   RECORDING ENGINEER
 WITN.           MCGINLEY:   WITNESSED BY
 CLNT.            A2DTECH:   CLIENT CODE
 ORIG.           5" PRINT:   ORIGIN OF DATA
 UWI .       490251067200:   UNIQUE WELL ID
 DICO. A2D Technologies, Inc.:   DIGITIZING COMPANY
~OTHER INFORMATION
~A   DEPT      SPR         SN         IL       RHOB       DPHI       CORR       CALD         GRD  
   22.0000  -999.2500  -999.2500  -999.2500  -999.2500  -999.2500  -999.2500  -999.2500    57.0040
   22.5000  -999.2500  -999.2500  -999.2500  -999.2500  -999.2500  -999.2500  -999.2500    57.0040
   23.0000  -999.2500  -999.2500  -999.2500  -999.2500  -999.2500  -999.2500  -999.2500    57.0040
   23.5000  -999.2500  -999.2500  -999.2500  -999.2500  -999.2500  -999.2500  -999.2500    57.0040
   24.0000  -999.2500  -999.2500  -999.2500  -999.2500  -999.2500  -999.2500  -999.2500    57.0040
   24.5000  -999.2500  -999.2500  -999.2500  -999.2500  -999.2500  -999.2500  -999.2500    57.0040
   25.0000  -999.2500  -999.2500  -999.2500  -999.2500  -999.2500  -999.2500  -999.2500    57.0040
   25.5000  -999.2500  -999.2500  -999.2500  -999.2500  -999.2500  -999.2500  -999.2500    57.0034
   26.0000  -999.2500  -999.2500  -999.2500  -999.2500  -999.2500  -999.2500  -999.2500    56.9662
   26.5000  -999.2500  -999.2500  -999.2500  -999.2500  -999.2500  -999.2500  -999.2500    56.8778
   27.0000  -999.2500  -999.2500  -999.2500  -999.2500  -999.2500  -999.2500  -999.2500    56.7894
   27.5000  -999.2500  -999.2500  -999.2500  -999.2500  -999.2500  -999.2500  -999.2500    56.7014
   28.0000  -999.2500  -999.2500  -999.2500  -999.2500  -999.2500  -999.2500  -999.2500    56.6277
   28.5000  -999.2500  -999.2500  -999.2500  -999.2500  -999.2500  -999.2500  -999.2500    57.3739
   29.0000  -999.2500  -999.2500  -999.2500  -999.2500  -999.2500  -999.2500  -999.2500    56.0363
   29.5000  -999.2500  -999.2500  -999.2500  -999.2500  -999.2500  -999.2500  -999.2500    55.0234
   30.0000  -999.2500  -999.2500  -999.2500  -999.2500  -999.2500  -999.2500  -999.2500    55.3648
   30.5000  -999.2500  -999.2500  -999.2500  -999.2500  -999.2500  -999.2500  -999.2500    55.7303
   31.0000  -999.2500  -999.2500  -999.2500  -999.2500  -999.2500  -999.2500  -999.2500    56.0209
   31.5000  -999.2500  -999.2500  -999.2500  -999.2500  -999.2500  -999.2500  -999.2500    56.0747
   32.0000  -999.2500  -999.2500  -999.2500  -999.2500  -999.2500  -999.2500  -999.2500    56.1356
   32.5000  -999.2500  -999.2500  -999.2500  -999.2500  -999.2500  -999.2500  -999.2500    56.1968
   33.0000  -999.2500  -999.2500  -999.2500  -999.2500  -999.2500  -999.2500  -999.2500    56.2591
   33.5000  -999.2500  -999.2500  -999.2500  -999.2500  -999.2500  -999.2500  -999.2500    56.3187
   34.0000  -999.2500  -999.2500  -999.2500  -999.2500  -999.2500  -999.2500  -999.2500    56.3841
   34.5000  -999.2500  -999.2500  -999.2500  -999.2500  -999.2500  -999.2500  -999.2500    55.5131
   35.0000  -999.2500  -999.2500  -999.2500  -999.2500  -999.2500  -999.2500  -999.2500    53.8689
   35.5000  -999.2500  -999.2500  -999.2500  -999.2500  -999.2500  -999.2500  -999.2500    52.8820
   36.0000  -999.2500  -999.2500  -999.2500  -999.2500  -999.2500  -999.2500  -999.2500    55.1680
   36.5000  -999.2500  -999.2500  -999.2500  -999.2500  -999.2500  -999.2500  -999.2500    56.8512
   37.0000  -999.2500  -999.2500  -999.2500  -999.2500  -999.2500  -999.2500  -999.2500    58.0937
   37.5000  -999.2500  -999.2500  -999.2500  -999.2500  -999.2500  -999.2500  -999.2500    59.3243
   38.0000  -999.2500  -999.2500  -999.2500  -999.2500  -999.2500  -999.2500  -999.2500    60.2311
   38.5000  -999.2500  -999.2500  -999.2500  -999.2500  -999.2500  -999.2500  -999.2500    59.5991
   39.0000  -999.2500  -999.2500  -999.2500  -999.2500  -999.2500  -999.2500  -999.2500    57.9827
   39.5000  -999.2500  -999.2500  -999.2500  -999.2500  -999.2500  -999.2500  -999.2500    56.3725
   40.0000  -999.2500  -999.2500  -999.2500  -999.2500  -999.2500  -999.2500  -999.2500    55.2030
   40.5000  -999.2500  -999.2500  -999.2500  -999.2500  -999.2500  -999.2500  -999.2500    55.1969
   41.0000  -999.2500  -999.2500  -999.2500  -999.2500  -999.2500  -999.2500  -999.2500    55.9771
   41.5000  -999.2500  -999.2500  -999.2500  -999.2500  -999.2500  -999.2500  -999.2500    56.9139
   42.0000  -999.2500  -999.2500  -999.2500     2.1106     0.2822     0.0155     7.7063    59.7983
   42.5000  -999.2500  -999.2500  -999.2500     2.3671     0.2289     0.0295     7.8518    68.5976
   43.0000  -999.2500  -999.2500  -999.2500     2.3980     0.1615     0.0315     7.7679    77.5555
   43.5000  -999.2500  -999.2500  -999.2500     2.4168     0.1371     0.0435     7.7693    82.5716
   44.0000  -999.2500  -999.2500  -999.2500     2.4355     0.1281     0.0452     7.7716    81.9936
   44.5000  -999.2500  -999.2500  -999.2500     2.4544     0.1208     0.0468     7.7742    80.3313
   45.0000   -18.7926  -999.2500  -999.2500     2.4702     0.1228     0.0483     7.7768    76.1157
   45.5000   -19.8693  -999.2500  -999.2500     2.4797     0.1216     0.0464     7.7794    71.8230
   46.0000   -22.2852     2.6149     6.8888     2.4831     0.1217     0.0369     7.7820    67.4257
   46.5000   -24.2039     9.2036     7.5615     2.4781     0.1269     0.0274     7.7846    66.2756
   47.0000   -25.3622     9.6820     8.1550     2.4711     0.1333     0.0217     7.7872    68.8190
   47.5000   -26.4168     9.8032     7.5968     2.4576     0.1372     0.0186     7.7898    72.0282
   48.0000   -26.5687     7.7789     7.2678     2.4622     0.1268     0.0156     7.7923    75.2317
   48.5000   -26.4648     7.9408     7.1969     2.4672     0.1333     0.0125     7.7949    77.1782
   49.0000   -25.4021     8.0723     7.1266     2.4701     0.1354     0.0120     7.7975    76.7239
   49.5000   -23.9915     7.9040     7.0571     2.4655     0.1358     0.0132     7.8001    75.9543
   50.0000   -22.5505     7.7145     7.0356     2.4575     0.1400     0.0144     7.8028    75.2553
   50.5000   -22.4633     7.5296     7.0356     2.4494     0.1453     0.0156     7.8054    75.5286
   51.0000   -22.4719     7.2983     7.0150     2.4415     0.1444     0.0168     7.8029    77.8379
   51.5000   -22.4769     7.4019     6.8326     2.4367     0.1444     0.0180     7.7659    79.7902
   52.0000   -22.6458     7.5496     6.6549     2.4418     0.1455     0.0193     7.7288    79.1211
   52.5000   -23.2052     7.7108     6.4808     2.4426     0.1505     0.0183     7.6919    78.4831
   53.0000   -24.0392     7.5619     6.3038     2.4357     0.1531     0.0167     7.6548    78.2010
   53.5000   -25.1205     7.3654     6.3604     2.4292     0.1507     0.0153     7.6179    79.6749
   54.0000   -26.1406     7.5088     6.4224     2.4327     0.1483     0.0143     7.5886    81.4732
   54.5000   -26.6558     7.7061     6.4851     2.4372     0.1460     0.0132     7.5892    83.1873
   55.0000   -27.1934     7.9075     6.5502     2.4416     0.1484     0.0122     7.5893    81.4107
   55.5000   -27.4342     8.0351     6.6261     2.4434     0.1455     0.0112     7.5893    78.6812
   56.0000   -27.4599     8.0891     6.7029     2.4404     0.1496     0.0102     7.5893    78.0344
   56.5000   -27.4816     8.1927     6.7807     2.4375     0.1484     0.0104     7.5892    78.4189
   57.0000   -27.5029     8.2974     6.8594     2.4346     0.1549     0.0135     7.6118    77.8300
   57.5000   -27.5245     8.2974     6.9385     2.4316     0.1583     0.0181     7.6553    77.9449
   58.0000   -27.5462     8.2974     6.9826     2.4287     0.1533     0.0263     7.6989    78.8841
   58.5000   -27.5680     8.0805     7.0015     2.4314     0.1492     0.0344     7.7425    79.8329
   59.0000   -27.5897     7.8684     7.0206     2.4408     0.1440     0.0398     7.7861    80.3702
   59.5000   -27.6098     7.6619     7.0356     2.4501     0.1379     0.0404     7.8297    79.6300
   60.0000   -27.5458     7.4608     7.0730     2.4594     0.1319     0.0411     7.8729    78.3175
   60.5000   -27.3546     7.2317     7.1102     2.4688     0.1272     0.0432     7.9124    77.0435
   61.0000   -27.1654     7.2899     7.1475     2.4737     0.1227     0.0472     7.9261    76.1548
   61.5000   -26.9754     7.3610     7.1851     2.4831     0.1096     0.0455     7.9267    75.2939
   62.0000   -26.7831     7.4328     7.2228     2.4965     0.1144     0.0368     7.9266    73.6214
