~VERSION INFORMATION
 VERS.                2.0:   CWLS LOG ASCII STANDARD - VERSION 2.0
 WRAP.                 NO:   ONE LINE PER DEPTH STEP
~WELL INFORMATION
#MNEM.UNIT      DATA TYPE    INFORMATION
#----------   ------------   ------------------------------
 STRT.F            2.0000:   START DEPTH
 STOP.F          602.0000:   STOP DEPTH
 STEP.F            0.1000:   STEP LENGTH
 NULL.          -999.2500:   NO VALUE
 COMP.       F D SERV INC:   COMPANY
 WELL.    63-1 SX-3 #63-3:   WELL
 FLD .             TEAPOT:   FIELD
 LOC .       S3 T38N R78W:   LOCATION
 CNTY.            NATRONA:   COUNTY
 STAT.            WYOMING:   STATE
 CTRY. UNITED STATES OF AMERICA:   COUNTRY
 SRVC.     Atlas Wireline:   SERVICE COMPANY
 DATE.        20-APR-1992:   LOGDATE
 API .       490252251300:   API NUMBER
~CURVE INFORMATION
#MNEM.UNIT       API CODE    CURVE DESCRIPTION
#----------   ------------   ------------------------------
 DEPT.F                  :   
 GRR .GAPI   07 310 01 00:   GAMMA RAY
 RILD.OHMM   07 120 46 00:   INDUCTION LOG DEEP RESISTIVITY
 RILM.OHMM   07 120 44 00:   INDUCTION LOG MEDIUM RESISTIVITY
~PARAMETER INFORMATION
#MNEM.UNIT          VALUE    DESCRIPTION
#----------   ------------   ------------------------------
 PD  .                 GL:   PERMANENT DATUM
 EPD .F              5176:   ELEVATION PERMANENT DATUM
 LMF .                 KB:   LOG MEASURED FROM
 DAPD.F                 5:   FEET ABOVE PERMANENT DATUM
 DMF .                 KB:   DRILLING MEASURED FROM
 EKB .F              5181:   KELLING BUSHING
 EDF .F              5180:   DRILLING FLOOR
 EGL .F              5176:   GROUND LEVEL
 DATE.        20-APR-1992:   RUN DATE
 RUN .                  1:   RUN NUMBER
 DD  .F               608:   DEPTH DRILLER
 DL  .F               608:   DEPTH LOGGER
 BLI .F               602:   BOTTOM LOG INTERVAL
 CS  .IN            8.625:   CASING SIZE
 CBD .F                48:   CASING BOTTOM DRILLER
 CBL .F                50:   CASING BOTTOM LOGGER
 BS  .IN            7.875:   BIT SIZE
 BSD .F               608:   BIT SIZE AT DEPTH
 DFT .                AIR:   DRILLING FLUID TYPE
 TCS .HRS               2:   TIME CURCULATED STOPPED
 MRT .F                85:   MAXIMUM RECORDED TEMPERATURE
 LUN .           HL- 6274:   LOGGING UNIT NUMBER
 LUL .             CASPER:   LOGGING UNIT LOCATION
 ENGI.             RAUTIO:   RECORDING ENGINEER
 WITN.        GARY STRONG:   WITNESSED BY
 CLNT.            A2DTECH:   CLIENT CODE
 ORIG.           5" PRINT:   ORIGIN OF DATA
 UWI .       490252251300:   UNIQUE WELL ID
 DICO. A2D Technologies, Inc.:   DIGITIZING COMPANY
~OTHER INFORMATION
~A    DEPT      GRR      RILD       RILM   
# ...
  329.6000   152.4759     5.0898     4.9811
  329.7000   152.2335     5.0896     5.0096
  329.8000   151.8765     5.0669     5.0489
  329.9000   151.3899     5.0539     5.1066
  330.0000   150.9036     5.0444     5.1698
  330.1000   149.9296     5.0184     5.1697
  330.2000   148.5814     5.0182     5.1696
  330.3000   147.3780     5.0181     5.1696
  330.4000   146.4037     5.0179     5.1625
  330.5000   145.4442     5.0178     5.1330
  330.6000   144.5876     5.0177     5.1038
  330.7000   143.9839     5.0175     5.0975
  330.8000   142.8199     5.0173     5.0975
  330.9000   141.7064     5.0172     5.0877
  331.0000   141.2799     5.0319     5.0588
  331.1000   141.8842     5.0522     5.0265
  331.2000   142.3192     5.0520     5.0518
  331.3000   142.8087     5.0519     5.0806
  331.4000   143.5030     5.0759     5.0971
  331.5000   144.4351     5.0871     5.1028
  331.6000   145.2049     5.0981     5.1326
  331.7000   146.3661     5.1271     5.1611
  331.8000   147.4129     5.1583     5.2128
  331.9000   148.6254     5.1581     5.3042
  332.0000   149.9698     5.1997     5.4078
  332.1000   150.9352     5.2592     5.4740
  332.2000   150.9368     5.3116     5.6203
  332.3000   150.5588     5.3418     5.7019
  332.4000   149.8071     5.3722     5.8001
  332.5000   148.6817     5.3783     5.8868
  332.6000   147.1475     5.3781     5.9431
  332.7000   144.3180     5.3779     5.8605
  332.8000   143.0901     5.3778     5.7678
  332.9000   141.7759     5.3777     5.6700
  333.0000   140.6479     5.3776     5.5289
  333.1000   139.7062     5.3774     5.3578
  333.2000   138.9038     5.3772     5.2368
  333.3000   138.6852     5.3771     5.0957
  333.4000   138.6054     5.3769     5.0037
  333.5000   138.7123     5.3767     4.9551
  333.6000   139.0058     5.3766     4.9354
  333.7000   139.5136     5.3765     4.8862
  333.8000   140.2203     5.3764     4.8861
  333.9000   141.3093     5.3762     4.8860
  334.0000   142.5302     5.3760     4.8859
  334.1000   143.7513     5.3759     4.8859
  334.2000   144.9610     5.3757     4.8980
  334.3000   145.6941     5.3755     4.9545
  334.4000   146.6207     5.3754     4.9544
  334.5000   147.4626     5.3753     4.9760
  334.6000   148.2742     5.3751     5.0044
  334.7000   149.2307     5.3750     5.0240
  334.8000   150.0725     5.3748     5.0288
  334.9000   150.6972     5.3747     5.0945
  335.0000   151.2802     5.3745     5.1447
  335.1000   151.7696     5.3743     5.1848
  335.2000   152.2589     5.3993     5.2143
  335.3000   152.7908     5.4118     5.2440
  335.4000   152.7921     5.4228     5.2753
  335.5000   152.7936     5.4495     5.3040
  335.6000   152.7952     5.4493     5.3564
  335.7000   152.5917     5.4492     5.3869
  335.8000   151.5934     5.4490     5.3952
  335.9000   149.6910     5.4630     5.4259
  336.0000   148.1025     5.4941     5.4624
  336.1000   146.8875     5.5253     5.4624
  336.2000   146.0455     5.5251     5.4995
  336.3000   145.5588     5.5250     5.5507
  336.4000   144.9762     5.5422     5.5824
  336.5000   144.5860     5.5634     5.6169
  336.6000   144.2380     5.5663     5.6758
  336.7000   143.9955     5.6021     5.7182
  336.8000   143.7770     5.6299     5.7508
  336.9000   143.7788     5.6620     5.7914
  337.0000   143.7801     5.7078     5.8570
  337.1000   143.7816     5.7731     5.8569
  337.2000   143.6867     5.8414     5.9094
  337.3000   143.4832     5.9060     5.9770
  337.4000   143.4850     5.9735     6.0454
  337.5000   143.2606     6.0419     6.1110
  337.6000   143.1868     6.1210     6.1501
  337.7000   142.9653     6.2241     6.1808
  337.8000   142.4790     6.3074     6.2392
  337.9000   141.9865     6.3675     6.2953
  338.0000   141.5060     6.4181     6.3312
  338.1000   139.9166     6.4686     6.3684
  338.2000   137.7132     6.5426     6.4391
  338.3000   135.8298     6.6230     6.4853
  338.4000   135.3674     6.6932     6.5223
  338.5000   135.3693     6.7427     6.5704
  338.6000   135.3705     6.7811     6.6455
  338.7000   135.3720     6.8294     6.7340
  338.8000   135.3735     6.9058     6.7662
  338.9000   135.3750     6.9056     6.8047
  339.0000   135.3767     6.9055     6.8435
  339.1000   135.3781     6.9277     6.8825
  339.2000   135.2228     6.9535     6.9244
  339.3000   134.9803     6.9534     6.9242
  339.4000   134.7799     6.9531     6.9241
  339.5000   134.7817     6.9530     6.9241
  339.6000   134.3253     6.9527     6.9240
  339.7000   134.0106     6.9354     6.9219
  339.8000   133.7681     6.9039     6.8435
  339.9000   133.5255     6.9037     6.8276
  340.0000   133.2831     6.8268     6.8053
  340.1000   133.0406     6.7493     6.7665
  340.2000   133.1717     6.7127     6.7326
  340.3000   133.5467     6.6896     6.7325
  340.4000   134.0361     6.6135     6.6643
  340.5000   134.5559     6.5270     6.5887
  340.6000   135.7021     6.4022     6.4979
  340.7000   136.7126     6.2797     6.3876
  340.8000   137.7894     6.1730     6.2776
  340.9000   138.4171     6.0738     6.1728
  341.0000   138.3887     6.0007     6.0681
  341.1000   138.1192     5.9365     5.9474
  341.2000   137.9037     5.8691     5.8232
  341.3000   137.5015     5.7864     5.7217
  341.4000   137.0150     5.6713     5.5740
  341.5000   136.5738     5.5123     5.4933
  341.6000   136.3194     5.3646     5.3812
  341.7000   136.0888     5.3152     5.2133
  341.8000   136.0211     5.2375     4.9993
  341.9000   136.1400     5.1485     4.8806
  342.0000   136.4457     5.0609     4.8282
  342.1000   136.9381     4.9667     4.7734
  342.2000   137.6718     4.9410     4.7325
  342.3000   138.4051     4.9128     4.7055
  342.4000   139.1386     4.8848     4.6799
  342.5000   139.9476     4.8631     4.7126
  342.6000   140.9609     4.8629     4.7125
  342.7000   142.6614     4.8627     4.7125
  342.8000   143.8918     4.8626     4.7222
  342.9000   144.7664     4.8777     4.7454
  343.0000   145.0753     4.9054     4.7453
  343.1000   145.0768     4.9307     4.7452
  343.2000   145.0785     4.9305     4.7637
  343.3000   145.0798     4.9304     4.7909
  343.4000   144.7560     4.9483     4.8119
  343.5000   144.1640     4.9765     4.8118
  343.6000   143.3369     4.9995     4.8117
  343.7000   142.0739     4.9993     4.8330
  343.8000   140.1966     5.0266     4.8605
  343.9000   139.3118     5.0552     4.8792
  344.0000   138.8253     5.0693     4.8847
  344.1000   138.4654     5.0855     4.9477
  344.2000   138.4729     5.1436     4.9477
  344.3000   138.7183     5.2126     4.9659
  344.4000   138.9638     5.2372     4.9942
  344.5000   139.2093     5.0877     5.0281
  344.6000   139.4548     5.1851     5.0876
  344.7000   139.7216     5.2700     5.1156
  344.8000   140.2834     5.3549     5.1886
  344.9000   140.4924     5.4399     5.2624
  345.0000   140.7379     5.5248     5.3314
  345.1000   140.9835     5.6097     5.4255
  345.2000   141.2289     5.6946     5.5571
  345.3000   141.4956     5.7795     5.6790
  345.4000   141.4970     5.8645     5.8009
  345.5000   141.3328     5.9494     5.9228
  345.6000   140.9817     6.0343     6.0447
  345.7000   140.3417     6.1192     6.1667
  345.8000   139.0934     6.2041     6.2886
  345.9000   136.2391     6.2891     6.4105
  346.0000   133.6748     6.3740     6.5324
  346.1000   130.9893     6.4287     6.6543
  346.2000   128.7921     6.4802     6.7888
  346.3000   128.5497     6.5544     6.8235
  346.4000   128.2593     6.6334     6.8890
  346.5000   128.2605     6.7055     6.9679
  346.6000   128.1236     6.7824     7.0476
  346.7000   127.9624     6.8405     7.1283
  346.8000   127.9639     6.8903     7.2099
  346.9000   127.9656     6.9691     7.2926
  347.0000   128.1778     7.0633     7.3524
  347.1000   128.2696     7.1298     7.3942
  347.2000   128.4638     7.1869     7.4414
  347.3000   128.9141     7.2433     7.5355
  347.4000   129.1778     7.3262     7.5354
  347.5000   129.4050     7.4169     7.5934
  347.6000   129.6506     7.4558     7.6408
  347.7000   129.8961     7.4984     7.6505
