~VERSION INFORMATION
 VERS.                2.0:   CWLS LOG ASCII STANDARD - VERSION 2.0
 WRAP.                 NO:   ONE LINE PER DEPTH STEP
~WELL INFORMATION
#MNEM.UNIT      DATA TYPE    INFORMATION
#----------   ------------   ------------------------------
 STRT.F            0.0000:   START DEPTH
 STOP.F          419.0000:   STOP DEPTH
 STEP.F            0.5000:   STEP LENGTH
 NULL.          -999.2500:   NO VALUE
 COMP.       F D SERV INC:   COMPANY
 WELL.   63-4 SX-1 #63-10:   WELL
 FLD .             TEAPOT:   FIELD
 LOC .      S10 T38N R78W:   LOCATION
 CNTY.            NATRONA:   COUNTY
 STAT.            WYOMING:   STATE
 CTRY. UNITED STATES OF AMERICA:   COUNTRY
 SRVC.            Unknown:   SERVICE COMPANY
 DATE.        05-JAN-1992:   LOGDATE
 API .       490252257000:   API NUMBER
~CURVE INFORMATION
#MNEM.UNIT       API CODE    CURVE DESCRIPTION
#----------   ------------   ------------------------------
 DEPT.F                  :   
 GR  .GAPI   35 310 01 00:   GAMMA RAY
 NEUT.NAPI   35 330 01 00:   NEUTRON
~PARAMETER INFORMATION
#MNEM.UNIT          VALUE    DESCRIPTION
#----------   ------------   ------------------------------
 PD  .                 GL:   PERMANENT DATUM
 EPD .F              5177:   ELEVATION PERMANENT DATUM
 LMF .                 KB:   LOG MEASURED FROM
 DAPD.F                10:   FEET ABOVE PERMANENT DATUM
 DMF .                 KB:   DRILLING MEASURED FROM
 EKB .F              5187:   KELLING BUSHING
 EGL .F              5177:   GROUND LEVEL
 DATE.        05-JAN-1992:   RUN DATE
 RUN .                  1:   RUN NUMBER
 DD  .F               490:   DEPTH DRILLER
 DL  .F               421:   DEPTH LOGGER
 BLI .F               421:   BOTTOM LOG INTERVAL
 BSD .F               490:   BIT SIZE AT DEPTH
 DFT .              WATER:   DRILLING FLUID TYPE
 TCS .HRS            0200:   TIME CURCULATED STOPPED
 TLAB.HRS            0300:   TIME LOGGER AT BOTTOM
 LUN .                509:   LOGGING UNIT NUMBER
 LUL .           GILLETTE:   LOGGING UNIT LOCATION
 ENGI.           L.GOERES:   RECORDING ENGINEER
 WITN.            B.SYLAR:   WITNESSED BY
 CLNT.            A2DTECH:   CLIENT CODE
 ORIG.           5" PRINT:   ORIGIN OF DATA
 UWI .       490252257000:   UNIQUE WELL ID
 DICO. A2D Technologies, Inc.:   DIGITIZING COMPANY
~OTHER INFORMATION
~A    DEPT       GR      NEUT   
# ...
  121.5000    46.6201     2.7648
  122.0000    45.8673     3.1569
  122.5000    46.7941     6.8617
  123.0000    47.5772     8.1013
  123.5000    46.6834     7.1066
  124.0000    46.4634     6.0332
  124.5000    45.7954     5.7319
  125.0000    44.5608     7.5895
  125.5000    43.3262     8.5321
  126.0000    43.2191    10.1520
  126.5000    44.0195    10.5371
  127.0000    45.3828    13.4715
  127.5000    44.1481    16.3315
  128.0000    44.6078    16.3195
  128.5000    45.1804    15.5723
  129.0000    44.5105    20.4535
  129.5000    43.3888    22.1852
  130.0000    44.0743    24.1462
  130.5000    44.9858    24.6136
  131.0000    45.2195    19.6915
  131.5000    45.1141    18.6198
  132.0000    45.2351    17.9333
  132.5000    45.1300    10.6983
  133.0000    42.7659     5.4663
  133.5000    40.2798     1.2359
  134.0000    38.7153     2.0902
  134.5000    40.1209     3.1757
  135.0000    40.1993     3.7989
  135.5000    39.8683     3.5746
  136.0000    40.2169     2.6570
  136.5000    41.4672     2.1246
  137.0000    43.5082     1.2840
  137.5000    45.6621    -1.7914
  138.0000    43.6368     1.0909
  138.5000    43.9835     4.1502
  139.0000    45.1208     5.7810
  139.5000    45.5804     5.0175
  140.0000    46.2660     6.1030
  140.5000    46.6127     9.1144
  141.0000    46.0557    10.3540
  141.5000    46.2895     9.9756
  142.0000    46.6361     9.3662
  142.5000    46.9828     8.7567
  143.0000    47.4425     6.9146
  143.5000    47.4503     5.3806
  144.0000    47.5711     6.7743
  144.5000    48.0307     8.9383
  145.0000    47.2479     9.8697
  145.5000    47.7075    10.0306
  146.0000    50.6521    12.4258
  146.5000    49.1915    13.2031
  147.0000    49.7643    12.0543
  147.5000    49.9981    10.6741
  148.0000    50.2316    10.7583
  148.5000    48.6600    10.7652
  149.0000    49.2326    10.6949
  149.5000    50.0311    10.2397
  150.0000    50.4908    10.4777
  150.5000    49.5936    10.8698
  151.0000    49.0338    11.1474
  151.5000    49.6052    12.6810
  152.0000    47.6933    13.0475
  152.5000    48.7148    13.0829
  153.0000    47.1417    14.5268
  153.5000    46.3577    12.6076
  154.0000    46.4096    10.2245
  154.5000    46.8228    13.0836
  155.0000    45.5886    12.0119
  155.5000    45.0304    11.4024
  156.0000    45.2630    11.1764
  156.5000    45.8343    11.4144
  157.0000    45.8410    10.4985
  157.5000    46.7512    10.4266
  158.0000    49.4687    11.5908
  158.5000    51.3955    10.2110
  159.0000    50.2711     8.6000
  159.5000    50.3923     8.2216
  160.0000    49.1580     8.1497
  160.5000    48.1464     5.4502
  161.0000    47.0251     5.1693
  161.5000    45.5634     5.6362
  162.0000    44.1016     6.4104
  162.5000    42.0751     6.0290
  163.0000    44.7926    -0.9007
  163.5000    45.0251    -4.9801
  164.0000    45.1447    -8.7514
  164.5000    42.9827    -9.9803
  165.0000    41.3856    -6.8948
  165.5000    40.5335    -6.4288
  166.0000    41.4454    -1.0321
  166.5000    42.8074     0.0023
  167.0000    44.8472     0.3621
  167.5000    45.5315     2.6309
  168.0000    46.8936     7.7535
  168.5000    48.7074     9.2342
  169.0000    50.5213    10.4706
  169.5000    49.6243    10.9366
  170.0000    50.2033    11.5567
  170.5000    50.6541    13.9488
  171.0000    49.6458     9.3301
  171.5000    48.7488     9.4879
  172.0000    47.6259     8.5672
  172.5000    47.5179     3.7944
  173.0000    47.5262     3.1037
  173.5000    47.8717     3.4167
  174.0000    51.4928     1.2789
  174.5000    53.0807     0.4196
  175.0000    53.7651     0.9636
  175.5000    51.8908     1.9690
  176.0000    49.7120     3.5136
  176.5000    49.1556     2.9780
  177.0000    50.1787     2.8268
  177.5000    51.6537     2.7535
  178.0000    53.0158     2.9123
  178.5000    53.3596     4.9192
  179.0000    52.2384     5.4643
  179.5000    51.6802     6.2714
  180.0000    53.1552     6.9336
  180.5000    54.2914     7.5546
  181.0000    54.0721     9.0222
  181.5000    53.4027    11.2601
  182.0000    52.5040    13.0359
  182.5000    52.7382    12.2692
  183.0000    53.0837    10.8862
  183.5000    53.2032     9.7344
  184.0000    52.5322    11.7412
  184.5000    52.0853    11.3598
  185.0000    53.2231     9.4222
  185.5000    53.6815    10.8282
  186.0000    53.9142     9.1369
  186.5000    54.0505     8.6023
  187.0000    54.2678     8.0659
  187.5000    54.1598    11.3063
  188.0000    53.7163    12.4657
  188.5000    53.0452    13.1619
  189.0000    52.5984    10.3161
  189.5000    52.3791     9.2413
  190.0000    53.8558     8.9369
  190.5000    55.7826     8.9407
  191.0000    55.1115     8.0478
  191.5000    54.6663     6.6379
  192.0000    54.4470     7.2580
  192.5000    54.4553    11.0368
  193.0000    54.9137    12.6585
  193.5000    55.8239     6.1137
  194.0000    56.0548     5.6543
  194.5000    54.9336     9.5111
  195.0000    54.2625    10.7465
  195.5000    55.2857     8.2859
  196.0000    56.3268     6.2866
  196.5000    53.1468     6.6849
  197.0000    51.7801     6.4258
  197.5000    50.6811     6.2209
  198.0000    52.6096     6.6879
  198.5000    54.1976     9.2340
  199.0000    54.7689     6.5200
  199.5000    54.5497     2.9231
  200.0000    54.7822     4.6923
  200.5000    55.2406     5.3077
  201.0000    55.3602     4.4615
  201.5000    55.4798     4.6923
  202.0000    55.9473     5.9231
  202.5000    56.9917     8.0769
  203.0000    55.4593    11.3077
  203.5000    54.3298    10.3846
  204.0000    53.8780     8.5990
  204.5000    55.1205     5.4615
  205.0000    55.2334     7.6154
  205.5000    55.6852     8.5385
  206.0000    56.4759     7.7692
  206.5000    56.9277     5.8462
  207.0000    55.8840     4.5385
  207.5000    55.4593     4.3077
  208.0000    56.3630     3.7692
  208.5000    54.7816     6.7692
  209.0000    54.6687     8.2308
  209.5000    53.6521     8.3123
  210.0000    52.4096     4.7076
  210.5000    56.1370    -1.3077
  211.0000    57.0407     3.9231
  211.5000    55.2334     7.0000
  212.0000    49.8117     5.7692
  212.5000    46.9880     3.0769
  213.0000    47.1009     1.0000
  213.5000    46.4819     0.6913
  214.0000    45.7455    -1.4615
  214.5000    45.9714    -1.6923
  215.0000    44.7289     1.0338
  215.5000    45.2937     5.4909
  216.0000    44.6160     6.8462
  216.5000    44.2771     4.2308
  217.0000    45.9714     3.3077
  217.5000    46.1973     4.6154
  218.0000    43.8253     5.7692
  218.5000    41.9051     3.4615
  219.0000    43.3961     3.5457
  219.5000    46.0392     3.1128
  220.0000    47.7786     1.6074
  220.5000    48.3434     0.1691
  221.0000    48.6822    -1.2692
  221.5000    49.3599    -2.7075
  222.0000    49.8117    -1.4899
  222.5000    48.0045     0.5811
  223.0000    47.3268     1.5672
  223.5000    45.9714     2.2385
  224.0000    46.4232     2.9098
  224.5000    47.7786     3.4077
  225.0000    48.4563     3.5641
  225.5000    49.1521     4.1671
  226.0000    50.4307     5.5697
  226.5000    52.2967     5.9278
  227.0000    51.3931     4.1901
  227.5000    49.6988     2.1926
  228.0000    50.2636     0.5797
  228.5000    51.1672     2.5822
  229.0000    50.9413     5.5078
  229.5000    51.0542     6.8949
  230.0000    52.2967     6.8204
  230.5000    51.8449     7.4390
  231.0000    50.0377     7.9030
  231.5000    49.6943     6.6747
  232.0000    49.2470     5.5234
  232.5000    49.5858     5.1406
  233.0000    48.6822     8.3745
  233.5000    46.8750    11.6078
  234.0000    47.1009    11.7846
  234.5000    47.7786     8.9504
  235.0000    48.1175     6.3333
  235.5000    46.6491     5.3101
  236.0000    45.7455     5.7741
  236.5000    45.3886     4.8535
  237.0000    46.6491    11.1644
  237.5000    47.3268    12.3207
  238.0000    47.7786    12.4001
  238.5000    46.5407    11.4795
  239.0000    45.0678    10.8667
  239.5000    46.4232    11.4846
  240.0000    48.0045     9.4877
  240.5000    50.7154     6.1055
  241.0000    49.8117     0.4157
  241.5000    50.2636    -0.5824
  242.0000    49.3599     6.8053
  242.5000    47.4398    10.4232
