~VERSION INFORMATION
 VERS.                2.0:   CWLS LOG ASCII STANDARD - VERSION 2.0
 WRAP.                 NO:   ONE LINE PER DEPTH STEP
~WELL INFORMATION
#MNEM.UNIT      DATA TYPE    INFORMATION
#----------   ------------   ------------------------------
 STRT.F            0.0000:   START DEPTH
 STOP.F          562.0000:   STOP DEPTH
 STEP.F            0.1000:   STEP LENGTH
 NULL.          -999.2500:   NO VALUE
 COMP. BROWN JOHN E&C INC:   COMPANY
 WELL.    73-1 SX-3 #73-3:   WELL
 FLD .             TEAPOT:   FIELD
 LOC .       S3 T38N R78W:   LOCATION
 CNTY.            NATRONA:   COUNTY
 STAT.            WYOMING:   STATE
 CTRY. UNITED STATES OF AMERICA:   COUNTRY
 SRVC.      Western Atlas:   SERVICE COMPANY
 DATE.        23-APR-1992:   LOGDATE
 API .       490252251200:   API NUMBER
~CURVE INFORMATION
#MNEM.UNIT       API CODE    CURVE DESCRIPTION
#----------   ------------   ------------------------------
 DEPT.F                  :   
 GRR .GAPI   07 310 01 00:   GAMMA RAY
 RILD.OHMM   07 120 46 00:   INDUCTION LOG DEEP RESISTIVITY
 RILM.OHMM   07 120 44 00:   INDUCTION LOG MEDIUM RESISTIVITY
 CILD.MMHO   07 110 46 00:   CONDUCTIVITY INDUCTION LOG DEEP
~PARAMETER INFORMATION
#MNEM.UNIT          VALUE    DESCRIPTION
#----------   ------------   ------------------------------
 PD  .                 GL:   PERMANENT DATUM
 EPD .F              5164:   ELEVATION PERMANENT DATUM
 LMF .                 KB:   LOG MEASURED FROM
 DAPD.F                 5:   FEET ABOVE PERMANENT DATUM
 DMF .                 KB:   DRILLING MEASURED FROM
 EKB .F              5169:   KELLING BUSHING
 EDF .F              5168:   DRILLING FLOOR
 EGL .F              5164:   GROUND LEVEL
 DATE.        23-APR-1992:   RUN DATE
 RUN .                  1:   RUN NUMBER
 DD  .F               561:   DEPTH DRILLER
 DL  .F               564:   DEPTH LOGGER
 BLI .F               562:   BOTTOM LOG INTERVAL
 CS  .IN            8.625:   CASING SIZE
 CBD .F                48:   CASING BOTTOM DRILLER
 CBL .F                49:   CASING BOTTOM LOGGER
 BS  .IN            7.875:   BIT SIZE
 BSD .F               561:   BIT SIZE AT DEPTH
 DFT .                AIR:   DRILLING FLUID TYPE
 TCS .HRS               2:   TIME CURCULATED STOPPED
 LUN .           HL- 6272:   LOGGING UNIT NUMBER
 LUL .             CASPER:   LOGGING UNIT LOCATION
 ENGI.            LEBSOCK:   RECORDING ENGINEER
 WITN.        GARY STRONG:   WITNESSED BY
 CLNT.            A2DTECH:   CLIENT CODE
 ORIG.       2", 5" PRINT:   ORIGIN OF DATA
 UWI .       490252251200:   UNIQUE WELL ID
 DICO. A2D Technologies, Inc.:   DIGITIZING COMPANY
~OTHER INFORMATION
~A    DEPT      GRR      RILD       RILM       CILD   
# ...
  481.8000   103.2641    11.5244    11.9038    90.4292
  481.9000   103.9875    11.4605    11.9039    90.4330
  482.0000   104.6908    11.4447    11.8588    90.4368
  482.1000   105.2502    11.4447    11.8215    90.4405
  482.2000   105.8564    11.4447    11.8216    90.4443
  482.3000   106.7237    11.4447    11.8218    90.4480
  482.4000   107.6050    11.4447    11.7604    90.5673
  482.5000   108.3034    11.4447    11.6950    90.8163
  482.6000   108.8527    11.4145    11.6585    91.0654
  482.7000   109.4741    11.3652    11.6464    91.3145
  482.8000   109.9004    11.3652    11.5778    91.5637
  482.9000   110.3184    11.3043    11.5780    91.8130
  483.0000   110.9818    11.2417    11.5781    92.0621
  483.1000   111.2503    11.2077    11.5498    92.3111
  483.2000   111.4611    11.2077    11.4856    92.5601
  483.3000   111.7006    11.2077    11.4181    92.7447
  483.4000   111.8458    11.1489    11.3582    92.7485
  483.5000   111.8433    11.1297    11.3390    92.7523
  483.6000   111.8407    11.1029    11.3110    92.7560
  483.7000   112.0564    11.0303    11.2605    92.7598
  483.8000   112.1373    10.8992    11.2607    92.7636
  483.9000   112.1349    10.8992    11.2609    92.7980
  484.0000   112.0522    10.8992    11.2610    93.0471
  484.1000   111.5275    10.8742    11.2611    93.2962
  484.2000   110.8568    10.8234    11.2612    93.5316
  484.3000   109.9651    10.8234    11.2614    93.5354
  484.4000   108.9946    10.8234    11.2616    93.5392
  484.5000   108.0691    10.8234    11.2617    93.5430
  484.6000   107.2987    10.8234    11.2619    93.7888
  484.7000   106.3847    10.8234    11.2620    94.0380
  484.8000   105.7518    10.8234    11.2622    94.3075
  484.9000   105.2656    10.8234    11.2624    94.5362
  485.0000   104.7292    10.8234    11.2625    94.7853
  485.1000   103.9734    10.8234    11.2917    95.0721
  485.2000   103.7381    10.8234    11.3417    95.2836
  485.3000   103.4938    10.8234    11.3419    95.5327
  485.4000   103.3639    10.8234    11.3421    95.7819
  485.5000   103.4166    10.8234    11.3422    95.7845
  485.6000   103.6602    10.8234    11.3424    95.7176
  485.7000   103.6578    10.8234    11.3425    95.6507
  485.8000   103.8342    10.8234    11.3427    95.5838
  485.9000   103.9542    10.8234    11.4042    95.5169
  486.0000   104.0120    10.8234    11.4224    95.4500
  486.1000   104.2515    10.8234    11.4525    95.3831
  486.2000   104.4911    10.8234    11.5027    95.3162
  486.3000   104.7306    10.8234    11.5029    95.2493
  486.4000   104.8458    10.8234    11.5031    95.1824
  486.5000   104.9087    10.8234    11.5032    95.1155
  486.6000   105.1422    10.8234    11.5034    95.0486
  486.7000   105.1397    10.8234    11.5035    94.9817
  486.8000   105.3260    10.8234    11.5037    94.9148
  486.9000   105.5655    10.8234    11.5666    94.8479
  487.0000   105.8051    10.8234    11.5845    94.7810
  487.1000   106.0338    10.8234    11.5847    94.7141
  487.2000   106.0308    10.8234    11.5848    94.6471
  487.3000   106.2227    10.8234    11.5850    94.5802
  487.4000   106.4622    10.8234    11.5852    94.5133
  487.5000   106.7018    10.8234    11.5853    94.4464
  487.6000   106.9413    10.8234    11.5855    94.3795
  487.7000   107.2237    10.8234    11.5856    94.3126
  487.8000   107.4206    10.8234    11.5858    94.2457
  487.9000   107.7997    10.8234    11.5860    94.1788
  488.0000   108.2811    10.8234    11.5389    94.1119
  488.1000   108.7626    10.8234    11.5058    94.0788
  488.2000   109.3201    10.8234    11.4909    94.0813
  488.3000   110.1329    10.8234    11.4261    94.0838
  488.4000   111.2432    10.8234    11.4263    94.1866
  488.5000   112.3657    10.8234    11.3795    94.4339
  488.6000   113.3310    10.8234    11.3471    94.6811
  488.7000   114.4286    10.8234    11.3472    94.8468
  488.8000   114.8441    10.8234    11.3474    94.8494
  488.9000   115.0265    10.8234    11.3476    94.8519
  489.0000   114.8435    10.8234    11.3477    94.9171
  489.1000   114.3569    10.8234    11.3479    95.1644
  489.2000   113.8142    10.8234    11.3480    95.4117
  489.3000   113.3843    10.8234    11.3482    95.6150
  489.4000   112.4342    10.8234    11.3484    95.6175
  489.5000   110.6504    10.8234    11.3485    95.6200
  489.6000   108.2029    10.8234    11.3487    95.6477
  489.7000   106.8745    10.8234    11.3488    95.8949
  489.8000   106.8723    10.8795    11.3490    96.1422
  489.9000   106.8699    10.8585    11.3492    96.3831
  490.0000   106.8675    10.8234    11.3970    96.3856
  490.1000   106.8651    10.8234    11.4290    96.3881
  490.2000   106.8625    10.8234    11.4452    96.3907
  490.3000   107.0841    10.8234    11.5093    96.3931
  490.4000   107.4884    10.8234    11.5095    96.3956
  490.5000   107.9700    10.8234    11.5096    96.3984
  490.6000   108.4976    10.8234    11.5098    96.4006
  490.7000   109.2601    10.8234    11.5099    96.4031
  490.8000   109.7155    10.8234    11.5101    96.4056
  490.9000   110.1970    10.8234    11.5103    96.4081
  491.0000   110.6786    10.8234    11.5104    96.4107
  491.1000   111.1091    10.8234    11.5106    96.4132
  491.2000   111.3565    10.8234    11.4941    96.4157
  491.3000   111.5882    10.8234    11.4308    96.4182
  491.4000   111.6531    10.8234    11.4310    96.4207
  491.5000   111.6507    10.8234    11.4311    96.5800
  491.6000   111.5921    10.8234    11.4313    96.8273
  491.7000   111.3445    10.8234    11.4147    97.0745
  491.8000   110.8641    10.8234    11.3522    97.1837
  491.9000   110.5576    10.7880    11.3524    97.1862
  492.0000   110.1927    10.7481    11.3525    97.1887
  492.1000   109.7677    10.7481    11.3527    97.1912
  492.2000   109.5233    10.7481    11.3359    97.1938
  492.3000   109.2790    10.6991    11.2740    97.1963
  492.4000   108.8497    10.6734    11.2742    97.1988
  492.5000   108.3633    10.6548    11.2743    97.2013
  492.6000   107.8108    10.5957    11.2418    97.2038
  492.7000   107.0827    10.5255    11.1793    97.2063
  492.8000   106.3544    10.5255    11.1171    97.2088
  492.9000   105.8159    10.4618    11.0554    97.2113
  493.0000   105.4599    10.3627    11.0415    97.2765
  493.1000   105.2868    10.3052    11.0417    97.5237
  493.2000   105.2965    10.2482    11.0249    97.7709
  493.3000   105.5827    10.2358    10.9652    97.9743
  493.4000   106.1650    10.2358    10.9654    97.9769
  493.5000   106.7529    10.2358    10.9655    97.9794
  493.6000   107.3105    10.2358    10.9334    98.0069
  493.7000   108.0340    10.2358    10.8726    98.2542
  493.8000   108.8839    10.2358    10.8121    98.5015
  493.9000   109.4814    10.2358    10.7521    98.7488
  494.0000   110.0642    10.2358    10.7391    98.9960
  494.1000   110.5457    10.2358    10.7073    99.2433
  494.2000   111.0273    10.1793    10.6647    99.5031
  494.3000   111.5828    10.1646    10.6628    99.5055
  494.4000   111.9905    10.1646    10.6035    99.5080
  494.5000   112.3264    10.1646    10.5447    99.5109
  494.6000   112.5659    10.1646    10.4861    99.5131
  494.7000   112.8054    10.1097    10.4445    99.5156
  494.8000   113.0768    10.0939    10.4424    99.5181
  494.9000   113.2845    10.0939    10.3844    99.7151
  495.0000   113.3735    10.0822    10.3724    99.9624
  495.1000   113.5540    10.0237    10.3412   100.2096
  495.2000   113.9714    10.0237    10.3005   100.2811
  495.3000   113.9684    10.0237    10.2982   100.2836
  495.4000   114.1811    10.0237    10.2409   100.2861
  495.5000   114.2651    10.0237    10.2293   100.4455
  495.6000   114.2626    10.0237    10.2295   100.6927
  495.7000   114.2602    10.0237    10.2127   100.9400
  495.8000   114.2576     9.9860    10.1586   101.3253
  495.9000   114.0355     9.9540    10.1588   101.8172
  496.0000   113.7912     9.9540    10.1589   102.3091
  496.1000   113.5468     9.9540    10.1280   102.5627
  496.2000   113.3025     9.9540    10.0885   102.5653
  496.3000   113.0408     9.9540    10.0887   102.5678
