~VERSION INFORMATION
 VERS.                2.0:   CWLS LOG ASCII STANDARD - VERSION 2.0
 WRAP.                 NO:   ONE LINE PER DEPTH STEP
~WELL INFORMATION
#MNEM.UNIT      DATA TYPE    INFORMATION
#----------   ------------   ------------------------------
 STRT.F            6.0000:   START DEPTH
 STOP.F          765.0000:   STOP DEPTH
 STEP.F            0.5000:   STEP LENGTH
 NULL.          -999.2500:   NO VALUE
 COMP. FENIX & SCISSON INC:   COMPANY
 WELL.      24 SX 2 #24-2:   WELL
 FLD .        TEAPOT DOME:   FIELD
 LOC .       S2 T38N R78W:   LOCATION
 CNTY.            NATRONA:   COUNTY
 STAT.            WYOMING:   STATE
 CTRY. UNITED STATES OF AMERICA:   COUNTRY
 SRVC.           BIRDWELL:   SERVICE COMPANY
 DATE.        20-JAN-1978:   LOGDATE
 API .       490251055700:   API NUMBER
~CURVE INFORMATION
#MNEM.UNIT       API CODE    CURVE DESCRIPTION
#----------   ------------   ------------------------------
 DEPT.F                  :   
 SPR .MV     05 010 01 00:   SPONTANEOUS POTENTIAL FROM RES.
 SN  .OHMM   05 040 16 00:   SHORT NORMAL 16"
 ILD .OHMM   05 120 46 00:   INDUCTION LOG DEEP
 CALD.IN     45 280 60 00:   CALIPER FROM DENSITY LOG
 CORR.G/C3   45 356 01 00:   DENSITY CORRECTION
 DEN .G/C3   45 350 01 00:   COMPENSATED BULK DENSTIY
 DPHI.DEC    45 890 12 00:   DENSITY POROSITY SANDSTONE
 GRD .GAPI   45 310 01 00:   GAMMA RAY FROM DENSITY LOG
~PARAMETER INFORMATION
#MNEM.UNIT          VALUE    DESCRIPTION
#----------   ------------   ------------------------------
 PD  .                 GL:   PERMANENT DATUM
 EPD .F              5131:   ELEVATION PERMANENT DATUM
 LMF .                 KB:   LOG MEASURED FROM
 DMF .                 KB:   DRILLING MEASURED FROM
 EKB .F              5134:   KELLING BUSHING
 EGL .F              5131:   GROUND LEVEL
 DATE.        20-JAN-1978:   RUN DATE
 RUN .                  1:   RUN NUMBER
 DD  .F               775:   DEPTH DRILLER
 DL  .F               770:   DEPTH LOGGER
 BLI .F               770:   BOTTOM LOG INTERVAL
 TLI .F                40:   TOP LOG INTERVAL
 CS  .IN            8.625:   CASING SIZE
 CBD .F                39:   CASING BOTTOM DRILLER
 CBL .F                39:   CASING BOTTOM LOGGER
 BS  .IN            7.875:   BIT SIZE
 BSD .F               775:   BIT SIZE AT DEPTH
 DFT .                KCL:   DRILLING FLUID TYPE
 DFD .                8.6:   DRILLING FLUID DENSITY
 DFV .                 33:   DRILLING FLUID VISCOSITY
 DFPH.                9.5:   DRILLING FLUID PH
 DFL .                  8:   DRILLING FLUID LOSS
 MSS .           FLOWLINE:   MUD SAMPLE SOURCE
 RMS .OHMM            .31:   RESISTIVITY MUD SAMPLE
 MST .F                54:   MUD SAMPLE TEMPERATURE
 RMF .OHMM            .28:   RESISTIVITY MUD FILTRATE SAMPLE
 MFST.F                64:   MUD FILTRATE SAMPLE TEMPERATURE
 RMC .OHMM             .8:   RESISTIVITY MUD CAKE
 MCST.F                64:   MUD CAKE SAMPLE TEMPERATURE
 MFSS.               MEAS:   MUD FILTRATE SAMPLE SOURCE
 MCSS.               MEAS:   MUD CAKE SAMPLE SOURCE
 RMB .OHMM            .22:   RESISTIVITY MUD AT BHT
 BHT .F                76:   BOTTOM HOLE TEMPERATURE
 TCS .HRS            0400:   TIME CURCULATED STOPPED
 MRT .F                76:   MAXIMUM RECORDED TEMPERATURE
 LUN .               2958:   LOGGING UNIT NUMBER
 LUL .             CASPER:   LOGGING UNIT LOCATION
 ENGI.            POINTER:   RECORDING ENGINEER
 WITN.           MCGINLEY:   WITNESSED BY
 CLNT.            A2DTECH:   CLIENT CODE
 ORIG.           5" PRINT:   ORIGIN OF DATA
 UWI .       490251055700:   UNIQUE WELL ID
 DICO. A2D Technologies, Inc.:   DIGITIZING COMPANY
~OTHER INFORMATION
~A    DEPT     SPR         SN        ILD       CALD       CORR        DEN       DPHI         GRD  
# ...
  613.5000   -34.5813    13.4705    15.5700     7.9420     0.1240     2.3035     0.2108    41.1586
  614.0000   -34.5904    13.4621    15.5635     7.9412     0.1247     2.3087     0.2054    45.9629
  614.5000   -34.5994    13.4538    15.5571     7.9405     0.1254     2.3200     0.2027    43.2371
  615.0000   -34.6084    13.5412    15.4432     7.9097     0.1277     2.3177     0.2030    41.7199
  615.5000   -34.6175    13.5307    15.3302     7.8788     0.1284     2.3176     0.2042    47.1228
  616.0000   -34.7771    13.6186    14.9049     7.8781     0.1275     2.3198     0.1970    46.8067
  616.5000   -34.9385    13.6080    14.5922     7.8623     0.1147     2.3318     0.1880    44.0809
  617.0000   -35.0981    13.6964    14.4854     7.8465     0.0958     2.3589     0.1887    43.7647
  617.5000   -35.4082    13.5912    14.2801     7.8307     0.0915     2.3920     0.1899    45.2558
  618.0000   -35.7184    13.6794    14.2742     7.8300     0.0952     2.3445     0.1884    46.4456
  618.5000   -36.0285    13.7662    14.3690     7.8292     0.0922     2.3475     0.1767    46.1295
  619.0000   -36.3387    13.8513    14.4629     7.8135     0.0982     2.3738     0.1758    45.1989
  619.5000   -36.4983    13.9413    14.6572     7.8127     0.1004     2.3797     0.1812    42.1478
  620.0000   -36.9590    14.2236    15.3794     7.8120     0.0941     2.3985     0.1740    40.0401
  620.5000   -37.5704    14.5161    16.1371     7.8112     0.0838     2.4195     0.1430    39.7440
  621.0000   -37.7299    15.0170    16.8153     7.8257     0.0861     2.4435     0.1298    40.3318
  621.5000   -37.8895    15.3239    17.4010     7.8550     0.0860     2.4315     0.1292    38.6246
  622.0000   -37.8985    15.7455    17.8827     7.8693     0.0830     2.4532     0.1262    24.1173
  622.5000   -37.7546    15.8452    18.0015     7.9135     0.0800     2.4615     0.1202    18.5964
  623.0000   -37.7658    15.8351    17.2594     7.9278     0.0702     2.4659     0.1154    22.4971
  623.5000   -37.4713    15.4992    16.6646     7.9571     0.0619     2.4674     0.1133    29.1087
  624.0000   -37.1790    15.0654    15.5424     7.9865     0.0589     2.4671     0.1210    35.4190
  624.5000   -36.5878    14.4420    14.6980     7.9857     0.0649     2.4448     0.1396    42.6329
  625.0000   -36.1450    13.7485    14.0936     7.9850     0.0671     2.4234     0.1447    47.1361
  625.5000   -36.0030    13.1771    13.6079     7.9842     0.0663     2.4213     0.1435    47.4260
  626.0000   -36.0123    12.8059    13.2304     7.9835     0.0655     2.4213     0.1447    44.6965
  626.5000   -36.1718    12.5388    12.9528     7.9827     0.0700     2.4205     0.1450    46.1876
  627.0000   -36.1808    12.3492    12.8580     7.9669     0.0752     2.4152     0.1421    50.9919
  627.5000   -36.3404    12.0960    12.8527     7.9662     0.0752     2.4174     0.1403    50.9769
  628.0000   -36.6506    11.9218    12.8474     7.9653     0.0776     2.4219     0.1496    49.4559
  628.5000   -36.6596    11.8320    12.9327     7.9645     0.0850     2.4060     0.1529    52.1518
  629.0000   -36.8193    11.8231    12.9260     7.9638     0.0910     2.4037     0.1506    60.5706
  629.5000   -36.8283    11.8158    12.8314     7.9783     0.0976     2.4059     0.1446    65.3786
  630.0000   -36.9897    11.8085    12.6495     7.9774     0.0960     2.4187     0.1374    55.1190
  630.5000   -36.9987    11.7195    12.4702     7.9766     0.0915     2.4261     0.1350    46.9715
  631.0000   -37.0076    11.6312    12.2935     7.9758     0.0945     2.4269     0.1470    45.7517
  631.5000   -37.1672    11.5436    12.0356     7.9600     0.1064     2.4148     0.1558    43.9295
  632.0000   -37.1762    11.4567    11.7830     7.9142     0.1146     2.3974     0.1561    41.8061
  632.5000   -37.1851    11.4496    11.6160     7.8533     0.1184     2.3974     0.1597    41.7912
  633.0000   -37.1941    11.3633    11.4514     7.8375     0.1221     2.3958     0.1564    41.4750
  633.5000   -37.0502    11.3563    11.3676     7.8368     0.1183     2.3943     0.1507    40.8576
  634.0000   -37.2120    11.3492    11.2844     7.8512     0.1033     2.4032     0.1677    39.6379
  634.5000   -37.2209    11.3422    11.2018     7.8655     0.1062     2.3912     0.1688    38.5274
  635.0000   -37.5311    11.3352    11.1972     7.8947     0.1070     2.3813     0.1643    45.9332
  635.5000   -38.5943    11.3281    11.1925     7.8939     0.1039     2.3821     0.1619    48.0267
  636.0000   -38.6032    11.3211    11.1879     7.9082     0.1024     2.3866     0.1610    48.3130
  636.5000   -38.6122    11.3141    11.1060     7.8924     0.1016     2.3848     0.1654    49.2016
  637.0000   -38.4683    11.3071    11.1014     7.8917     0.1016     2.3819     0.1665    51.2951
  637.5000   -38.3289    11.3000    11.0968     7.8909     0.1023     2.3811     0.1662    52.4849
  638.0000   -38.3378    11.2930    11.0922     7.8902     0.1030     2.3818     0.1665    44.5906
  638.5000   -38.1958    11.2860    11.0876     7.8895     0.1030     2.3818     0.1641    39.5032
  639.0000   -38.2051    11.3593    11.0830     7.9038     0.1000     2.3840     0.1627    45.9098
  639.5000   -38.2141    11.3505    11.0784     7.9030     0.0938     2.3869     0.1606    49.4130
  640.0000   -38.2230    11.3435    11.0738     7.9023     0.0902     2.3907     0.1561    49.2768
  640.5000   -38.2320    11.3365    11.0692     7.9170     0.0901     2.3816     0.1702    46.0212
  641.0000   -38.3916    11.3294    11.0646     7.9318     0.0901     2.3748     0.1709    46.1665
  641.5000   -38.4006    11.3224    11.0600     7.9451     0.0901     2.3725     0.1712    49.3495
  642.0000   -38.4096    11.3154    11.0554     7.9444     0.0908     2.3777     0.1655    56.2622
  642.5000   -38.4363    11.3084    11.0508     7.9587     0.0908     2.3814     0.1643    64.9822
  643.0000   -38.5783    11.3013    11.0462     7.9427     0.0907     2.3836     0.1637    64.0636
  643.5000   -38.6159    11.2943    11.0294     7.9572     0.0915     2.3813     0.1667    58.3258
  644.0000   -38.7487    11.2092    10.9608     7.9563     0.0907     2.3775     0.1701    54.9976
  644.5000   -38.7577    11.1247    10.9562     7.9405     0.0877     2.3842     0.1562    52.8742
  645.0000   -38.7666    11.1178    10.9508     7.9397     0.0846     2.3977     0.1575    52.8592
  645.5000   -38.7756    11.0340    10.9462     7.9390     0.0846     2.3994     0.1596    55.2539
  646.0000   -38.7845    11.0271    10.8661     7.9382     0.0876     2.3871     0.1668    58.8534
  646.5000   -38.7935    10.9441    10.8616     7.9375     0.0898     2.3833     0.1644    60.9468
  647.0000   -38.6496    10.9372    10.9337     7.9367     0.0883     2.3842     0.1608    62.4379
  647.5000   -38.6608    10.9290    10.9281     7.9360     0.0860     2.3947     0.1597    63.6315
  648.0000   -38.6698    10.9222    10.9995     7.9353     0.0837     2.3952     0.1564    56.3839
  648.5000   -38.5259    10.9932    10.9950     7.9345     0.0829     2.3899     0.1618    51.5497
  649.0000   -38.3865    11.0629    10.9904     7.9338     0.0829     2.3808     0.1636    51.8396
  649.5000   -38.2426    11.1330    11.1392     7.9330     0.0836     2.3808     0.1669    52.4271
  650.0000   -38.2129    11.2198    11.2132     7.9475     0.0836     2.3773     0.1718    51.5234
  650.5000   -37.9794    11.4150    11.1509     7.9318     0.0835     2.3717     0.1706    45.7734
  651.0000   -37.7458    11.6697    11.4364     7.9163     0.0812     2.3709     0.1697    43.0537
  651.5000   -37.5254    11.9103    11.7523     7.9008     0.0789     2.3716     0.1703    44.2495
  652.0000   -36.9342    12.1559    12.4163     7.8854     0.0781     2.3715     0.1848    49.0599
  652.5000   -36.7904    12.2439    13.4865     7.8849     0.0788     2.3406     0.1942    50.8582
  653.0000   -36.3494    12.5958    14.3476     7.8845     0.0795     2.3316     0.1942    53.8613
  653.5000   -35.7564    13.2209    15.6927     7.8539     0.0810     2.3255     0.1978    56.3346
