~VERSION INFORMATION
 VERS.                2.0:   CWLS LOG ASCII STANDARD - VERSION 2.0
 WRAP.                 NO:   ONE LINE PER DEPTH STEP
~WELL INFORMATION
#MNEM.UNIT      DATA TYPE    INFORMATION
#----------   ------------   ------------------------------
 STRT.F           20.0000:   START DEPTH
 STOP.F          710.0000:   STOP DEPTH
 STEP.F            0.5000:   STEP LENGTH
 NULL.          -999.2500:   NO VALUE
 COMP. FENIX & SCISSON INC:   COMPANY
 WELL.     NPR-3 #42SX-34:   WELL
 FLD .             TEAPOT:   FIELD
 LOC .      S34 T39N R78W:   LOCATION
 CNTY.            NATRONA:   COUNTY
 STAT.            WYOMING:   STATE
 CTRY. UNITED STATES OF AMERICA:   COUNTRY
 SRVC.           BIRDWELL:   SERVICE COMPANY
 DATE.        30-AUG-1978:   LOGDATE
 API .       490251070800:   API NUMBER
~CURVE INFORMATION
#MNEM.UNIT       API CODE    CURVE DESCRIPTION
#----------   ------------   ------------------------------
 DEPT.F                  :   
 SPR .MV     05 010 01 00:   SPONTANEOUS POTENTIAL
 SN  .OHMM   05 040 16 00:   SHORT NORMAL 16'
 ILD .OHMM   05 120 46 00:   INDUCTION LOG DEEP RESISTIVITY
 GRD .GAPI   45 310 01 00:   GAMMA RAY FROM DENSITY LOG
 CALD.IN     45 280 60 00:   CALIPER
 RHOB.G/C3   45 350 01 00:   BULK DENSITY
 DPHI.DEC    45 890 12 00:   DENSITY POROSITY SANDSTONE
 CORR.G/C3   45 356 01 00:   DENSITY CORRECTION
~PARAMETER INFORMATION
#MNEM.UNIT          VALUE    DESCRIPTION
#----------   ------------   ------------------------------
 PD  .                 GL:   PERMANENT DATUM
 EPD .F              5079:   ELEVATION PERMANENT DATUM
 LMF .                 KB:   LOG MEASURED FROM
 DAPD.F                 4:   FEET ABOVE PERMANENT DATUM
 DMF .                 KB:   DRILLING MEASURED FROM
 EKB .F              5083:   KELLING BUSHING
 EGL .F              5079:   GROUND LEVEL
 DATE.            8-30-78:   RUN DATE
 RUN .                  1:   RUN NUMBER
 DD  .F               705:   DEPTH DRILLER
 DL  .F               708:   DEPTH LOGGER
 BLI .F               702:   BOTTOM LOG INTERVAL
 TLI .F                50:   TOP LOG INTERVAL
 CS  .IN            8.625:   CASING SIZE
 CBD .F                40:   CASING BOTTOM DRILLER
 CBL .F                40:   CASING BOTTOM LOGGER
 BS  .IN            7.875:   BIT SIZE
 BSD .F               705:   BIT SIZE AT DEPTH
 DFT .                KCL:   DRILLING FLUID TYPE
 DFD .                8.6:   DRILLING FLUID DENSITY
 DFV .                 34:   DRILLING FLUID VISCOSITY
 DFPH.                  9:   DRILLING FLUID PH
 DFL .                7.4:   DRILLING FLUID LOSS
 MSS .           FLOWLINE:   MUD SAMPLE SOURCE
 RMS .OHMM             .3:   RESISTIVITY MUD SAMPLE
 MST .F                80:   MUD SAMPLE TEMPERATURE
 RMF .OHMM             .4:   RESISTIVITY MUD FILTRATE SAMPLE
 MFST.F                80:   MUD FILTRATE SAMPLE TEMPERATURE
 RMC .OHMM             .5:   RESISTIVITY MUD CAKE
 MCST.F                82:   MUD CAKE SAMPLE TEMPERATURE
 MFSS.               MEAS:   MUD FILTRATE SAMPLE SOURCE
 MCSS.               MEAS:   MUD CAKE SAMPLE SOURCE
 RMB .OHMM            .32:   RESISTIVITY MUD AT BHT
 BHT .F                73:   BOTTOM HOLE TEMPERATURE
 TCS .HRS               3:   TIME CURCULATED STOPPED
 MRT .F                73:   MAXIMUM RECORDED TEMPERATURE
 LUN .               3006:   LOGGING UNIT NUMBER
 LUL .               CASP:   LOGGING UNIT LOCATION
 ENGI.            POINTER:   RECORDING ENGINEER
 WITN.              AMEND:   WITNESSED BY
 CLNT.            A2DTECH:   CLIENT CODE
 ORIG.           5" PRINT:   ORIGIN OF DATA
 UWI .       490251070800:   UNIQUE WELL ID
 DICO. A2D Technologies, Inc.:   DIGITIZING COMPANY
~OTHER INFORMATION
~A   DEPT      SPR         SN        ILD         GRD      CALD       RHOB       DPHI       CORR   
   20.0000  -999.2500  -999.2500  -999.2500    34.6385  -999.2500  -999.2500  -999.2500  -999.2500
   20.5000  -999.2500  -999.2500  -999.2500    34.6385  -999.2500  -999.2500  -999.2500  -999.2500
   21.0000  -999.2500  -999.2500  -999.2500    35.0625  -999.2500  -999.2500  -999.2500  -999.2500
   21.5000  -999.2500  -999.2500  -999.2500    35.4195  -999.2500  -999.2500  -999.2500  -999.2500
   22.0000  -999.2500  -999.2500  -999.2500    35.8434  -999.2500  -999.2500  -999.2500  -999.2500
   22.5000  -999.2500  -999.2500  -999.2500    35.3059  -999.2500  -999.2500  -999.2500  -999.2500
   23.0000  -999.2500  -999.2500  -999.2500    34.6445  -999.2500  -999.2500  -999.2500  -999.2500
   23.5000  -999.2500  -999.2500  -999.2500    34.3630  -999.2500  -999.2500  -999.2500  -999.2500
   24.0000  -999.2500  -999.2500  -999.2500    33.6578  -999.2500  -999.2500  -999.2500  -999.2500
   24.5000  -999.2500  -999.2500  -999.2500    32.9783  -999.2500  -999.2500  -999.2500  -999.2500
   25.0000  -999.2500  -999.2500  -999.2500    32.3373  -999.2500  -999.2500  -999.2500  -999.2500
   25.5000  -999.2500  -999.2500  -999.2500    31.6644  -999.2500  -999.2500  -999.2500  -999.2500
   26.0000  -999.2500  -999.2500  -999.2500    31.6323  -999.2500  -999.2500  -999.2500  -999.2500
   26.5000  -999.2500  -999.2500  -999.2500    31.6033  -999.2500  -999.2500  -999.2500  -999.2500
   27.0000  -999.2500  -999.2500  -999.2500    31.6467  -999.2500  -999.2500  -999.2500  -999.2500
   27.5000  -999.2500  -999.2500  -999.2500    31.6340  -999.2500  -999.2500  -999.2500  -999.2500
   28.0000  -999.2500  -999.2500  -999.2500    32.6894  -999.2500  -999.2500  -999.2500  -999.2500
   28.5000  -999.2500  -999.2500  -999.2500    34.1096  -999.2500  -999.2500  -999.2500  -999.2500
   29.0000  -999.2500  -999.2500  -999.2500    34.1928  -999.2500  -999.2500  -999.2500  -999.2500
   29.5000  -999.2500  -999.2500  -999.2500    33.0802     9.1928  -999.2500  -999.2500  -999.2500
   30.0000  -999.2500  -999.2500  -999.2500    31.9011     9.1928  -999.2500  -999.2500  -999.2500
   30.5000  -999.2500  -999.2500  -999.2500    32.9443     9.1880  -999.2500  -999.2500  -999.2500
   31.0000  -999.2500  -999.2500  -999.2500    35.5205     9.1836  -999.2500  -999.2500  -999.2500
   31.5000  -999.2500  -999.2500  -999.2500    38.0832     9.1791  -999.2500  -999.2500  -999.2500
   32.0000  -999.2500  -999.2500  -999.2500    37.0535     9.1746  -999.2500  -999.2500  -999.2500
   32.5000  -999.2500  -999.2500  -999.2500    35.9781     9.1702  -999.2500  -999.2500  -999.2500
   33.0000  -999.2500  -999.2500  -999.2500    34.6980     9.1684  -999.2500  -999.2500  -999.2500
   33.5000  -999.2500  -999.2500  -999.2500    33.4214     9.1635  -999.2500  -999.2500  -999.2500
   34.0000  -999.2500  -999.2500  -999.2500    33.0484     9.1589  -999.2500  -999.2500    -0.4372
   34.5000  -999.2500  -999.2500  -999.2500    33.7048     9.1571  -999.2500  -999.2500    -0.4248
   35.0000  -999.2500  -999.2500  -999.2500    34.8927     9.1274  -999.2500  -999.2500    -0.4140
   35.5000  -999.2500  -999.2500  -999.2500    36.5365     9.0744  -999.2500  -999.2500    -0.4200
   36.0000  -999.2500  -999.2500  -999.2500    38.1611     9.0243  -999.2500  -999.2500    -0.4142
   36.5000  -999.2500  -999.2500  -999.2500    39.8074     8.9752  -999.2500  -999.2500    -0.4015
   37.0000  -999.2500  -999.2500  -999.2500    41.3026     8.9227  -999.2500  -999.2500    -0.3888
   37.5000  -999.2500  -999.2500  -999.2500    42.9305     8.8715  -999.2500  -999.2500    -0.3832
   38.0000  -999.2500  -999.2500  -999.2500    40.7552     8.7709  -999.2500  -999.2500    -0.3699
   38.5000  -999.2500  -999.2500  -999.2500    38.1529     8.6535  -999.2500  -999.2500    -0.3576
   39.0000  -999.2500  -999.2500  -999.2500    34.6840     8.6195  -999.2500  -999.2500    -0.3390
   39.5000  -999.2500  -999.2500  -999.2500    33.4247     8.7492  -999.2500  -999.2500    -0.2984
   40.0000   -30.2000     1.2973     1.3214    33.8035     8.8644  -999.2500  -999.2500    -0.2272
   40.5000   -30.2000     1.2973     1.3214    34.3258     8.9861  -999.2500  -999.2500    -0.1564
   41.0000   -30.2000     1.2973     1.3214    35.2777     9.0294  -999.2500  -999.2500    -0.0918
   41.5000   -30.2000     1.2973     1.3214    42.0658     9.0150  -999.2500  -999.2500    -0.0552
   42.0000   -30.2000     1.2973     1.3214    50.6487     8.9990     2.2290  -999.2500     0.0105
   42.5000   -30.2000     1.2973     1.3214    59.3417     8.9907     2.3538  -999.2500     0.0656
   43.0000   -30.2000     1.2973     1.3214    67.5915     8.9965     2.3948     0.1731     0.1234
   43.5000   -30.3603     1.2993     1.3258    76.4306     8.9899     2.4087     0.1540     0.1998
   44.0000   -32.9022     1.2973     1.3214    77.2566     8.9739     2.4296     0.1646     0.1864
   44.5000   -35.4557     1.2973     1.3214    76.0868     8.7556     2.4192     0.1920     0.1380
   45.0000   -38.1299     1.5033     1.8007    73.3929     8.5639     2.3652     0.2194     0.0905
   45.5000   -40.7555     4.2173     3.0789    70.3971     8.5243     2.3386     0.2468     0.0694
   46.0000   -43.3603     5.1455     4.3016    69.3370     8.4889     2.2843     0.2742     0.0486
   46.5000   -46.0406     5.6628     5.2605    75.8221     8.4662     2.2299     0.2879     0.0425
   47.0000   -48.6314     5.4551     5.3583    86.9281     8.4316     2.1760     0.2988     0.0469
   47.5000   -50.9152     5.1645     5.3583    98.4654     8.4492     2.1271     0.2988     0.0498
   48.0000   -52.0735     4.8894     4.7630   104.8147     8.5171     2.1066     0.2988     0.0535
   48.5000   -52.0212     4.6290     4.3150   108.1342     8.6758     2.0872     0.2988     0.0588
   49.0000   -50.7123     4.3824     3.9091   106.7767     8.8249     2.0698     0.2988     0.0684
   49.5000   -49.4598     4.1403     3.5414   105.5591     8.9845     2.0747     0.2988     0.1159
   50.0000   -49.4451     4.0647     3.2083    98.0675     9.0245     2.0805     0.2988     0.1900
   50.5000   -49.3978     4.0647     2.9176    89.9639     9.0523     2.1166     0.2609     0.2273
   51.0000   -49.1937     4.0647     2.6609    81.5518     9.0741     2.3923     0.2137     0.2171
   51.5000   -48.3791     4.2173     2.8683    73.5603     9.1000     2.3866     0.1666     0.2130
   52.0000   -47.5704     4.8198     3.3569    64.7305     9.0601     2.4173     0.1438     0.2268
   52.5000   -46.7435     5.4329     4.0511    60.6704     8.8522     2.4521     0.1343     0.2183
   53.0000   -45.9714     6.1239     4.6865    60.6263     8.6714     2.4716     0.1339     0.1979
   53.5000   -45.0624     6.9029     5.6128    68.4050     8.5517     2.4691     0.1336     0.1578
   54.0000   -45.1205     7.7809     6.7215    52.2066     8.4982     2.4683     0.1610     0.1183
   54.5000   -45.2318     8.7706     8.0476    55.0706     8.4510     2.4202     0.1807     0.0860
   55.0000   -45.3897     9.8862     9.3062    57.2178     8.4061     2.3840     0.1919     0.0769
   55.5000   -45.5166    10.6471     9.9063    60.0511     8.3586     2.3656     0.2013     0.0754
   56.0000   -45.6646    10.7753    10.7902    58.1185     8.3679     2.3402     0.2139     0.0771
   56.5000   -45.8214    10.9908    10.5084    60.0294     8.3948     2.3449     0.1987     0.0598
   57.0000   -46.3993    10.8614     9.9666    62.6347     8.4149     2.3562     0.2060     0.0435
   57.5000   -46.9642    10.4962     9.4527    70.1551     8.4746     2.3431     0.2211     0.0381
   58.0000   -47.5546    10.1432     8.9653    77.5183     8.5579     2.3144     0.2460     0.0592
   58.5000   -48.1525     9.8020     8.5031    84.9475     8.7248     2.2807     0.2421     0.0836
   59.0000   -48.6877     9.4724     8.0647    94.1461     8.8659     2.2851     0.2304     0.0949
   59.5000   -49.3452     9.1538     7.6489    90.1211     8.8879     2.3154     0.2186     0.0949
   60.0000   -48.6314     8.8460     7.3288    81.3380     8.9061     2.3388     0.2093     0.1146
