~VERSION INFORMATION
 VERS.                2.0:   CWLS LOG ASCII STANDARD - VERSION 2.0
 WRAP.                 NO:   ONE LINE PER DEPTH STEP
~WELL INFORMATION
#MNEM.UNIT      DATA TYPE    INFORMATION
#----------   ------------   ------------------------------
 STRT.F           24.0000:   START DEPTH
 STOP.F          690.0000:   STOP DEPTH
 STEP.F            0.5000:   STEP LENGTH
 NULL.          -999.2500:   NO VALUE
 COMP. DEPARTMENT OF ENERGY:   COMPANY
 WELL.     STX 2 #24-15-2:   WELL
 FLD .             TEAPOT:   FIELD
 LOC .       S2 T38N R78W:   LOCATION
 CNTY.            NATRONA:   COUNTY
 STAT.            WYOMING:   STATE
 CTRY. UNITED STATES OF AMERICA:   COUNTRY
 SRVC.           Gearhart:   SERVICE COMPANY
 DATE.        23-DEC-1987:   LOGDATE
 API .       490251116800:   API NUMBER
~CURVE INFORMATION
#MNEM.UNIT       API CODE    CURVE DESCRIPTION
#----------   ------------   ------------------------------
 DEPT.F                  :   
 GRR .GAPI   07 310 01 00:   GAMMA RAY
 RILD.OHMM   07 120 46 00:   INDUCTION LOG DEEP
 RILM.OHMM   07 120 44 00:   INDUCTION LOG MEDIUM
 RLL .OHMM   07 220 01 00:   LATEROLOG-1 RES.
~PARAMETER INFORMATION
#MNEM.UNIT          VALUE    DESCRIPTION
#----------   ------------   ------------------------------
 PD  .                 GL:   PERMANENT DATUM
 LMF .                 KB:   LOG MEASURED FROM
 DMF .                 KB:   DRILLING MEASURED FROM
 DATE.        03-SEP-1987:   RUN DATE
 RUN .                  1:   RUN NUMBER
 DL  .F               692:   DEPTH LOGGER
 BLI .F               690:   BOTTOM LOG INTERVAL
 CS  .IN            8.625:   CASING SIZE
 CBD .F                48:   CASING BOTTOM DRILLER
 CBL .F                48:   CASING BOTTOM LOGGER
 BS  .IN            7.875:   BIT SIZE
 DFT .                MUD:   DRILLING FLUID TYPE
 TCS .HRS            0600:   TIME CURCULATED STOPPED
 TLAB.HRS            0751:   TIME LOGGER AT BOTTOM
 MRT .F                80:   MAXIMUM RECORDED TEMPERATURE
 LUN .               7597:   LOGGING UNIT NUMBER
 LUL .           GILLETTE:   LOGGING UNIT LOCATION
 ENGI.         WEATHERMON:   RECORDING ENGINEER
 WITN.             STRONG:   WITNESSED BY
 CLNT.            A2DTECH:   CLIENT CODE
 ORIG.           5" PRINT:   ORIGIN OF DATA
 UWI .       490251116800:   UNIQUE WELL ID
 DICO. A2D Technologies, Inc.:   DIGITIZING COMPANY
~OTHER INFORMATION
~A   DEPT       GRR      RILD       RILM        RLL   
# ...
  608.0000    79.4289    11.7804    11.0880    12.0811
  608.5000    78.5457    11.7846    11.2463    11.9763
  609.0000    78.2582    11.7887    11.4069    12.0635
  609.5000    79.4962    11.7934    11.4964    12.0779
  610.0000    84.0623    11.8796    11.6543    12.1553
  610.5000    86.5073    11.9661    11.8206    12.2028
  611.0000    85.9219    12.0537    11.8234    12.2750
  611.5000    84.1244    12.0581    11.8271    12.3363
  612.0000    82.3071    12.0621    11.7475    12.3397
  612.5000    81.7416    12.0663    11.5082    12.3434
  613.0000    82.6765    11.9868    11.1964    12.2187
  613.5000    84.5154    11.8593    11.1219    12.0958
  614.0000    85.7482    11.6673    11.0479    11.8504
  614.5000    85.7689    11.5751    10.9909    11.6902
  615.0000    83.9714    11.3553    10.9773    11.5968
  615.5000    83.9921    11.2805    10.9810    11.4427
  616.0000    84.6189    11.2053    10.9836    11.3792
  616.5000    85.8517    11.1315    10.9101    11.3038
  617.0000    86.7818    11.1362    10.7631    11.2290
  617.5000    85.7929    11.1400    10.5439    11.2323
  618.0000    83.1917    11.1438    10.1865    11.2356
  618.5000    81.6972    11.0659    10.0485    11.0826
  619.0000    81.7179    10.9135    10.1216    10.9260
  619.5000    84.4659    10.7518    10.1949    10.6379
  620.0000    85.6987    10.5220    10.2261    10.5665
  620.5000    85.1133    10.4137    10.2722    10.4964
  621.0000    85.4370    10.4181    10.2750    10.4267
  621.5000    85.4577    10.4216    10.2059    10.3583
  622.0000    85.4990    10.3521    10.1379    10.3378
  622.5000    86.1061    10.2136    10.0013    10.2205
  623.0000    86.1311     9.8683     9.7976    10.1532
  623.5000    86.7578     9.4653     9.5980    10.0859
  624.0000    86.7785     9.0579     8.8939    10.0184
  624.5000    88.0113     8.4206     8.0039     9.8768
  625.0000    88.6381     7.6429     7.3935     9.6160
  625.5000    90.1739     6.8890     6.4656     8.9729
  626.0000    92.0128     6.5643     5.9085     7.9752
  626.5000    95.0638     6.4172     5.5133     7.1378
  627.0000   100.3574     6.3440     5.3260     6.6143
  627.5000   103.2870     6.3467     5.2539     6.4792
  628.0000    95.1311     6.5277     5.3293     6.4816
  628.5000    91.2124     6.8552     5.6356     6.9020
  629.0000    89.7179     7.4663     6.3884     7.7162
  629.5000    89.4304     8.0120     7.4596     8.7482
  630.0000    89.1481     8.6909     8.8251     9.4577
  630.5000    88.2648     9.0639     9.5691     9.9196
  631.0000    87.6795     9.3224     9.8416    10.1316
  631.5000    86.1850     9.4556     9.9821    10.2052
  632.0000    87.4989     9.4592    10.0544    10.1375
  632.5000    91.1767     9.3969     9.9868    10.1405
  633.0000    92.3129     9.2703     9.9203    10.0724
  633.5000    90.2124     9.2093     9.8543    10.2171
  634.0000    89.9249     9.1479     9.9264    10.4355
  634.5000    90.2538     9.1519    10.2090    10.6585
  635.0000    90.8805     9.2838    10.3839    10.8109
  635.5000    92.1133     9.6152    10.5869    11.0420
  636.0000    93.3461    10.1680    10.8129    11.2070
  636.5000    93.3668    10.8276    10.9332    11.3763
  637.0000    93.3879    11.2922    11.0360    11.6844
  637.5000    90.8333    11.6143    11.1383    11.8514
  638.0000    87.9796    11.8629    11.3533    12.0208
  638.5000    88.6063    12.0329    11.4356    12.1082
  639.0000    89.8391    12.2054    11.6341    12.2813
  639.5000    91.6780    12.2947    11.8865    12.3705
  640.0000    91.3957    12.3876    12.0185    12.5474
  640.5000    89.5982    12.4753    12.1872    12.5728
  641.0000    87.1946    12.4797    12.3619    12.6424
  641.5000    87.2153    12.5710    12.3653    12.6461
  642.0000    89.3778    12.5754    12.4549    12.6506
  642.5000    90.8939    12.5798    12.4583    12.6537
  643.0000    88.7977    12.6722    12.5486    12.6574
  643.5000    86.6972    12.6762    12.6396    12.7499
  644.0000    83.9906    12.7692    12.7312    12.7537
  644.5000    82.1932    12.7735    12.7346    12.7571
  645.0000    81.6078    12.8670    12.6499    12.7611
  645.5000    82.2345    12.8714    12.5330    12.6763
  646.0000    83.4674    12.8767    12.3955    12.5922
  646.5000    85.0032    12.8811    12.1438    12.6031
  647.0000    86.5597    12.8652    12.0622    12.6876
  647.5000    86.8628    12.7995    11.9819    12.6033
  648.0000    86.5804    12.7163    11.9856    12.6078
  648.5000    87.2124    12.6315    11.9892    12.5236
  649.0000    88.1422    12.5139    12.0759    12.4401
  649.5000    89.9810    12.3804    11.9956    12.3575
  650.0000    91.8199    12.2990    11.9158    12.2764
  650.5000    90.0224    12.1873    11.7494    12.1949
  651.0000    88.2249    12.0535    11.5158    12.0301
  651.5000    86.7305    11.8100    11.2812    11.8674
  652.0000    87.7010    11.5703    11.0983    11.7009
  652.5000    89.8535    11.3346    10.7513    11.4622
  653.0000    91.3432    11.0287    10.4593    11.2353
  653.5000    92.2730    10.8049    10.2462    11.0075
  654.0000    91.9855    10.6595    10.1074    10.7834
  654.5000    91.4053    10.5160     9.9706    10.4908
  655.0000    91.4260    10.5196     9.9043    10.2765
  655.5000    91.7497    10.3043     9.8022    10.0674
  656.0000    91.7704     9.9496     9.5607    10.0005
  656.5000    92.0941     9.6211     9.1833    10.0042
  657.0000    91.7919     9.3606     8.9962    10.0071
  657.5000    91.2264     9.1080     8.9357    10.0799
  658.0000    91.5553     8.9854     9.0011    10.0829
  658.5000    92.1821     8.9884     9.0664    10.0158
  659.0000    93.1119     9.1173     9.0688    10.0071
  659.5000    94.3447     9.1839     9.1345     9.8840
  660.0000    95.5775     9.2511     9.1370     9.8869
  660.5000    97.4164     9.2542     9.2033     9.8213
  661.0000    98.6492     9.1933     9.0787     9.7554
  661.5000    96.8517     9.0966     9.0818     9.7471
  662.0000    94.7313     8.8863     9.0788     9.6270
  662.5000    94.8232     8.6457     9.0104     9.5859
  663.0000    96.9189     8.4703     8.9016     9.4997
  663.5000    97.2427     8.4138     8.7202     9.4264
  664.0000    95.1422     8.3588     8.5426     9.2452
  664.5000    92.1325     8.3041     8.3106     9.0570
  665.0000    91.8450     8.3648     8.2552     8.9963
  665.5000    93.3861     8.3676     8.2575     9.0623
  666.0000    94.6189     8.3705     8.2598     9.0015
  666.5000    96.1547     8.3154     8.2048     8.9424
  667.0000    98.0141     8.3083     8.1507     8.8097
  667.5000    98.9747     8.2634     8.1529     8.6420
  668.0000    99.2485     8.2090     8.0849     8.5846
  668.5000  -999.2500     7.9874     7.9890     8.5872
  669.0000  -999.2500     7.8254     7.7720     8.5897
  669.5000  -999.2500     7.6666     7.2521     8.4741
  670.0000  -999.2500     7.4074     6.7201     8.2441
  670.5000  -999.2500     7.0583     6.3583     7.9648
  671.0000  -999.2500     6.8672     6.1402     7.5362
  671.5000  -999.2500     6.7741     6.0176     7.1804
  672.0000  -999.2500     6.6836     6.3639     7.0337
  672.5000  -999.2500     6.9709     6.9194     6.9870
  673.0000  -999.2500     7.3718     7.3171     7.3893
  673.5000  -999.2500     7.7956     7.6840     8.3186
  674.0000  -999.2500     8.2439     8.2968     9.3111
  674.5000  -999.2500     8.5976     8.8965     9.8448
  675.0000  -999.2500     8.9045     9.2779     9.9759
  675.5000  -999.2500     9.2223     9.4760     9.9090
  676.0000  -999.2500     9.4197     9.6113     9.8432
  676.5000  -999.2500     9.4886     9.6222     9.8468
  677.0000  -999.2500     9.4918     9.6165     9.9875
  677.5000  -999.2500     9.4864     9.6197    10.2010
  678.0000  -999.2500     9.4325     9.6224    10.4190
  678.5000  -999.2500  -999.2500     9.5576    10.4947
  679.0000  -999.2500  -999.2500     9.5609    10.5710
  679.5000  -999.2500  -999.2500     9.5635    10.6478
  680.0000  -999.2500  -999.2500     9.4334    10.6510
  680.5000  -999.2500  -999.2500     9.3711    10.5802
