~VERSION INFORMATION
 VERS.                2.0:   CWLS LOG ASCII STANDARD - VERSION 2.0
 WRAP.                 NO:   ONE LINE PER DEPTH STEP
~WELL INFORMATION
#MNEM.UNIT      DATA TYPE    INFORMATION
#----------   ------------   ------------------------------
 STRT.F           22.0000:   START DEPTH
 STOP.F          654.0000:   STOP DEPTH
 STEP.F            0.5000:   STEP LENGTH
 NULL.          -999.2500:   NO VALUE
 COMP. FENIX & SCISSON INC:   COMPANY
 WELL.     54 S 34 #54-34:   WELL
 FLD .             TEAPOT:   FIELD
 LOC .      S34 T39N R78W:   LOCATION
 CNTY.            NATRONA:   COUNTY
 STAT.            WYOMING:   STATE
 CTRY. UNITED STATES OF AMERICA:   COUNTRY
 SRVC.           BIRDWELL:   SERVICE COMPANY
 DATE.        22-AUG-1978:   LOGDATE
 API .       490251070100:   API NUMBER
~CURVE INFORMATION
#MNEM.UNIT       API CODE    CURVE DESCRIPTION
#----------   ------------   ------------------------------
 DEPT.F                  :   
 SPR .MV     05 010 01 00:   SPONTANEOUS POTENTIAL FROM RES.
 SN  .OHMM   05 040 16 00:   SHORT NORMAL 16"
 ILD .OHMM   05 120 46 00:   INDUCTION LOG DEEP
 CALD.IN     45 280 60 00:   CALIPER
 GRD .GAPI   45 310 01 00:   GAMMA RAY FROM DENSITY LOG
 DPHI.DEC    45 890 12 00:   DENSITY POROSITY SANDSTONE
 RHOB.G/C3   45 350 01 00:   BULK DENSITY
 CORR.G/C3   45 356 01 00:   DENSITY CORRECTION
~PARAMETER INFORMATION
#MNEM.UNIT          VALUE    DESCRIPTION
#----------   ------------   ------------------------------
 PD  .                 GL:   PERMANENT DATUM
 EPD .F              5085:   ELEVATION PERMANENT DATUM
 LMF .                 KB:   LOG MEASURED FROM
 DAPD.F                 4:   FEET ABOVE PERMANENT DATUM
 DMF .                 KB:   DRILLING MEASURED FROM
 EKB .F              5089:   KELLING BUSHING
 EGL .F              5085:   GROUND LEVEL
 DATE.            8-22-78:   RUN DATE
 RUN .                  1:   RUN NUMBER
 DD  .F               685:   DEPTH DRILLER
 DL  .F               653:   DEPTH LOGGER
 BLI .F               646:   BOTTOM LOG INTERVAL
 TLI .F                30:   TOP LOG INTERVAL
 CS  .IN            8.625:   CASING SIZE
 CBD .F                46:   CASING BOTTOM DRILLER
 CBL .F                46:   CASING BOTTOM LOGGER
 BS  .IN            7.875:   BIT SIZE
 BSD .F               685:   BIT SIZE AT DEPTH
 DFT .                KCL:   DRILLING FLUID TYPE
 DFD .                8.7:   DRILLING FLUID DENSITY
 DFV .                 33:   DRILLING FLUID VISCOSITY
 DFPH.                  9:   DRILLING FLUID PH
 MSS .           FLOWLINE:   MUD SAMPLE SOURCE
 RMS .OHMM            .18:   RESISTIVITY MUD SAMPLE
 MST .F                86:   MUD SAMPLE TEMPERATURE
 RMF .OHMM            .16:   RESISTIVITY MUD FILTRATE SAMPLE
 MFST.F                86:   MUD FILTRATE SAMPLE TEMPERATURE
 RMC .OHMM            .52:   RESISTIVITY MUD CAKE
 MCST.F                86:   MUD CAKE SAMPLE TEMPERATURE
 MFSS.               MEAS:   MUD FILTRATE SAMPLE SOURCE
 MCSS.               MEAS:   MUD CAKE SAMPLE SOURCE
 BHT .F                70:   BOTTOM HOLE TEMPERATURE
 TCS .HRS               2:   TIME CURCULATED STOPPED
 MRT .F                70:   MAXIMUM RECORDED TEMPERATURE
 LUN .               2958:   LOGGING UNIT NUMBER
 LUL .               CASP:   LOGGING UNIT LOCATION
 ENGI.           REYNOLDS:   RECORDING ENGINEER
 WITN.              AMEND:   WITNESSED BY
 CLNT.            A2DTECH:   CLIENT CODE
 ORIG.           5" PRINT:   ORIGIN OF DATA
 UWI .       490251070100:   UNIQUE WELL ID
 DICO. A2D Technologies, Inc.:   DIGITIZING COMPANY
~OTHER INFORMATION
~A   DEPT      SPR         SN        ILD       CALD         GRD      DPHI       RHOB       CORR   
# ...
  386.5000   -42.8841     7.0735     6.6582     7.4877   103.8016     0.1311     2.4650     0.0098
  387.0000   -42.9958     6.9763     6.5324     7.5487   104.6293     0.1340     2.4633     0.0095
  387.5000   -42.8965     6.8805     6.4090     7.6175    99.0433     0.1321     2.4623     0.0092
  388.0000   -42.8103     6.7860     6.2884     7.6715    94.4544     0.1288     2.4639     0.0090
  388.5000   -43.0193     6.7677     6.2884     7.6682    96.3515     0.1373     2.4620     0.0087
  389.0000   -43.3508     6.7752     6.2884     7.6660    96.9834     0.1457     2.4463     0.0087
  389.5000   -43.6233     6.8110     6.3426     7.6639    96.7617     0.1549     2.4306     0.0099
  390.0000   -43.4499     6.8470     6.3967     7.6617    97.0520     0.1516     2.4269     0.0110
  390.5000   -43.2487     6.8832     6.4513     7.6595    95.8635     0.1452     2.4384     0.0122
  391.0000   -43.0458     6.9195     6.5063     7.6574    93.1806     0.1440     2.4436     0.0133
  391.5000   -43.0142     6.9561     6.5618     7.6552    90.7293     0.1424     2.4457     0.0145
  392.0000   -43.0111     6.9928     6.6177     7.6530    90.6853     0.1365     2.4550     0.0156
  392.5000   -42.9495     7.0209     6.6742     7.6509    92.4354     0.1285     2.4657     0.0164
  393.0000   -42.8859     7.0209     6.7059     7.6487    94.5106     0.1252     2.4752     0.0159
  393.5000   -42.8203     7.0210     6.7060     7.6465    95.1889     0.1263     2.4767     0.0155
  394.0000   -42.9250     7.0212     6.7059     7.6444    94.7716     0.1287     2.4679     0.0150
  394.5000   -43.0555     7.0031     6.7059     7.6422    97.0197     0.1304     2.4632     0.0146
  395.0000   -43.1869     6.9823     6.7059     7.6400    96.9968     0.1279     2.4680     0.0141
  395.5000   -43.3170     6.9616     6.7059     7.6379    96.2804     0.1236     2.4771     0.0137
  396.0000   -43.4090     6.9409     6.7063     7.6357    96.1546     0.1260     2.4786     0.0132
  396.5000   -43.3791     6.9203     6.7059     7.6336    96.3221     0.1312     2.4705     0.0127
  397.0000   -43.3518     6.8998     6.6445     7.6314    97.0204     0.1313     2.4629     0.0123
  397.5000   -43.3247     6.7709     6.5838     7.6292    99.2657     0.1291     2.4628     0.0118
  398.0000   -43.2976     6.5944     6.3464     7.6271   104.6792     0.1299     2.4659     0.0114
  398.5000   -43.2705     6.4224     5.9963     7.6249   104.7909     0.1311     2.4652     0.0109
  399.0000   -43.2419     6.2550     5.6904     7.6228   100.7839     0.1353     2.4563     0.0106
  399.5000   -43.2076     6.0919     5.4001     7.6206    97.5726     0.1420     2.4451     0.0137
  400.0000   -43.5109     5.9331     5.1246     7.6184    94.2153     0.1516     2.4334     0.0167
  400.5000   -43.8456     5.7782     4.8631     7.6163    93.5157     0.1524     2.4300     0.0197
  401.0000   -44.1834     5.6277     4.6866     7.6142    93.4913     0.1532     2.4272     0.0227
  401.5000   -44.5733     5.4810     4.6868     7.6124    93.4962     0.1636     2.4155     0.0258
  402.0000   -44.1405     5.3795     4.6883     7.6080    93.4955     0.1730     2.4002     0.0246
  402.5000   -43.7003     5.4792     4.6873     7.5605    93.0468     0.1832     2.3845     0.0220
  403.0000   -43.2668     5.7008     4.8626     7.5147    92.1088     0.1730     2.3844     0.0192
  403.5000   -42.8299     5.9583     5.1599     7.4690    92.4567     0.1617     2.4039     0.0188
  404.0000   -42.5333     6.2275     5.5164     7.4202    95.9605     0.1503     2.4251     0.0192
  404.5000   -42.3577     6.5088     5.8977     7.4430    97.6849     0.1390     2.4463     0.0196
  405.0000   -42.1868     6.8029     6.3052     7.4676    97.2099     0.1319     2.4589     0.0201
  405.5000   -42.0160     7.0857     6.7076     7.4914    96.1791     0.1299     2.4630     0.0205
  406.0000   -41.8448     7.2792     6.8738     7.4662    94.9227     0.1289     2.4672     0.0192
  406.5000   -41.6742     7.4634     6.9794     7.2957    93.7098     0.1277     2.4717     0.0178
  407.0000   -41.5027     7.5246     7.0255     7.2952    93.1426     0.1244     2.4778     0.0164
  407.5000   -41.4198     7.5678     7.0723     7.4384    95.6976     0.1196     2.4824     0.0149
  408.0000   -41.4752     7.6113     7.1194     7.5235   100.0389     0.1192     2.4835     0.0145
  408.5000   -41.5914     7.6550     7.1669     7.4023   103.4706     0.1192     2.4847     0.0145
  409.0000   -41.7072     7.6962     7.2148     7.3500   103.7045     0.1201     2.4843     0.0145
  409.5000   -41.8233     7.7112     7.2629     7.3509   103.2350     0.1216     2.4834     0.0145
  410.0000   -41.9394     7.7253     7.3114     7.4600   101.2038     0.1232     2.4809     0.0145
  410.5000   -42.0554     7.7395     7.3602     7.5790    99.2674     0.1248     2.4767     0.0144
  411.0000   -42.1716     7.7537     7.4093     7.5902    98.0183     0.1232     2.4734     0.0127
  411.5000   -42.2888     7.7679     7.4588     7.5869    97.4472     0.1203     2.4791     0.0110
  412.0000   -42.4088     7.7822     7.5085     7.5837    96.8589     0.1174     2.4864     0.0093
  412.5000   -42.4137     7.7965     7.5561     7.5806    97.4007     0.1148     2.4929     0.0077
  413.0000   -42.2861     7.8108     7.5561     7.5776    98.7721     0.1150     2.4921     0.0060
  413.5000   -42.0263     7.8251     7.5561     7.5746    99.5287     0.1152     2.4911     0.0046
  414.0000   -41.7684     7.8386     7.5561     7.5715    95.6929     0.1084     2.5025     0.0071
  414.5000   -41.5087     7.8384     7.5560     7.5685    95.6484     0.0985     2.5252     0.0094
  415.0000   -41.2500     7.8388     7.5568     7.5655    96.0296     0.0875     2.5428     0.0119
  415.5000   -41.0110     7.7695     7.5539     7.5624    96.3670     0.0927     2.5424     0.0121
  416.0000   -41.0167     7.6878     7.4894     7.5594    98.2087     0.1001     2.5215     0.0116
  416.5000   -41.0180     7.6069     7.3822     7.5564   100.1195     0.1074     2.5010     0.0110
  417.0000   -41.0195     7.5269     7.2586     7.5533   100.1370     0.1140     2.4952     0.0105
  417.5000   -41.1011     7.4477     7.1371     7.5501    96.7501     0.1183     2.4888     0.0114
  418.0000   -41.2665     7.3446     7.0176     7.5512    93.8605     0.1221     2.4823     0.0121
  418.5000   -41.4352     7.2284     6.9001     7.5525    94.7090     0.1256     2.4770     0.0129
  419.0000   -41.6901     7.1142     6.7846     7.5538    95.0702     0.1250     2.4766     0.0137
  419.5000   -41.9415     7.0017     6.6710     7.5552    94.6096     0.1230     2.4799     0.0144
  420.0000   -42.1902     6.8931     6.5838     7.5565    94.7272     0.1194     2.4831     0.0152
  420.5000   -42.4306     6.7947     6.5236     7.5578    96.3669     0.1187     2.4858     0.0160
  421.0000   -42.5904     6.6996     6.3496     7.5591    98.4587     0.1210     2.4822     0.0168
  421.5000   -42.7504     6.5194     6.1153     7.5605   100.5509     0.1233     2.4787     0.0175
  422.0000   -42.9094     6.2274     5.6636     7.5618   102.6523     0.1255     2.4752     0.0183
  422.5000   -43.0644     5.9485     5.0882     7.5631   103.8546     0.1280     2.4714     0.0191
  423.0000   -43.2587     5.6821     4.5742     7.5644   103.8947     0.1311     2.4581     0.0198
  423.5000   -44.0308     5.3294     4.1120     7.5658   104.7548     0.1346     2.4489     0.0206
  424.0000   -44.7873     4.9399     3.6966     7.5671   105.4462     0.1408     2.4521     0.0222
  424.5000   -45.5364     4.5789     3.3231     7.5684   100.1628     0.1483     2.4496     0.0173
  425.0000   -46.2277     4.2441     2.9874     7.5697    96.5987     0.1565     2.4271     0.0749
  425.5000   -46.2112     3.9337     2.6856     7.5711   100.3042     0.1760     2.3938     0.0666
  426.0000   -46.2093     3.6465     2.5650     7.5724   103.8350     0.1977     2.3576     0.0623
  426.5000   -46.1518     3.4303     2.4879     7.5737   100.8569     0.2194     2.3220     0.0589
