~VERSION INFORMATION
 VERS.                2.0:   CWLS LOG ASCII STANDARD - VERSION 2.0
 WRAP.                 NO:   ONE LINE PER DEPTH STEP
~WELL INFORMATION
#MNEM.UNIT      DATA TYPE    INFORMATION
#----------   ------------   ------------------------------
 STRT.F            1.5000:   START DEPTH
 STOP.F          440.0000:   STOP DEPTH
 STEP.F            0.5000:   STEP LENGTH
 NULL.          -999.2500:   NO VALUE
 COMP.       F D SERV INC:   COMPANY
 WELL. NAVAL PETROLEUM RESERVE 3 SX-3 #78-2-3:   WELL
 FLD .             TEAPOT:   FIELD
 LOC .       S3 T38N R78W:   LOCATION
 CNTY.            NATRONA:   COUNTY
 STAT.            WYOMING:   STATE
 CTRY. UNITED STATES OF AMERICA:   COUNTRY
 SRVC.     Atlas Wireline:   SERVICE COMPANY
 DATE.        21-OCT-1992:   LOGDATE
 API .       490252255500:   API NUMBER
~CURVE INFORMATION
#MNEM.UNIT       API CODE    CURVE DESCRIPTION
#----------   ------------   ------------------------------
 DEPT.F                  :   
 GRR .GAPI   07 310 01 00:   GAMMA RAY
 RILD.OHMM   07 120 46 00:   INDUCTION LOG DEEP RESISTIVITY
 RILM.OHMM   07 120 44 00:   INDUCTION LOG MEDIUM RESISTIVITY
~PARAMETER INFORMATION
#MNEM.UNIT          VALUE    DESCRIPTION
#----------   ------------   ------------------------------
 PD  .                 GL:   PERMANENT DATUM
 EPD .F              5132:   ELEVATION PERMANENT DATUM
 LMF .                 KB:   LOG MEASURED FROM
 DAPD.F                10:   FEET ABOVE PERMANENT DATUM
 DMF .                 KB:   DRILLING MEASURED FROM
 EKB .F              5142:   KELLING BUSHING
 EDF .F              5141:   DRILLING FLOOR
 EGL .F              5132:   GROUND LEVEL
 DATE.        21-OCT-1992:   RUN DATE
 RUN .                  1:   RUN NUMBER
 DD  .F               445:   DEPTH DRILLER
 DL  .F               448:   DEPTH LOGGER
 BLI .F               440:   BOTTOM LOG INTERVAL
 CS  .IN            8.625:   CASING SIZE
 CBD .F                85:   CASING BOTTOM DRILLER
 CBL .F                98:   CASING BOTTOM LOGGER
 BS  .IN            7.875:   BIT SIZE
 BSD .F               445:   BIT SIZE AT DEPTH
 DFT .           AIR FOAM:   DRILLING FLUID TYPE
 TCS .HRS               2:   TIME CURCULATED STOPPED
 MRT .F                70:   MAXIMUM RECORDED TEMPERATURE
 LUN .            HL-6274:   LOGGING UNIT NUMBER
 LUL .             CASPER:   LOGGING UNIT LOCATION
 ENGI.             RAUTIO:   RECORDING ENGINEER
 WITN.        GARY STRONG:   WITNESSED BY
 CLNT.            A2DTECH:   CLIENT CODE
 ORIG.           5" PRINT:   ORIGIN OF DATA
 UWI .       490252255500:   UNIQUE WELL ID
 DICO. A2D Technologies, Inc.:   DIGITIZING COMPANY
~OTHER INFORMATION
~A    DEPT      GRR      RILD       RILM   
# ...
  274.5000   135.9715     8.0175     8.0140
  275.0000   137.1796     8.2427     8.3413
  275.5000   133.2595     8.2999     8.3999
  276.0000   129.9427     8.1293     8.3422
  276.5000   130.8633     7.6912     7.8923
  277.0000   131.7556     6.9323     7.4149
  277.5000   127.5342     6.2430     6.7287
  278.0000   126.3287     5.8103     5.4971
  278.5000   129.3471     5.3654     4.6860
  279.0000   148.9564     5.2551     4.5945
  279.5000   158.0076     5.3284     4.6915
  280.0000   151.6742     5.5544     4.8575
  280.5000   142.8734     5.8303     5.0997
  281.0000   135.9913     6.2053     5.3539
  281.5000   128.1496     6.7977     5.7391
  282.0000   124.5311     7.6921     6.5162
  282.5000   124.8342     8.7122     8.1213
  283.0000   126.3440     9.0818     8.7056
  283.5000   126.6471     9.2725     9.0764
  284.0000   125.7436     9.4018     9.1402
  284.5000   126.0468     9.3369     9.3332
  285.0000   127.5569     9.3315     9.3988
  285.5000   128.7650     9.3396     9.7314
  286.0000   128.7664     9.5440    10.2218
  286.5000   127.5612    10.0064    10.8760
  287.0000   125.7527    10.7239    11.9867
  287.5000   120.3243    12.0637    13.3954
  288.0000   107.0528    13.7602    14.6613
  288.5000    93.4938    16.0247    16.3844
  289.0000    79.3035    20.0000    17.6855
  289.5000    75.9867    21.5893    20.1799
  290.0000    74.4798    22.2150    21.4971
  290.5000    73.2747    22.6551    22.3975
  291.0000    72.0691    22.8125    22.8703
  291.5000    72.3726    22.8125    22.8718
  292.0000    73.2790    23.4532    23.5173
  292.5000    74.8190    23.6162    24.1810
  293.0000    74.4890    23.7803    24.3510
  293.5000    70.8705    23.9456    24.6931
  294.0000    66.9504    23.9456    24.6948
  294.5000    66.3482    24.1120    24.5260
  295.0000    69.6683    24.6182    24.1891
  295.5000    72.0830    24.7892    23.6926
  296.0000    72.9894    24.7892    23.5299
  296.5000    75.4726    24.7892    23.3688
  297.0000    77.8193    24.7892    23.5335
  297.5000    79.3290    25.1423    24.1976
  298.0000    79.6322    25.4855    25.2553
  298.5000    78.1253    26.0205    25.5831
  299.0000    75.1102    26.0205    25.5848
  299.5000    70.8884    26.3834    25.4091
  300.0000    69.6833    26.5667    25.0605
  300.5000    69.6848    26.2003    24.8889
  301.0000    70.8932    26.1994    25.0643
  301.5000    72.4029    26.1985    24.8926
  302.0000    74.5160    26.1977    25.0681
  302.5000    76.9307    26.1968    25.7756
  303.0000    79.3455    26.7557    27.4389
  303.5000    82.9244    27.7878    29.6178
  304.0000    82.9321    31.1450    31.9698
  304.5000    82.2881    32.6909    33.5637
  305.0000    80.4969    34.3134    34.2722
  305.5000    79.8891    34.7911    34.2559
  306.0000    78.6781    34.7897    33.8042
  306.5000    77.1654    34.5484    32.8814
  307.0000    78.0660    34.5441    31.1075
  307.5000    84.3965    34.0395    30.2578
  308.0000    88.3136    33.3690    30.2598
  308.5000    88.2971    32.6818    30.2618
  309.0000    86.0966    31.7879    30.0545
  309.5000    83.4728    30.7050    28.9894
  310.0000    83.1679    29.6590    27.0870
  310.5000    84.0684    28.4510    25.6257
  311.0000    85.8729    26.7310    24.2432
  311.5000    89.1868    25.6257    23.0951
  312.0000    94.0089    24.5975    22.3089
  312.5000    97.6244    23.5957    21.6994
  313.0000    97.9217    22.7919    20.9603
  313.5000    95.5029    22.0155    20.5115
  314.0000    90.0687    20.9730    20.3896
  314.5000    87.6510    20.3993    20.1098
  315.0000    87.3461    20.1181    19.9721
  315.5000    91.2621    19.9712    19.9738
  316.0000    93.9728    19.8400    19.9751
  316.5000    93.6666    19.9772    19.9764
  317.0000    91.5505    20.2551    20.1169
  317.5000    91.8468    20.3952    20.2808
  318.0000    90.6358    20.8225    20.5433
  318.5000    87.0115    21.1122    21.1231
  319.0000    86.7054    21.5547    22.1762
  319.5000    91.2584    22.1655    23.1207
  320.0000    96.7320    23.6495    24.2734
  320.5000    97.5523    25.2736    25.6611
  321.0000    94.2286    26.8980    26.9511
  321.5000    87.2860    30.0487    28.8791
  322.0000    85.1700    30.6787    31.3895
  322.5000    84.8640    30.4657    31.1745
  323.0000    85.1614    29.2248    29.9049
  323.5000    84.8552    28.4254    27.9016
  324.0000    84.8507    27.6124    24.7979
  324.5000    85.4486    25.9762    23.4601
  325.0000    88.1591    24.5754    22.4917
  325.5000    92.6796    20.9563    21.7389
  326.0000    95.0885    20.5247    20.1423
  326.5000    96.8941    20.3824    19.3220
  327.0000    97.1924    19.9626    18.9251
  327.5000    96.8853    19.6874    18.9264
  328.0000    96.2775    19.2819    18.7968
  328.5000    95.6174    19.1482    18.6867
  329.0000    94.4577    19.1474    18.5568
  329.5000    92.9451    19.1468    18.5562
  330.0000    95.0523    19.2792    18.6849
  330.5000    97.4623    19.2785    18.5550
  331.0000    97.4568    19.2931    18.1720
  331.5000    97.1507    19.1442    18.4252
  332.0000    98.3570    19.4123    19.2081
  332.5000    99.8969    19.8173    19.7482
  333.0000   100.7574    19.8165    19.7475
  333.5000    99.2437    19.8158    19.6103
  334.0000    96.8260    19.6784    19.3393
  334.5000    93.5033    19.4071    19.0720
  335.0000    91.3873    19.1395    18.6698
  335.5000    90.1763    18.3600    17.9158
  336.0000    89.2669    18.1068    17.4246
  336.5000    89.8939    18.1062    17.1838
  337.0000    92.2736    17.8564    17.0644
  337.5000    97.3975    17.7326    16.8286
  338.0000   101.0130    17.6096    16.8280
  338.5000   100.1036    17.6090    17.1815
  339.0000    98.5909    18.1030    17.7943
  339.5000    97.3799    19.1336    18.5623
  340.0000    97.3755    19.6703    18.9329
  340.5000    95.7984    18.8622    18.6711
  341.0000    88.5541    17.9327    18.1593
  341.5000    82.5799    17.2433    18.0331
  342.0000    82.8772    16.7717    17.2969
  342.5000    86.1910    16.3129    16.8228
  343.0000    92.5215    16.0880    16.2484
  343.5000   100.6619    15.7567    15.7913
  344.0000   103.0709    15.4322    15.2633
  344.5000   102.4550    15.1130    14.9483
  345.0000    97.7728    14.8923    14.8444
  345.5000    93.7051    14.8026    14.8439
  346.0000    94.0023    15.0085    14.7407
  346.5000    94.9040    14.9044    14.6383
  347.0000    95.2013    14.8010    14.5366
  347.5000    93.9891    14.5969    14.4289
  348.0000    92.1748    14.3957    14.1375
  348.5000    92.1704    14.0992    13.7499
  349.0000    93.7024    13.8089    13.4661
  349.5000    94.8765    13.8083    13.2800
  350.0000    94.8711    13.5239    13.1877
  350.5000    96.0733    13.3375    13.0961
  351.0000    98.4822    13.0628    13.0050
  351.5000    97.5728    12.9722    13.0046
  352.0000    95.7585    12.7933    12.7990
  352.5000    96.9607    12.7929    12.4732
  353.0000   101.2438    12.7042    12.3865
  353.5000   104.2439    12.6886    12.3861
  354.0000   104.1863    12.6156    12.4721
  354.5000   104.4835    12.6152    12.5585
  355.0000   106.8924    12.6147    12.4711
  355.5000   107.7941    12.6143    12.4707
  356.0000   105.6770    12.7016    12.5571
  356.5000   102.6560    12.7894    12.6442
  357.0000    94.7924    12.9673    12.8204
  357.5000    93.2956    13.0570    12.9992
  358.0000    95.7036    13.1473    13.0893
  358.5000    99.3191    13.3302    13.0888
  359.0000   100.2208    13.0555    12.9978
  359.5000   100.8186    12.8755    12.6415
  360.0000   102.9258    12.6104    12.2949
  360.5000   103.5249    12.3507    12.0411
  361.0000   103.5203    12.0963    11.9574
  361.5000   103.2142    11.7579    11.8743
  362.0000   101.7005    11.4436    11.6292
  362.5000    99.5845    11.3642    11.4685
  363.0000    97.4685    11.2075    11.3888
  363.5000    97.1624    11.0530    11.3884
  364.0000    99.2696    11.0526    11.3880
  364.5000   102.8852    11.0522    11.3089
  365.0000   103.2026    11.2839    11.3084
