~VERSION INFORMATION
 VERS.                2.0:   CWLS LOG ASCII STANDARD - VERSION 2.0
 WRAP.                 NO:   ONE LINE PER DEPTH STEP
~WELL INFORMATION
#MNEM.UNIT      DATA TYPE    INFORMATION
#----------   ------------   ------------------------------
 STRT.F           20.0000:   START DEPTH
 STOP.F          632.0000:   STOP DEPTH
 STEP.F            0.5000:   STEP LENGTH
 NULL.          -999.2500:   NO VALUE
 COMP. FENIX & SCISSON INC:   COMPANY
 WELL.    58 SX 34 #34-34:   WELL
 FLD .             TEAPOT:   FIELD
 LOC .      S34 T39N R78W:   LOCATION
 CNTY.            NATRONA:   COUNTY
 STAT.            WYOMING:   STATE
 CTRY. UNITED STATES OF AMERICA:   COUNTRY
 SRVC.            Unknown:   SERVICE COMPANY
 DATE.        30-JAN-1979:   LOGDATE
 API .       490251077300:   API NUMBER
~CURVE INFORMATION
#MNEM.UNIT       API CODE    CURVE DESCRIPTION
#----------   ------------   ------------------------------
 DEPT.F                  :   
 SPR .MV     05 010 01 00:   SPONTANEOUS POTENTIAL FROM RES.
 SN  .OHMM   05 040 16 00:   SHORT NORMAL 16"
 ILD .OHMM   05 120 46 00:   INDUCTION LOG DEEP
 CALD.IN     45 280 60 00:   CALIPER
 CORR.G/C3   45 356 01 00:   DENSITY CORRECTION
 RHOB.G/C3   45 350 01 00:   BULK DENSITY
 GRD .GAPI   45 310 01 00:   GAMMA RAY FROM DENSITY LOG
 DPHI.DEC    45 890 12 00:   DENSITY POROSITY SANDSTONE
~PARAMETER INFORMATION
#MNEM.UNIT          VALUE    DESCRIPTION
#----------   ------------   ------------------------------
 PD  .                 GL:   PERMANENT DATUM
 LMF .                 KB:   LOG MEASURED FROM
 DAPD.F                 4:   FEET ABOVE PERMANENT DATUM
 DMF .                 KB:   DRILLING MEASURED FROM
 DATE.            1-30-79:   RUN DATE
 RUN .                  1:   RUN NUMBER
 DD  .F               635:   DEPTH DRILLER
 DL  .F               632:   DEPTH LOGGER
 BLI .F               626:   BOTTOM LOG INTERVAL
 TLI .F                35:   TOP LOG INTERVAL
 CS  .IN            8.625:   CASING SIZE
 CBD .F                40:   CASING BOTTOM DRILLER
 CBL .F                35:   CASING BOTTOM LOGGER
 BS  .IN            7.875:   BIT SIZE
 BSD .F               635:   BIT SIZE AT DEPTH
 DFT .                KCL:   DRILLING FLUID TYPE
 DFD .                8.9:   DRILLING FLUID DENSITY
 DFV .                230:   DRILLING FLUID VISCOSITY
 DFPH.                  8:   DRILLING FLUID PH
 DFL .                 30:   DRILLING FLUID LOSS
 MSS .           FLOWLINE:   MUD SAMPLE SOURCE
 RMS .OHMM            .18:   RESISTIVITY MUD SAMPLE
 MST .F                62:   MUD SAMPLE TEMPERATURE
 RMF .OHMM            .14:   RESISTIVITY MUD FILTRATE SAMPLE
 MFST.F                59:   MUD FILTRATE SAMPLE TEMPERATURE
 RMC .OHMM            .24:   RESISTIVITY MUD CAKE
 MCST.F                60:   MUD CAKE SAMPLE TEMPERATURE
 MFSS.           MEASURED:   MUD FILTRATE SAMPLE SOURCE
 MCSS.           MEASURED:   MUD CAKE SAMPLE SOURCE
 RMB .OHMM            .17:   RESISTIVITY MUD AT BHT
 BHT .F                70:   BOTTOM HOLE TEMPERATURE
 TCS .HRS               4:   TIME CURCULATED STOPPED
 MRT .F                70:   MAXIMUM RECORDED TEMPERATURE
 LUN .               3006:   LOGGING UNIT NUMBER
 LUL .             CASPER:   LOGGING UNIT LOCATION
 ENGI.            ROLLINS:   RECORDING ENGINEER
 WITN.              AMEND:   WITNESSED BY
 CLNT.            A2DTECH:   CLIENT CODE
 ORIG.         2.5" PRINT:   ORIGIN OF DATA
 UWI .       490251077300:   UNIQUE WELL ID
 DICO. A2D Technologies, Inc.:   DIGITIZING COMPANY
~OTHER INFORMATION
~A   DEPT      SPR         SN        ILD       CALD       CORR       RHOB         GRD      DPHI   
# ...
  465.5000   -36.5300     9.5016    13.2813     7.5076     0.0369     2.3942    87.7707     0.1704
  466.0000   -36.5687     9.5016    13.2809     7.3610     0.0388     2.4039    84.0117     0.1653
  466.5000   -36.6076     9.5016    13.2805     7.3787     0.0408     2.4149    83.4321     0.1602
  467.0000   -36.6466     9.5016    13.2802     7.3874     0.0427     2.4263    82.8381     0.1551
  467.5000   -36.6855     9.5016    13.2801     7.3971     0.0447     2.4335    82.1713     0.1500
  468.0000   -36.7245     9.5016    13.1374     7.3806     0.0467     2.4406    82.4246     0.1469
  468.5000   -36.7635     9.5016    13.0174     7.3678     0.0479     2.4481    82.7583     0.1461
  469.0000   -36.8025     9.5016    12.8986     7.3315     0.0468     2.4482    83.0564     0.1525
  469.5000   -36.8415     9.5016    12.7814     7.2730     0.0458     2.4392    83.5017     0.1550
  470.0000   -36.8805     9.5016    12.6644     7.2155     0.0447     2.4305    84.0326     0.1536
  470.5000   -36.9194     9.5016    12.5485     7.1574     0.0436     2.4323    88.1923     0.1509
  471.0000   -36.9585     9.5016    12.4336     7.1254     0.0425     2.4405    90.2062     0.1481
  471.5000   -36.9974     9.5016    12.3198     7.1587     0.0415     2.4487    88.8678     0.1454
  472.0000   -37.0364     9.5015    12.2070     7.1888     0.0403     2.4511    89.3399     0.1430
  472.5000   -37.0754     9.5015    12.1018     7.2223     0.0418     2.4555    91.5955     0.1395
  473.0000   -37.1144     9.5017    12.1490     7.2564     0.0440     2.4622    93.7906     0.1382
  473.5000   -37.1534     9.5012    12.1937     7.2568     0.0428     2.4631    96.1057     0.1415
  474.0000   -37.1924     9.5018    12.2387     7.1907     0.0414     2.4581    95.9121     0.1453
  474.5000   -37.2314     9.5032    12.2838     7.1253     0.0401     2.4537    92.2807     0.1476
  475.0000   -37.2704     9.5275    12.3290     7.2285     0.0393     2.4493    85.9514     0.1488
  475.5000   -37.3094     9.5481    12.4986     7.3364     0.0386     2.4448    85.5423     0.1502
  476.0000   -37.3490     9.5704    12.6706     7.4538     0.0378     2.4402    88.2983     0.1502
  476.5000   -37.3882     9.5922    12.8449     7.5728     0.0371     2.4381    86.4664     0.1509
  477.0000   -37.4268     9.6140    13.0216     7.6680     0.0364     2.4374    84.8627     0.1536
  477.5000   -37.4687     9.6360    13.2007     7.7281     0.0373     2.4346    85.7166     0.1562
  478.0000   -37.5054     9.6580    13.2817     7.7748     0.0391     2.4281    84.5187     0.1574
  478.5000   -37.5443     9.6800    13.2817     7.8003     0.0409     2.4266    85.4874     0.1574
  479.0000   -37.6037     9.7021    13.1605     7.8272     0.0425     2.4266    87.2416     0.1574
  479.5000   -37.4451     9.7242    12.9632     7.8431     0.0438     2.4267    88.3585     0.1574
  480.0000   -37.0765     9.7463    12.7689     7.8624     0.0398     2.4269    87.4717     0.1540
  480.5000   -36.7327     9.7686    12.5776     7.8945     0.0364     2.4328    86.3646     0.1502
  481.0000   -36.3737     9.7908    12.3891     7.9577     0.0371     2.4405    85.1274     0.1462
  481.5000   -35.9691     9.8132    12.2034     7.9730     0.0379     2.4489    87.5497     0.1430
  482.0000   -34.7785     9.8355    12.0205     7.9872     0.0388     2.4509    90.7038     0.1430
  482.5000   -33.3958     9.8579    11.8902     7.9989     0.0397     2.4509    90.9733     0.1430
  483.0000   -32.0004     9.8804    11.9445     7.9936     0.0407     2.4509    88.5270     0.1430
  483.5000   -30.6194     9.9032    11.9990     7.9632     0.0418     2.4530    90.4050     0.1415
  484.0000   -29.2499     9.9260    12.0538     7.9360     0.0430     2.4615    93.2427     0.1365
  484.5000   -27.8472     9.9481    12.1088     7.9051     0.0442     2.4669    92.0929     0.1368
  485.0000   -27.3717     9.9711    12.1642     7.8765     0.0452     2.4646    90.7420     0.1372
  485.5000   -27.3453     9.9959    12.2210     7.7828     0.0464     2.4631    91.7472     0.1377
  486.0000   -27.3014    10.0163    12.2788     7.7065     0.0478     2.4629    90.3007     0.1405
  486.5000   -27.2451    10.0392    12.3347     7.6223     0.0454     2.4627    90.3608     0.1412
  487.0000   -27.1963    10.1547    12.3364     7.6234     0.0384     2.4531    90.4091     0.1455
  487.5000   -27.1511    10.3216    12.3181     7.6587     0.0322     2.4473    88.7092     0.1567
  488.0000   -27.1047    10.4913    13.2442     7.6924     0.0321     2.4260    89.9996     0.1776
  488.5000   -27.0293    10.6637    14.1272     7.7238     0.0328     2.3988    91.3425     0.1966
  489.0000   -27.2541    10.8390    15.0645     7.7560     0.0363     2.3562    92.5459     0.2156
  489.5000   -27.7040    11.0171    16.0713     7.7907     0.0550     2.3115    93.1910     0.2330
  490.0000   -28.1210    11.1981    17.1455     7.7923     0.0574     2.2759    85.2521     0.2443
  490.5000   -28.5410    11.3822    18.2914     7.7693     0.0604     2.2613    76.9396     0.2475
  491.0000   -28.6673    11.5693    19.7567     7.7481     0.0590     2.2619    70.6842     0.2470
  491.5000   -28.6606    11.7595    21.6243     7.7267     0.0578     2.2622    70.3669     0.2461
  492.0000   -28.6582    11.9528    23.6685     7.7076     0.0564     2.2696    70.0781     0.2452
  492.5000   -28.6611    12.1494    25.9514     7.6838     0.0550     2.2740    72.1878     0.2442
  493.0000   -28.6596    12.3493    26.4388     7.7318     0.0537     2.2742    74.4971     0.2394
  493.5000   -28.6592    12.5525    24.8715     7.7948     0.0524     2.2750    75.2793     0.2369
  494.0000   -28.6590    12.7581    23.0711     7.8575     0.0509     2.2946    73.7164     0.2225
  494.5000   -28.6585    12.9678    21.5453     7.9208     0.0497     2.3142    73.5729     0.2153
  495.0000   -28.6585    13.1809    21.5453     7.9443     0.0483     2.3237    76.0006     0.2121
  495.5000   -28.6585    13.2817    22.1016     7.9685     0.0497     2.3269    78.2676     0.2056
  496.0000   -28.6585    13.2299    23.1842     7.9899     0.0518     2.3448    81.5078     0.1842
  496.5000   -28.6585    13.1847    24.3198     8.0124     0.0486     2.3877    80.6097     0.1659
  497.0000   -28.6585    13.1398    25.4730     8.0367     0.0403     2.4276    77.6835     0.1477
  497.5000   -28.6585    13.0950    25.4730     8.0356     0.0290     2.4796    74.9840     0.1331
  498.0000   -28.6585    13.0510    25.4730     8.0150     0.0335     2.4737    72.3516     0.1491
  498.5000   -28.6585    12.9044    25.4730     7.9965     0.0399     2.4361    69.6500     0.1819
  499.0000   -28.6585    12.7157    25.4730     7.9786     0.0529     2.3986    66.7883     0.1982
  499.5000   -28.6585    12.5297    25.4730     7.9589     0.0609     2.3602    64.8624     0.2109
  500.0000   -28.6585    12.3464    23.9906     7.9419     0.0601     2.3320    66.9767     0.2076
  500.5000   -28.6585    12.1658    22.5404     7.9273     0.0602     2.3370    70.4469     0.2049
  501.0000   -28.6585    12.0553    21.5293     7.9795     0.0604     2.3414    73.7679     0.2032
  501.5000   -28.6583    11.9830    21.5608     8.0280     0.0603     2.3474    77.3690     0.2024
  502.0000   -28.6582    11.9113    20.8667     8.0852     0.0593     2.3486    79.3918     0.2051
  502.5000   -28.6583    11.8400    20.0484     8.0511     0.0562     2.3414    78.5956     0.2080
  503.0000   -28.6571    11.7692    19.2616     7.9861     0.0533     2.3377    79.5156     0.2080
  503.5000   -28.6581    11.6988    18.5054     7.9229     0.0502     2.3372    82.2017     0.2080
  504.0000   -28.6580    11.6382    17.5576     7.8600     0.0474     2.3361    83.2326     0.2088
  504.5000   -28.6497    11.5897    17.9362     7.8577     0.0445     2.3321    79.0399     0.2177
  505.0000   -28.7320    11.5414    18.5195     7.8721     0.0481     2.3255    77.6315     0.2177
  505.5000   -28.9125    11.4934    19.2694     7.8956     0.0516     2.3180    77.4561     0.2129
