~VERSION INFORMATION
 VERS.                2.0:   CWLS LOG ASCII STANDARD - VERSION 2.0
 WRAP.                 NO:   ONE LINE PER DEPTH STEP
~WELL INFORMATION
#MNEM.UNIT      DATA TYPE    INFORMATION
#----------   ------------   ------------------------------
 STRT.F            4.0000:   START DEPTH
 STOP.F          614.0000:   STOP DEPTH
 STEP.F            0.1000:   STEP LENGTH
 NULL.          -999.2500:   NO VALUE
 COMP.   FLUOR DANIEL INC:   COMPANY
 WELL.     63-4 X 3 #63-3:   WELL
 FLD .          N.P.R. #3:   FIELD
 LOC .       S3 T38N R78W:   LOCATION
 CNTY.            NATRONA:   COUNTY
 STAT.            WYOMING:   STATE
 CTRY. UNITED STATES OF AMERICA:   COUNTRY
 SRVC.      Western Atlas:   SERVICE COMPANY
 DATE.        01-JUN-1995:   LOGDATE
 API .       490252271300:   API NUMBER
~CURVE INFORMATION
#MNEM.UNIT       API CODE    CURVE DESCRIPTION
#----------   ------------   ------------------------------
 DEPT.F                  :   
 GRR .GAPI   07 310 01 00:   GAMMA RAY
 RILD.OHMM   07 120 46 00:   INDUCTION LOG DEEP RESISTIVITY
 RILM.OHMM   07 120 44 00:   INDUCTION LOG MEDIUM RESISTIVITY
~PARAMETER INFORMATION
#MNEM.UNIT          VALUE    DESCRIPTION
#----------   ------------   ------------------------------
 PD  .                 GL:   PERMANENT DATUM
 EPD .F              5173:   ELEVATION PERMANENT DATUM
 LMF .                 KB:   LOG MEASURED FROM
 DAPD.F                10:   FEET ABOVE PERMANENT DATUM
 DMF .                 KB:   DRILLING MEASURED FROM
 EKB .F              5183:   KELLING BUSHING
 EDF .F              5182:   DRILLING FLOOR
 EGL .F              5173:   GROUND LEVEL
 DATE.        01-JUN-1995:   RUN DATE
 RUN .                  1:   RUN NUMBER
 DD  .F               626:   DEPTH DRILLER
 DL  .F               622:   DEPTH LOGGER
 BLI .F               614:   BOTTOM LOG INTERVAL
 TLI .F                95:   TOP LOG INTERVAL
 CS  .IN            9.625:   CASING SIZE
 CBD .F                95:   CASING BOTTOM DRILLER
 CBL .F                95:   CASING BOTTOM LOGGER
 BS  .IN             8.75:   BIT SIZE
 BSD .F               626:   BIT SIZE AT DEPTH
 DFT .                AIR:   DRILLING FLUID TYPE
 MRT .F               147:   MAXIMUM RECORDED TEMPERATURE
 LUN .            HL 6530:   LOGGING UNIT NUMBER
 LUL .             CASPER:   LOGGING UNIT LOCATION
 ENGI.        VERN RAUTIO:   RECORDING ENGINEER
 WITN.        STEVE HARDY:   WITNESSED BY
 CLNT.            A2DTECH:   CLIENT CODE
 ORIG.           5" PRINT:   ORIGIN OF DATA
 UWI .       490252271300:   UNIQUE WELL ID
 DICO. A2D Technologies, Inc.:   DIGITIZING COMPANY
~OTHER INFORMATION
~A    DEPT       GRR     RILD       RILM   
# ...
  131.4000   122.4551     8.5989     8.4003
  131.5000   122.9623     8.5992     8.4008
  131.6000   123.8917     8.5996     8.4014
  131.7000   125.1732     8.5999     8.4020
  131.8000   126.5050     8.6003     8.4025
  131.9000   127.2434     8.6006     8.4031
  132.0000   127.8110     8.6010     8.4037
  132.1000   128.0115     8.6014     8.4044
  132.2000   128.0108     8.6017     8.4457
  132.3000   128.0103     8.6021     8.4638
  132.4000   127.9694     8.5834     8.4644
  132.5000   127.4057     8.5334     8.4650
  132.6000   127.4051     8.4838     8.4656
  132.7000   127.0325     8.4263     8.4662
  132.8000   126.5190     8.4266     8.4200
  132.9000   126.1012     8.3626     8.4089
  133.0000   125.7436     8.2881     8.4095
  133.1000   124.9789     8.2399     8.4101
  133.2000   124.3848     8.1972     8.3991
  133.3000   123.9519     8.1976     8.3504
  133.4000   123.2676     8.1533     8.2963
  133.5000   122.7491     8.1415     8.2968
  133.6000   122.4921     8.1419     8.2631
  133.7000   122.2351     8.1422     8.2152
  133.8000   121.9680     8.1328     8.1675
  133.9000   121.7211     8.0866     8.1118
  134.0000   121.6652     8.0870     8.0174
  134.1000   121.6646     8.0473     8.0181
  134.2000   121.6639     8.0316     7.9414
  134.3000   121.6633     8.0320     7.8491
  134.4000   121.6828     8.0182     7.8007
  134.5000   121.9637     7.9770     7.7878
  134.6000   122.1945     7.9774     7.7427
  134.7000   122.6363     7.9340     7.6951
  134.8000   123.2893     7.8878     7.6110
  134.9000   124.2489     7.8419     7.5904
  135.0000   125.5807     7.7963     7.5387
  135.1000   127.1135     7.7606     7.4690
  135.2000   128.5960     7.7595     7.4257
  135.3000   129.6765     7.7076     7.3827
  135.4000   130.7870     7.6695     7.3348
  135.5000   131.6863     7.5951     7.2974
  135.6000   132.5353     7.5497     7.2551
  135.7000   133.4900     7.5500     7.2130
  135.8000   134.0223     7.5447     7.1712
  135.9000   134.5144     7.4984     7.1296
  136.0000   134.8255     7.4572     7.0883
  136.1000   135.0813     7.4138     7.0400
  136.2000   135.2265     7.3959     7.0064
  136.3000   135.1606     7.3789     6.9923
  136.4000   134.9036     7.3454     6.9735
  136.5000   134.6214     7.3440     6.9212
  136.6000   133.9270     7.2952     6.8454
  136.7000   133.1571     7.2588     6.8033
  136.8000   131.9649     7.2166     6.8038
  136.9000   130.4260     7.1746     6.7738
  137.0000   128.9372     7.1461     6.7578
  137.1000   127.6647     7.1464     6.7420
  137.2000   126.7740     7.1467     6.7121
  137.3000   126.3411     7.1470     6.7126
  137.4000   125.9986     7.1150     6.7131
  137.5000   125.7416     7.0981     6.7135
  137.6000   125.5650     7.0984     6.7140
  137.7000   125.5644     7.0987     6.7354
  137.8000   125.5638     7.0990     6.7615
  137.9000   125.5632     7.0993     6.7620
  138.0000   125.7637     7.0996     6.7625
  138.1000   126.0195     7.0999     6.7630
  138.2000   126.1647     7.1213     6.7963
  138.3000   126.2295     7.1499     6.8109
  138.4000   126.4652     7.1502     6.8113
  138.5000   126.1628     7.1505     6.8118
  138.6000   126.1623     7.1913     6.8170
  138.7000   125.6037     7.2340     6.8601
  138.8000   124.9746     7.2770     6.8986
  138.9000   124.0791     7.3022     6.9398
  139.0000   122.5902     7.3127     6.9571
  139.1000   121.3076     7.3537     6.9745
  139.2000   119.8237     7.3540     7.0064
  139.3000   118.0936     7.3543     7.0069
  139.4000   116.7255     7.3846     7.0074
  139.5000   115.6993     7.4285     7.0443
  139.6000   114.7536     7.4726     7.0864
  139.7000   113.9485     7.5103     7.1287
  139.8000   112.8820     7.5106     7.1712
  139.9000   112.3887     7.5538     7.2065
  140.0000   111.6742     7.5635     7.2070
  140.1000   110.9044     7.5909     7.3080
  140.2000   110.3558     7.6359     7.3440
  140.3000   110.1641     7.6812     7.3878
  140.4000   110.1635     7.7239     7.4113
  140.5000   110.1628     7.7243     7.4247
  140.6000   110.1623     7.7648     7.4690
  140.7000   110.1617     7.7787     7.5162
  140.8000   110.1611     7.8029     7.5584
  140.9000   110.1605     7.8492     7.6036
  141.0000   110.1599     7.8958     7.6225
  141.1000   110.1593     7.9437     7.6415
  141.2000   110.1586     7.9440     7.6871
  141.3000   110.1581     7.9816     7.7303
  141.4000   109.9865     8.0000     7.7309
  141.5000   109.7295     8.0208     7.7717
  141.6000   109.4725     8.0684     7.7856
  141.7000   109.2155     8.1129     7.7862
  141.8000   108.9484     8.1132     7.8029
  141.9000   108.7015     8.1561     7.8413
  142.0000   108.6455     8.1704     7.8418
  142.1000   108.4891     8.1707     7.8425
  142.2000   108.3427     8.1878     7.8429
  142.3000   108.3421     8.2283     7.8734
  142.4000   108.3415     8.2287     7.8985
  142.5000   108.3408     8.2291     7.9128
  142.6000   108.3403     8.2294     7.9544
  142.7000   108.3397     8.2297     7.9550
  142.8000   108.3391     8.2300     7.9555
  142.9000   108.3385     8.2304     7.9561
  143.0000   108.3881     8.2307     7.9566
  143.1000   108.6439     8.2311     7.9572
  143.2000   108.9399     8.2314     7.9468
  143.3000   109.1556     8.2318     7.9034
  143.4000   109.4114     8.2321     7.9040
  143.5000   111.1252     8.2154     7.8636
  143.6000   111.8938     8.1758     7.8505
  143.7000   112.6272     8.1762     7.8511
  143.8000   113.1596     8.1766     7.8354
  143.9000   113.6517     8.1380     7.7979
  144.0000   113.9628     8.1206     7.7986
  144.1000   114.2186     8.0996     7.7992
  144.2000   114.4744     8.0652     7.7620
  144.3000   114.6649     8.0655     7.7464
  144.4000   114.6441     8.0659     7.7469
  144.5000   114.3619     8.0662     7.7475
  144.6000   114.1301     8.0323     7.7426
  144.7000   113.8731     8.0110     7.6951
  144.8000   113.6161     8.0114     7.6956
  144.9000   113.2635     8.0117     7.6962
  145.0000   112.6999     8.0120     7.6967
  145.1000   111.9301     8.0124     7.6786
  145.2000   111.0394     7.9743     7.6447
  145.3000   110.1741     7.9576     7.6452
  145.4000   109.4898     7.9579     7.6458
  145.5000   109.1021     7.9454     7.6463
  145.6000   108.8450     7.9035     7.6468
  145.7000   108.6233     7.9039     7.6473
  145.8000   108.9243     7.9042     7.6479
  145.9000   109.1700     7.9045     7.6484
  146.0000   109.2247     7.9049     7.6489
  146.1000   109.5359     7.9052     7.6495
  146.2000   109.9375     7.9055     7.6500
  146.3000   110.1933     7.9059     7.6505
  146.4000   110.4290     7.9063     7.6510
  146.5000   110.4283     7.9065     7.6648
  146.6000   110.4278     7.9069     7.7052
  146.7000   110.4272     7.9072     7.7058
  146.8000   110.4266     7.9207     7.7063
  146.9000   110.4259     7.9629     7.7416
  147.0000   110.3751     7.9633     7.7609
  147.1000   110.1130     7.9636     7.7614
  147.2000   109.5191     7.9987     7.7619
  147.3000   109.5186     8.0197     7.7652
  147.4000   109.3470     8.0200     7.8170
  147.5000   109.2157     8.0204     7.8175
  147.6000   109.2955     8.0215     7.8506
  147.7000   109.5865     8.0770     7.8728
  147.8000   110.1188     8.1170     7.8734
  147.9000   110.8573     8.1652     7.8739
  148.0000   111.8270     8.1908     7.8745
  148.1000   113.0079     8.2053     7.9298
  148.2000   114.1787     8.2486     7.9688
  148.3000   115.2039     8.2489     8.0164
  148.4000   116.2289     8.2493     8.0419
  148.5000   117.3544     8.2496     8.0564
  148.6000   118.0476     8.2775     8.0988
  148.7000   118.8163     8.3078     8.0994
  148.8000   119.5850     8.3181     8.1000
  148.9000   120.0670     8.3663     8.1005
  149.0000   120.0664     8.3667     8.1011
  149.1000   120.0608     8.3670     8.1213
  149.2000   119.7634     8.3674     8.1585
  149.3000   119.1143     8.3914     8.1590
  149.4000   118.5154     8.4263     8.1597
  149.5000   117.8763     8.4267     8.1602
