~VERSION INFORMATION
 VERS.                2.0:   CWLS LOG ASCII STANDARD - VERSION 2.0
 WRAP.                 NO:   ONE LINE PER DEPTH STEP
~WELL INFORMATION
#MNEM.UNIT      DATA TYPE    INFORMATION
#----------   ------------   ------------------------------
 STRT.F            0.0000:   START DEPTH
 STOP.F         1008.0000:   STOP DEPTH
 STEP.F            0.5000:   STEP LENGTH
 NULL.          -999.2500:   NO VALUE
 COMP. LAWRENCE/ALLISON INC:   COMPANY
 WELL. NPR 3 #51-61-SX-14:   WELL
 FLD .             TEAPOT:   FIELD
 LOC .      S14 T38N R78W:   LOCATION
 CNTY.            NATRONA:   COUNTY
 STAT.            WYOMING:   STATE
 CTRY. UNITED STATES OF AMERICA:   COUNTRY
 SRVC.      Dresser Atlas:   SERVICE COMPANY
 DATE.        05-FEB-1986:   LOGDATE
 API .       490251106600:   API NUMBER
~CURVE INFORMATION
#MNEM.UNIT       API CODE    CURVE DESCRIPTION
#----------   ------------   ------------------------------
 DEPT.F                  :   
 GRR .GAPI   07 310 01 00:   GAMMA RAY FROM RES. LOG.
 RILD.OHMM   10 120 46 00:   INDUCTION LOG DEEP RESISTIVITY
 RILM.OHMM   07 120 44 00:   INDUCTION LOG MEDIUM RESISTIVITY
 CALD.IN     45 280 60 00:   CALIPER
 DEN .G/C3   45 350 01 00:   COMPENSATED BULK DENSTIY
 CORR.G/C3   45 356 01 00:   DENSITY CORRECTION
 PORD.DEC    45 890 10 00:   POROSITY DENSITY LIMESTONE
~PARAMETER INFORMATION
#MNEM.UNIT          VALUE    DESCRIPTION
#----------   ------------   ------------------------------
 PD  .                 GL:   PERMANENT DATUM
 EPD .F              5225:   ELEVATION PERMANENT DATUM
 LMF .                 GL:   LOG MEASURED FROM
 DMF .                 GL:   DRILLING MEASURED FROM
 EGL .F              5225:   GROUND LEVEL
 DATE.             2-5-86:   RUN DATE
 RUN .                  1:   RUN NUMBER
 DD  .F              1010:   DEPTH DRILLER
 DL  .F              1008:   DEPTH LOGGER
 BLI .F              1008:   BOTTOM LOG INTERVAL
 CS  .IN            8.625:   CASING SIZE
 CBD .F                86:   CASING BOTTOM DRILLER
 CBL .F                84:   CASING BOTTOM LOGGER
 BS  .IN             6.25:   BIT SIZE
 BSD .F              1010:   BIT SIZE AT DEPTH
 DFT .                AIR:   DRILLING FLUID TYPE
 LUN .            HL 6264:   LOGGING UNIT NUMBER
 LUL .           GILLETTE:   LOGGING UNIT LOCATION
 ENGI.           FAHLSING:   RECORDING ENGINEER
 WITN.              FIVAS:   WITNESSED BY
 CLNT.            A2DTECH:   CLIENT CODE
 ORIG.       2", 5" PRINT:   ORIGIN OF DATA
 UWI .       490251106600:   UNIQUE WELL ID
 DICO. A2D Technologies, Inc.:   DIGITIZING COMPANY
~OTHER INFORMATION
~A    DEPT      GRR      RILD       RILM       CALD        DEN       CORR       PORD   
# ...
  955.5000   105.2448     8.5400     8.0535     6.4300     2.4723     0.0948     0.1249
  956.0000   106.8237     8.3856     7.9281     6.4300     2.4724     0.1291     0.1232
  956.5000   106.5144     8.2340     7.8046     6.4299     2.4625     0.1190     0.1296
  957.0000   106.2324     8.0852     7.6831     6.4237     2.4686     0.1192     0.1292
  957.5000   106.0305     7.9064     7.4335     6.4082     2.4804     0.1267     0.1200
  958.0000   109.1084     7.6124     7.0081     6.3928     2.4896     0.1378     0.1135
  958.5000   112.3274     7.3295     6.5567     6.3774     2.4978     0.1261     0.1083
  959.0000   112.2158     6.8463     6.1126     6.3621     2.5011     0.1211     0.1057
  959.5000   112.4732     6.2311     5.6435     6.3509     2.5010     0.1282     0.1059
  960.0000   116.2964     5.6705     5.1744     6.3578     2.5004     0.1348     0.1070
  960.5000   120.1115     5.1549     4.7442     6.3643     2.4955     0.1272     0.1090
  961.0000   123.8593     4.8079     4.4947     6.3709     2.4907     0.1037     0.1120
  961.5000   129.0433     4.7590     4.3420     6.3773     2.4813     0.0900     0.1205
  962.0000   134.0387     4.8771     4.4855     6.3838     2.4709     0.1057     0.1295
  962.5000   136.8780     5.1157     4.7567     6.3903     2.4610     0.1442     0.1322
  963.0000   127.1549     5.3869     5.0443     6.3968     2.4784     0.1665     0.1210
  963.5000   119.0357     5.7073     5.3492     6.4035     2.5055     0.1816     0.1055
  964.0000   113.3616     6.2098     5.6693     6.4093     2.5331     0.1958     0.0898
  964.5000   111.8158     6.7565     6.1821     6.3879     2.5541     0.1776     0.0811
  965.0000   111.8131     7.3513     6.7642     6.3678     2.5445     0.1574     0.0868
  965.5000   112.2629     7.8187     7.4048     6.3593     2.5326     0.1373     0.0914
  966.0000   113.7423     8.0003     7.6723     6.3507     2.5201     0.1173     0.0981
  966.5000   114.2584     8.1861     7.8396     6.3421     2.5061     0.0967     0.1058
  967.0000   111.6321     8.3762     8.0105     6.3334     2.4916     0.0925     0.1136
  967.5000   110.2700     8.5707     8.1852     6.3295     2.4890     0.0965     0.1156
  968.0000   111.9370     8.7698     8.3637     6.3284     2.4888     0.1029     0.1133
  968.5000   113.6474     8.9734     8.5464     6.3275     2.4931     0.1077     0.1112
  969.0000   113.0212     9.1819     8.7315     6.3265     2.4875     0.0994     0.1154
  969.5000   111.6162     9.3188     8.8829     6.3255     2.4803     0.0934     0.1196
  970.0000   110.1686     9.4288     8.9993     6.3246     2.4852     0.1068     0.1149
  970.5000   111.1107     9.5431     9.1185     6.3236     2.5027     0.1301     0.1069
  971.0000   112.3978     9.6589     9.2392     6.3226     2.5110     0.1264     0.0996
  971.5000   113.5392     9.7760     9.3615     6.3217     2.5194     0.1229     0.0963
  972.0000   111.9918     9.8945     9.4854     6.3207     2.5275     0.1267     0.0926
  972.5000   111.1311    10.0145     9.6110     6.3197     2.5357     0.1375     0.0890
  973.0000   112.1850    10.1360     9.7382     6.3187     2.5440     0.1490     0.0853
  973.5000   111.6316    10.2589     9.8596     6.3178     2.5378     0.1475     0.0875
  974.0000   108.7799    10.3833     9.9391     6.3168     2.5271     0.1400     0.0917
  974.5000   107.5435    10.5032    10.0194     6.3158     2.5171     0.1321     0.0954
  975.0000   109.9838    10.5645    10.1003     6.3149     2.5144     0.1338     0.0978
  975.5000   112.3531    10.6234    10.1813     6.3139     2.5085     0.1378     0.1030
  976.0000   114.0491    10.6827    10.2294     6.3129     2.4961     0.1466     0.1082
  976.5000   109.1714    10.7423    10.2514     6.3119     2.4917     0.1562     0.1123
  977.0000   103.4133    10.7969    10.2733     6.3106     2.4979     0.1524     0.1090
  977.5000   104.8473    10.8191    10.2954     6.3120     2.5039     0.1374     0.1048
  978.0000   106.5224    10.8440    10.3175     6.3781     2.5101     0.1219     0.1008
  978.5000   107.7274    10.8689    10.3396     6.4224     2.5088     0.1194     0.1023
  979.0000   107.8705    10.8939    10.3618     6.3811     2.5070     0.1234     0.1039
  979.5000   107.2926    10.9189    10.3837     6.3420     2.5074     0.1276     0.1026
  980.0000   103.7400    10.9439    10.4057     6.3094     2.5085     0.1222     0.1016
  980.5000    99.7998    10.9691    10.3694     6.3225     2.5080     0.1041     0.1041
  981.0000   101.9029    10.9970    10.3320     6.3301     2.5027     0.0899     0.1066
  981.5000   105.3039    10.9416    10.2944     6.3299     2.4982     0.1043     0.1091
  982.0000   108.6911    10.8793    10.2570     6.3131     2.4966     0.1202     0.1117
  982.5000  -999.2500    10.8170    10.2198     6.2932     2.4910     0.1329     0.1142
  983.0000  -999.2500    10.7551    10.1827     6.3102     2.4838     0.1390     0.1167
  983.5000  -999.2500    10.6935    10.1457     6.3361     2.4787     0.1444     0.1193
  984.0000  -999.2500    10.6323    10.1088     6.3624     2.4772     0.1332     0.1218
  984.5000  -999.2500    10.5715    10.0721     6.3695     2.4740     0.1036     0.1240
  985.0000  -999.2500    10.5120    10.0355     6.3658     2.4777     0.1199     0.1211
  985.5000  -999.2500    10.3933     9.8902     6.3620     2.4829     0.1446     0.1179
  986.0000  -999.2500    10.2694     9.7305     6.3582     2.4838     0.1467     0.1165
  986.5000  -999.2500    10.1462     9.5733     6.3545     2.4791     0.1013     0.1189
  987.0000  -999.2500    10.0247     9.4187     6.3507     2.4824     0.0963     0.1173
  987.5000  -999.2500     9.9046     9.2667     6.3469     2.4896     0.0983     0.1140
  988.0000  -999.2500     9.7765     9.1170     6.3431     2.4890     0.1095     0.1144
  988.5000  -999.2500     9.6418     8.9698     6.3394     2.4855     0.1208     0.1159
  989.0000  -999.2500     9.5086     8.8249     6.3356     2.4852     0.1183     0.1144
  989.5000  -999.2500     9.3774     8.6824     6.3318     2.4915     0.1089     0.1113
  990.0000  -999.2500     9.2480     8.5422     6.3300     2.4977     0.1005     0.1080
  990.5000  -999.2500     9.1205     8.4043     6.3300     2.4978     0.1072     0.1085
  991.0000  -999.2500     8.9946     8.2686     6.3353     2.4961     0.1143     0.1098
  991.5000  -999.2500     8.8705     8.1350     6.3438     2.5002     0.1214     0.1076
  992.0000  -999.2500     8.7482     8.0037     6.3427     2.5122     0.1284     0.1013
  992.5000  -999.2500     8.6275     7.8948     6.3113     2.5241     0.1368     0.0950
  993.0000  -999.2500     8.5084     7.8853     6.3098     2.5360     0.1526     0.0887
  993.5000  -999.2500     8.4054     7.8758     6.3100     2.5480     0.1684     0.0830
  994.0000  -999.2500     8.3433     7.8664     6.3100     2.5552     0.1812     0.0802
  994.5000  -999.2500     8.2816     7.8569     6.3100     2.5476     0.1622     0.0815
  995.0000  -999.2500     8.2204     7.8474     6.3100     2.5383     0.1393     0.0851
  995.5000  -999.2500     8.1596     7.8380     6.3100     2.5365     0.1344     0.0867
  996.0000  -999.2500     8.0993     7.8286     6.3100     2.5437     0.1515     0.0834
  996.5000  -999.2500     8.0395     7.7904     6.3100     2.5509     0.1726     0.0808
  997.0000  -999.2500     7.9801     7.7280     6.3100     2.5501     0.1823     0.0832
  997.5000  -999.2500     7.9696     7.6662     6.3100     2.5413     0.1873     0.0862
  998.0000  -999.2500     7.9695     7.5932     6.3100     2.5329     0.1731     0.0893
  998.5000  -999.2500     7.9695     7.4218     6.3100     2.5243     0.1589     0.0924
  999.0000  -999.2500     7.9695     7.2542     6.3100     2.5236     0.1447     0.0924
  999.5000  -999.2500     7.9695     7.0904     6.3100     2.5275     0.1307     0.0905
 1000.0000  -999.2500     7.9695     7.0062     6.3100     2.5316     0.1229     0.0888
 1000.5000  -999.2500  -999.2500  -999.2500     6.3110     2.5290     0.1321     0.0906
