~VERSION INFORMATION
 VERS.                2.0:   CWLS LOG ASCII STANDARD - VERSION 2.0
 WRAP.                 NO:   ONE LINE PER DEPTH STEP
~WELL INFORMATION
#MNEM.UNIT      DATA TYPE    INFORMATION
#----------   ------------   ------------------------------
 STRT.F            2.0000:   START DEPTH
 STOP.F          548.0000:   STOP DEPTH
 STEP.F            0.1000:   STEP LENGTH
 NULL.          -999.2500:   NO VALUE
 COMP.       F D SERV INC:   COMPANY
 WELL. NAVAL PETROLEUM RESERVE 3 SX-3 #88-10-3:   WELL
 FLD .             TEAPOT:   FIELD
 LOC .       S3 T38N R78W:   LOCATION
 CNTY.            NATRONA:   COUNTY
 STAT.            WYOMING:   STATE
 CTRY. UNITED STATES OF AMERICA:   COUNTRY
 SRVC.     Atlas Wireline:   SERVICE COMPANY
 DATE.        19-OCT-1992:   LOGDATE
 API .       490252254600:   API NUMBER
~CURVE INFORMATION
#MNEM.UNIT       API CODE    CURVE DESCRIPTION
#----------   ------------   ------------------------------
 DEPT.F                  :   
 GRR .GAPI   07 310 01 00:   GAMMA RAY
 ILD .OHMM   07 120 46 00:   INDUCTION LOG DEEP
 ILM .OHMM   07 120 44 00:   INDUCTION LOG MEDIUM
~PARAMETER INFORMATION
#MNEM.UNIT          VALUE    DESCRIPTION
#----------   ------------   ------------------------------
 PD  .                 GL:   PERMANENT DATUM
 EPD .F              5126:   ELEVATION PERMANENT DATUM
 LMF .                 KB:   LOG MEASURED FROM
 DAPD.F                10:   FEET ABOVE PERMANENT DATUM
 DMF .                 KB:   DRILLING MEASURED FROM
 EKB .F              5136:   KELLING BUSHING
 EDF .F              5135:   DRILLING FLOOR
 EGL .F              5126:   GROUND LEVEL
 DATE.        19-OCT-1992:   RUN DATE
 RUN .                  1:   RUN NUMBER
 DD  .F               566:   DEPTH DRILLER
 DL  .F               558:   DEPTH LOGGER
 BLI .F               550:   BOTTOM LOG INTERVAL
 TLI .F                98:   TOP LOG INTERVAL
 CS  .IN            8.625:   CASING SIZE
 CBD .F                85:   CASING BOTTOM DRILLER
 CBL .F                98:   CASING BOTTOM LOGGER
 BS  .IN            7.875:   BIT SIZE
 BSD .F               566:   BIT SIZE AT DEPTH
 DFT .           AIR FOAM:   DRILLING FLUID TYPE
 TCS .HRS               2:   TIME CURCULATED STOPPED
 MRT .F                73:   MAXIMUM RECORDED TEMPERATURE
 LUN .            HL-6274:   LOGGING UNIT NUMBER
 LUL .             CASPER:   LOGGING UNIT LOCATION
 ENGI.             RAUTIO:   RECORDING ENGINEER
 WITN.        GARY STRONG:   WITNESSED BY
 CLNT.            A2DTECH:   CLIENT CODE
 ORIG.           5" PRINT:   ORIGIN OF DATA
 UWI .       490252254600:   UNIQUE WELL ID
 DICO. A2D Technologies, Inc.:   DIGITIZING COMPANY
~OTHER INFORMATION
~A    DEPT     GRR        ILD        ILM   
# ...
  438.8000    99.7497    17.0797    17.0182
  438.9000    99.7475    17.0788    16.9710
  439.0000    99.7458    17.0002    16.8487
  439.1000    99.7440    16.9020    16.6617
  439.2000    99.7422    16.8044    16.6601
  439.3000    99.7404    16.7210    16.5820
  439.4000    99.7386    16.7200    16.5418
  439.5000    99.7364    16.6307    16.5404
  439.6000    99.7349    16.6019    16.5391
  439.7000    99.7331    16.6009    16.5376
  439.8000    99.7313    16.5484    16.5363
  439.9000    99.7295    16.3689    16.4682
  440.0000    99.7275    16.3678    16.4646
  440.1000    99.7259    16.3670    16.5321
  440.2000    99.5522    16.3081    16.5263
  440.3000    99.3031    16.2513    16.4143
  440.4000    98.9927    16.2504    16.4132
  440.5000    98.5083    16.2495    16.3552
  440.6000    98.5061    16.2486    16.2606
  440.7000    98.1085    16.2477    16.1666
  440.8000    97.7549    16.2468    16.0680
  440.9000    97.4183    16.2166    16.0667
  441.0000    96.9542    16.1319    15.9991
  441.1000    96.6818    16.1309    15.9067
  441.2000    96.4559    16.1301    15.8147
  441.3000    96.2068    16.0682    15.7288
  441.4000    96.0714    15.9754    15.7273
  441.5000    96.0110    15.8831    15.6508
  441.6000    95.7620    15.7922    15.6156
  441.7000    95.5128    15.7913    15.6143
  441.8000    95.0685    15.7190    15.6130
  441.9000    94.4321    15.6282    15.6117
  442.0000    93.6036    15.5379    15.5251
  442.1000    92.6127    15.4482    15.4354
  442.2000    91.5181    15.3520    15.3917
  442.3000    90.4091    15.3512    15.3642
  442.4000    89.8356    15.2886    15.2822
  442.5000    89.6974    15.2427    15.2807
  442.6000    89.7513    15.2184    15.2050
  442.7000    89.9968    15.1304    15.1172
  442.8000    90.2423    15.0286    15.0298
  442.9000    90.2953    15.0279    14.9596
  443.0000    90.4306    15.0271    14.9583
  443.1000    90.6761    15.0263    14.9571
  443.2000    90.9216    15.0254    14.9558
  443.3000    91.1955    15.0246    14.9546
  443.4000    91.6313    15.0237    14.9803
  443.5000    91.9607    15.0229    15.0568
  443.6000    92.2062    15.0221    15.0553
  443.7000    92.3988    15.0212    15.0542
  443.8000    92.3970    15.0204    15.0529
  443.9000    92.6401    15.0194    15.0146
  444.0000    92.6959    15.0187    14.9278
  444.1000    92.8284    15.0179    14.8407
  444.2000    92.9158    15.0170    14.7558
  444.3000    92.6667    15.0162    14.7352
  444.4000    92.3858    15.0154    14.7339
  444.5000    92.3843    15.0145    14.7050
  444.6000    92.2219    15.0137    14.6291
  444.7000    92.0781    15.0128    14.6277
  444.8000    92.0763    15.0120    14.5527
  444.9000    92.0744    15.0112    14.5238
  445.0000    92.3147    15.0103    14.4856
  445.1000    92.1866    14.9307    14.4205
  445.2000    92.0690    14.9042    14.4187
  445.3000    92.1434    14.9034    14.3355
  445.4000    92.3681    14.9025    14.3167
  445.5000    92.3659    14.9017    14.3155
  445.6000    92.3643    14.9007    14.3426
  445.7000    92.3625    14.9000    14.4134
  445.8000    92.3607    14.8470    14.4119
  445.9000    92.3588    14.7947    14.3367
  446.0000    92.3570    14.7788    14.3095
  446.1000    92.3552    14.6901    14.3083
  446.2000    92.3534    14.6086    14.3071
  446.3000    91.9655    14.5863    14.3059
  446.4000    91.3687    14.5855    14.3045
  446.5000    91.1377    14.5589    14.2383
  446.6000    91.1356    14.4823    14.2030
  446.7000    91.1340    14.4814    14.1726
  446.8000    91.2872    14.4807    14.0907
  446.9000    91.4330    14.4256    14.0027
  447.0000    91.5199    14.3784    14.0016
  447.1000    92.0344    14.3594    13.9447
  447.2000    92.2691    14.2764    13.9020
  447.3000    93.0581    14.1941    13.8804
  447.4000    94.0454    14.1758    13.8031
  447.5000    95.0327    14.1290    13.8017
  447.6000    95.9742    14.0756    13.7366
  447.7000    96.2593    14.0641    13.7037
  447.8000    96.2578    13.9760    13.6733
  447.9000    96.4081    13.9021    13.6063
  448.0000    96.6536    13.8219    13.6050
  448.1000    96.8578    13.7799    13.5316
  448.2000    96.5530    13.7585    13.5083
  448.3000    96.5513    13.6825    13.4692
  448.4000    96.3712    13.6816    13.3914
  448.5000    96.2451    13.6810    13.3179
  448.6000    96.1755    13.6325    13.3166
  448.7000    95.9389    13.5843    13.2526
  448.8000    95.9368    13.5699    13.1760
  448.9000    95.9352    13.4882    13.1291
  449.0000    95.9334    13.4136    13.1152
  449.1000    95.8376    13.3929    13.0356
  449.2000    95.6272    13.3921    13.0346
  449.3000    95.6253    13.3914    13.0335
  449.4000    95.3928    13.3839    12.9946
  449.5000    95.3192    13.2966    12.9408
  449.6000    95.1972    13.2960    12.9397
  449.7000    95.0130    13.2952    12.9385
  449.8000    95.0015    13.2945    12.8751
  449.9000    94.7065    13.2937    12.8466
  450.0000    94.5033    13.2930    12.8455
  450.1000    93.9613    13.1439    12.8308
  450.2000    92.7615    13.0522    12.7541
  450.3000    90.9969    12.9787    12.7531
  450.4000    90.4616    12.9055    12.7520
  450.5000    90.4599    12.8327    12.7509
  450.6000    90.6308    12.7465    12.7278
  450.7000    90.8763    12.7463    12.6542
  450.8000    91.1839    12.7461    12.5711
  450.9000    91.6766    12.7460    12.5701
  451.0000    92.2659    12.7458    12.5231
  451.1000    93.2589    12.7456    12.4807
  451.2000    94.3499    12.7454    12.4797
  451.3000    95.2490    12.7013    12.4786
  451.4000    95.9561    12.6564    12.4776
  451.5000    96.4930    12.6562    12.4765
  451.6000    97.9943    12.6560    12.4755
  451.7000    98.8555    12.6559    12.4745
  451.8000    99.5146    12.6557    12.4734
  451.9000    99.8027    12.6555    12.4722
  452.0000    99.8003    12.6553    12.4713
  452.1000    99.7977    12.6551    12.4703
  452.2000    99.5696    12.6550    12.4692
  452.3000    99.4905    12.6548    12.4682
  452.4000    99.4880    12.6546    12.4672
  452.5000    99.4856    12.6544    12.4661
  452.6000    99.4831    12.6543    12.4651
  452.7000    99.2448    12.6541    12.4640
  452.8000    99.1758    12.6539    12.4630
  452.9000    99.1734    12.6537    12.4701
  453.0000    99.1710    12.6536    12.5480
  453.1000    99.1685    12.6534    12.5470
  453.2000    99.1661    12.6532    12.5944
  453.3000    98.9761    12.6530    12.6327
  453.4000    98.8587    12.6529    12.6316
  453.5000    98.7857    12.6527    12.6306
  453.6000    98.5392    12.6525    12.7028
  453.7000    98.2458    12.6523    12.7168
  453.8000    98.2439    12.6521    12.7158
  453.9000    98.2414    12.6520    12.7147
  454.0000    98.2390    12.6518    12.7136
  454.1000    98.2366    12.6516    12.7125
  454.2000    98.2338    12.6514    12.7115
  454.3000    98.2318    12.6513    12.7105
  454.4000    98.2293    12.6511    12.6755
  454.5000    98.2269    12.6509    12.6200
  454.6000    98.2245    12.6507    12.6190
  454.7000    98.2218    12.6505    12.6177
  454.8000    98.2197    12.6504    12.6169
  454.9000    98.2172    12.6502    12.6158
  455.0000    98.2148    12.6500    12.6147
  455.1000    98.2971    12.6653    12.6137
  455.2000    98.8150    12.7383    12.6126
  455.3000    99.0407    12.7381    12.6116
  455.4000    99.2823    12.7380    12.6105
  455.5000    99.6348    12.7378    12.6095
  455.6000   100.1206    12.7376    12.6084
  455.7000   100.6184    12.7374    12.6074
  455.8000   101.0921    12.7372    12.6061
  455.9000   101.3983    12.7371    12.6053
  456.0000   101.6399    12.7369    12.6042
  456.1000   101.9441    12.7367    12.6031
  456.2000   102.4218    12.7365    12.6021
  456.3000   102.4194    12.7363    12.6010
  456.4000   102.0378    12.7362    12.6000
  456.5000   101.8094    12.7360    12.5473
  456.6000   101.7344    12.7358    12.5103
  456.7000   101.4878    12.7356    12.4894
  456.8000   101.1965    12.7354    12.4213
  456.9000   101.1946    12.7353    12.4201
