~VERSION INFORMATION
 VERS.                2.0:   CWLS LOG ASCII STANDARD - VERSION 2.0
 WRAP.                 NO:   ONE LINE PER DEPTH STEP
~WELL INFORMATION
#MNEM.UNIT      DATA TYPE    INFORMATION
#----------   ------------   ------------------------------
 STRT.F           34.0000:   START DEPTH
 STOP.F          582.0000:   STOP DEPTH
 STEP.F            0.5000:   STEP LENGTH
 NULL.          -999.2500:   NO VALUE
 COMP. FENIX & SCISSON INC:   COMPANY
 WELL. NPR 3 SX-33 #88-33:   WELL
 FLD .             TEAPOT:   FIELD
 LOC .      S33 T39N R78W:   LOCATION
 CNTY.            NATRONA:   COUNTY
 STAT.            WYOMING:   STATE
 CTRY. UNITED STATES OF AMERICA:   COUNTRY
 SRVC.           BIRDWELL:   SERVICE COMPANY
 DATE.        04-AUG-1978:   LOGDATE
 API .       490251068000:   API NUMBER
~CURVE INFORMATION
#MNEM.UNIT       API CODE    CURVE DESCRIPTION
#----------   ------------   ------------------------------
 DEPT.F                  :   
 SPR .MV     05 010 01 00:   SPONTANEOUS POTENTIAL FROM RES.
 ILD .OHMM   05 120 46 00:   INDUCTION LOG DEEP
 SN  .OHMM   05 040 16 00:   SHORT NORMAL 16"
 CALD.IN     45 280 60 00:   CALIPER
 GRD .GAPI   45 310 01 00:   GAMMA RAY FROM DENSITY LOG
 DEN .G/C3   45 350 01 00:   COMPENSATED BULK DENSTIY
 CORR.G/C3   45 356 01 00:   DENSITY CORRECTION
 DPHI.DEC    45 890 12 00:   DENSITY POROSITY SANDSTONE
~PARAMETER INFORMATION
#MNEM.UNIT          VALUE    DESCRIPTION
#----------   ------------   ------------------------------
 PD  .                 GL:   PERMANENT DATUM
 EPD .F              5146:   ELEVATION PERMANENT DATUM
 LMF .                 KB:   LOG MEASURED FROM
 DAPD.F                 4:   FEET ABOVE PERMANENT DATUM
 DMF .                 KB:   DRILLING MEASURED FROM
 EKB .F              5150:   KELLING BUSHING
 EGL .F              5146:   GROUND LEVEL
 DATE.             8-4-78:   RUN DATE
 RUN .                  1:   RUN NUMBER
 DD  .F               570:   DEPTH DRILLER
 DL  .F               588:   DEPTH LOGGER
 BLI .F               582:   BOTTOM LOG INTERVAL
 TLI .F                50:   TOP LOG INTERVAL
 CS  .IN            8.625:   CASING SIZE
 CBD .F                40:   CASING BOTTOM DRILLER
 BS  .IN            7.875:   BIT SIZE
 BSD .F               570:   BIT SIZE AT DEPTH
 DFT .                KCL:   DRILLING FLUID TYPE
 DFD .                8.7:   DRILLING FLUID DENSITY
 DFV .                 34:   DRILLING FLUID VISCOSITY
 DFPH.                  9:   DRILLING FLUID PH
 DFL .                9.6:   DRILLING FLUID LOSS
 MSS .          FLOW LINE:   MUD SAMPLE SOURCE
 RMS .OHMM            .24:   RESISTIVITY MUD SAMPLE
 MST .F                70:   MUD SAMPLE TEMPERATURE
 RMF .OHMM            .24:   RESISTIVITY MUD FILTRATE SAMPLE
 MFST.F                80:   MUD FILTRATE SAMPLE TEMPERATURE
 RMC .OHMM             .3:   RESISTIVITY MUD CAKE
 MCST.F                75:   MUD CAKE SAMPLE TEMPERATURE
 MFSS.               MEAS:   MUD FILTRATE SAMPLE SOURCE
 TCS .HRS               2:   TIME CURCULATED STOPPED
 LUN .               3006:   LOGGING UNIT NUMBER
 LUL .               CASP:   LOGGING UNIT LOCATION
 ENGI.             MILLER:   RECORDING ENGINEER
 WITN.           MCGINLEY:   WITNESSED BY
 CLNT.            A2DTECH:   CLIENT CODE
 ORIG.        2" 5" PRINT:   ORIGIN OF DATA
 UWI .       490251068000:   UNIQUE WELL ID
 DICO. A2D Technologies, Inc.:   DIGITIZING COMPANY
~OTHER INFORMATION
~A   DEPT      SPR        ILD         SN       CALD         GRD       DEN       CORR       DPHI   
# ...
  479.5000   -10.0598    19.4032    14.5934     7.1901    69.0751     2.3254     0.0538     0.1992
  480.0000   -10.0598    19.3517    14.5738     7.1992    66.8802     2.3394     0.0672     0.2003
  480.5000   -10.0598    19.2787    14.5542     7.2214    66.1783     2.3489     0.0656     0.2012
  481.0000   -10.0598    19.3425    14.5347     7.2675    66.9804     2.3489     0.0630     0.2015
  481.5000   -10.0598    19.4566    14.5157     7.3499    64.8317     2.3490     0.0644     0.2008
  482.0000   -10.0598    20.4884    14.4304     7.4446    67.0292     2.3491     0.0688     0.2000
  482.5000   -10.0597    21.6048    14.2381     7.5400    69.8335     2.3493     0.0733     0.1994
  483.0000   -10.0596    22.7897    14.0485     7.6346    70.7688     2.3494     0.0777     0.1981
  483.5000   -10.0597    24.2687    13.8613     7.7688    72.4614     2.3495     0.0785     0.1976
  484.0000   -10.0730    24.2451    13.6767     7.9226    70.8564     2.3496     0.0793     0.2000
  484.5000   -10.1601    24.7812    13.4944     8.0323    68.2394     2.3501     0.0811     0.1908
  485.0000   -10.2468    24.9312    13.3147     8.0817    68.5210     2.3605     0.0891     0.1909
  485.5000   -10.3331    24.9312    13.1373     8.1321    69.6296     2.3609     0.0971     0.1948
  486.0000   -10.4199    24.6273    12.9895     8.2080    70.7107     2.3537     0.1050     0.2097
  486.5000   -10.4867    23.7973    12.9895     8.2838    71.3328     2.3303     0.1129     0.2248
  487.0000   -10.5396    22.9959    12.9895     8.3003    68.1467     2.3067     0.1254     0.2469
  487.5000   -10.5922    22.1548    12.9895     8.2846    68.1892     2.2767     0.1571     0.2662
  488.0000   -10.6486    21.0245    12.9033     8.3746    70.7481     2.2460     0.1965     0.2743
  488.5000   -10.5382    18.8428    12.6593     8.8629    67.0794     2.2100     0.2489     0.2369
  489.0000   -10.3799    16.5594    12.4066     8.9675    67.6243     2.1972     0.3014     0.2196
  489.5000   -10.2205    14.5707    12.4504     8.9634    68.3506     2.1886     0.3360     0.2399
  490.0000   -10.0612    13.4821    12.5095     8.9532    69.0795     2.1459     0.3261     0.2567
  490.5000    -9.8971    13.6209    12.5690     8.9466    69.8074     2.1032     0.3156     0.2629
  491.0000    -9.8398    13.6835    12.6287     9.1216    69.9250     2.0953     0.3226     0.2623
  491.5000    -9.8108    14.2149    12.6887     9.3247    69.0809     2.1044     0.3356     0.2617
  492.0000    -9.7828    15.8975    12.7531     9.3226    68.1277     2.1168     0.3349     0.2580
  492.5000    -9.7544    16.8435    12.4305     9.2905    67.1650     2.1150     0.2960     0.2528
  493.0000    -9.7259    16.9294    12.0934     9.3153    66.2147     2.1196     0.2552     0.2521
  493.5000    -9.6970    17.6953    11.7415     9.3389    65.6768     2.0970     0.3136     0.2231
  494.0000    -9.6609    18.5664    11.7415     9.1690    68.9551     2.5121     0.3586     0.1343
  494.5000    -9.9927    19.0451    12.3288     9.2905    67.8305     2.4239     0.1694     0.1351
  495.0000   -10.4480    20.7810    12.7711     7.3533    66.6913     2.4525     0.0668     0.1193
  495.5000   -11.0508    23.5947    13.1122     7.3934    68.2000     2.4815     0.0631     0.1166
  496.0000   -12.5829    23.5947    13.1115     7.3801    70.3491     2.4815     0.0619     0.1368
  496.5000   -14.1665    22.6250    12.9761     7.3670    72.0767     2.4544     0.0399     0.1482
  497.0000   -14.4423    21.6117    12.8750     7.3546    71.7668     2.4360     0.0364     0.1531
  497.5000   -14.4873    19.4374    12.7751     7.3425    70.3392     2.4214     0.0458     0.1561
  498.0000   -14.8479    16.6322    12.6760     7.3305    69.1259     2.4207     0.0573     0.1552
  498.5000   -15.2154    16.0221    12.5776     7.3185    69.9692     2.4207     0.0678     0.1538
  499.0000   -15.5765    15.6918    12.4800     7.3098    71.7882     2.4206     0.0700     0.1555
  499.5000   -15.8416    15.4120    12.3832     7.3099    71.5715     2.4193     0.0743     0.1597
  500.0000   -15.8357    15.3265    12.2872     7.3101    71.5005     2.4180     0.0786     0.1583
  500.5000   -15.9913    15.3232    12.1918     7.3281    72.3028     2.4196     0.0880     0.1561
  501.0000   -16.3014    15.2184    12.0973     7.3482    73.0760     2.4226     0.0996     0.1400
  501.5000   -16.6178    14.8715    12.0688     7.3685    75.1235     2.4429     0.1159     0.1296
  502.0000   -16.6723    14.5334    12.0630     7.3890    77.6980     2.4892     0.1601     0.1130
  502.5000   -16.7104    14.2029    12.0572     7.3902    78.6542     2.4928     0.1703     0.1127
  503.0000   -16.7496    13.7271    12.0513     7.3900    76.8252     2.4918     0.1562     0.1191
  503.5000   -16.7884    13.8010    12.0455     7.3900    79.0181     2.4800     0.1378     0.1275
  504.0000   -16.8359    13.9593    12.0397     7.3900    80.3805     2.4696     0.1197     0.1271
  504.5000   -17.1903    14.1167    12.0338     7.3901    76.1940     2.4714     0.1077     0.1255
  505.0000   -17.5717    14.2756    12.0280     7.3901    75.2991     2.4768     0.1114     0.1213
  505.5000   -17.8512    14.4362    12.0222     7.3892    76.4968     2.4822     0.1188     0.1164
  506.0000   -17.9027    14.5987    12.0164     7.3536    72.5137     2.4977     0.1329     0.1078
  506.5000   -17.9591    14.7630    12.0105     7.2662    72.3717     2.5177     0.1440     0.1007
  507.0000   -18.0168    14.9078    12.0047     7.2585    77.0254     2.5189     0.1402     0.0970
  507.5000   -17.9962    14.8479    11.9989     7.2466    81.0739     2.5129     0.1342     0.1122
  508.0000   -17.9549    14.7662    11.9931     7.1398    82.9212     2.5047     0.1218     0.1106
  508.5000   -17.9132    14.6849    11.9873     7.0712    81.7497     2.4964     0.0904     0.1114
  509.0000   -17.8677    14.6040    11.9815     7.0469    79.9858     2.4885     0.0851     0.1134
  509.5000   -17.8157    14.5237    11.9757     6.9868    78.2064     2.4866     0.0840     0.1148
  510.0000   -18.1513    14.3689    11.9699     6.9321    77.6972     2.4850     0.0828     0.1188
  510.5000   -18.3816    14.1898    11.9641     6.8894    79.9427     2.4790     0.0810     0.1258
  511.0000   -18.4274    14.0129    11.9554     6.8743    82.8802     2.4719     0.0769     0.1258
  511.5000   -18.4298    13.8381    11.9292     6.8556    85.8538     2.4647     0.0729     0.1305
  512.0000   -18.6546    13.6655    11.9031     6.8366    85.7219     2.4632     0.0699     0.1217
  512.5000   -19.1984    13.4952    11.8771     6.8296    84.5465     2.5031     0.0738     0.1182
  513.0000   -19.4529    13.3337    11.8511     6.8581    83.3491     2.5013     0.0881     0.1154
  513.5000   -19.5151    13.2116    11.8251     6.9002    82.6891     2.4884     0.0653     0.1124
  514.0000   -19.5728    13.0906    11.7993     6.9428    82.7442     2.4908     0.0611     0.1098
  514.5000   -19.6301    12.9707    11.7734     6.9856    83.6992     2.4935     0.0628     0.1091
  515.0000   -19.6878    12.8708    11.7477     7.0286    84.6522     2.4961     0.0646     0.1100
  515.5000   -19.7455    12.8988    11.7220     7.0715    85.5981     2.4956     0.0656     0.1150
  516.0000   -19.8032    12.9231    11.6963     7.0661    85.3498     2.4873     0.0590     0.1172
  516.5000   -19.8608    12.9473    11.6707     7.0610    84.8582     2.4794     0.0527     0.1223
  517.0000   -19.9183    12.9717    11.6452     7.0561    84.4946     2.4783     0.0487     0.1230
  517.5000   -19.9763    12.9961    11.6197     7.0512    84.5734     2.4778     0.0452     0.1195
  518.0000   -20.0474    13.0205    11.5943     7.0499    85.9706     2.4773     0.0417     0.1174
  518.5000   -20.1752    13.0449    11.5689     7.0779    88.4197     2.4768     0.0381     0.1192
  519.0000   -20.3003    13.0692    11.5436     7.1314    90.6146     2.4763     0.0372     0.1212
  519.5000   -20.4253    13.0939    11.5183     7.1853    90.7045     2.4758     0.0364     0.1234
