~VERSION INFORMATION
 VERS.                2.0:   CWLS LOG ASCII STANDARD - VERSION 2.0
 WRAP.                 NO:   ONE LINE PER DEPTH STEP
~WELL INFORMATION
#MNEM.UNIT      DATA TYPE    INFORMATION
#----------   ------------   ------------------------------
 STRT.F           21.0000:   START DEPTH
 STOP.F          543.0000:   STOP DEPTH
 STEP.F            0.5000:   STEP LENGTH
 NULL.          -999.2500:   NO VALUE
 COMP. FENIX & SCISSON INC:   COMPANY
 WELL.      NPR #3 #46-10:   WELL
 FLD .             TEAPOT:   FIELD
 LOC .      S10 T38N R78W:   LOCATION
 CNTY.            NATRONA:   COUNTY
 STAT.            WYOMING:   STATE
 CTRY. UNITED STATES OF AMERICA:   COUNTRY
 SRVC.              Welex:   SERVICE COMPANY
 DATE.        08-MAY-1980:   LOGDATE
 API .       490251081100:   API NUMBER
~CURVE INFORMATION
#MNEM.UNIT       API CODE    CURVE DESCRIPTION
#----------   ------------   ------------------------------
 DEPT.F                  :   
 SGRD.OHMM   07 220 05 00:   SHALLOW GUARD RESISTIVITY
 ILD .OHMM   07 120 46 00:   INDUCTION LOG DEEP RESISTIVITY
 ILM .OHMM   07 120 44 00:   INDUCTION LOG MEDIUM
 SPR .MV     07 010 01 00:   SPONTANEOUS POTENTIAL
 CALD.IN     45 280 60 00:   CALIPER
 GRD .GAPI   45 310 01 00:   GAMMA RAY FROM DENSITY LOG
 CORR.G/C3   45 356 01 00:   DENSITY CORRECTION
 RHOB.G/C3   45 350 01 00:   BULK DENSITY
 DPHI.DEC    45 890 12 00:   DENSITY POROSITY SANDSTONE
~PARAMETER INFORMATION
#MNEM.UNIT          VALUE    DESCRIPTION
#----------   ------------   ------------------------------
 PD  .                 GL:   PERMANENT DATUM
 EPD .F              5206:   ELEVATION PERMANENT DATUM
 LMF .                 KB:   LOG MEASURED FROM
 DAPD.F                 5:   FEET ABOVE PERMANENT DATUM
 DMF .                 KB:   DRILLING MEASURED FROM
 EKB .F              5211:   KELLING BUSHING
 EGL .F              5206:   GROUND LEVEL
 DATE.             5-8-80:   RUN DATE
 RUN .                  1:   RUN NUMBER
 DD  .F               530:   DEPTH DRILLER
 DL  .F               543:   DEPTH LOGGER
 BLI .F               541:   BOTTOM LOG INTERVAL
 TLI .F                30:   TOP LOG INTERVAL
 BS  .IN            7.875:   BIT SIZE
 BSD .F               530:   BIT SIZE AT DEPTH
 DFT .            KCL MUD:   DRILLING FLUID TYPE
 DFD .                9.1:   DRILLING FLUID DENSITY
 DFV .                 43:   DRILLING FLUID VISCOSITY
 MSS .                PIT:   MUD SAMPLE SOURCE
 RMS .OHMM            .89:   RESISTIVITY MUD SAMPLE
 MST .F                75:   MUD SAMPLE TEMPERATURE
 RMF .OHMM            .71:   RESISTIVITY MUD FILTRATE SAMPLE
 MFST.F                75:   MUD FILTRATE SAMPLE TEMPERATURE
 RMC .OHMM           1.08:   RESISTIVITY MUD CAKE
 MCST.F                75:   MUD CAKE SAMPLE TEMPERATURE
 MFSS.           MEASURED:   MUD FILTRATE SAMPLE SOURCE
 MCSS.           MEASURED:   MUD CAKE SAMPLE SOURCE
 BHT .F               100:   BOTTOM HOLE TEMPERATURE
 TCS .HRS               2:   TIME CURCULATED STOPPED
 MRT .F               100:   MAXIMUM RECORDED TEMPERATURE
 LUN .               9685:   LOGGING UNIT NUMBER
 LUL .             CASPER:   LOGGING UNIT LOCATION
 ENGI.            TOTHILL:   RECORDING ENGINEER
 WITN.              AMEND:   WITNESSED BY
 CLNT.            A2DTECH:   CLIENT CODE
 ORIG.           5" PRINT:   ORIGIN OF DATA
 UWI .       490251081100:   UNIQUE WELL ID
 DICO. A2D Technologies, Inc.:   DIGITIZING COMPANY
~OTHER INFORMATION
~A   DEPT     SGRD        ILD        ILM        SPR        CALD        GRD        CORR       RHOB     DPHI   
# ...
  386.0000    36.4158    29.5297    33.4573   -29.6693     7.7559    74.8127     0.0128     2.2406     0.2607
  386.5000    47.5780    29.7807    33.7106   -29.6693     7.7147    74.8789     0.0167     2.2437     0.2596
  387.0000    28.1285    30.2987    33.8266   -29.6693     7.7013    74.5517     0.0224     2.2507     0.2566
  387.5000    23.9024    30.2719    33.5419   -29.6693     7.7062    74.2270     0.0281     2.2621     0.2503
  388.0000    22.3397    30.2804    33.0560   -29.6694     7.7106    74.1099     0.0295     2.2679     0.2458
  388.5000    26.7052    30.2838    32.5771   -29.6707     7.7152    74.2883     0.0308     2.2722     0.2431
  389.0000    33.2208    30.2222    32.1052   -29.6645     7.7197    74.3988     0.0316     2.2786     0.2375
  389.5000    42.2041    29.6374    31.6401   -29.5358     7.7243    74.1933     0.0323     2.2796     0.2365
  390.0000    30.1334    29.0640    31.1818   -29.6276     7.7288    73.6793     0.0354     2.2841     0.2361
  390.5000    23.6103    28.5017    30.5643   -29.7768     7.7333    73.2631     0.0394     2.2963     0.2278
  391.0000    26.0413    27.9503    30.6379   -29.9217     7.7381    73.6564     0.0406     2.3053     0.2217
  391.5000    29.5505    27.3773    30.7551   -30.0660     7.7267    73.5580     0.0377     2.3013     0.2229
  392.0000    33.5325    26.8531    30.8729   -30.2122     7.7065    72.5843     0.0337     2.2946     0.2279
  392.5000    36.4158    27.4242    30.9910   -30.2554     7.7049    72.6120     0.0355     2.3019     0.2224
  393.0000    26.2355    28.1305    31.1331   -30.1287     7.7162    71.8662     0.0375     2.3121     0.2177
  393.5000    31.2936    28.3911    30.7180   -29.9606     7.7127    70.8303     0.0338     2.3084     0.2183
  394.0000    35.2191    27.9575    30.2088   -29.7913     7.7083    70.8026     0.0297     2.3073     0.2201
  394.5000    23.3937    27.4535    29.7080   -29.6223     7.7039    70.7402     0.0276     2.3124     0.2188
  395.0000    28.5486    26.6100    29.1873   -29.4791     7.6999    70.4317     0.0264     2.3127     0.2173
  395.5000    32.0062    26.7892    28.9195   -29.5606     7.6998    70.2017     0.0249     2.3150     0.2167
  396.0000    32.9038    27.2744    30.4675   -29.6396     7.6998    70.3172     0.0281     2.3311     0.2110
  396.5000    41.8167    27.7672    31.8563   -29.6686     7.7000    70.4423     0.0332     2.3558     0.1938
  397.0000    38.4870    28.1305    32.9038   -29.6707     7.7109    70.5082     0.0331     2.3637     0.1888
  397.5000    27.8501    28.1458    31.8495   -29.5840     7.7345    70.4946     0.0339     2.3757     0.1793
  398.0000    35.7341    28.1500    30.4245   -29.4627     7.7581    71.1145     0.0316     2.3738     0.1783
  398.5000    43.5433    26.7672    29.0503   -29.3396     7.7785    72.0960     0.0231     2.3526     0.1907
  399.0000    28.9195    25.3990    27.7405   -29.2166     7.7660    73.1004     0.0232     2.3388     0.2012
  399.5000    27.3631    24.0960    26.4904   -29.0937     7.7533    74.2339     0.0288     2.3278     0.2089
  400.0000    27.2373    22.8599    25.2966   -28.9708     7.7409    75.9538     0.0341     2.3201     0.2125
  400.5000    23.4628    21.6871    24.3125   -28.8479     7.7395    76.5418     0.0393     2.3154     0.2162
  401.0000    19.9935    20.7513    23.3827   -28.7216     7.7397    76.2549     0.0421     2.3122     0.2186
  401.5000    17.5782    20.3722    22.9662   -28.6963     7.7403    77.5030     0.0452     2.3219     0.2123
  402.0000    18.1882    20.4986    22.9662   -28.6962     7.7334    78.5779     0.0474     2.3262     0.2100
  402.5000    18.7500    20.8014    23.5256   -28.6965     7.6414    78.9501     0.0465     2.3281     0.2072
  403.0000    16.7863    21.1088    24.2081   -28.6969     7.6500    79.1750     0.0456     2.3292     0.2086
  403.5000    17.0986    21.4206    24.9532   -28.6972     7.6573    78.9384     0.0462     2.3426     0.2026
  404.0000    17.7410    21.7371    24.9532   -28.6704     7.6804    78.5981     0.0469     2.3463     0.1978
  404.5000    21.1107    22.1347    25.1843   -28.4695     7.7092    79.1310     0.0484     2.3584     0.1907
  405.0000    26.8632    22.3397    23.9309   -28.2685     7.7383    79.6301     0.0446     2.3580     0.1898
  405.5000    25.8065    19.5856    22.9349   -28.0678     7.7589    80.1257     0.0392     2.3419     0.1972
  406.0000    24.2656    17.2428    21.9786   -27.8679     7.7544    80.2528     0.0337     2.3389     0.2010
  406.5000    22.8167    15.3032    21.0628   -27.7061     7.7504    80.3243     0.0297     2.3377     0.2014
  407.0000    21.4543    15.1603    20.1852   -27.6453     7.7464    80.8262     0.0281     2.3394     0.2010
  407.5000    20.1852    15.4514    19.3442   -27.5842     7.7425    81.3191     0.0266     2.3445     0.1993
  408.0000    19.4723    14.6978    18.5382   -27.5233     7.7395    81.4710     0.0241     2.3420     0.1974
  408.5000    19.5931    14.2194    17.7657   -27.4622     7.7394    81.2170     0.0199     2.3339     0.2035
  409.0000    19.7416    14.3529    17.0256   -27.4011     7.7396    81.0067     0.0156     2.3335     0.2059
  409.5000    19.9002    14.4840    16.3125   -27.3400     7.7499    81.3077     0.0114     2.3240     0.2125
  410.0000    20.0580    13.9515    15.7904   -27.2789     7.7967    81.5575     0.0092     2.3134     0.2156
  410.5000    20.1826    13.9663    15.5415   -27.2178     7.8380    81.0096     0.0126     2.3137     0.2165
  411.0000    19.6004    13.9614    15.2965   -27.1567     7.8328    80.4553     0.0158     2.3163     0.2154
  411.5000    19.0990    13.9596    15.0215   -27.0956     7.8265    79.9014     0.0191     2.3212     0.2129
  412.0000    19.0990    13.9228    15.0229   -27.0345     7.8204    79.2363     0.0224     2.3262     0.2113
  412.5000    18.9237    13.8492    15.1049   -26.9734     7.8143    78.4137     0.0255     2.3312     0.2074
  413.0000    19.0990    13.7046    15.1566   -26.9122     7.8082    78.0219     0.0248     2.3347     0.2042
  413.5000    18.9442    13.8408    15.3316   -26.8507     7.8022    77.6287     0.0240     2.3373     0.2030
  414.0000    18.7500    13.8848    15.4496   -26.7913     7.7961    77.2337     0.0212     2.3311     0.2079
  414.5000    18.7529    13.9290    15.2927   -26.8105     7.7900    76.9951     0.0173     2.3200     0.2128
  415.0000    18.4590    14.0889    15.1115   -26.9836     7.7839    76.8367     0.0168     2.3207     0.2111
  415.5000    18.0580    14.2194    14.9325   -27.1544     7.7790    76.6832     0.0192     2.3316     0.2051
  416.0000    18.0839    14.0426    14.7550   -27.3256     7.7876    76.5344     0.0204     2.3394     0.2020
  416.5000    17.8981    13.7371    14.8926   -27.4967     7.7976    76.2743     0.0214     2.3510     0.1965
  417.0000    17.9077    13.4542    15.0303   -27.6679     7.8014    76.7491     0.0188     2.3511     0.1923
  417.5000    17.7038    13.3307    15.0269   -27.8391     7.8040    77.0680     0.0142     2.3425     0.1999
  418.0000    17.4725    13.2084    14.7887   -28.0089     7.8066    77.3792     0.0169     2.3485     0.2001
  418.5000    17.2443    13.0872    14.6044   -28.1138     7.8092    77.6888     0.0209     2.3599     0.1875
  419.0000    17.0190    13.0861    14.4223   -28.1123     7.8118    78.0036     0.0172     2.3507     0.1945
  419.5000    16.7967    13.0870    14.2425   -28.1129     7.8144    78.4793     0.0138     2.3397     0.2012
  420.0000    16.6322    13.0871    14.0650   -28.1440     7.8170    78.9560     0.0116     2.3420     0.2022
  420.5000    16.6322    13.0872    13.8897   -28.2747     7.8188    79.4317     0.0093     2.3495     0.1954
  421.0000    16.4796    13.0078    13.7046   -28.3998     7.8172    79.9070     0.0070     2.3393     0.2019
  421.5000    16.3024    12.8537    13.5882   -28.5251     7.8155    80.3780     0.0066     2.3323     0.2074
  422.0000    16.0651    12.7014    13.4642   -28.6505     7.8139    80.8443     0.0103     2.3396     0.2015
