~VERSION INFORMATION
 VERS.                2.0:   CWLS LOG ASCII STANDARD - VERSION 2.0
 WRAP.                 NO:   ONE LINE PER DEPTH STEP
~WELL INFORMATION
#MNEM.UNIT      DATA TYPE    INFORMATION
#----------   ------------   ------------------------------
 STRT.F            0.0000:   START DEPTH
 STOP.F         4535.0000:   STOP DEPTH
 STEP.F            0.5000:   STEP LENGTH
 NULL.          -999.2500:   NO VALUE
 COMP.   FLUOR DANIEL INC:   COMPANY
 WELL.     56 X 15 #56-15:   WELL
 FLD .             TEAPOT:   FIELD
 LOC .      S15 T38N R78W:   LOCATION
 CNTY.            NATRONA:   COUNTY
 STAT.            WYOMING:   STATE
 CTRY. UNITED STATES OF AMERICA:   COUNTRY
 SRVC.      Dresser Atlas:   SERVICE COMPANY
 DATE.        03-MAY-1984:   LOGDATE
 API .       490252268500:   API NUMBER
~CURVE INFORMATION
#MNEM.UNIT       API CODE    CURVE DESCRIPTION
#----------   ------------   ------------------------------
 DEPT.F                  :   
 CNC .DEC    42 890 03 00:   NEUTRON POROSITY SANDSTONE
 PORD.DEC    45 890 12 00:   POROSITY DENSITY SANDSTONE
 RHOB.G/C3   45 350 01 00:   BULK DENSITY
 CORR.G/C3   45 356 01 00:   DENSITY CORRECTION
 DT  .US/F   60 520 00 00:   INTERVAL TRANSIT TIME
 RILD.OHMM   07 120 46 00:   INDUCTION LOG DEEP RESISTIVITY
 RILM.OHMM   07 120 44 00:   INDUCTION LOG MEDIUM RESISTIVITY
 CALR.IN     07 280 01 00:   CALIPER FROM RESISTIVITY
 GRR .GAPI   07 310 01 00:   GAMMA RAY FROM RESISTIVITY LOG
 SPR .MV     07 010 01 00:   SPONTANEOUS POTENTIAL
 RFOC.OHMM   07 220 04 00:   RESISTIVITY FOCUSED LOG
~PARAMETER INFORMATION
#MNEM.UNIT          VALUE    DESCRIPTION
#----------   ------------   ------------------------------
 PD  .                 GL:   PERMANENT DATUM
 EPD .F              5326:   ELEVATION PERMANENT DATUM
 LMF .                 KB:   LOG MEASURED FROM
 DAPD.F                12:   FEET ABOVE PERMANENT DATUM
 DMF .                 KB:   DRILLING MEASURED FROM
 EKB .F              5338:   KELLING BUSHING
 EDF .F              5337:   DRILLING FLOOR
 EGL .F              5326:   GROUND LEVEL
 DATE.        03-MAY-1984:   RUN DATE
 RUN .                  1:   RUN NUMBER
 DD  .F              4547:   DEPTH DRILLER
 DL  .F              4539:   DEPTH LOGGER
 BLI .F              4536:   BOTTOM LOG INTERVAL
 TLI .F              1021:   TOP LOG INTERVAL
 CS  .IN            8.625:   CASING SIZE
 CBD .F              1027:   CASING BOTTOM DRILLER
 CBL .F              1021:   CASING BOTTOM LOGGER
 BS  .IN            7.875:   BIT SIZE
 BSD .F              4547:   BIT SIZE AT DEPTH
 DFT .            KCL GEL:   DRILLING FLUID TYPE
 DFD .                9.1:   DRILLING FLUID DENSITY
 DFV .                 44:   DRILLING FLUID VISCOSITY
 DFPH.                  8:   DRILLING FLUID PH
 DFL .               14.5:   DRILLING FLUID LOSS
 MSS .            MUDTANK:   MUD SAMPLE SOURCE
 RMS .OHMM           0.56:   RESISTIVITY MUD SAMPLE
 MST .F                73:   MUD SAMPLE TEMPERATURE
 RMF .OHMM           0.42:   RESISTIVITY MUD FILTRATE SAMPLE
 MFST.F                73:   MUD FILTRATE SAMPLE TEMPERATURE
 RMC .OHMM           0.71:   RESISTIVITY MUD CAKE
 MCST.F                73:   MUD CAKE SAMPLE TEMPERATURE
 MFSS.               MEAS:   MUD FILTRATE SAMPLE SOURCE
 MCSS.               CALC:   MUD CAKE SAMPLE SOURCE
 RMB .OHMM           0.29:   RESISTIVITY MUD AT BHT
 BHT .F               141:   BOTTOM HOLE TEMPERATURE
 TCS .HRS             3.5:   TIME CURCULATED STOPPED
 MRT .F               125:   MAXIMUM RECORDED TEMPERATURE
 LUN .               6302:   LOGGING UNIT NUMBER
 LUL .               CODY:   LOGGING UNIT LOCATION
 ENGI.              GETTY:   RECORDING ENGINEER
 WITN.           JENNINGS:   WITNESSED BY
 CLNT.            A2DTECH:   CLIENT CODE
 ORIG.           5" PRINT:   ORIGIN OF DATA
 UWI .       490252268500:   UNIQUE WELL ID
 DICO. A2D Technologies, Inc.:   DIGITIZING COMPANY
~OTHER INFORMATION
~A    DEPT     CNC       PORD       RHOB       CORR         DT       RILD       RILM       CALR         GRR       SPR       RFOC   
# ...
 4270.0000     0.2905     0.0775     2.5245     0.0484    91.6295     3.7965     3.7700     8.1624   106.8278   -32.1364     4.2321
 4270.5000     0.3010     0.0748     2.5238     0.0317    93.6686     3.4705     3.5680     8.1636   109.2718   -31.5209     4.0328
 4271.0000     0.3016     0.0663     2.5351     0.0135    95.1799     3.1947     3.4230     8.1795   113.5891   -30.6042     3.9788
 4271.5000     0.2950     0.0515     2.5705     0.0210    95.4837     2.9818     3.2857     8.1808   114.7228   -29.8382     4.0082
 4272.0000     0.2889     0.0270     2.6051     0.0345    95.1103     2.8220     3.1971     8.1818   114.7460   -29.5239     4.1227
 4272.5000     0.2817     0.0294     2.5976     0.0419    95.1887     2.7459     3.1112     8.1827   111.4610   -29.0587     4.3299
 4273.0000     0.2771     0.0430     2.5750     0.0355    95.4933     2.7092     3.0272     8.1838   110.8769   -28.4403     4.1718
 4273.5000     0.2816     0.0530     2.5629     0.0282    95.4962     2.6342     2.9456     8.1999   113.0111   -27.5236     3.7456
 4274.0000     0.2877     0.0471     2.5697     0.0401    94.9442     2.5476     2.8267     8.2009   114.5383   -26.6069     3.3999
 4274.5000     0.2895     0.0411     2.5787     0.0597    93.8437     2.4789     2.7121     8.2172   113.3641   -26.1420     3.5707
 4275.0000     0.2943     0.0402     2.5825     0.0882    92.7908     2.3953     2.6181     8.2333   113.0808   -25.6772     3.6984
 4275.5000     0.3096     0.0469     2.5763     0.1258    92.4914     2.3307     2.5328     8.2343   114.9143   -25.3629     3.6488
 4276.0000     0.3169     0.0556     2.5553     0.1680    92.7967     2.2679     2.4817     8.2503   116.7420   -24.8775     3.4530
 4276.5000     0.3084     0.0764     2.5207     0.2026    94.4588     2.2221     2.4655     8.2664   117.9682   -24.1287     3.2658
 4277.0000     0.3060     0.0996     2.4838     0.2704    96.1208     2.2076     2.4668     8.2824   119.1944   -23.2120     3.1142
 4277.5000     0.3054     0.1352     2.4213     0.2899    97.6321     2.2108     2.5022     8.3135   119.5188   -22.4459     3.0300
 4278.0000     0.3008     0.1313     2.4303     0.2755    99.2941     2.2405     2.5741     8.3298   118.6452   -21.9811     2.9895
 4278.5000     0.2851     0.1201     2.4529     0.2128   100.2082     2.2414     2.6138     8.3308   115.6608   -21.8174     2.9491
 4279.0000     0.2848     0.1005     2.4815     0.1358    99.9041     2.2736     2.6301     8.2867   109.3683   -21.9549     2.9712
 4279.5000     0.2902     0.0896     2.4973     0.0844    97.6446     2.2903     2.5949     8.2126   104.2787   -22.3904     3.2307
 4280.0000     0.2938     0.0678     2.5349     0.0677    92.8964     2.3233     2.5425     8.1833   100.9937   -23.1304     3.5690
 4280.5000     0.2903     0.0665     2.5425     0.0540    91.1648     2.3404     2.4912     8.1845   106.7311   -23.8703     3.8199
 4281.0000     0.2830     0.0624     2.5485     0.0525    92.5252     2.3413     2.4578     8.1856   111.0214   -24.6102     3.6152
 4281.5000     0.2866     0.0542     2.5583     0.0584    94.4889     2.3263     2.4418     8.1868   113.7007   -25.3502     3.4212
 4282.0000     0.3038     0.0406     2.5869     0.0719    96.0001     2.2479     2.4092     8.1878   114.9269   -25.7889     3.2376
 4282.5000     0.3038     0.0379     2.5906     0.0947    96.6064     2.2025     2.4104     8.1888   115.8523   -26.3783     3.1498
 4283.0000     0.3010     0.0403     2.5838     0.1129    96.3801     2.1431     2.3781     8.1899   115.8755   -26.6664     3.1514
 4283.5000     0.3017     0.0505     2.5688     0.1199    95.9225     2.1145     2.3626     8.1908   114.9965   -26.9546     3.2435
 4284.0000     0.3143     0.0681     2.5386     0.1213    95.5594     2.1007     2.3470     8.1919   115.0197   -27.0921     3.3577
 4284.5000     0.3284     0.0653     2.5394     0.1242    95.8647     2.1309     2.3482     8.1931   117.1853   -26.9252     3.3127
 4285.0000     0.3254     0.0592     2.5439     0.1286    96.9989     2.1318     2.3991     8.2090   117.7729   -26.4603     3.2009
 4285.5000     0.3148     0.0481     2.5538     0.1331    98.0576     2.1328     2.4672     8.2102   116.8996   -26.1460     3.1142
 4286.0000     0.2943     0.0248     2.5861     0.1345    98.6639     2.1337     2.4854     8.2111   116.0206   -25.8313     3.0939
 4286.5000     0.2876    -0.0021     2.6440     0.1359    98.2897     2.1345     2.4864     8.2122   114.8408   -25.6648     3.0954
 4287.0000     0.2922     0.0006     2.6531     0.1389    96.1811     2.1354     2.4529     8.2133   109.4505   -25.6518     3.1855
 4287.5000     0.2985     0.0157     2.6320     0.1497    93.4691     2.1661     2.4201     8.2143   103.1579   -25.4881     3.5025
 4288.0000     0.2979     0.0694     2.5762     0.1673    91.3604     2.2125     2.3879     8.2153   104.2194   -25.3244     3.8175
 4288.5000     0.2918     0.1011     2.5145     0.2049    91.4395     2.2759     2.4061     8.2166   113.1349   -25.1608     3.8457
 4289.0000     0.2822     0.0990     2.4821     0.2712    94.3836     2.3757     2.4573     8.2176   123.9852   -24.9970     3.5643
 4289.5000     0.2701     0.0896     2.4843     0.2681    97.1015     2.4927     2.5806     8.2186   127.0159   -25.1346     3.2578
 4290.0000     0.2628     0.0518     2.5024     0.1926    98.6125     2.5817     2.7671     8.2046   124.3324   -25.2722     3.1045
 4290.5000     0.2547     0.0295     2.5937     0.1292    97.8613     2.6738     2.9876     8.1755   117.4383   -25.7076     2.9789
 4291.0000     0.2529     0.0213     2.6146     0.0959    94.8507     2.7502     3.1593     8.1460   106.5539   -26.2970     3.2334
 4291.5000     0.2565     0.0207     2.6138     0.0656    90.9297     2.8287     3.2495     8.1174    99.4454   -26.8863     3.8554
 4292.0000     0.2700     0.0325     2.5995     0.0504    88.0669     2.8495     3.2052     8.1034    98.8613   -27.4757     4.6850
 4292.5000     0.2812     0.0533     2.5596     0.0286    87.6166     2.8300     3.0345     8.1046   102.4993   -27.6132     4.6544
 4293.0000     0.2923     0.0530     2.5626     0.0096    88.2236     2.7358     2.8323     8.1056   107.9361   -27.5969     4.3439
 4293.5000     0.2959     0.0499     2.5724     0.0396    89.4332     2.6437     2.6805     8.1067   109.4630   -27.7377     3.9704
 4294.0000     0.2992     0.0432     2.5822     0.0622    91.3969     2.5369     2.6082     8.1077   110.3885   -28.0226     3.6544
 4294.5000     0.2986     0.0421     2.5791     0.0772    94.3410     2.4345     2.5731     8.1087   110.4120   -28.1634     3.4045
 4295.0000     0.2932     0.0457     2.5754     0.0861    96.6818     2.3688     2.5214     8.1100   110.4407   -28.5988     3.1612
 4295.5000     0.2862     0.0481     2.5730     0.1071    97.8975     2.2732     2.5043     8.1110   111.0655   -28.7365     3.1403
 4296.0000     0.2832     0.0520     2.5588     0.1463    98.5196     2.2119     2.4714     8.1120   111.6902   -28.8739     3.2080
 4296.5000     0.2805     0.0773     2.5279     0.1643    99.2554     2.1823     2.4384     8.0977   111.4068   -28.5564     3.1871
 4297.0000     0.2678     0.0879     2.5061     0.1793    99.5600     2.3240     2.5433     8.0990   111.7366   -28.0915     3.1443
 4297.5000     0.2566     0.0761     2.5219     0.1638    99.7138     2.4406     2.6894     8.1000   111.7598   -27.5965     3.0595
 4298.0000     0.2476     0.0567     2.5535     0.0418    99.1134     2.5454     2.8244     8.1011   109.9093   -27.8905     2.9768
 4298.5000     0.2481     0.0546     2.5580    -0.0201    93.8373     2.5820     2.9252     8.0870    96.1729   -28.1844     3.3054
 4299.0000     0.2551     0.0555     2.5610    -0.0217    89.3154     2.6191     2.9673     8.0883    91.0833   -28.6290     4.1876
 4299.5000     0.2695     0.0709     2.5527    -0.0067    82.0785     2.6567     2.9894     8.0893    90.1985   -29.2241     5.4169
 4300.0000     0.2928     0.0995     2.4872     0.0083    78.7632     2.8094     3.0111     8.0903   100.1518   -29.6687     5.9719
