~VERSION INFORMATION
 VERS.                2.0:   CWLS LOG ASCII STANDARD - VERSION 2.0
 WRAP.                 NO:   ONE LINE PER DEPTH STEP
~WELL INFORMATION
#MNEM.UNIT      DATA TYPE    INFORMATION
#----------   ------------   ------------------------------
 STRT.F            0.0000:   START DEPTH
 STOP.F         2258.0000:   STOP DEPTH
 STEP.F            0.5000:   STEP LENGTH
 NULL.          -999.2500:   NO VALUE
 COMP. BROWN JOHN E&C INC:   COMPANY
 WELL. NPR-3-STX-6-SX-10 #73-10:   WELL
 FLD .             TEAPOT:   FIELD
 LOC .      S10 T38N R78W:   LOCATION
 CNTY.            NATRONA:   COUNTY
 STAT.            WYOMING:   STATE
 CTRY. UNITED STATES OF AMERICA:   COUNTRY
 SRVC.            Unknown:   SERVICE COMPANY
 DATE.        09-APR-1993:   LOGDATE
 API .       490251091200:   API NUMBER
~CURVE INFORMATION
#MNEM.UNIT       API CODE    CURVE DESCRIPTION
#----------   ------------   ------------------------------
 DEPT.F                  :   
 GR  .GAPI   81 310 01 00:   GAMMA RAY
 DT  .US/F   81 520 00 00:   DELTA SONIC
 ROP .MIN/FT 91 810 01 00:   RATE OF DRILLING PENETRATION
 TGAS.UNITS  91 830 01 00:   TOTAL GAS FROM HOTWIRE
~PARAMETER INFORMATION
#MNEM.UNIT          VALUE    DESCRIPTION
#----------   ------------   ------------------------------
 PD  .                 GL:   PERMANENT DATUM
 LMF .                 GL:   LOG MEASURED FROM
 DMF .                 GL:   DRILLING MEASURED FROM
 DATE.             4-9-93:   RUN DATE
 RUN .                  1:   RUN NUMBER
 DD  .F               442:   DEPTH DRILLER
 TCS .HRS            1000:   TIME CURCULATED STOPPED
 TLAB.HRS            1100:   TIME LOGGER AT BOTTOM
 LUN .                509:   LOGGING UNIT NUMBER
 LUL .           GILLETTE:   LOGGING UNIT LOCATION
 ENGI.            METCALF:   RECORDING ENGINEER
 WITN.              SYLAR:   WITNESSED BY
 CLNT.            A2DTECH:   CLIENT CODE
 ORIG.           5" PRINT:   ORIGIN OF DATA
 UWI .       490251091200:   UNIQUE WELL ID
 DICO. A2D Technologies, Inc.:   DIGITIZING COMPANY
~OTHER INFORMATION
~A    DEPT       GR        DT        ROP       TGAS   
# ...
 1606.0000  -999.2500  -999.2500     0.4284   933.3100
 1606.5000  -999.2500  -999.2500     0.4320   933.3098
 1607.0000  -999.2500  -999.2500     0.4356   933.3103
 1607.5000  -999.2500  -999.2500     0.4392   933.3110
 1608.0000  -999.2500  -999.2500     0.4427   933.4183
 1608.5000  -999.2500  -999.2500     0.4463   933.6501
 1609.0000  -999.2500  -999.2500     0.4499   933.8812
 1609.5000  -999.2500  -999.2500     0.4535   934.1129
 1610.0000  -999.2500  -999.2500     0.4571   934.3445
 1610.5000  -999.2500  -999.2500     0.4523   934.5760
 1611.0000  -999.2500  -999.2500     0.4421   934.8076
 1611.5000  -999.2500  -999.2500     0.4318   935.0392
 1612.0000  -999.2500  -999.2500     0.4215   935.2708
 1612.5000  -999.2500  -999.2500     0.4112   935.5024
 1613.0000  -999.2500  -999.2500     0.4009   935.7339
 1613.5000  -999.2500  -999.2500     0.3905   935.9655
 1614.0000  -999.2500  -999.2500     0.3802   936.1971
 1614.5000  -999.2500  -999.2500     0.3708   936.4286
 1615.0000  -999.2500  -999.2500     0.3722   936.6602
 1615.5000  -999.2500  -999.2500     0.3737   936.8918
 1616.0000  -999.2500  -999.2500     0.3753   937.1234
 1616.5000  -999.2500  -999.2500     0.3768   937.3549
 1617.0000  -999.2500  -999.2500     0.3783   937.5865
 1617.5000  -999.2500  -999.2500     0.3798   937.8181
 1618.0000  -999.2500  -999.2500     0.3813   938.0496
 1618.5000  -999.2500  -999.2500     0.3829   938.2812
 1619.0000  -999.2500  -999.2500     0.3844   938.5128
 1619.5000  -999.2500  -999.2500     0.3859   938.7444
 1620.0000  -999.2500  -999.2500     0.3874   938.9764
 1620.5000  -999.2500  -999.2500     0.3889   939.2084
 1621.0000  -999.2500  -999.2500     0.3905   939.4370
 1621.5000  -999.2500  -999.2500     0.3920   939.5452
 1622.0000  -999.2500  -999.2500     0.3935   939.3527
 1622.5000  -999.2500  -999.2500     0.3950   939.1703
 1623.0000  -999.2500  -999.2500     0.3988   938.9883
 1623.5000  -999.2500  -999.2500     0.4045   938.8057
 1624.0000  -999.2500  -999.2500     0.4102   938.6234
 1624.5000  -999.2500  -999.2500     0.4160   938.4409
 1625.0000  -999.2500  -999.2500     0.4217   938.2585
 1625.5000  -999.2500  -999.2500     0.4275   938.0761
 1626.0000  -999.2500  -999.2500     0.4332   937.8937
 1626.5000  -999.2500  -999.2500     0.4335   937.7113
 1627.0000  -999.2500  -999.2500     0.4334   937.5289
 1627.5000  -999.2500  -999.2500     0.4334   937.3465
 1628.0000  -999.2500  -999.2500     0.4333   937.1641
 1628.5000  -999.2500  -999.2500     0.4340   936.9817
 1629.0000  -999.2500  -999.2500     0.4436   936.7993
 1629.5000  -999.2500  -999.2500     0.4444   936.6169
 1630.0000  -999.2500  -999.2500     0.4423   936.4344
 1630.5000  -999.2500  -999.2500     0.4403   936.2521
 1631.0000  -999.2500  -999.2500     0.4383   936.0696
 1631.5000  -999.2500  -999.2500     0.4364   935.8872
 1632.0000  -999.2500  -999.2500     0.4346   935.7048
 1632.5000  -999.2500  -999.2500     0.4377   935.5224
 1633.0000  -999.2500  -999.2500     0.4480   935.3400
 1633.5000  -999.2500  -999.2500     0.4582   935.1576
 1634.0000  -999.2500  -999.2500     0.4685   934.9752
 1634.5000  -999.2500  -999.2500     0.4787   934.7928
 1635.0000  -999.2500  -999.2500     0.4890   934.6104
 1635.5000  -999.2500  -999.2500     0.4994   934.4280
 1636.0000  -999.2500  -999.2500     0.5080   934.2455
 1636.5000  -999.2500  -999.2500     0.4890   934.0632
 1637.0000  -999.2500  -999.2500     0.4698   933.8806
 1637.5000  -999.2500  -999.2500     0.4508   933.6981
 1638.0000  -999.2500  -999.2500     0.4319   933.5139
 1638.5000  -999.2500  -999.2500     0.4130   933.3342
 1639.0000  -999.2500  -999.2500     0.3958   933.6517
 1639.5000  -999.2500  -999.2500     0.3868   934.0446
 1640.0000  -999.2500  -999.2500     0.3770   934.4387
 1640.5000  -999.2500  -999.2500     0.3670   934.8321
 1641.0000  -999.2500  -999.2500     0.3582   935.2252
 1641.5000  -999.2500  -999.2500     0.3591   935.6184
 1642.0000  -999.2500  -999.2500     0.3601   936.0116
 1642.5000  -999.2500  -999.2500     0.3611   936.4047
 1643.0000  -999.2500  -999.2500     0.3622   936.7979
 1643.5000  -999.2500  -999.2500     0.3632   937.1910
 1644.0000  -999.2500  -999.2500     0.3642   937.5842
 1644.5000  -999.2500  -999.2500     0.3652   937.9774
 1645.0000  -999.2500  -999.2500     0.3662   938.3705
 1645.5000  -999.2500  -999.2500     0.3672   938.7637
 1646.0000  -999.2500  -999.2500     0.3682   939.1569
 1646.5000  -999.2500  -999.2500     0.3692   939.5500
 1647.0000  -999.2500  -999.2500     0.3702   939.9432
 1647.5000  -999.2500  -999.2500     0.3706   940.3363
 1648.0000  -999.2500  -999.2500     0.3706   940.7295
 1648.5000  -999.2500  -999.2500     0.3706   941.1226
 1649.0000  -999.2500  -999.2500     0.3713   941.5158
 1649.5000  -999.2500  -999.2500     0.3732   941.9090
 1650.0000  -999.2500  -999.2500     0.3750   942.3021
 1650.5000  -999.2500  -999.2500     0.3769   942.6953
 1651.0000  -999.2500  -999.2500     0.3787   943.0884
 1651.5000  -999.2500  -999.2500     0.3805   943.4816
 1652.0000  -999.2500  -999.2500     0.3824   943.8748
 1652.5000  -999.2500  -999.2500     0.3842   944.2679
 1653.0000  -999.2500  -999.2500     0.3861   944.6610
 1653.5000  -999.2500  -999.2500     0.3879   945.0546
 1654.0000  -999.2500  -999.2500     0.3897   945.4518
 1654.5000  -999.2500  -999.2500     0.3916   945.8625
 1655.0000  -999.2500  -999.2500     0.3934   945.8836
 1655.5000  -999.2500  -999.2500     0.3953   945.8807
 1656.0000  -999.2500  -999.2500     0.3971   945.8799
 1656.5000  -999.2500  -999.2500     0.3989   945.8799
 1657.0000  -999.2500  -999.2500     0.4008   945.8799
 1657.5000  -999.2500  -999.2500     0.4026   945.8799
 1658.0000  -999.2500  -999.2500     0.4044   945.8799
 1658.5000  -999.2500  -999.2500     0.4063   945.8799
 1659.0000  -999.2500  -999.2500     0.4082   945.8799
 1659.5000  -999.2500  -999.2500     0.4064   945.8799
 1660.0000  -999.2500  -999.2500     0.4027   945.8799
 1660.5000  -999.2500  -999.2500     0.3988   945.8799
 1661.0000  -999.2500  -999.2500     0.3966   945.8799
 1661.5000  -999.2500  -999.2500     0.4171   945.8799
 1662.0000  -999.2500  -999.2500     0.4372   945.8799
 1662.5000  -999.2500  -999.2500     0.4577   945.8799
 1663.0000  -999.2500  -999.2500     0.4587   945.8799
 1663.5000  -999.2500  -999.2500     0.4586   945.8799
 1664.0000  -999.2500  -999.2500     0.4585   945.8799
 1664.5000  -999.2500  -999.2500     0.4585   945.8548
 1665.0000  -999.2500  -999.2500     0.4585   945.8050
 1665.5000  -999.2500  -999.2500     0.4585   945.9361
 1666.0000  -999.2500  -999.2500     0.4585   951.6636
 1666.5000  -999.2500  -999.2500     0.4585   982.6069
 1667.0000  -999.2500  -999.2500     0.4585  1013.1724
 1667.5000  -999.2500  -999.2500     0.4585  1061.8148
 1668.0000  -999.2500  -999.2500     0.4585  1115.3779
 1668.5000  -999.2500  -999.2500     0.4585  1170.4670
 1669.0000  -999.2500  -999.2500     0.4585  1198.5981
 1669.5000  -999.2500  -999.2500     0.4585  1206.9592
 1670.0000  -999.2500  -999.2500     0.4585  1215.1824
 1670.5000  -999.2500  -999.2500     0.4585  1217.9897
 1671.0000  -999.2500  -999.2500     0.4585  1220.5714
 1671.5000  -999.2500  -999.2500     0.4585  1222.2988
 1672.0000  -999.2500  -999.2500     0.4585  1217.7852
 1672.5000  -999.2500  -999.2500     0.4585  1213.3781
 1673.0000  -999.2500  -999.2500     0.4585  1209.0085
 1673.5000  -999.2500  -999.2500     0.4585  1204.6420
 1674.0000  -999.2500  -999.2500     0.4585  1200.2756
 1674.5000  -999.2500  -999.2500     0.4585  1195.9093
 1675.0000  -999.2500  -999.2500     0.4585  1191.5430
 1675.5000  -999.2500  -999.2500     0.4585  1187.1750
 1676.0000  -999.2500  -999.2500     0.4585  1182.8076
 1676.5000  -999.2500  -999.2500     0.4585  1178.4517
 1677.0000  -999.2500  -999.2500     0.4585  1174.0854
 1677.5000  -999.2500  -999.2500     0.4585  1172.1118
 1678.0000  -999.2500  -999.2500     0.4585  1169.6057
 1678.5000  -999.2500  -999.2500     0.4585  1166.9073
