~VERSION INFORMATION
 VERS.                2.0:   CWLS LOG ASCII STANDARD - VERSION 2.0
 WRAP.                 NO:   ONE LINE PER DEPTH STEP
~WELL INFORMATION
#MNEM.UNIT      DATA TYPE    INFORMATION
#----------   ------------   ------------------------------
 STRT.F           12.0000:   START DEPTH
 STOP.F          754.0000:   STOP DEPTH
 STEP.F            0.5000:   STEP LENGTH
 NULL.          -999.2500:   NO VALUE
 COMP. FENIX & SCISSON INC:   COMPANY
 WELL.    62 SX 34 #62-34:   WELL
 FLD .             TEAPOT:   FIELD
 LOC .      S34 T39N R78W:   LOCATION
 CNTY.            NATRONA:   COUNTY
 STAT.            WYOMING:   STATE
 CTRY. UNITED STATES OF AMERICA:   COUNTRY
 SRVC.            Unknown:   SERVICE COMPANY
 DATE.        20-AUG-1978:   LOGDATE
 API .       490251070200:   API NUMBER
~CURVE INFORMATION
#MNEM.UNIT       API CODE    CURVE DESCRIPTION
#----------   ------------   ------------------------------
 DEPT.F                  :   
 SPR .MV     05 010 01 00:   SPONTANEOUS POTENTIAL FROM RES.
 SN  .OHMM   05 040 16 00:   SHORT NORMAL 16"
 ILD .OHMM   05 120 46 00:   INDUCTION LOG DEEP
 GRD .GAPI   45 310 01 00:   GAMMA RAY FROM DENSITY LOG
 CALD.IN     45 280 60 00:   CALIPER
 RHOB.G/C3   45 350 01 00:   BULK DENSITY
 DPHI.DEC    45 890 12 00:   DENSITY POROSITY SANDSTONE
 CORR.G/C3   45 356 01 00:   DENSITY CORRECTION
~PARAMETER INFORMATION
#MNEM.UNIT          VALUE    DESCRIPTION
#----------   ------------   ------------------------------
 PD  .                 GL:   PERMANENT DATUM
 EPD .F              5039:   ELEVATION PERMANENT DATUM
 LMF .                 KB:   LOG MEASURED FROM
 DAPD.F                 4:   FEET ABOVE PERMANENT DATUM
 DMF .                 KB:   DRILLING MEASURED FROM
 EKB .F              5043:   KELLING BUSHING
 EGL .F              5039:   GROUND LEVEL
 DATE.            8-20-78:   RUN DATE
 RUN .                  1:   RUN NUMBER
 DD  .F               750:   DEPTH DRILLER
 DL  .F               755:   DEPTH LOGGER
 BLI .F               749:   BOTTOM LOG INTERVAL
 TLI .F                30:   TOP LOG INTERVAL
 CS  .IN            8.625:   CASING SIZE
 CBD .F                30:   CASING BOTTOM DRILLER
 CBL .F                34:   CASING BOTTOM LOGGER
 BS  .IN            7.875:   BIT SIZE
 BSD .F               750:   BIT SIZE AT DEPTH
 DFT .            KCL MUD:   DRILLING FLUID TYPE
 DFD .                8.6:   DRILLING FLUID DENSITY
 DFV .                 30:   DRILLING FLUID VISCOSITY
 DFPH.                9.5:   DRILLING FLUID PH
 DFL .               10.4:   DRILLING FLUID LOSS
 MSS .          FLOW LINE:   MUD SAMPLE SOURCE
 RMS .OHMM            .28:   RESISTIVITY MUD SAMPLE
 MST .F                76:   MUD SAMPLE TEMPERATURE
 RMF .OHMM            .24:   RESISTIVITY MUD FILTRATE SAMPLE
 MFST.F                80:   MUD FILTRATE SAMPLE TEMPERATURE
 RMC .OHMM            .34:   RESISTIVITY MUD CAKE
 MCST.F                82:   MUD CAKE SAMPLE TEMPERATURE
 MFSS.               MEAS:   MUD FILTRATE SAMPLE SOURCE
 MCSS.               MEAS:   MUD CAKE SAMPLE SOURCE
 BHT .F                72:   BOTTOM HOLE TEMPERATURE
 TCS .HRS               3:   TIME CURCULATED STOPPED
 MRT .F                72:   MAXIMUM RECORDED TEMPERATURE
 LUN .               2958:   LOGGING UNIT NUMBER
 LUL .               CASP:   LOGGING UNIT LOCATION
 ENGI.           REYNOLDS:   RECORDING ENGINEER
 WITN.              AMEND:   WITNESSED BY
 CLNT.            A2DTECH:   CLIENT CODE
 ORIG.           5" PRINT:   ORIGIN OF DATA
 UWI .       490251070200:   UNIQUE WELL ID
 DICO. A2D Technologies, Inc.:   DIGITIZING COMPANY
~OTHER INFORMATION
~A   DEPT      SPR         SN        ILD         GRD      CALD       RHOB       DPHI       CORR   
# ...
   93.0000   -68.1397     2.9779     3.4404    87.3332     8.0546     2.3128     0.2302     0.0320
   93.5000   -68.1659     2.8117     3.2325    85.5827     8.0044     2.2925     0.2383     0.0384
   94.0000   -68.1926     2.6549     3.1387    85.8535     7.9541     2.2870     0.2263     0.0427
   94.5000   -68.1867     2.5060     3.1230    87.7010     7.9039     2.3081     0.2146     0.0382
   95.0000   -68.1740     2.4410     3.1059    89.1716     7.8537     2.3312     0.2030     0.0339
   95.5000   -68.1612     2.3876     3.0892    87.9260     7.8035     2.3463     0.1983     0.0296
   96.0000   -68.1485     2.3989     3.0175    85.9565     7.7531     2.3524     0.2015     0.0253
   96.5000   -68.1358     2.4128     2.9775    83.9867     7.7035     2.3332     0.2168     0.0209
   97.0000   -68.1231     2.4267     3.0148    82.0132     7.6866     2.3120     0.2318     0.0189
   97.5000   -68.1104     2.4319     3.0409    80.9161     7.6746     2.2908     0.2469     0.0180
   98.0000   -68.0976     2.3256     3.0606    81.9405     7.6626     2.2697     0.2620     0.0187
   98.5000   -68.0849     2.2067     2.9235    85.8112     7.6501     2.2499     0.2675     0.0212
   99.0000   -68.0722     2.0939     2.8228    84.3659     7.6374     2.2394     0.2714     0.0237
   99.5000   -68.0595     1.9868     2.6598    82.2900     7.6662     2.2291     0.2772     0.0253
  100.0000   -68.0468     1.8854     2.4778    81.1210     7.7049     2.2247     0.2776     0.0246
  100.5000   -68.0341     1.7888     2.3082    83.4139     7.7441     2.2239     0.2718     0.0238
  101.0000   -68.0215     1.7623     2.1503    85.7993     7.7765     2.2370     0.2623     0.0228
  101.5000   -68.0097     1.8267     2.0798    85.3484     7.8242     2.2524     0.2527     0.0213
  102.0000   -67.9942     1.9189     2.1577    84.3475     7.8529     2.2705     0.2437     0.0181
  102.5000   -67.8076     2.0159     2.2871    83.2919     7.7912     2.2931     0.2252     0.0150
  103.0000   -67.6055     2.1210     2.4318    85.0533     7.7734     2.3159     0.2080     0.0119
  103.5000   -67.4035     2.2375     2.5858    84.7258     7.7572     2.3386     0.1955     0.0115
  104.0000   -67.2017     2.3603     2.7494    84.2514     7.8225     2.3558     0.1967     0.0146
  104.5000   -67.0038     2.4900     2.9234    85.4714     7.9179     2.3567     0.1966     0.0213
  105.0000   -66.8748     2.6267     3.1085    86.8052     8.0130     2.3578     0.1949     0.0274
  105.5000   -66.7484     2.7662     3.3055    86.6389     8.1093     2.3591     0.1939     0.0281
  106.0000   -66.6191     2.7662     3.5147    86.4443     8.0603     2.3605     0.1989     0.0286
  106.5000   -66.7146     2.7597     3.6802    86.2517     7.9847     2.3448     0.2179     0.0291
  107.0000   -66.8459     2.7341     3.6804    86.2132     7.9124     2.3269     0.2205     0.0310
  107.5000   -66.9779     2.7089     3.5294    86.3883     7.8539     2.3129     0.2223     0.0398
  108.0000   -67.1094     2.6838     3.4239    88.9674     8.4923     2.3145     0.2134     0.0705
  108.5000   -67.2408     2.6456     3.3214    88.5358     8.2422     2.3363     0.2033     0.1004
  109.0000   -67.3722     2.5781     3.2221    88.4980     7.8648     2.3515     0.1955     0.1150
  109.5000   -67.5036     2.5123     3.1057    89.7146     7.6600     2.3551     0.2065     0.0880
  110.0000   -67.6353     2.4480     2.9761    90.8794     7.5802     2.3073     0.2375     0.0612
  110.5000   -67.7713     2.3850     2.8516    91.3774     7.4996     2.2714     0.2685     0.0449
  111.0000   -67.7704     2.3229     2.7322    91.8935     7.4410     2.2366     0.2805     0.0442
  111.5000   -67.7336     2.3962     2.6183    92.7539     7.4152     2.2101     0.2874     0.0433
  112.0000   -67.6961     2.4751     2.5464    97.0797     7.4165     2.2105     0.2778     0.0424
  112.5000   -67.6588     2.5566     2.5464   102.1891     7.4155     2.2473     0.2573     0.0413
  113.0000   -67.6198     2.6408     2.7061    98.6085     7.4382     2.2885     0.2302     0.0369
  113.5000   -67.4970     2.7395     2.8253    95.9595     7.4616     2.3297     0.2030     0.0323
  114.0000   -67.2583     2.8589     2.9498    95.5469     7.5836     2.3705     0.1826     0.0294
  114.5000   -66.5068     2.9781     3.0797    93.6762     7.7339     2.3960     0.1660     0.0295
  115.0000   -65.6779     3.1260     3.2154    90.9844     7.8842     2.3992     0.1671     0.0295
  115.5000   -64.8474     3.2753     3.5271    88.2432     8.0354     2.3995     0.1719     0.0295
  116.0000   -64.4073     3.4314     3.8999    88.2196     8.0587     2.3899     0.1778     0.0295
  116.5000   -64.3989     3.5872     4.3120    88.8176     8.0591     2.3802     0.1839     0.0357
  117.0000   -64.3882     3.7307     4.7169    88.9982     7.9984     2.3774     0.1831     0.0633
  117.5000   -64.3787     3.8799     4.8489    88.9468     7.9033     2.4029     0.1667     0.0943
  118.0000   -64.3686     4.0350     4.8489    88.8867     7.8102     2.4354     0.1524     0.1257
  118.5000   -64.3585     4.1938     4.8489    88.8671     7.7170     2.4684     0.1380     0.1370
  119.0000   -64.3484     4.3565     4.8489    89.6326     7.6239     2.4603     0.1316     0.1065
  119.5000   -64.3384     4.5258     4.9846    90.4234     7.5313     2.4503     0.1369     0.0856
  120.0000   -64.3283     4.7014     5.0921    91.1785     7.4765     2.4457     0.1417     0.0674
  120.5000   -64.3182     4.8835     5.2351    90.4760     7.4679     2.4440     0.1450     0.0558
  121.0000   -64.3082     5.0686     5.3820    85.4429     7.4554     2.4252     0.1613     0.0439
  121.5000   -64.2981     5.2610     5.5331    80.7345     7.5019     2.4049     0.1763     0.0328
  122.0000   -64.2880     5.4606     5.6884    80.3551     7.5569     2.3838     0.1823     0.0266
  122.5000   -64.2779     5.6190     5.8481    84.4989     7.6122     2.3815     0.1777     0.0247
  123.0000   -64.2679     5.5869     6.0122    85.1397     7.6675     2.3934     0.1703     0.0237
  123.5000   -64.2578     5.5569     6.1030    85.0254     7.7231     2.4018     0.1629     0.0247
  124.0000   -64.2477     5.5270     6.0932    84.8585     7.7752     2.4102     0.1556     0.0257
  124.5000   -64.2377     5.4972     6.0855    87.1050     7.8389     2.4186     0.1524     0.0267
  125.0000   -64.2277     5.4647     6.0777    90.7794     7.9380     2.4264     0.1532     0.0276
  125.5000   -64.2194     5.4737     6.0700    93.0695     8.0386     2.4271     0.1532     0.0285
  126.0000   -64.1034     5.4861     6.0622    93.0415     8.1365     2.4278     0.1479     0.0299
  126.5000   -63.9490     5.4984     6.0545    93.0528     8.0859     2.4331     0.1501     0.0385
  127.0000   -63.7937     5.5108     6.0468    93.3806     8.0188     2.4298     0.1521     0.0467
  127.5000   -63.6389     5.5233     6.0391    94.2553     7.9517     2.4267     0.1540     0.0636
  128.0000   -63.4830     5.5357     6.0314    95.1179     7.8858     2.4259     0.1548     0.0838
  128.5000   -63.4052     5.5482     6.0237    95.6571     7.8170     2.4426     0.1430     0.1041
  129.0000   -63.3802     5.5607     6.0160    95.2999     7.7685     2.4605     0.1274     0.1250
  129.5000   -63.3562     5.5732     6.0084    93.3734     7.7192     2.4757     0.1096     0.1273
  130.0000   -63.3323     5.5858     5.9978    91.4286     7.6332     2.4599     0.1429     0.0992
  130.5000   -63.3083     5.5983     5.9901    90.6378     7.5480     2.4409     0.1654     0.0798
  131.0000   -63.2843     5.6104     6.0603    90.9986     7.4766     2.4220     0.1693     0.0613
  131.5000   -63.2602     5.6645     6.0848    97.9644     7.4517     2.4041     0.1733     0.0496
  132.0000   -63.2365     5.7673     6.1594    98.7938     7.4423     2.3971     0.1731     0.0384
  132.5000   -63.2284     5.8730     6.2753    95.1948     7.4729     2.3969     0.1603     0.0271
  133.0000   -63.2712     5.9806     6.3858    91.1760     7.6034     2.4117     0.1484     0.0262
