~VERSION INFORMATION
 VERS.                2.0:   CWLS LOG ASCII STANDARD - VERSION 2.0
 WRAP.                 NO:   ONE LINE PER DEPTH STEP
~WELL INFORMATION
#MNEM.UNIT      DATA TYPE    INFORMATION
#----------   ------------   ------------------------------
 STRT.F           12.0000:   START DEPTH
 STOP.F          754.0000:   STOP DEPTH
 STEP.F            0.5000:   STEP LENGTH
 NULL.          -999.2500:   NO VALUE
 COMP. FENIX & SCISSON INC:   COMPANY
 WELL.    62 SX 34 #62-34:   WELL
 FLD .             TEAPOT:   FIELD
 LOC .      S34 T39N R78W:   LOCATION
 CNTY.            NATRONA:   COUNTY
 STAT.            WYOMING:   STATE
 CTRY. UNITED STATES OF AMERICA:   COUNTRY
 SRVC.            Unknown:   SERVICE COMPANY
 DATE.        20-AUG-1978:   LOGDATE
 API .       490251070200:   API NUMBER
~CURVE INFORMATION
#MNEM.UNIT       API CODE    CURVE DESCRIPTION
#----------   ------------   ------------------------------
 DEPT.F                  :   
 SPR .MV     05 010 01 00:   SPONTANEOUS POTENTIAL FROM RES.
 SN  .OHMM   05 040 16 00:   SHORT NORMAL 16"
 ILD .OHMM   05 120 46 00:   INDUCTION LOG DEEP
 GRD .GAPI   45 310 01 00:   GAMMA RAY FROM DENSITY LOG
 CALD.IN     45 280 60 00:   CALIPER
 RHOB.G/C3   45 350 01 00:   BULK DENSITY
 DPHI.DEC    45 890 12 00:   DENSITY POROSITY SANDSTONE
 CORR.G/C3   45 356 01 00:   DENSITY CORRECTION
~PARAMETER INFORMATION
#MNEM.UNIT          VALUE    DESCRIPTION
#----------   ------------   ------------------------------
 PD  .                 GL:   PERMANENT DATUM
 EPD .F              5039:   ELEVATION PERMANENT DATUM
 LMF .                 KB:   LOG MEASURED FROM
 DAPD.F                 4:   FEET ABOVE PERMANENT DATUM
 DMF .                 KB:   DRILLING MEASURED FROM
 EKB .F              5043:   KELLING BUSHING
 EGL .F              5039:   GROUND LEVEL
 DATE.            8-20-78:   RUN DATE
 RUN .                  1:   RUN NUMBER
 DD  .F               750:   DEPTH DRILLER
 DL  .F               755:   DEPTH LOGGER
 BLI .F               749:   BOTTOM LOG INTERVAL
 TLI .F                30:   TOP LOG INTERVAL
 CS  .IN            8.625:   CASING SIZE
 CBD .F                30:   CASING BOTTOM DRILLER
 CBL .F                34:   CASING BOTTOM LOGGER
 BS  .IN            7.875:   BIT SIZE
 BSD .F               750:   BIT SIZE AT DEPTH
 DFT .            KCL MUD:   DRILLING FLUID TYPE
 DFD .                8.6:   DRILLING FLUID DENSITY
 DFV .                 30:   DRILLING FLUID VISCOSITY
 DFPH.                9.5:   DRILLING FLUID PH
 DFL .               10.4:   DRILLING FLUID LOSS
 MSS .          FLOW LINE:   MUD SAMPLE SOURCE
 RMS .OHMM            .28:   RESISTIVITY MUD SAMPLE
 MST .F                76:   MUD SAMPLE TEMPERATURE
 RMF .OHMM            .24:   RESISTIVITY MUD FILTRATE SAMPLE
 MFST.F                80:   MUD FILTRATE SAMPLE TEMPERATURE
 RMC .OHMM            .34:   RESISTIVITY MUD CAKE
 MCST.F                82:   MUD CAKE SAMPLE TEMPERATURE
 MFSS.               MEAS:   MUD FILTRATE SAMPLE SOURCE
 MCSS.               MEAS:   MUD CAKE SAMPLE SOURCE
 BHT .F                72:   BOTTOM HOLE TEMPERATURE
 TCS .HRS               3:   TIME CURCULATED STOPPED
 MRT .F                72:   MAXIMUM RECORDED TEMPERATURE
 LUN .               2958:   LOGGING UNIT NUMBER
 LUL .               CASP:   LOGGING UNIT LOCATION
 ENGI.           REYNOLDS:   RECORDING ENGINEER
 WITN.              AMEND:   WITNESSED BY
 CLNT.            A2DTECH:   CLIENT CODE
 ORIG.           5" PRINT:   ORIGIN OF DATA
 UWI .       490251070200:   UNIQUE WELL ID
 DICO. A2D Technologies, Inc.:   DIGITIZING COMPANY
~OTHER INFORMATION
~A   DEPT      SPR         SN        ILD         GRD      CALD       RHOB       DPHI       CORR   
# ...
  255.0000   -63.2760     7.2210     7.6816    86.6892     8.0827     2.5204     0.0938     0.0461
  255.5000   -63.2898     7.2459     7.8322    82.4937     8.1190     2.5249     0.0911     0.0607
  256.0000   -63.3036     7.2708     7.9848    78.4440     8.2148     2.5321     0.0885     0.0633
  256.5000   -63.3174     7.2730     8.0431    77.6760     8.2984     2.5350     0.0859     0.0530
  257.0000   -63.3312     7.1240     7.5660    89.0725     8.3155     2.5339     0.0904     0.0434
  257.5000   -63.3450     6.9950     7.2468    91.2714     8.2704     2.5192     0.0984     0.0339
  258.0000   -63.3587     6.8712     7.1485    92.4771     8.2141     2.5041     0.1105     0.0239
  258.5000   -63.3725     6.7495     7.0650    93.2437     8.1578     2.4887     0.1254     0.0216
  259.0000   -63.3863     6.6299     6.9837    93.3669     8.1014     2.4729     0.1272     0.0218
  259.5000   -63.4001     6.5090     6.9031    93.2774     8.0454     2.4699     0.1264     0.0221
  260.0000   -63.4139     6.5090     6.8155    92.4884     8.0548     2.4724     0.1255     0.0224
  260.5000   -63.4277     6.5090     6.8252    91.7520     8.2001     2.4751     0.1219     0.0227
  261.0000   -63.4415     6.5121     6.8340    92.4815     8.2613     2.4766     0.1224     0.0230
  261.5000   -63.4552     6.5164     6.8428    96.3769     8.1488     2.4745     0.1252     0.0233
  262.0000   -63.4690     6.5208     6.8517   100.1974     8.0432     2.4726     0.1256     0.0222
  262.5000   -63.4828     6.5251     6.8605   101.1502     7.9380     2.4755     0.1209     0.0169
  263.0000   -63.4966     6.5294     6.8694    97.9313     7.8366     2.4808     0.1235     0.0117
  263.5000   -63.5104     6.5338     6.8782    95.2634     7.7505     2.4718     0.1302     0.0120
  264.0000   -63.5242     6.5381     6.8871    93.8653     7.6780     2.4549     0.1348     0.0125
  264.5000   -63.5380     6.5425     6.8960    94.0991     7.6370     2.4551     0.1331     0.0131
  265.0000   -63.5517     6.5468     6.9049    94.5090     7.6395     2.4566     0.1332     0.0137
  265.5000   -63.5655     6.5511     6.9138    94.4698     7.6501     2.4580     0.1332     0.0142
  266.0000   -63.5793     6.5555     6.9228    94.2041     7.6606     2.4594     0.1323     0.0148
  266.5000   -63.5930     6.5599     6.9317    94.1916     7.6710     2.4601     0.1320     0.0153
  267.0000   -63.6063     6.5643     6.9421    94.6894     7.6814     2.4598     0.1322     0.0159
  267.5000   -63.6209     6.5694     6.9011    95.8321     7.6919     2.4563     0.1419     0.0164
  268.0000   -63.7046     6.5404     6.8527    97.9701     7.7023     2.4421     0.1504     0.0170
  268.5000   -63.7889     6.5067     6.8046    97.3090     7.7127     2.4277     0.1522     0.0175
  269.0000   -63.8728     6.4732     6.7568    97.1594     7.7230     2.4265     0.1512     0.0181
  269.5000   -63.9566     6.4244     6.7094    97.8966     7.7333     2.4359     0.1481     0.0187
  270.0000   -64.0404     6.3379     6.6624    98.6253     7.7389     2.4444     0.1451     0.0192
  270.5000   -64.1249     6.2526     6.6299    99.3585     7.7818     2.4464     0.1420     0.0199
  271.0000   -64.2105     6.1684     6.6484   100.0929     7.8258     2.4485     0.1389     0.0208
  271.5000   -64.2153     6.0854     6.6651   100.7213     7.8696     2.4526     0.1356     0.0217
  272.0000   -64.2148     6.0451     6.6819    98.9501     7.9134     2.4576     0.1342     0.0226
  272.5000   -64.2145     6.0303     6.6987    96.8061     7.9570     2.4628     0.1308     0.0235
  273.0000   -64.2086     6.0156     6.7156    93.9131     8.0010     2.4646     0.1280     0.0243
  273.5000   -64.1911     6.0008     6.7325    93.0812     8.0216     2.4667     0.1252     0.0253
  274.0000   -64.1738     5.9917     6.7494    92.7702     8.0667     2.4733     0.1223     0.0256
  274.5000   -64.1564     6.0119     6.7531    93.4689     8.0783     2.4792     0.1204     0.0258
  275.0000   -64.1391     6.0377     6.7486    95.7890     8.0791     2.4790     0.1206     0.0260
  275.5000   -64.1217     6.0637     6.7375    98.0826     8.0843     2.4790     0.1209     0.0262
  276.0000   -64.1044     6.0897     6.7263   100.3811     8.0894     2.4790     0.1211     0.0264
  276.5000   -64.0871     6.1159     6.7151   102.5968     8.0946     2.4790     0.1214     0.0266
  277.0000   -64.0697     6.1422     6.7038   102.7658     8.0997     2.4790     0.1214     0.0267
  277.5000   -64.0524     6.1686     6.6912   102.6297     8.1049     2.4794     0.1184     0.0269
  278.0000   -64.0350     6.1951     6.7577   101.1998     8.1099     2.4800     0.1186     0.0271
  278.5000   -64.0177     6.2217     6.8367    99.7978     8.1145     2.4805     0.1192     0.0273
  279.0000   -64.0154     6.2485     6.9166    98.6222     8.0902     2.4813     0.1175     0.0273
  279.5000   -64.0154     6.2754     6.9974    98.6775     8.0506     2.4855     0.1156     0.0338
  280.0000   -64.0155     6.3023     7.0062    99.5444     8.0111     2.4898     0.1136     0.0410
  280.5000   -64.0155     6.3316     6.9740   100.4179     7.9704     2.4904     0.1136     0.0431
  281.0000   -64.0155     6.3755     6.9525   100.0576     7.9027     2.4908     0.1126     0.0427
  281.5000   -64.0155     6.4236     6.9419    99.6282     7.8170     2.4945     0.1106     0.0418
  282.0000   -64.0155     6.4722     6.9420    99.1905     7.6930     2.4929     0.1100     0.0367
  282.5000   -64.0155     6.5212     6.9421    98.6915     7.5692     2.4850     0.1234     0.0301
  283.0000   -64.0155     6.5705     6.9421   101.2422     7.4979     2.4770     0.1250     0.0232
  283.5000   -64.0155     6.6202     6.9420   104.4188     7.4772     2.4731     0.1241     0.0216
  284.0000   -64.0155     6.6703     6.9421   105.4681     7.4771     2.4739     0.1236     0.0218
  284.5000   -64.0155     6.7207     6.9405   104.8330     7.4766     2.4752     0.1232     0.0221
  285.0000   -64.0155     6.7716     6.9882   104.1022     7.4756     2.4756     0.1228     0.0223
  285.5000   -64.0155     6.8228     7.0666   104.2578     7.5069     2.4668     0.1333     0.0225
  286.0000   -64.0155     6.8744     7.1458   104.5467     7.5260     2.4583     0.1386     0.0227
  286.5000   -64.0155     6.9264     7.2260   101.5532     7.5451     2.4495     0.1408     0.0229
  287.0000   -64.0155     6.9788     7.3070    99.8394     7.5775     2.4484     0.1432     0.0231
  287.5000   -64.0155     7.0316     7.3712    99.7085     7.6370     2.4482     0.1432     0.0233
  288.0000   -64.0155     7.0773     7.4507    99.7692     7.6961     2.4540     0.1352     0.0229
  288.5000   -64.0155     7.1017     7.5317   101.6598     7.7552     2.4658     0.1278     0.0204
  289.0000   -64.0155     7.1262     7.5892   103.4002     7.8143     2.4763     0.1228     0.0181
  289.5000   -64.0155     7.1507     7.6624   103.7070     7.8734     2.4751     0.1223     0.0156
  290.0000   -64.0155     7.1754     7.7355   104.5600     7.9325     2.4740     0.1219     0.0156
  290.5000   -64.0155     7.2023     7.8094   105.8368     7.9915     2.4760     0.1215     0.0158
  291.0000   -64.0155     7.2680     7.8839   107.1226     8.0508     2.4781     0.1212     0.0160
  291.5000   -64.0155     7.3407     7.9592   108.4713     8.0791     2.4795     0.1197     0.0161
  292.0000   -64.0155     7.4141     8.0352   108.6673     8.0821     2.4800     0.1184     0.0163
  292.5000   -64.0155     7.4883     8.1120   107.8298     8.0847     2.4855     0.1140     0.0165
  293.0000   -64.0155     7.5633     8.1925   105.0689     8.0872     2.4915     0.1112     0.0167
  293.5000   -64.0155     7.6389     8.2847   102.4546     8.0898     2.4936     0.1153     0.0168
  294.0000   -64.0155     7.7154     8.4071    99.7885     8.0924     2.4830     0.1199     0.0170
  294.5000   -64.0155     7.7926     8.5314    97.3632     8.0949     2.4764     0.1242     0.0172
  295.0000   -64.0155     7.8706     8.6575    98.6184     8.0978     2.4737     0.1250     0.0174
