~VERSION INFORMATION
 VERS.                2.0:   CWLS LOG ASCII STANDARD - VERSION 2.0
 WRAP.                 NO:   ONE LINE PER DEPTH STEP
~WELL INFORMATION
#MNEM.UNIT      DATA TYPE    INFORMATION
#----------   ------------   ------------------------------
 STRT.F           40.0000:   START DEPTH
 STOP.F          821.0000:   STOP DEPTH
 STEP.F            0.5000:   STEP LENGTH
 NULL.          -999.2500:   NO VALUE
 COMP. FENIX & SCISSON INC:   COMPANY
 WELL. NPR 3 -68 SX #68-27:   WELL
 FLD .             TEAPOT:   FIELD
 LOC .      S27 T39N R78W:   LOCATION
 CNTY.            NATRONA:   COUNTY
 STAT.            WYOMING:   STATE
 CTRY. UNITED STATES OF AMERICA:   COUNTRY
 SRVC.           BIRDWELL:   SERVICE COMPANY
 DATE.        11-SEP-1978:   LOGDATE
 API .       490251069500:   API NUMBER
~CURVE INFORMATION
#MNEM.UNIT       API CODE    CURVE DESCRIPTION
#----------   ------------   ------------------------------
 DEPT.F                  :   
 SPR .MV     05 010 01 00:   SPONTANEOUS POTENTIAL FROM RES.
 SN  .OHMM   05 040 16 00:   SHORT NORMAL 16"
 ILD .OHMM   05 120 46 00:   INDUCTION LOG DEEP
 GRD .GAPI   45 310 01 00:   GAMMA RAY FROM DENSITY LOG
 CALD.IN     45 280 60 00:   CALIPER
 RHOB.G/C3   45 350 01 00:   BULK DENSITY
 CORR.G/C3   45 356 01 00:   DENSITY CORRECTION
 DPHI.DEC    45 890 12 00:   DENSITY POROSITY SANDSTONE
~PARAMETER INFORMATION
#MNEM.UNIT          VALUE    DESCRIPTION
#----------   ------------   ------------------------------
 PD  .                 GL:   PERMANENT DATUM
 EPD .F              5032:   ELEVATION PERMANENT DATUM
 LMF .                 GL:   LOG MEASURED FROM
 DAPD.F                 4:   FEET ABOVE PERMANENT DATUM
 DMF .                 GL:   DRILLING MEASURED FROM
 EKB .F              5036:   KELLING BUSHING
 EGL .F              5032:   GROUND LEVEL
 DATE.            9-11-78:   RUN DATE
 RUN .                  1:   RUN NUMBER
 DD  .F               820:   DEPTH DRILLER
 DL  .F               822:   DEPTH LOGGER
 BLI .F               818:   BOTTOM LOG INTERVAL
 TLI .F                40:   TOP LOG INTERVAL
 CS  .IN            8.625:   CASING SIZE
 CBD .F                40:   CASING BOTTOM DRILLER
 CBL .F                40:   CASING BOTTOM LOGGER
 BS  .IN            7.875:   BIT SIZE
 BSD .F               820:   BIT SIZE AT DEPTH
 DFT .                KCL:   DRILLING FLUID TYPE
 DFD .                8.6:   DRILLING FLUID DENSITY
 DFV .                 34:   DRILLING FLUID VISCOSITY
 DFPH.                  9:   DRILLING FLUID PH
 DFL .                  8:   DRILLING FLUID LOSS
 MSS .           FLOWLINE:   MUD SAMPLE SOURCE
 RMS .OHMM            .24:   RESISTIVITY MUD SAMPLE
 MST .F                62:   MUD SAMPLE TEMPERATURE
 RMF .OHMM            .18:   RESISTIVITY MUD FILTRATE SAMPLE
 MFST.F                64:   MUD FILTRATE SAMPLE TEMPERATURE
 RMC .OHMM             .3:   RESISTIVITY MUD CAKE
 MCST.F                66:   MUD CAKE SAMPLE TEMPERATURE
 MFSS.               MEAS:   MUD FILTRATE SAMPLE SOURCE
 MCSS.               MEAS:   MUD CAKE SAMPLE SOURCE
 RMB .OHMM            .22:   RESISTIVITY MUD AT BHT
 BHT .F                68:   BOTTOM HOLE TEMPERATURE
 TCS .HRS               1:   TIME CURCULATED STOPPED
 MRT .F                68:   MAXIMUM RECORDED TEMPERATURE
 LUN .               3006:   LOGGING UNIT NUMBER
 LUL .               CASP:   LOGGING UNIT LOCATION
 ENGI.            POINTER:   RECORDING ENGINEER
 WITN.              AMEND:   WITNESSED BY
 CLNT.            A2DTECH:   CLIENT CODE
 ORIG.           5" PRINT:   ORIGIN OF DATA
 UWI .       490251069500:   UNIQUE WELL ID
 DICO. A2D Technologies, Inc.:   DIGITIZING COMPANY
~OTHER INFORMATION
~A   DEPT       SPR        SN        ILD         GRD        CALD     RHOB       CORR       DPHI   
# ...
   80.5000   -35.2518     6.3155     5.6322    96.8011     7.4151     2.3943     0.0283     0.1745
   81.0000   -35.4392     6.3511     5.6274    92.2006     7.3285     2.3949     0.0288     0.1780
   81.5000   -35.7199     6.3869     5.6227    89.4702     7.2819     2.3985     0.0293     0.1811
   82.0000   -35.6357     6.4229     5.6180    89.0938     7.2654     2.4031     0.0274     0.1791
   82.5000   -35.4947     6.4590     5.6551    93.9272     7.2495     2.4071     0.0238     0.1753
   83.0000   -35.3783     6.4958     5.7159    98.2131     7.2332     2.4109     0.0214     0.1716
   83.5000   -35.5075     6.5617     5.7774   102.2989     7.2299     2.4111     0.0243     0.1694
   84.0000   -35.6366     6.6473     5.8396   103.2332     7.2306     2.4128     0.0279     0.1681
   84.5000   -35.7643     6.7334     5.9024   102.8129     7.2441     2.4176     0.0298     0.1667
   85.0000   -35.8918     6.8155     6.0192   103.3586     7.2846     2.4223     0.0312     0.1642
   85.5000   -36.0193     6.8188     6.2001   104.3707     7.3755     2.4271     0.0291     0.1615
   86.0000   -36.1468     6.8260     6.3881   104.8342     7.4914     2.4307     0.0271     0.1589
   86.5000   -36.2743     6.8332     6.4525   102.2895     7.6804     2.4319     0.0250     0.1564
   87.0000   -36.4018     6.8404     6.4612    99.3832     7.8728     2.4316     0.0239     0.1560
   87.5000   -36.5295     6.8476     6.4702    96.4662     8.0076     2.4313     0.0384     0.1557
   88.0000   -36.6571     6.8549     6.4792    93.6398     8.0477     2.4310     0.0538     0.1553
   88.5000   -36.7739     6.8622     6.4884    93.7968     8.0895     2.4335     0.0692     0.1540
   89.0000   -36.8046     6.8696     6.4974    96.3795     8.1288     2.4538     0.0845     0.1466
   89.5000   -36.8327     6.8787     6.5070    96.5971     8.1310     2.4737     0.0961     0.1318
   90.0000   -36.8610     6.7997     6.5100    95.6317     8.0741     2.4752     0.0800     0.1252
   90.5000   -36.8893     6.6536     6.5101    93.0496     7.9853     2.4550     0.0588     0.1362
   91.0000   -36.9188     6.5112     6.2591    90.0400     7.8957     2.4336     0.0294     0.1497
   91.5000   -36.9508     6.3718     6.0487    86.9712     7.8061     2.4119     0.0175     0.1631
   92.0000   -36.9300     6.2354     5.8455    83.8880     7.7165     2.3987     0.0136     0.1715
   92.5000   -36.5234     6.1019     5.6491    83.0496     7.6268     2.3909     0.0153     0.1764
   93.0000   -36.2040     5.9712     5.4593    84.0964     7.5378     2.3859     0.0172     0.1803
   93.5000   -35.9687     5.8434     5.2759    85.7616     7.4670     2.3809     0.0190     0.1855
   94.0000   -36.0422     5.7183     5.0987    86.1219     7.4323     2.3758     0.0209     0.1904
   94.5000   -36.1354     5.6699     4.9846    86.1567     7.3960     2.3708     0.0209     0.1952
   95.0000   -35.8014     5.6699     4.9846    89.0831     7.3598     2.3703     0.0201     0.1959
   95.5000   -35.3038     5.6699     4.9833    93.0367     7.3235     2.3750     0.0202     0.1883
   96.0000   -35.1610     5.6699     4.9816    96.2169     7.2909     2.3796     0.0233     0.1839
   96.5000   -35.1201     5.6699     5.0332    96.1943     7.3015     2.3821     0.0255     0.1847
   97.0000   -35.0844     5.7556     5.2192    92.1074     7.3105     2.3823     0.0248     0.1857
   97.5000   -35.0482     5.8906     5.4453    90.8514     7.3240     2.3874     0.0238     0.1866
   98.0000   -35.0103     6.0754     5.6818    93.9617     7.3639     2.4078     0.0229     0.1875
   98.5000   -34.9653     6.3774     5.9285    98.3174     7.4643     2.4311     0.0219     0.1799
   99.0000   -35.3218     6.6992     6.1859    99.5472     7.5754     2.4423     0.0209     0.1535
   99.5000   -35.7373     7.0311     6.4545    96.9426     7.7012     2.4468     0.0200     0.1508
  100.0000   -36.1527     7.1775     6.7347    96.0697     7.8457     2.4510     0.0230     0.1496
  100.5000   -36.5699     7.2610     6.9548   103.0797     7.9889     2.4552     0.0379     0.1488
  101.0000   -36.7696     7.3455     7.1089   102.4805     8.1020     2.4589     0.0441     0.1461
  101.5000   -36.7730     7.4310     7.2665    95.6587     8.1101     2.4627     0.0475     0.1432
  102.0000   -36.7754     7.5175     7.4275    89.4993     8.1106     2.4661     0.0462     0.1403
  102.5000   -36.9067     7.6815     7.4724    84.0310     8.1087     2.4661     0.0432     0.1374
  103.0000   -37.3344     7.6710     7.4724    85.4334     8.0884     2.4661     0.0356     0.1344
  103.5000   -37.7569     7.6513     7.4724    87.6329     8.0421     2.4638     0.0281     0.1340
  104.0000   -37.7933     7.6316     7.4724    89.9632     7.9674     2.4593     0.0207     0.1360
  104.5000   -37.8955     7.6120     7.4726    92.0721     7.8978     2.4447     0.0155     0.1430
  105.0000   -37.9994     7.5925     7.4724    93.6086     7.8283     2.4298     0.0164     0.1507
  105.5000   -38.1038     7.5730     7.4724    95.0883     7.7587     2.4146     0.0173     0.1584
  106.0000   -38.2081     7.5535     7.2576    94.9620     7.6891     2.4118     0.0175     0.1655
  106.5000   -38.3115     7.4761     7.0418    93.0225     7.6196     2.4092     0.0155     0.1671
  107.0000   -38.3775     7.3051     6.8324    92.0249     7.5500     2.4003     0.0133     0.1740
  107.5000   -38.3768     7.1380     6.6293    91.6579     7.4806     2.3908     0.0111     0.1819
  108.0000   -38.3756     6.9747     6.3625    89.3160     7.4111     2.3874     0.0089     0.1803
  108.5000   -38.4783     6.8152     5.9348    85.9533     7.3599     2.3902     0.0067     0.1791
  109.0000   -38.6451     6.6237     5.9380    83.9358     7.3558     2.3917     0.0045     0.1804
  109.5000   -38.8133     6.4140     5.9359    82.6734     7.3617     2.3905     0.0038     0.1819
  110.0000   -38.9820     6.2113     5.8741    82.0122     7.3681     2.3871     0.0047     0.1890
  110.5000   -39.1529     6.0149     5.5955    81.4099     7.3743     2.3754     0.0056     0.1983
  111.0000   -39.1301     5.8249     5.3301    83.9199     7.3803     2.3628     0.0064     0.2023
  111.5000   -39.0706     5.6408     5.0772    90.2794     7.3869     2.3574     0.0073     0.1993
  112.0000   -39.0046     5.4625     4.8938    96.6906     7.4278     2.3654     0.0082     0.1916
  112.5000   -38.6806     5.2899     4.9276    96.9696     7.6158     2.3780     0.0090     0.1840
  113.0000   -38.1639     5.1227     4.8938    92.5084     7.7599     2.3982     0.0115     0.1763
  113.5000   -38.1756     4.9608     4.9509    90.6077     7.8549     2.4163     0.0157     0.1683
  114.0000   -38.1755     4.9390     4.9969    94.2558     7.9372     2.4209     0.0217     0.1660
  114.5000   -38.1733     4.9390     5.0318    98.3216     8.0194     2.4259     0.0315     0.1635
  115.0000   -38.1956     5.0493     5.1955   101.2264     8.1032     2.4281     0.0459     0.1610
  115.5000   -38.5915     5.2884     5.3557    97.6083     8.1299     2.4333     0.0602     0.1597
  116.0000   -38.9819     5.5389     5.5198    94.1009     8.1171     2.4451     0.0719     0.1569
  116.5000   -39.1525     5.8013     5.6889    93.5871     8.0984     2.4584     0.0615     0.1406
  117.0000   -39.0988     5.8361     5.7752    94.7979     8.0798     2.4656     0.0484     0.1352
  117.5000   -39.0459     5.8512     5.7381    93.7790     8.0612     2.4595     0.0353     0.1404
  118.0000   -38.9870     5.8662     5.7097    91.9176     8.0426     2.4495     0.0223     0.1488
  118.5000   -39.1595     5.9344     5.6814    91.6318     8.0240     2.4372     0.0109     0.1572
  119.0000   -39.4102     5.8988     5.6533    91.7148     8.0054     2.4246     0.0091     0.1620
  119.5000   -39.6630     5.8500     5.6254    91.2213     7.9868     2.4177     0.0071     0.1642
  120.0000   -39.9231     5.7999     5.5665    87.0946     7.9664     2.4121     0.0051     0.1664
  120.5000   -40.0023     5.7504     5.5523    82.3599     7.9311     2.4065     0.0031     0.1687
