~VERSION INFORMATION
 VERS.                2.0:   CWLS LOG ASCII STANDARD - VERSION 2.0
 WRAP.                 NO:   ONE LINE PER DEPTH STEP
~WELL INFORMATION
#MNEM.UNIT      DATA TYPE    INFORMATION
#----------   ------------   ------------------------------
 STRT.F           30.0000:   START DEPTH
 STOP.F          770.5000:   STOP DEPTH
 STEP.F            0.5000:   STEP LENGTH
 NULL.          -999.2500:   NO VALUE
 COMP. FENIX & SCISSON INC:   COMPANY
 WELL. TEAPOT DOME 63 SX 34 #63-34:   WELL
 FLD .             TEAPOT:   FIELD
 LOC .      S34 T39N R78W:   LOCATION
 CNTY.            NATRONA:   COUNTY
 STAT.            WYOMING:   STATE
 CTRY. UNITED STATES OF AMERICA:   COUNTRY
 SRVC.           BIRDWELL:   SERVICE COMPANY
 DATE.        18-AUG-1978:   LOGDATE
 API .       490251070300:   API NUMBER
~CURVE INFORMATION
#MNEM.UNIT       API CODE    CURVE DESCRIPTION
#----------   ------------   ------------------------------
 DEPT.F                  :   
 SPR .MV     05 010 01 00:   SPONTANEOUS POTENTIAL
 SN  .OHMM   05 040 16 00:   SHORT NORMAL 16'
 ILD .OHMM   05 120 46 00:   INDUCTION LOG DEEP RESISTIVITY
 CALD.IN     45 280 60 00:   CALIPER
 GRD .GAPI   45 310 01 00:   GAMMA RAY FROM DENSITY LOG
 RHOB.G/C3   45 350 01 00:   BULK DENSITY
 DPHI.DEC    45 890 12 00:   DENSITY POROSITY SANDSTONE
 CORR.G/C3   45 356 01 00:   DENSITY CORRECTION
~PARAMETER INFORMATION
#MNEM.UNIT          VALUE    DESCRIPTION
#----------   ------------   ------------------------------
 PD  .                 GL:   PERMANENT DATUM
 EPD .F              5063:   ELEVATION PERMANENT DATUM
 LMF .                 KB:   LOG MEASURED FROM
 DAPD.F                 4:   FEET ABOVE PERMANENT DATUM
 DMF .                 KB:   DRILLING MEASURED FROM
 EKB .F              5067:   KELLING BUSHING
 EGL .F              5063:   GROUND LEVEL
 DATE.          8-18-1978:   RUN DATE
 RUN .                  1:   RUN NUMBER
 DD  .F               760:   DEPTH DRILLER
 DL  .F               770:   DEPTH LOGGER
 BLI .F               763:   BOTTOM LOG INTERVAL
 TLI .F                40:   TOP LOG INTERVAL
 CS  .IN            8.625:   CASING SIZE
 CBD .F                40:   CASING BOTTOM DRILLER
 CBL .F                40:   CASING BOTTOM LOGGER
 BS  .IN            7.875:   BIT SIZE
 BSD .F               760:   BIT SIZE AT DEPTH
 DFT .            MUD KCL:   DRILLING FLUID TYPE
 DFL .               10.6:   DRILLING FLUID LOSS
 MSS .          FLOW LINE:   MUD SAMPLE SOURCE
 RMS .OHMM             .2:   RESISTIVITY MUD SAMPLE
 MST .F                56:   MUD SAMPLE TEMPERATURE
 RMF .OHMM             .2:   RESISTIVITY MUD FILTRATE SAMPLE
 MFST.F                64:   MUD FILTRATE SAMPLE TEMPERATURE
 RMC .OHMM            .36:   RESISTIVITY MUD CAKE
 MCST.F                64:   MUD CAKE SAMPLE TEMPERATURE
 MFSS.               MEAS:   MUD FILTRATE SAMPLE SOURCE
 MCSS.               MEAS:   MUD CAKE SAMPLE SOURCE
 TCS .HRS               3:   TIME CURCULATED STOPPED
 MRT .F                72:   MAXIMUM RECORDED TEMPERATURE
 LUN .               3006:   LOGGING UNIT NUMBER
 LUL .               CASP:   LOGGING UNIT LOCATION
 ENGI.           REYNOLDS:   RECORDING ENGINEER
 WITN.              AMEND:   WITNESSED BY
 CLNT.            A2DTECH:   CLIENT CODE
 ORIG.           5" PRINT:   ORIGIN OF DATA
 UWI .       490251070300:   UNIQUE WELL ID
 DICO. A2D Technologies, Inc.:   DIGITIZING COMPANY
~OTHER INFORMATION
~A   DEPT      SPR         SN        ILD       CALD         GRD      RHOB       DPHI       CORR   
   30.0000  -999.2500  -999.2500  -999.2500  -999.2500    85.1625  -999.2500  -999.2500  -999.2500
   30.5000  -999.2500  -999.2500  -999.2500  -999.2500    85.9125  -999.2500  -999.2500  -999.2500
   31.0000  -999.2500  -999.2500  -999.2500  -999.2500    86.1000  -999.2500  -999.2500  -999.2500
   31.5000  -999.2500  -999.2500  -999.2500  -999.2500    86.1000  -999.2500  -999.2500  -999.2500
   32.0000  -999.2500  -999.2500  -999.2500  -999.2500    86.1065  -999.2500  -999.2500  -999.2500
   32.5000  -999.2500  -999.2500  -999.2500  -999.2500    86.0761  -999.2500  -999.2500  -999.2500
   33.0000  -999.2500  -999.2500  -999.2500  -999.2500    85.3175  -999.2500  -999.2500  -999.2500
   33.5000  -999.2500  -999.2500  -999.2500  -999.2500    83.9243  -999.2500  -999.2500  -999.2500
   34.0000  -999.2500  -999.2500  -999.2500  -999.2500    84.6114  -999.2500  -999.2500  -999.2500
   34.5000  -999.2500  -999.2500  -999.2500  -999.2500    76.7616  -999.2500  -999.2500  -999.2500
   35.0000  -999.2500  -999.2500  -999.2500  -999.2500    67.9870  -999.2500  -999.2500  -999.2500
   35.5000  -999.2500  -999.2500  -999.2500  -999.2500    62.8797  -999.2500  -999.2500  -999.2500
   36.0000  -999.2500  -999.2500  -999.2500  -999.2500    62.0572  -999.2500  -999.2500  -999.2500
   36.5000  -999.2500  -999.2500  -999.2500  -999.2500    61.7197  -999.2500  -999.2500  -999.2500
   37.0000  -999.2500  -999.2500  -999.2500  -999.2500    63.4621  -999.2500  -999.2500  -999.2500
   37.5000  -999.2500  -999.2500  -999.2500  -999.2500    69.3788  -999.2500  -999.2500  -999.2500
   38.0000  -999.2500  -999.2500  -999.2500  -999.2500    75.1107  -999.2500  -999.2500  -999.2500
   38.5000  -999.2500  -999.2500  -999.2500  -999.2500    79.7489  -999.2500  -999.2500  -999.2500
   39.0000  -999.2500  -999.2500  -999.2500  -999.2500    77.0581  -999.2500  -999.2500  -999.2500
   39.5000  -999.2500  -999.2500  -999.2500  -999.2500    67.6369  -999.2500  -999.2500  -999.2500
   40.0000   -58.0160  -999.2500     5.0146     7.8139    58.4237     1.7206  -999.2500     0.2737
   40.5000   -56.6132  -999.2500     5.0146     8.4688    48.8624     1.8105  -999.2500     0.2622
   41.0000   -56.0758  -999.2500     5.0146     9.3325    48.0732     1.9004  -999.2500     0.2407
   41.5000   -56.1484  -999.2500     5.0421    10.2026    50.1907     1.9190  -999.2500     0.2175
   42.0000   -56.1831  -999.2500     5.0146    11.1046    54.4072     1.9081  -999.2500     0.2132
   42.5000   -56.0871  -999.2500     5.0146    11.3521    58.6065     1.8495  -999.2500     0.2335
   43.0000   -56.2753  -999.2500     5.0146    10.4621    62.7855     1.7916  -999.2500     0.2598
   43.5000   -57.3517  -999.2500     5.0146     9.6680    68.9015     1.7630  -999.2500     0.2862
   44.0000   -57.4304  -999.2500     5.0165     8.8781    66.2447     1.7646  -999.2500     0.3128
   44.5000   -57.5592  -999.2500     5.0246     8.0394    61.7987     1.8149  -999.2500     0.3367
   45.0000   -61.6013  -999.2500  -999.2500     7.6953    65.4438     1.8836  -999.2500     0.3110
   45.5000   -62.1033  -999.2500  -999.2500     7.6051    61.6708     1.9914  -999.2500     0.3000
   46.0000   -61.9524     0.6135     3.9697     7.6484    58.8900     2.0240  -999.2500     0.3178
   46.5000   -64.7206     0.6576     4.0611     7.7645    64.7131     2.0653  -999.2500     0.2810
   47.0000   -65.1237     0.6931     4.0975     7.8793    69.7545     2.1059  -999.2500     0.2296
   47.5000   -65.9348     0.7556     4.1343     8.0095    68.6664     2.1631  -999.2500     0.1975
   48.0000   -70.7789     0.8434     4.4579     8.6866    66.4843     2.1054  -999.2500     0.2268
   48.5000   -74.7925     0.9151     4.8961     9.4412    60.9734     2.0090  -999.2500     0.2015
   49.0000   -70.9244     1.0368     4.9687    10.1990    55.4982     2.0285  -999.2500     0.1666
   49.5000   -75.8514     1.1757     4.9687    10.8453    53.8792     1.9794  -999.2500     0.1639
   50.0000   -78.8101     1.3332     4.4054    10.3770    57.6516     1.9076  -999.2500     0.2079
   50.5000   -81.8037     1.5112     3.4466     9.9131    61.1902     1.8434  -999.2500     0.2486
   51.0000   -82.9564     1.5794     2.6934     9.4418    63.3501     1.8441  -999.2500     0.2904
   51.5000   -83.1544     1.7291     2.3445     9.2156    53.6107     1.9145  -999.2500     0.3049
   52.0000   -80.8472     2.1918     2.7385     9.0687    66.9725     2.0382  -999.2500     0.2301
   52.5000   -79.6571     2.7770     3.2688     8.9256    47.9825     2.2111  -999.2500     0.1315
   53.0000   -79.6573     3.5249     1.7492     8.5413    57.9469     2.1016  -999.2500     0.1568
   53.5000   -79.6740     4.4090     2.3496     7.8586    70.2927     1.9783  -999.2500     0.2559
   54.0000   -80.0132     2.8102     2.7651     7.1782    69.4906     1.9207  -999.2500     0.2849
   54.5000   -80.3484     2.8236     2.9384     7.0680    68.1521     1.9466  -999.2500     0.2791
   55.0000   -80.6814     2.8361     3.1226     7.3645    67.1046     1.9909  -999.2500     0.2457
   55.5000   -81.0141     2.9240     3.3607     7.9788    66.5505     2.0760  -999.2500     0.2211
   56.0000   -81.3467     3.0557     3.6458     8.5775    66.0073     2.1377     0.2960     0.2099
   56.5000   -81.6798     3.3584     4.0218     9.0217    65.5240     2.1954     0.2701     0.1672
   57.0000   -81.9532     3.6910     4.0000     7.8369    66.5767     2.2384     0.2443     0.1509
   57.5000   -82.1525     3.9124     3.9728     8.1270    72.3349     2.3044     0.2209     0.1076
   58.0000   -82.3520     3.7992     3.9457     8.8099    72.1080     2.2833     0.2434     0.0685
   58.5000   -82.5517     3.7025     3.9188     9.4116    71.4596     2.2421     0.2709     0.0716
   59.0000   -82.7512     3.7025     3.9124     7.3744    73.7776     2.2005     0.2985     0.0798
   59.5000   -82.9492     3.8021     3.9124     8.3206    76.3097     2.1590     0.3305     0.0976
   60.0000   -83.0327     3.8767     3.9124     7.9257    76.9270     2.1176     0.3131     0.1484
   60.5000   -82.9476     3.9138     3.8613     7.4723    77.7412     2.0760     0.2918     0.2036
   61.0000   -82.8649     3.7570     3.4981     7.4914    78.0271     2.0681     0.2706     0.2408
   61.5000   -82.7816     3.6247     3.1691     8.2264    75.2905     2.0858     0.2494     0.2510
   62.0000   -82.6983     3.4970     2.8710     8.9317    74.7262     2.0805     0.2282     0.2791
   62.5000   -82.6147     3.3738     2.7338     9.3017    75.4721     2.4238     0.2070     0.1951
   63.0000   -82.5320     3.2553     2.7385     8.2231    75.8889     2.4039     0.1862     0.0855
   63.5000   -82.4856     3.1961     2.7427     7.4929    75.3850     2.3538     0.1886     0.0570
   64.0000   -82.6180     3.2618     2.7471     7.4127    74.8163     2.3518     0.1868     0.0676
   64.5000   -82.7473     3.2853     2.7512     7.3213    74.5001     2.3703     0.1774     0.0736
   65.0000   -82.8761     3.2850     2.7558     7.2293    74.6756     2.3860     0.1697     0.0705
   65.5000   -83.0050     3.2841     2.7590     7.1390    75.2295     2.3674     0.1794     0.0723
   66.0000   -83.1344     3.2855     3.0265     7.0687    78.2834     2.3776     0.1695     0.0740
   66.5000   -83.2622     3.5126     3.3047     7.1351    81.3455     2.3831     0.1597     0.0716
   67.0000   -83.2911     3.7061     3.5362     7.3381    83.9710     2.3996     0.1741     0.0584
   67.5000   -83.3152     3.9103     3.5362     7.3534    83.8630     2.3640     0.1936     0.0366
   68.0000   -83.3397     3.9954     3.4818     7.2660    82.7085     2.3469     0.1915     0.0354
   68.5000   -83.3643     4.0533     3.4293     7.2638    82.6451     2.3544     0.1887     0.0396
   69.0000   -83.3889     4.1129     3.3773     7.3343    83.3917     2.3551     0.1915     0.0365
   69.5000   -83.4136     4.1704     3.3464     7.4045    83.4332     2.3374     0.2047     0.0358
   70.0000   -83.4382     4.2132     3.3773     7.4746    81.3376     2.3194     0.2108     0.0509
