~VERSION INFORMATION
 VERS.                2.0:   CWLS LOG ASCII STANDARD - VERSION 2.0
 WRAP.                 NO:   ONE LINE PER DEPTH STEP
~WELL INFORMATION
#MNEM.UNIT      DATA TYPE    INFORMATION
#----------   ------------   ------------------------------
 STRT.F           32.0000:   START DEPTH
 STOP.F          688.5000:   STOP DEPTH
 STEP.F            0.5000:   STEP LENGTH
 NULL.          -999.2500:   NO VALUE
 COMP. FENIX & SCISSON INC:   COMPANY
 WELL.       NPR 3 #78-34:   WELL
 FLD .  TEAPOT DOME NPR-3:   FIELD
 LOC .      S34 T39N R78W:   LOCATION
 CNTY.            NATRONA:   COUNTY
 STAT.            WYOMING:   STATE
 CTRY. UNITED STATES OF AMERICA:   COUNTRY
 SRVC.           BIRDWELL:   SERVICE COMPANY
 DATE.        16-AUG-1978:   LOGDATE
 API .       490251070700:   API NUMBER
~CURVE INFORMATION
#MNEM.UNIT       API CODE    CURVE DESCRIPTION
#----------   ------------   ------------------------------
 DEPT.F                  :   
 SPR .MV     05 010 01 00:   SPONTANEOUS POTENTIAL
 SN  .OHMM   05 040 16 00:   SHORT NORMAL 16'
 ILD .OHMM   05 120 46 00:   INDUCTION LOG DEEP RESISTIVITY
 CALD.IN     45 280 60 00:   CALIPER
 GRD .GAPI   45 310 01 00:   GAMMA RAY FROM DENSITY LOG
 RHOB.G/C3   45 350 01 00:   BULK DENSITY
 DPHI.DEC    45 890 12 00:   DENSITY POROSITY SANDSTONE
 CORR.G/C3   45 356 01 00:   DENSITY CORRECTION
~PARAMETER INFORMATION
#MNEM.UNIT          VALUE    DESCRIPTION
#----------   ------------   ------------------------------
 PD  .                 GL:   PERMANENT DATUM
 EPD .F              5085:   ELEVATION PERMANENT DATUM
 LMF .                 KB:   LOG MEASURED FROM
 DAPD.F                 4:   FEET ABOVE PERMANENT DATUM
 DMF .                 KB:   DRILLING MEASURED FROM
 EKB .F              5089:   KELLING BUSHING
 EGL .F              5085:   GROUND LEVEL
 DATE.          8-16-1978:   RUN DATE
 RUN .                  1:   RUN NUMBER
 DD  .F               680:   DEPTH DRILLER
 DL  .F               688:   DEPTH LOGGER
 BLI .F               682:   BOTTOM LOG INTERVAL
 TLI .F                50:   TOP LOG INTERVAL
 CS  .IN            8.625:   CASING SIZE
 CBD .F                40:   CASING BOTTOM DRILLER
 BS  .IN            7.875:   BIT SIZE
 BSD .F               680:   BIT SIZE AT DEPTH
 DFT .                KCL:   DRILLING FLUID TYPE
 RMS .OHMM            .32:   RESISTIVITY MUD SAMPLE
 MST .F                64:   MUD SAMPLE TEMPERATURE
 RMF .OHMM             .3:   RESISTIVITY MUD FILTRATE SAMPLE
 MFST.F                76:   MUD FILTRATE SAMPLE TEMPERATURE
 RMC .OHMM            .16:   RESISTIVITY MUD CAKE
 MCST.F                64:   MUD CAKE SAMPLE TEMPERATURE
 MFSS.               MEAS:   MUD FILTRATE SAMPLE SOURCE
 MCSS.               MEAS:   MUD CAKE SAMPLE SOURCE
 TCS .HRS               1:   TIME CURCULATED STOPPED
 LUN .               3006:   LOGGING UNIT NUMBER
 LUL .               CASP:   LOGGING UNIT LOCATION
 ENGI.             MILLER:   RECORDING ENGINEER
 WITN.           MCGINLEY:   WITNESSED BY
 CLNT.            A2DTECH:   CLIENT CODE
 ORIG.           5" PRINT:   ORIGIN OF DATA
 UWI .       490251070700:   UNIQUE WELL ID
 DICO. A2D Technologies, Inc.:   DIGITIZING COMPANY
~OTHER INFORMATION
~A   DEPT      SPR         SN        ILD       CALD         GRD      RHOB       DPHI       CORR   
# ...
  396.5000   -30.2154     3.3419     2.5952     7.7014    90.9459     2.4365     0.1518     0.0410
  397.0000   -29.5623     3.1309     2.4258     7.6868    90.4601     2.4208     0.1598     0.0412
  397.5000   -29.3472     2.9695     2.4036     7.7011    89.8293     2.4048     0.1678     0.0414
  398.0000   -29.3193     2.9423     2.4032     7.7151    87.1493     2.3848     0.1813     0.0415
  398.5000   -29.2619     2.9695     2.5091     7.7252    85.0812     2.3593     0.1972     0.0417
  399.0000   -29.1995     3.0526     2.5899     7.7139    87.0678     2.3333     0.2131     0.0419
  399.5000   -29.2069     3.2844     2.7879     7.7027    90.3476     2.3074     0.2290     0.0440
  400.0000   -30.3271     3.6321     3.1569     7.6910    91.1152     2.2812     0.2448     0.0518
  400.5000   -31.4402     4.0166     3.5749     7.6698    91.3850     2.2581     0.2555     0.0641
  401.0000   -32.5653     4.4418     4.0485     7.7058    90.3065     2.2604     0.2339     0.0764
  401.5000   -32.7663     4.9120     4.5864     7.7410    88.9193     2.2957     0.2176     0.0887
  402.0000   -32.7697     5.4320     4.8798     7.7761    87.5174     2.3607     0.1888     0.1010
  402.5000   -32.9505     5.5993     4.8791     7.7844    88.7428     2.4272     0.1451     0.1120
  403.0000   -33.5866     5.6510     4.9259     7.7818    91.0810     2.4721     0.1152     0.1137
  403.5000   -34.2082     5.6510     4.9352     7.7789    93.1712     2.5106     0.1063     0.1138
  404.0000   -34.5560     5.6401     4.9408     7.7760    91.9012     2.5231     0.0975     0.1138
  404.5000   -34.8123     5.6293     4.9464     7.7732    90.9813     2.5379     0.0886     0.1133
  405.0000   -34.8936     5.6185     4.9521     7.7704    95.4353     2.5566     0.0826     0.1040
  405.5000   -34.9693     5.6077     4.9579     7.7677    95.8529     2.5594     0.0992     0.0714
  406.0000   -35.0446     5.5970     4.9640     7.7548    96.3629     2.5197     0.1162     0.0377
  406.5000   -35.1200     5.5862     4.9697     7.7357    96.8904     2.4956     0.1132     0.0335
  407.0000   -35.1195     5.5755     4.7909     7.7164    97.3501     2.5024     0.1094     0.0327
  407.5000   -34.6553     5.5648     4.6285     7.6972    96.3169     2.5066     0.1074     0.0320
  408.0000   -34.1891     5.5542     4.4722     7.6779    95.2008     2.5089     0.1051     0.0312
  408.5000   -33.7188     5.4350     4.3287     7.6587    94.5115     2.5113     0.1022     0.0304
  409.0000   -33.5711     5.1804     4.3152     7.6395    96.5213     2.5061     0.1080     0.0296
  409.5000   -33.5547     4.9377     4.3022     7.6203    98.5123     2.4982     0.1152     0.0287
  410.0000   -33.7791     4.7021     4.2894     7.6010    98.5374     2.4881     0.1225     0.0280
  410.5000   -33.7637     4.7216     4.2764     7.5818    98.5922     2.4678     0.1297     0.0295
  411.0000   -33.7259     4.7512     4.2635     7.5625    99.5468     2.4615     0.1348     0.0324
  411.5000   -33.6846     4.7825     4.2499     7.5432   100.8866     2.4547     0.1395     0.0384
  412.0000   -33.6435     4.8141     4.3811     7.5265   102.2775     2.4473     0.1425     0.0447
  412.5000   -33.6025     4.8940     4.5689     7.5267   102.2843     2.4643     0.1328     0.0428
  413.0000   -33.5615     5.0555     4.7649     7.5272   100.1440     2.4765     0.1256     0.0389
  413.5000   -33.5205     5.2222     4.9691     7.5426    97.9196     2.4813     0.1190     0.0348
  414.0000   -33.4794     5.3945     5.2020     7.5633    95.7047     2.4831     0.1221     0.0308
  414.5000   -33.4384     5.5725     5.3963     7.5886    93.4915     2.4878     0.1146     0.0267
  415.0000   -33.3974     5.7564     5.5017     7.6186    91.5584     2.4916     0.1168     0.0254
  415.5000   -33.3564     5.9463     5.6542     7.6711    91.5283     2.4915     0.1189     0.0246
  416.0000   -33.3153     6.0266     5.6496     7.7266    92.2308     2.4922     0.1166     0.0239
  416.5000   -33.2743     6.0802     5.6794     7.7817    93.0165     2.4959     0.1144     0.0231
  417.0000   -33.2333     6.0585     5.6448     7.8249    93.6302     2.5022     0.1102     0.0224
  417.5000   -33.1923     6.0312     5.6109     7.8081    94.1254     2.5087     0.1046     0.0216
  418.0000   -33.1512     6.0022     5.5774     7.7926    94.6091     2.5056     0.1077     0.0209
  418.5000   -33.1102     5.9734     5.5440     7.7771    94.9753     2.5014     0.1102     0.0202
  419.0000   -33.0692     5.9448     5.5109     7.7616    95.0368     2.5022     0.1070     0.0194
  419.5000   -33.0290     5.9164     5.4779     7.7470    95.1017     2.4988     0.1129     0.0187
  420.0000   -32.9872     5.8881     5.4451     7.7513    95.0239     2.4925     0.1161     0.0179
  420.5000   -32.9024     5.8600     5.4126     7.7563    94.4163     2.4898     0.1142     0.0172
  421.0000   -32.6356     5.8318     5.3399     7.7612    93.8258     2.4884     0.1163     0.0164
  421.5000   -32.3800     5.7861     5.2324     7.7661    93.3260     2.4879     0.1252     0.0157
  422.0000   -32.1243     5.6630     5.1268     7.7710    93.5975     2.4748     0.1325     0.0149
  422.5000   -31.8686     5.5425     5.0235     7.7759    96.1374     2.4634     0.1333     0.0142
  423.0000   -31.6129     5.4245     4.9223     7.7808    98.6064     2.4706     0.1255     0.0135
  423.5000   -31.3570     5.3091     4.8231     7.7856    99.1413     2.4775     0.1198     0.0127
  424.0000   -31.1014     5.1961     4.7455     7.7905    98.4268     2.4722     0.1317     0.0120
  424.5000   -30.8428     5.1540     4.7455     7.7954    97.6782     2.4655     0.1307     0.0112
  425.0000   -30.7623     5.1541     4.7455     7.8004    97.1754     2.4646     0.1317     0.0105
  425.5000   -30.7604     5.1955     4.8178     7.8063    97.3576     2.4622     0.1369     0.0099
  426.0000   -30.8441     5.3218     4.9598     7.7705    97.5209     2.4523     0.1422     0.0105
  426.5000   -30.9895     5.5274     5.1059     7.7241    97.6922     2.4425     0.1473     0.0133
  427.0000   -31.1356     5.7612     5.2564     7.6183    97.4008     2.4405     0.1477     0.0190
  427.5000   -31.2816     6.0050     5.4113     7.4846    96.8930     2.4423     0.1465     0.0249
  428.0000   -31.4276     6.2590     5.5708     7.3502    96.5793     2.4570     0.1322     0.0294
  428.5000   -31.5737     6.3683     5.7349     7.2530    96.6769     2.4727     0.1179     0.0248
  429.0000   -31.7201     6.3746     5.8627     7.2030    96.4516     2.4840     0.1098     0.0203
  429.5000   -31.8639     6.3808     5.9168     7.1546    95.0013     2.4901     0.1169     0.0183
  430.0000   -31.9455     6.3871     5.8979     7.1290    93.5935     2.4924     0.1152     0.0192
  430.5000   -31.8797     6.3934     5.8806     7.1068    92.1883     2.4915     0.1158     0.0200
  431.0000   -31.8167     6.3996     5.8633     7.1072    90.9547     2.4905     0.1186     0.0209
  431.5000   -31.7531     6.4059     5.8461     7.1493    90.0093     2.4905     0.1161     0.0217
  432.0000   -31.6895     6.4121     5.8290     7.1933    89.2754     2.4905     0.1146     0.0225
  432.5000   -31.6251     6.4185     5.8119     7.2388    92.0461     2.4912     0.1185     0.0234
  433.0000   -31.5681     6.4268     5.7948     7.2839    97.0231     2.4923     0.1150     0.0242
  433.5000   -31.6787     6.4026     5.7778     7.3288   101.6621     2.4980     0.1113     0.0250
  434.0000   -31.7957     6.3634     5.7609     7.3877   101.4922     2.5100     0.1051     0.0259
  434.5000   -31.9124     6.3243     5.7440     7.4460    97.5400     2.5234     0.0975     0.0243
  435.0000   -31.9897     6.2856     5.7271     7.5029    94.1806     2.5281     0.0918     0.0224
  435.5000   -32.0380     6.2470     5.7103     7.5476    91.0771     2.5168     0.1021     0.0205
  436.0000   -32.0855     6.2087     5.6936     7.5462    90.8806     2.5075     0.1109     0.0185
  436.5000   -32.1330     6.1706     5.6769     7.5512    95.1772     2.4979     0.1154     0.0181
