~VERSION INFORMATION
 VERS.                2.0:   CWLS LOG ASCII STANDARD - VERSION 2.0
 WRAP.                 NO:   ONE LINE PER DEPTH STEP
~WELL INFORMATION
#MNEM.UNIT      DATA TYPE    INFORMATION
#----------   ------------   ------------------------------
 STRT.F           38.0000:   START DEPTH
 STOP.F          483.5000:   STOP DEPTH
 STEP.F            0.5000:   STEP LENGTH
 NULL.          -999.2500:   NO VALUE
 COMP. FENIX & SCISSON INC:   COMPANY
 WELL.    43 SX 10 #43-10:   WELL
 FLD .             TEAPOT:   FIELD
 LOC .      S10 T38N R78W:   LOCATION
 CNTY.            NATRONA:   COUNTY
 STAT.            WYOMING:   STATE
 CTRY. UNITED STATES OF AMERICA:   COUNTRY
 SRVC.            Unknown:   SERVICE COMPANY
 DATE.        12-NOV-1978:   LOGDATE
 API .       490251072700:   API NUMBER
~CURVE INFORMATION
#MNEM.UNIT       API CODE    CURVE DESCRIPTION
#----------   ------------   ------------------------------
 DEPT.F                  :   
 SPR .MV     05 010 01 00:   SPONTANEOUS POTENTIAL FROM RES.
 SN  .OHMM   05 040 16 00:   SHORT NORMAL 16"
 IL  .OHMM   05 120 00 00:   INDUCTION LOG
 GRD .GAPI   45 310 01 00:   GAMMA RAY FROM DENSITY LOG
 CALD.IN     45 280 60 00:   CALIPER
 DEN .G/C3   45 350 01 00:   COMPENSATED BULK DENSTIY
 DPHI.DEC    45 890 12 00:   DENSITY POROSITY SANDSTONE
 CORR.G/C3   45 356 01 00:   DENSITY CORRECTION
~PARAMETER INFORMATION
#MNEM.UNIT          VALUE    DESCRIPTION
#----------   ------------   ------------------------------
 PD  .                 GL:   PERMANENT DATUM
 EPD .F              5193:   ELEVATION PERMANENT DATUM
 LMF .                 KB:   LOG MEASURED FROM
 DAPD.F                 4:   FEET ABOVE PERMANENT DATUM
 DMF .                 KB:   DRILLING MEASURED FROM
 EKB .F              5197:   KELLING BUSHING
 EGL .F              5193:   GROUND LEVEL
 DATE.           11-12-78:   RUN DATE
 RUN .                  1:   RUN NUMBER
 DD  .F               480:   DEPTH DRILLER
 DL  .F               485:   DEPTH LOGGER
 BLI .F               479:   BOTTOM LOG INTERVAL
 TLI .F                50:   TOP LOG INTERVAL
 CS  .IN            8.625:   CASING SIZE
 CBD .F                40:   CASING BOTTOM DRILLER
 CBL .F                45:   CASING BOTTOM LOGGER
 BS  .IN            7.875:   BIT SIZE
 BSD .F               480:   BIT SIZE AT DEPTH
 DFT .            SEA MUD:   DRILLING FLUID TYPE
 DFD .                8.7:   DRILLING FLUID DENSITY
 DFV .                 36:   DRILLING FLUID VISCOSITY
 DFPH.               10.5:   DRILLING FLUID PH
 MSS .            MUD PIT:   MUD SAMPLE SOURCE
 RMS .OHMM            .42:   RESISTIVITY MUD SAMPLE
 MST .F                52:   MUD SAMPLE TEMPERATURE
 RMF .OHMM            .42:   RESISTIVITY MUD FILTRATE SAMPLE
 MFST.F                52:   MUD FILTRATE SAMPLE TEMPERATURE
 RMC .OHMM            .48:   RESISTIVITY MUD CAKE
 MCST.F                54:   MUD CAKE SAMPLE TEMPERATURE
 MFSS.               MEAS:   MUD FILTRATE SAMPLE SOURCE
 MCSS.               MEAS:   MUD CAKE SAMPLE SOURCE
 RMB .OHMM            .34:   RESISTIVITY MUD AT BHT
 BHT .F                71:   BOTTOM HOLE TEMPERATURE
 TCS .HRS               3:   TIME CURCULATED STOPPED
 MRT .F                71:   MAXIMUM RECORDED TEMPERATURE
 LUN .               3006:   LOGGING UNIT NUMBER
 LUL .               CASP:   LOGGING UNIT LOCATION
 ENGI.             MILLER:   RECORDING ENGINEER
 WITN.           DINSMORE:   WITNESSED BY
 CLNT.            A2DTECH:   CLIENT CODE
 ORIG.       2", 5" PRINT:   ORIGIN OF DATA
 UWI .       490251072700:   UNIQUE WELL ID
 DICO. A2D Technologies, Inc.:   DIGITIZING COMPANY
~OTHER INFORMATION
~A   DEPT      SPR         SN         IL         GRD      CALD        DEN       DPHI       CORR   
# ...
   78.5000   -42.2908    10.1096     9.2811    95.9367     8.5532     2.4854     0.1170     0.0545
   79.0000   -42.0927    10.0962     9.2712    97.0815     8.5593     2.4887     0.1160     0.0545
   79.5000   -42.0280    10.0825     9.2612    98.1514     8.5654     2.4856     0.1168     0.0545
   80.0000   -41.9658    10.0689     9.2513    97.5561     8.5715     2.4741     0.1260     0.0546
   80.5000   -41.9321    10.0553     9.2414    95.2884     8.5670     2.4625     0.1322     0.0566
   81.0000   -41.9323    10.0417     9.2315    93.0287     8.5539     2.4608     0.1312     0.0612
   81.5000   -41.9322    10.0281     9.2216    91.2496     8.5405     2.4732     0.1255     0.0625
   82.0000   -41.9323    10.0146     9.2117    90.4915     8.5375     2.4800     0.1202     0.0626
   82.5000   -41.9332    10.0010     9.2018    89.8593     8.5424     2.4820     0.1188     0.0626
   83.0000   -41.9385     9.9875     9.1920    89.7528     8.5473     2.4811     0.1212     0.0641
   83.5000   -41.7272     9.9740     9.1821    89.7803     8.5524     2.4776     0.1234     0.0655
   84.0000   -41.4975     9.9605     9.1723    89.8652     8.5481     2.4741     0.1246     0.0669
   84.5000   -41.2672     9.9473     9.1624    89.9535     8.5372     2.4748     0.1239     0.0683
   85.0000   -41.0375     9.9337     9.1524    90.1205     8.5263     2.4759     0.1231     0.0697
   85.5000   -40.8079     9.9260     9.1429    90.2161     8.5138     2.4780     0.1220     0.0711
   86.0000   -40.5783    10.0188     9.1347    88.9128     8.4641     2.4816     0.1185     0.0726
   86.5000   -40.3488    10.0892     9.2961    87.5269     8.4898     2.4867     0.1148     0.0740
   87.0000   -40.1194    10.1597     9.4376    87.2059     8.5330     2.4917     0.1129     0.0754
   87.5000   -39.8892    10.2661     9.5811    87.5496     8.5770     2.4967     0.1102     0.0763
   88.0000   -39.5656    10.4270     9.7268    87.5782     8.5909     2.5018     0.1076     0.0739
   88.5000   -39.0484    10.5904     9.8747    87.0739     8.5866     2.5034     0.1070     0.0715
   89.0000   -38.9358    10.7564    10.0249    86.4837     8.5818     2.5023     0.1081     0.0690
   89.5000   -38.9226    10.9250    10.1619    85.4679     8.5767     2.5012     0.1088     0.0680
   90.0000   -38.9122    11.0962    10.2811    85.5454     8.5539     2.5024     0.1072     0.0670
   90.5000   -38.9009    11.2701    10.4017    86.1868     8.5057     2.5041     0.1052     0.0660
   91.0000   -38.8894    11.4467    10.5583    86.6845     8.3949     2.5059     0.1042     0.0650
   91.5000   -38.8778    11.6261    10.8080    87.0023     8.2733     2.5078     0.1040     0.0640
   92.0000   -38.8663    11.8083    11.0624    87.1251     8.1516     2.5051     0.1057     0.0629
   92.5000   -38.8548    11.9934    11.3236    86.9588     8.0547     2.5015     0.1088     0.0633
   93.0000   -38.8433    12.1633    11.5908    86.2014     8.1478     2.4984     0.1100     0.0648
   93.5000   -38.8318    12.3288    11.8643    84.7686     8.2535     2.5082     0.1039     0.0708
   94.0000   -38.8203    12.4963    12.1443    85.0240     8.3602     2.5183     0.0978     0.0715
   94.5000   -38.8087    12.6662    12.4309    84.7170     8.4144     2.5235     0.0932     0.0723
   95.0000   -38.7972    12.8384    12.6334    81.9592     8.4431     2.5095     0.1017     0.0705
   95.5000   -38.7857    13.0130    12.6871    79.8923     8.4714     2.4961     0.1120     0.0673
   96.0000   -38.7745    13.1899    12.7410    76.2770     8.4998     2.4825     0.1201     0.0641
   96.5000   -38.7628    13.3307    12.7952    71.7317     8.5178     2.4815     0.1232     0.0609
   97.0000   -38.7477    13.3307    12.8481    68.0094     8.5240     2.4855     0.1182     0.0576
   97.5000   -38.5501    13.1498    12.7866    67.8119     8.5302     2.4778     0.1201     0.0573
   98.0000   -38.1292    13.0241    12.7131    68.0234     8.5364     2.4701     0.1288     0.0583
   98.5000   -37.7575    12.8996    12.6398    68.1609     8.5426     2.4691     0.1260     0.0593
   99.0000   -37.8454    12.7763    12.5670    68.1223     8.5489     2.4748     0.1244     0.0604
   99.5000   -37.9398    12.6542    12.4946    68.0968     8.5544     2.4716     0.1262     0.0615
  100.0000   -37.8847    12.5332    12.4226    68.5979     8.5545     2.4693     0.1279     0.0625
  100.5000   -37.8130    12.4134    12.3511    69.7834     8.5545     2.4680     0.1282     0.0636
  101.0000   -37.7412    12.2948    12.2800    71.5700     8.5545     2.4676     0.1285     0.0646
  101.5000   -37.6698    12.1772    12.2092    73.4450     8.5545     2.4672     0.1288     0.0657
  102.0000   -37.5972    12.0608    12.1389    74.5872     8.5545     2.4675     0.1271     0.0661
  102.5000   -37.4440    11.9455    12.0690    75.1629     8.5545     2.4717     0.1252     0.0624
  103.0000   -37.1055    11.8309    11.9995    72.6131     8.5546     2.4761     0.1233     0.0586
  103.5000   -36.9549    11.7168    11.9304    69.2882     8.5469     2.4755     0.1224     0.0550
  104.0000   -36.9520    11.7026    11.8617    68.8145     8.5237     2.4736     0.1239     0.0528
  104.5000   -36.9519    11.6894    11.7934    68.9601     8.4478     2.4718     0.1252     0.0536
  105.0000   -36.9522    11.6758    11.7254    69.5822     8.3716     2.4759     0.1233     0.0544
  105.5000   -36.9522    11.6622    11.6579    70.3167     8.2951     2.4798     0.1212     0.0552
  106.0000   -36.9522    11.6486    11.5908    71.5827     8.2211     2.4811     0.1208     0.0560
  106.5000   -36.9524    11.6352    11.5240    73.4461     8.2430     2.4750     0.1221     0.0568
  107.0000   -36.9530    11.6224    11.4577    79.1040     8.2706     2.4625     0.1294     0.0575
  107.5000   -36.9485    11.6090    11.3969    82.0697     8.2948     2.4470     0.1381     0.0582
  108.0000   -36.8162    11.4723    11.1991    82.4121     8.2433     2.4320     0.1468     0.0696
  108.5000   -36.6773    11.3470    11.0188    82.6978     8.1880     2.4268     0.1521     0.0923
  109.0000   -36.5390    11.2232    10.8409    84.3745     8.1327     2.4279     0.1521     0.1080
  109.5000   -36.4011    11.1006    10.6679    85.3003     8.0818     2.4407     0.1442     0.1226
  110.0000   -36.2625    10.9795    10.5595    85.8657     8.1153     2.4586     0.1299     0.1232
  110.5000   -36.0994    10.8596    10.5090    85.4885     8.1511     2.4765     0.1186     0.1156
  111.0000   -35.8253    10.7685    10.4587    85.0437     8.2065     2.4847     0.1176     0.1081
  111.5000   -35.5552    10.7267    10.4086    86.9160     8.2926     2.4776     0.1192     0.1005
  112.0000   -35.2850    10.6851    10.3588    86.4174     8.3826     2.4662     0.1257     0.0929
  112.5000   -35.0144    10.6436    10.3093    86.1910     8.3965     2.4548     0.1345     0.0853
  113.0000   -34.7651    10.6023    10.2599    86.4176     8.4187     2.4435     0.1429     0.0845
  113.5000   -34.7595    10.5612    10.2109    86.5563     8.5130     2.4380     0.1469     0.0860
  114.0000   -34.7607    10.5202    10.1620    85.8532     8.5058     2.4446     0.1386     0.0981
  114.5000   -34.7610    10.4794    10.1134    85.7572     8.4962     2.4573     0.1313     0.1089
  115.0000   -34.7610    10.4387    10.0650    85.6503     8.4961     2.4702     0.1239     0.1070
  115.5000   -34.7610    10.3982    10.0169    85.6625     8.4974     2.4750     0.1220     0.0948
  116.0000   -34.7608    10.3579     9.9689    85.8056     8.4987     2.4677     0.1282     0.0827
  116.5000   -34.7607    10.3177     9.9212    85.9478     8.5000     2.4533     0.1347     0.0723
  117.0000   -34.7562    10.2777     9.8738    86.0875     8.5013     2.4419     0.1411     0.0736
  117.5000   -34.9975    10.2378     9.8265    86.1373     8.5026     2.4378     0.1464     0.0750
  118.0000   -35.3303    10.2016     9.7795    85.9557     8.5038     2.4408     0.1457     0.0764
  118.5000   -35.6638    10.1891     9.7327    85.7768     8.5051     2.4460     0.1419     0.0736
