~VERSION INFORMATION
 VERS.                2.0:   CWLS LOG ASCII STANDARD - VERSION 2.0
 WRAP.                 NO:   ONE LINE PER DEPTH STEP
~WELL INFORMATION
#MNEM.UNIT      DATA TYPE    INFORMATION
#----------   ------------   ------------------------------
 STRT.F           30.0000:   START DEPTH
 STOP.F          770.5000:   STOP DEPTH
 STEP.F            0.5000:   STEP LENGTH
 NULL.          -999.2500:   NO VALUE
 COMP. FENIX & SCISSON INC:   COMPANY
 WELL. TEAPOT DOME 63 SX 34 #63-34:   WELL
 FLD .             TEAPOT:   FIELD
 LOC .      S34 T39N R78W:   LOCATION
 CNTY.            NATRONA:   COUNTY
 STAT.            WYOMING:   STATE
 CTRY. UNITED STATES OF AMERICA:   COUNTRY
 SRVC.           BIRDWELL:   SERVICE COMPANY
 DATE.        18-AUG-1978:   LOGDATE
 API .       490251070300:   API NUMBER
~CURVE INFORMATION
#MNEM.UNIT       API CODE    CURVE DESCRIPTION
#----------   ------------   ------------------------------
 DEPT.F                  :   
 SPR .MV     05 010 01 00:   SPONTANEOUS POTENTIAL
 SN  .OHMM   05 040 16 00:   SHORT NORMAL 16'
 ILD .OHMM   05 120 46 00:   INDUCTION LOG DEEP RESISTIVITY
 CALD.IN     45 280 60 00:   CALIPER
 GRD .GAPI   45 310 01 00:   GAMMA RAY FROM DENSITY LOG
 RHOB.G/C3   45 350 01 00:   BULK DENSITY
 DPHI.DEC    45 890 12 00:   DENSITY POROSITY SANDSTONE
 CORR.G/C3   45 356 01 00:   DENSITY CORRECTION
~PARAMETER INFORMATION
#MNEM.UNIT          VALUE    DESCRIPTION
#----------   ------------   ------------------------------
 PD  .                 GL:   PERMANENT DATUM
 EPD .F              5063:   ELEVATION PERMANENT DATUM
 LMF .                 KB:   LOG MEASURED FROM
 DAPD.F                 4:   FEET ABOVE PERMANENT DATUM
 DMF .                 KB:   DRILLING MEASURED FROM
 EKB .F              5067:   KELLING BUSHING
 EGL .F              5063:   GROUND LEVEL
 DATE.          8-18-1978:   RUN DATE
 RUN .                  1:   RUN NUMBER
 DD  .F               760:   DEPTH DRILLER
 DL  .F               770:   DEPTH LOGGER
 BLI .F               763:   BOTTOM LOG INTERVAL
 TLI .F                40:   TOP LOG INTERVAL
 CS  .IN            8.625:   CASING SIZE
 CBD .F                40:   CASING BOTTOM DRILLER
 CBL .F                40:   CASING BOTTOM LOGGER
 BS  .IN            7.875:   BIT SIZE
 BSD .F               760:   BIT SIZE AT DEPTH
 DFT .            MUD KCL:   DRILLING FLUID TYPE
 DFL .               10.6:   DRILLING FLUID LOSS
 MSS .          FLOW LINE:   MUD SAMPLE SOURCE
 RMS .OHMM             .2:   RESISTIVITY MUD SAMPLE
 MST .F                56:   MUD SAMPLE TEMPERATURE
 RMF .OHMM             .2:   RESISTIVITY MUD FILTRATE SAMPLE
 MFST.F                64:   MUD FILTRATE SAMPLE TEMPERATURE
 RMC .OHMM            .36:   RESISTIVITY MUD CAKE
 MCST.F                64:   MUD CAKE SAMPLE TEMPERATURE
 MFSS.               MEAS:   MUD FILTRATE SAMPLE SOURCE
 MCSS.               MEAS:   MUD CAKE SAMPLE SOURCE
 TCS .HRS               3:   TIME CURCULATED STOPPED
 MRT .F                72:   MAXIMUM RECORDED TEMPERATURE
 LUN .               3006:   LOGGING UNIT NUMBER
 LUL .               CASP:   LOGGING UNIT LOCATION
 ENGI.           REYNOLDS:   RECORDING ENGINEER
 WITN.              AMEND:   WITNESSED BY
 CLNT.            A2DTECH:   CLIENT CODE
 ORIG.           5" PRINT:   ORIGIN OF DATA
 UWI .       490251070300:   UNIQUE WELL ID
 DICO. A2D Technologies, Inc.:   DIGITIZING COMPANY
~OTHER INFORMATION
~A   DEPT      SPR         SN        ILD       CALD         GRD      RHOB       DPHI       CORR   
# ...
  597.0000   -54.3725    12.0081    10.1789     6.8560    64.1209     2.3667     0.1808     0.0314
  597.5000   -54.0387    12.0081    10.1536     6.8257    63.7283     2.3640     0.1808     0.0308
  598.0000   -54.4140    12.0081    10.1284     6.7894    63.3485     2.3643     0.1792     0.0300
  598.5000   -54.7857    12.0081    10.1033     6.7543    63.4059     2.3646     0.1790     0.0292
  599.0000   -55.1546    12.0081    10.0782     6.8127    63.4629     2.3624     0.1820     0.0284
  599.5000   -55.5233    12.0081    10.0533     6.7735    62.6080     2.3626     0.1795     0.0276
  600.0000   -55.8921    12.0081    10.0283     6.6916    61.7733     2.3668     0.1773     0.0268
  600.5000   -56.2596    12.0081    10.0035     6.6847    60.9158     2.3707     0.1752     0.0260
  601.0000   -56.6308    12.0081     9.9786     6.7037    60.7041     2.3699     0.1768     0.0253
  601.5000   -56.8838    12.0081     9.9539     6.7239    62.5162     2.3690     0.1780     0.0245
  602.0000   -57.0350    12.0081     9.9292     6.7445    64.8236     2.3742     0.1712     0.0242
  602.5000   -57.1822    12.0081     9.9046     6.7538    66.9064     2.3834     0.1655     0.0252
  603.0000   -57.3294    12.0081     9.8800     6.7595    67.2908     2.3865     0.1649     0.0254
  603.5000   -57.4764    12.0081     9.8555     6.7648    66.7084     2.3865     0.1690     0.0232
  604.0000   -57.6256    12.0081     9.8311     6.7709    64.3393     2.3814     0.1713     0.0211
  604.5000   -57.7681    12.0081     9.8095     6.7928    62.5137     2.3800     0.1661     0.0216
  605.0000   -58.3346    12.0081     9.8786     6.8139    63.8415     2.3903     0.1587     0.0253
  605.5000   -59.0544    12.0081     9.9409     6.8349    65.0020     2.4106     0.1514     0.0287
  606.0000   -59.7841    12.0081    10.0035     6.8558    65.0136     2.4327     0.1440     0.0299
  606.5000   -60.5023    12.0081    10.0838     6.8767    62.8338     2.4551     0.1366     0.0220
  607.0000   -61.0048    12.0081    10.0613     6.8977    60.6633     2.4436     0.1329     0.0143
  607.5000   -60.8821    12.0081    10.0305     6.9186    59.8385     2.4287     0.1457     0.0064
  608.0000   -60.7771    12.0081     9.9998     6.9394    59.7603     2.4139     0.1556     0.0122
  608.5000   -60.6703    12.0080     9.9691     6.9499    61.1978     2.4008     0.1572     0.0196
  609.0000   -60.5637    12.0087     9.9385     6.9499    62.6382     2.4032     0.1546     0.0216
  609.5000   -60.4571    11.9159     9.9081     6.9502    62.6494     2.4085     0.1519     0.0235
  610.0000   -60.3505    11.7918     9.7982     6.9575    62.5638     2.4086     0.1516     0.0242
  610.5000   -60.2438    11.6690     9.6619     6.9864    62.4857     2.4044     0.1576     0.0245
  611.0000   -60.1351    11.5475     9.5272     7.0145    62.5692     2.4008     0.1580     0.0247
  611.5000   -60.0184    11.4567     9.3952     7.0425    64.2218     2.4007     0.1537     0.0250
  612.0000   -60.2688    11.4220     9.2790     7.0703    65.8569     2.4083     0.1497     0.0253
  612.5000   -60.5478    11.3875     9.2605     7.0904    66.4853     2.4166     0.1477     0.0256
  613.0000   -60.8272    11.3530     9.2405     7.0899    65.5273     2.4155     0.1494     0.0259
  613.5000   -61.1055    11.3187     9.2208     7.0808    64.3959     2.4135     0.1501     0.0266
  614.0000   -61.3838    11.2844     9.2011     7.0627    64.3301     2.4184     0.1442     0.0275
  614.5000   -61.6625    11.2503     9.1814     7.0446    64.6811     2.4253     0.1405     0.0262
  615.0000   -61.9529    11.2163     9.1617     7.0264    65.1022     2.4257     0.1415     0.0226
  615.5000   -62.0351    11.1823     9.1421     7.0082    65.5417     2.4258     0.1454     0.0191
  616.0000   -62.0532    11.1485     9.1228     6.9898    66.6023     2.4186     0.1501     0.0158
  616.5000   -62.0693    11.1148     9.1114     6.9708    67.6540     2.4098     0.1525     0.0194
  617.0000   -62.0858    11.0812     9.1065     6.9695    67.6373     2.4110     0.1525     0.0230
  617.5000   -62.1025    11.0476     9.1017     6.9825    67.5618     2.4184     0.1459     0.0304
  618.0000   -62.1192    11.0142     9.0968     7.0003    67.7906     2.4259     0.1407     0.0432
  618.5000   -62.1359    10.9810     9.0920     7.0181    68.9251     2.4334     0.1357     0.0561
  619.0000   -62.1526    10.9520     9.0871     7.0361    70.0760     2.4407     0.1308     0.0745
  619.5000   -62.1693    10.9461     9.0823     7.0535    70.2157     2.4487     0.1259     0.0953
  620.0000   -62.1861    10.9399     9.0774     7.0702    68.0461     2.4774     0.1209     0.1032
  620.5000   -62.2026    10.9336     9.0726     7.3569    65.9586     2.4932     0.1160     0.0903
  621.0000   -62.2210    10.9274     9.0678     7.2387    64.1650     2.4776     0.1120     0.0726
  621.5000   -62.1830    10.9211     9.0630     7.0883    65.2280     2.4784     0.1114     0.0656
  622.0000   -62.1258    10.9149     9.0581     7.1015    67.4787     2.4748     0.1123     0.0642
  622.5000   -62.0677    10.9086     9.0533     7.1222    69.5098     2.4707     0.1142     0.0650
  623.0000   -62.0095    10.9024     9.0485     7.1442    70.1166     2.4684     0.1161     0.0659
  623.5000   -61.9514    10.8962     9.0437     7.1500    70.5064     2.4681     0.1174     0.0741
  624.0000   -61.8933    10.8899     9.0389     7.1499    70.2318     2.4741     0.1151     0.0831
  624.5000   -61.8353    10.8837     9.0340     7.1390    69.1206     2.4800     0.1106     0.0904
  625.0000   -61.7772    10.8775     9.0292     7.0968    66.6876     2.4815     0.1061     0.0919
  625.5000   -61.7191    10.8713     9.0244     7.0559    64.3168     2.4829     0.1015     0.0869
  626.0000   -61.6610    10.8650     9.0196     7.0143    64.3970     2.4899     0.1002     0.0799
  626.5000   -61.6029    10.8588     9.0148     6.9715    65.4638     2.4938     0.1106     0.0728
  627.0000   -61.5448    10.8526     9.0100     6.9376    66.5372     2.4749     0.1180     0.0678
  627.5000   -61.4862    10.8464     9.0052     6.9405    67.3609     2.4641     0.1196     0.0679
  628.0000   -61.4260    10.8402     9.0005     6.9523    67.4778     2.4624     0.1235     0.0701
  628.5000   -61.4224    10.8340     8.9957     6.9641    66.2504     2.4551     0.1289     0.0733
  629.0000   -61.4227    10.8278     8.9909     6.9699    64.7551     2.4501     0.1267     0.0771
  629.5000   -61.4229    10.8216     8.9861     6.9667    63.6643     2.4564     0.1223     0.0794
  630.0000   -61.4229    10.8154     8.9813     6.9542    64.5576     2.4624     0.1178     0.0776
  630.5000   -61.4229    10.8092     8.9765     6.9421    66.1570     2.4684     0.1130     0.0755
  631.0000   -61.4229    10.8031     8.9717     6.9300    67.7785     2.4735     0.1126     0.0661
  631.5000   -61.4229    10.7969     8.9670     6.9180    69.3198     2.4734     0.1149     0.0570
  632.0000   -61.4229    10.7907     8.9622     6.9057    70.7341     2.4688     0.1174     0.0480
  632.5000   -61.4229    10.7845     8.9574     6.8930    70.8912     2.4644     0.1202     0.0390
  633.0000   -61.4229    10.7784     8.9527     6.8607    69.8749     2.4597     0.1242     0.0300
  633.5000   -61.4229    10.7722     8.9479     6.8024    68.7267     2.4491     0.1304     0.0220
  634.0000   -61.4229    10.7660     8.9407     6.7443    67.6995     2.4375     0.1376     0.0205
  634.5000   -61.4256    10.7597     8.9336     6.6859    67.7326     2.4259     0.1448     0.0192
  635.0000   -61.4397    10.7549     8.9265     6.6260    68.6194     2.4168     0.1479     0.0179
  635.5000   -60.8612    10.7803     8.9194     6.5977    69.4734     2.4138     0.1511     0.0166
  636.0000   -60.2349    10.8057     8.9124     6.5793    69.9465     2.4048     0.1599     0.0161
  636.5000   -59.6065    10.8311     8.9053     6.5615    70.0478     2.3934     0.1629     0.0191
  637.0000   -58.9860    10.8565     8.8982     6.5436    69.9885     2.3914     0.1639     0.0220
