~VERSION INFORMATION
 VERS.                2.0:   CWLS LOG ASCII STANDARD - VERSION 2.0
 WRAP.                 NO:   ONE LINE PER DEPTH STEP
~WELL INFORMATION
#MNEM.UNIT      DATA TYPE    INFORMATION
#----------   ------------   ------------------------------
 STRT.F            0.0000:   START DEPTH
 STOP.F          774.0000:   STOP DEPTH
 STEP.F            0.5000:   STEP LENGTH
 NULL.          -999.2500:   NO VALUE
 COMP. LAWRENCE/ALLISON INC:   COMPANY
 WELL. SX 11 WP #37-53-11:   WELL
 FLD .             TEAPOT:   FIELD
 LOC .      S11 T38N R78W:   LOCATION
 CNTY.            NATRONA:   COUNTY
 STAT.            WYOMING:   STATE
 CTRY. UNITED STATES OF AMERICA:   COUNTRY
 SRVC.            Unknown:   SERVICE COMPANY
 DATE.        19-SEP-1984:   LOGDATE
 API .       490251098900:   API NUMBER
~CURVE INFORMATION
#MNEM.UNIT       API CODE    CURVE DESCRIPTION
#----------   ------------   ------------------------------
 DEPT.F                  :   
 GRR .GAPI   07 310 01 00:   GAMMA RAY FROM RES. LOG.
 SPR .MV     07 010 01 00:   SPONTANEOUS POTENTIAL
 RFOC.OHMM   07 220 04 00:   RESISTIVITY FOCUSED LOG
 ILD .OHMM   07 120 46 00:   INDUCTION LOG DEEP RESISTIVITY
 RILM.OHMM   07 120 44 00:   INDUCTION LOG MEDIUM RESISTIVITY
 CALD.IN     45 280 60 00:   CALIPER
 DEN .G/C3   45 350 01 00:   COMPENSATED BULK DENSTIY
 CORR.G/C3   45 356 01 00:   DENSITY CORRECTION
 PORD.DEC    45 890 12 00:   POROSITY DENSITY SANDSTONE
 AC  .US/F   60 520 00 00:   ACOUSTIC SONIC
 CNC .DEC    42 890 03 00:   NEUTRON POROSITY SANDSTONE
~PARAMETER INFORMATION
#MNEM.UNIT          VALUE    DESCRIPTION
#----------   ------------   ------------------------------
 PD  .                 GL:   PERMANENT DATUM
 EPD .F              5153:   ELEVATION PERMANENT DATUM
 LMF .                 GL:   LOG MEASURED FROM
 DMF .                 GL:   DRILLING MEASURED FROM
 EGL .F              5153:   GROUND LEVEL
 DATE.       19-SEPT-1984:   RUN DATE
 RUN .                  1:   RUN NUMBER
 DD  .F               785:   DEPTH DRILLER
 DL  .F               774:   DEPTH LOGGER
 BLI .F               772:   BOTTOM LOG INTERVAL
 CS  .IN            8.625:   CASING SIZE
 CBD .F                42:   CASING BOTTOM DRILLER
 CBL .F                41:   CASING BOTTOM LOGGER
 BS  .IN            7.875:   BIT SIZE
 BSD .F               785:   BIT SIZE AT DEPTH
 DFT .          KCL WATER:   DRILLING FLUID TYPE
 MSS .           FLOWLINE:   MUD SAMPLE SOURCE
 RMS .OHMM            .27:   RESISTIVITY MUD SAMPLE
 MST .F                82:   MUD SAMPLE TEMPERATURE
 TCS .HRS               2:   TIME CURCULATED STOPPED
 MRT .F               100:   MAXIMUM RECORDED TEMPERATURE
 LUN .               6274:   LOGGING UNIT NUMBER
 LUL .               GLTE:   LOGGING UNIT LOCATION
 ENGI.         HINDS/MACK:   RECORDING ENGINEER
 WITN.             STRONG:   WITNESSED BY
 CLNT.            A2DTECH:   CLIENT CODE
 ORIG.   1", 2", 5" PRINT:   ORIGIN OF DATA
 UWI .       490251098900:   UNIQUE WELL ID
 DICO. A2D Technologies, Inc.:   DIGITIZING COMPANY
~OTHER INFORMATION
~A    DEPT      GRR       SPR       RFOC        ILD       RILM       CALD        DEN       CORR       PORD         AC        CNC   
# ...
  732.0000   107.1391   -43.1876    10.2903     8.7397     9.1848     7.8773     2.4592    -0.0291     0.1337    93.7479     0.2652
  732.5000   106.7712   -43.3746    10.3380     8.7787     9.2982     7.8758     2.4463    -0.0247     0.1383    94.1302     0.2747
  733.0000   106.4123   -43.5623    10.1885     8.8174     9.4333     7.8743     2.4483    -0.0193     0.1371    94.3486     0.2831
  733.5000   105.6761   -43.7500    10.0414     8.8471     9.4092     7.8728     2.4544    -0.0138     0.1339    94.4319     0.2811
  734.0000   104.8790   -43.9375     9.8977     8.7664     9.3803     7.8713     2.4595    -0.0123     0.1305    94.5216     0.2786
  734.5000   104.0634   -44.1242     9.6847     8.5412     9.3514     7.8699     2.4605    -0.0127     0.1296    94.7492     0.2759
  735.0000   104.5037   -44.3135     9.4636     8.2822     9.0487     7.8684     2.4546    -0.0132     0.1354    94.9973     0.2776
  735.5000   105.2078   -44.5809     9.2510     8.0311     8.7110     7.8669     2.4428    -0.0137     0.1419    95.6422     0.2787
  736.0000   107.0135   -45.1728     8.9763     7.7876     8.3859     7.8654     2.4328    -0.0168     0.1467    96.6422     0.2767
  736.5000   108.6865   -45.7410     8.5753     7.5507     8.0729     7.8639     2.4286    -0.0228     0.1489    97.7038     0.2732
  737.0000   107.5497   -46.4476     8.1871     7.3224     7.7724     7.8625     2.4265    -0.0357     0.1514    98.1730     0.2696
  737.5000   103.9870   -47.1623     7.8534     6.8605     7.4842     7.8610     2.4200    -0.0492     0.1555    98.6730     0.2706
  738.0000   100.4502   -47.8814     7.6153     6.0566     7.1157     7.8560     2.4135    -0.0628     0.1572    99.4384     0.2740
  738.5000   102.3999   -48.6537     7.3849     5.2233     6.1214     7.8474     2.4169    -0.0492     0.1557   100.6832     0.2942
  739.0000   104.7584   -49.7034     7.1623     4.5042     5.2659     7.8390     2.4165    -0.0330     0.1569   102.6690     0.3182
  739.5000   105.6688   -50.7316     6.9450     3.8842     4.5300     7.8304     2.4101    -0.0165     0.1627   104.9355     0.3429
  740.0000   107.0306   -51.7592     6.1881     3.3496     3.8976     7.8219     2.3909    -0.0051     0.1785   110.7878     0.3677
  740.5000   109.5055   -52.7866     5.1216     2.8886     3.2192     7.8134     2.3524    -0.0003     0.2051   120.1628     0.3869
  741.0000   111.0930   -53.8250     4.2382     2.4750     3.1955     7.8049     2.3121    -0.0015     0.2378   126.8807     0.3986
  741.5000   111.2844   -54.1637     3.5092     2.4439     3.1990     7.8049     2.2550     0.0009     0.2815   131.7992     0.4095
  742.0000   110.1044   -53.8094     2.9728     2.4300     3.3170     7.8112     2.1976     0.0121     0.2918   130.5234     0.3873
  742.5000   107.0894   -53.3438     2.9728     2.4524     3.6842     7.8176     2.1885     0.0204     0.2743   123.7255     0.3607
  743.0000   106.0962   -53.0285     3.5978     2.5630     4.0971     7.8240     2.2583     0.0109     0.2305   115.7969     0.3342
  743.5000   103.8003   -52.3944     4.5137     2.7129     4.6779     7.8304     2.3412     0.0017     0.1837   108.0417     0.3047
  744.0000   101.3843   -51.7333     6.0189     3.1875     5.3495     7.8367     2.4187    -0.0032     0.1424   102.5492     0.2956
  744.5000   100.1088   -51.0707     8.0080     3.7511     6.1177     7.8403     2.4679     0.0016     0.1235    98.6842     0.2812
  745.0000   102.4954   -50.4091     7.9825     4.4134     6.9961     7.8395     2.4720     0.0063     0.1236    97.9384     0.2761
  745.5000   104.7543   -49.7479     7.9444     5.1924     7.3995     7.8388     2.4664     0.0056     0.1275    97.5815     0.2736
  746.0000   105.3709   -49.0871     7.9239     6.1081     7.6944     7.8381     2.4592     0.0021     0.1317    97.0815     0.2757
  746.5000   104.1852   -48.5023     8.2955     6.9567     8.0011     7.8374     2.4530     0.0007     0.1343    96.5815     0.2767
  747.0000   104.2806   -48.0767     8.6056     7.1627     8.3200     7.8367     2.4519     0.0024     0.1325    96.2127     0.2680
  747.5000   105.7545   -47.6589     8.9204     7.3747     8.6516     7.8360     2.4602     0.0038     0.1256    96.2127     0.2605
  748.0000   107.4702   -47.2386     9.0937     7.5930     8.7729     7.8353     2.4746    -0.0054     0.1139    96.2125     0.2705
  748.5000   112.8486   -46.8742     9.0937     7.7228     8.7828     7.8346     2.4999    -0.0256     0.1025    96.2111     0.2819
  749.0000   110.2636   -46.5583     9.0937     7.7484     8.7926     7.8338     2.5076    -0.0212     0.1008    96.3347     0.2923
  749.5000   107.5872   -46.2438     9.0937     7.7818     8.8025     7.8331     2.4938    -0.0136     0.1122    96.6793     0.2907
  750.0000   104.9044   -45.9286     9.0937     7.7278     8.8124     7.8324     2.4771    -0.0059     0.1213    97.2247     0.2860
  750.5000   106.8998   -45.6133     9.0937     7.6506     8.8223     7.8317     2.4700     0.0019     0.1235    97.6550     0.2818
  751.0000   109.3483   -45.2978     9.0937     7.5743     8.8322     7.8310     2.4738     0.0059     0.1215    97.8225     0.2776
  751.5000   111.7513   -44.9805     9.0937     7.4986     8.8421     7.8303     2.4763     0.0073     0.1201    97.9058     0.2734
  752.0000   110.1858   -44.6674     9.0937     7.4237     8.8470     7.8296     2.4777     0.0169     0.1207    97.8056     0.2692
  752.5000   104.9669   -44.6004     9.0937     7.3496     8.8471     7.8289     2.4823     0.0325     0.1179    97.4787     0.2672
  753.0000   104.4727   -44.5353     9.0937     7.2927     8.8472     7.8282     2.4874     0.0348     0.1141    97.0820     0.2727
  753.5000   106.8584   -44.4669     9.0939     7.2747     8.8477     7.8274     2.4891     0.0324     0.1132    96.6926     0.2811
  754.0000   108.7676   -44.4831     9.0937     7.2568     8.8471     7.8267     2.4869     0.0227     0.1146    96.4433     0.2798
  754.5000   109.1981   -44.5174     9.1690     7.2388     8.7146     7.8260     2.4823     0.0131     0.1172    96.8133     0.2764
  755.0000   109.6731   -44.5522     9.0159     7.2209     8.5287     7.8253     2.4776     0.0035     0.1197    97.3964     0.2743
  755.5000   110.1527   -44.5879     8.7615     7.2031     8.3467     7.8246     2.4749    -0.0060     0.1223    97.9794     0.2740
  756.0000   110.6307   -44.6261     8.5135     7.1853     8.1467     7.8239     2.4745    -0.0099     0.1210    98.5625     0.2710
  756.5000  -999.2500   -44.6253     8.2965     7.1659     8.1744     7.8232     2.4792    -0.0043     0.1188    98.6978     0.2661
  757.0000  -999.2500   -44.0414     8.4251     7.1800     8.2301     7.8225     2.4834     0.0012     0.1173    98.1863     0.2652
  757.5000  -999.2500   -43.4626     8.5693     7.2006     8.2861     7.8218     2.4814    -0.0028     0.1179    97.6602     0.2728
  758.0000  -999.2500   -42.8833     8.7160     7.2213     8.3426     7.8210     2.4799    -0.0085     0.1187    97.1341     0.2791
  758.5000  -999.2500   -42.3066     8.8651     7.2420     8.3994     7.8203     2.4831    -0.0043     0.1171    96.7097     0.2839
  759.0000  -999.2500   -42.4800     9.0783     7.2628     8.4470     7.8196     2.4887     0.0137     0.1147    96.7097     0.2801
  759.5000  -999.2500   -42.7070     8.9174     7.2836     8.4084     7.8189     2.4946     0.0316     0.1112    97.0707     0.2743
  760.0000  -999.2500   -42.9313     8.8067     7.3033     8.3699     7.8182     2.5006     0.0245     0.1080    97.4316     0.2732
  760.5000  -999.2500   -43.1543     8.6973     7.3200     8.3317     7.8175     2.4978     0.0136     0.1076    97.7926     0.2766
  761.0000  -999.2500   -43.3773     8.5893     7.3368     8.2936     7.8168     2.4864     0.0043     0.1137    97.9787     0.2759
  761.5000  -999.2500   -43.6004     8.4826     7.3536     8.2556     7.8161     2.4753    -0.0032     0.1204    97.9231     0.2758
  762.0000  -999.2500   -43.8239     8.4508     7.3638     8.2179     7.8154     2.4696    -0.0036     0.1247    97.9403     0.2829
