~VERSION INFORMATION
 VERS.                2.0:   CWLS LOG ASCII STANDARD - VERSION 2.0
 WRAP.                 NO:   ONE LINE PER DEPTH STEP
~WELL INFORMATION
#MNEM.UNIT      DATA TYPE    INFORMATION
#----------   ------------   ------------------------------
 STRT.F           20.0000:   START DEPTH
 STOP.F          698.0000:   STOP DEPTH
 STEP.F            0.5000:   STEP LENGTH
 NULL.          -999.2500:   NO VALUE
 COMP. FENIX & SCISSON INC:   COMPANY
 WELL.    52 SX 34 #52-34:   WELL
 FLD .             TEAPOT:   FIELD
 LOC .      S34 T39N R78W:   LOCATION
 CNTY.            NATRONA:   COUNTY
 STAT.            WYOMING:   STATE
 CTRY. UNITED STATES OF AMERICA:   COUNTRY
 SRVC.            Unknown:   SERVICE COMPANY
 DATE.        26-JAN-1979:   LOGDATE
 API .       490251077100:   API NUMBER
~CURVE INFORMATION
#MNEM.UNIT       API CODE    CURVE DESCRIPTION
#----------   ------------   ------------------------------
 DEPT.F                  :   
 SPR .MV     05 010 01 00:   SPONTANEOUS POTENTIAL FROM RES.
 CALD.IN     45 280 60 00:   CALIPER
 GRD .GAPI   45 310 01 00:   GAMMA RAY FROM DENSITY LOG
 CORR.G/C3   45 356 01 00:   DENSITY CORRECTION
 RHOB.G/C3   45 350 01 00:   BULK DENSITY
 ILD .OHMM   05 120 46 00:   INDUCTION LOG DEEP
 SN  .OHMM   05 040 16 00:   SHORT NORMAL 16"
 DPHI.DEC    45 890 12 00:   DENSITY POROSITY SANDSTONE
~PARAMETER INFORMATION
#MNEM.UNIT          VALUE    DESCRIPTION
#----------   ------------   ------------------------------
 PD  .                 GL:   PERMANENT DATUM
 EPD .F              5072:   ELEVATION PERMANENT DATUM
 LMF .                 KB:   LOG MEASURED FROM
 DAPD.F                 4:   FEET ABOVE PERMANENT DATUM
 DMF .                 KB:   DRILLING MEASURED FROM
 EKB .F              5076:   KELLING BUSHING
 EGL .F              5072:   GROUND LEVEL
 DATE.            1-26-79:   RUN DATE
 RUN .                  1:   RUN NUMBER
 DD  .F               688:   DEPTH DRILLER
 DL  .F               698:   DEPTH LOGGER
 BLI .F               691:   BOTTOM LOG INTERVAL
 TLI .F                30:   TOP LOG INTERVAL
 CS  .IN            8.625:   CASING SIZE
 CBD .F                40:   CASING BOTTOM DRILLER
 CBL .F                20:   CASING BOTTOM LOGGER
 BS  .IN            7.875:   BIT SIZE
 BSD .F               688:   BIT SIZE AT DEPTH
 DFT .                KCL:   DRILLING FLUID TYPE
 DFD .                8.9:   DRILLING FLUID DENSITY
 DFV .                 39:   DRILLING FLUID VISCOSITY
 DFPH.                 10:   DRILLING FLUID PH
 DFL .                 10:   DRILLING FLUID LOSS
 MSS .           FLOWLINE:   MUD SAMPLE SOURCE
 RMS .OHMM             .3:   RESISTIVITY MUD SAMPLE
 MST .F                60:   MUD SAMPLE TEMPERATURE
 RMF .OHMM            .22:   RESISTIVITY MUD FILTRATE SAMPLE
 MFST.F                66:   MUD FILTRATE SAMPLE TEMPERATURE
 MFSS.           MEASURED:   MUD FILTRATE SAMPLE SOURCE
 MCSS.           MEASURED:   MUD CAKE SAMPLE SOURCE
 RMB .OHMM            .25:   RESISTIVITY MUD AT BHT
 BHT .F                70:   BOTTOM HOLE TEMPERATURE
 TCS .HRS               7:   TIME CURCULATED STOPPED
 MRT .F                70:   MAXIMUM RECORDED TEMPERATURE
 LUN .               3006:   LOGGING UNIT NUMBER
 LUL .             CASPER:   LOGGING UNIT LOCATION
 ENGI.            ROLLINS:   RECORDING ENGINEER
 WITN.              AMEND:   WITNESSED BY
 CLNT.            A2DTECH:   CLIENT CODE
 ORIG.       2", 5" PRINT:   ORIGIN OF DATA
 UWI .       490251077100:   UNIQUE WELL ID
 DICO. A2D Technologies, Inc.:   DIGITIZING COMPANY
~OTHER INFORMATION
~A   DEPT      SPR         CALD       GRD      CORR       RHOB        ILD         SN       DPHI   
# ...
  101.0000   -35.3946     8.1917    84.3245     0.0334     2.3458    11.1085    10.2701     0.1986
  101.5000   -35.3750     8.1917    81.8733     0.0325     2.3404    11.2048    10.3267     0.1981
  102.0000   -35.3555     8.1917    78.6450     0.0315     2.3398    11.3020    10.3835     0.1957
  102.5000   -35.3359     8.1916    76.8395     0.0342     2.3463    11.4001    10.4407     0.1923
  103.0000   -35.3162     8.1995    77.0537     0.0346     2.3530    11.4970    10.4755     0.1889
  103.5000   -35.2972     8.2120    77.0583     0.0324     2.3595    11.5881    10.4968     0.1853
  104.0000   -35.2807     8.2245    77.0090     0.0276     2.3637    11.6798    10.5181     0.1848
  104.5000   -35.4366     8.2371    78.2098     0.0215     2.3684    11.7724    10.5394     0.1838
  105.0000   -35.8609     8.2496    79.9842     0.0215     2.3698    11.8658    10.5608     0.1827
  105.5000   -35.8621     8.2620    80.7229     0.0238     2.3709    11.9599    10.5822     0.1817
  106.0000   -35.9105     8.2690    81.1661     0.0264     2.3719    12.0547    10.6037     0.1807
  106.5000   -36.3341     8.2616    80.6948     0.0290     2.3730    12.1503    10.6252     0.1782
  107.0000   -36.7634     8.2547    80.6842     0.0260     2.3775    12.2466    10.6468     0.1739
  107.5000   -37.1908     8.2510    80.7270     0.0181     2.3868    12.3440    10.7072     0.1683
  108.0000   -37.5308     8.2510    81.5885     0.0111     2.3961    12.4420    10.8077     0.1610
  108.5000   -37.8576     8.2510    82.3250     0.0153     2.4053    12.5765    10.9090     0.1538
  109.0000   -38.1858     8.2510    82.2250     0.0202     2.4144    12.7301    11.0113     0.1516
  109.5000   -38.2439     8.2510    77.9554     0.0253     2.4188    12.8862    11.1146     0.1601
  110.0000   -38.2444     8.2510    74.8720     0.0249     2.4097    13.1945    11.2188     0.1707
  110.5000   -38.2496     8.2510    72.0617     0.0242     2.3907    13.6021    11.3240     0.1792
  111.0000   -38.4783     8.2494    71.9979     0.0236     2.3716    14.0223    11.4302     0.1913
  111.5000   -38.7331     8.2474    73.5936     0.0233     2.3531    14.4555    11.5836     0.1970
  112.0000   -39.0011     8.2454    76.4919     0.0226     2.3419    14.7289    11.5735     0.1970
  112.5000   -39.0375     8.2434    79.1092     0.0242     2.3425    14.6590    11.5560     0.1990
  113.0000   -38.8979     8.2414    79.7425     0.0261     2.3387    14.6034    11.5384     0.2029
  113.5000   -38.7611     8.2393    80.3741     0.0293     2.3324    14.5480    11.5208     0.2042
  114.0000   -38.6773     8.2373    82.5132     0.0277     2.3305    14.4927    11.5033     0.2042
  114.5000   -39.4114     8.2353    84.6134     0.0259     2.3340    14.3008    11.4859     0.1982
  115.0000   -39.5092     8.2333    86.7087     0.0240     2.3388    13.9782    11.3272     0.1982
  115.5000   -39.5907     8.2314    88.8341     0.0235     2.3444    13.6629    11.0258     0.1982
  116.0000   -39.9398     8.2440    88.6953     0.0235     2.3421    13.3547    10.7325     0.1952
  116.5000   -40.7266     8.2646    84.1510     0.0235     2.3474    13.0534    10.4469     0.1907
  117.0000   -41.5074     8.2857    79.3960     0.0235     2.3561    12.7589    10.1757     0.1863
  117.5000   -42.1281     8.2879    75.3891     0.0235     2.3650    12.5191    10.0574     0.1842
  118.0000   -42.4568     8.2796    78.1586     0.0235     2.3679    12.3504     9.9433     0.1846
  118.5000   -42.8100     8.2715    78.4373     0.0235     2.3668    12.1840     9.8970     0.1849
  119.0000   -43.9416     8.2634    78.3068     0.0228     2.3657    12.0198     9.8970     0.1843
  119.5000   -45.2215     8.2554    81.3135     0.0214     2.3676    11.8579     9.6228     0.1831
  120.0000   -46.0238     8.2542    82.3454     0.0100     2.3716    11.6981     9.3473     0.1794
  120.5000   -46.6907     8.2674    82.4824     0.0040     2.3798    11.5404     9.2407     0.1706
  121.0000   -47.5496     8.2803    86.8220     0.0049     2.3959    11.3711     9.1922     0.1588
  121.5000   -49.1968     8.2908    89.4517     0.0060     2.4116    11.3262     9.1452     0.1514
  122.0000   -50.8416     8.2905    91.4280     0.0191     2.4203    11.2771     9.0980     0.1508
  122.5000   -51.3720     8.2905    95.7056     0.0214     2.4193    11.2282     9.0510     0.1512
  123.0000   -51.3626     8.2905   100.0020     0.0221     2.4184    11.1795     9.0043     0.1516
  123.5000   -51.3573     8.2905   101.9802     0.0258     2.4186    10.9798     8.9583     0.1509
  124.0000   -51.3574     8.2905   103.0436     0.0270     2.4235    10.7049     8.9134     0.1469
  124.5000   -51.3576     8.2905   104.2837     0.0255     2.4284    10.1073     8.8687     0.1429
  125.0000   -51.3576     8.2905   104.2735     0.0240     2.4332     9.4785     8.5276     0.1388
  125.5000   -51.3576     8.2905   105.7135     0.0226     2.4385     8.8889     8.1341     0.1351
  126.0000   -51.3576     8.2905   106.7463     0.0217     2.4535     8.3359     7.7592     0.1345
  126.5000   -51.3576     8.2906   104.5441     0.0226     2.4551     7.8174     7.4022     0.1367
  127.0000   -51.3576     8.2830    99.6105     0.0235     2.4499     7.3607     7.0620     0.1393
  127.5000   -51.3576     8.2716    95.9894     0.0244     2.4441     6.9755     6.7373     0.1425
  128.0000   -51.3576     8.2603    93.5602     0.0253     2.4381     6.6111     6.4981     0.1457
  128.5000   -51.3576     8.2509    92.9038     0.0247     2.4321     6.2267     6.4056     0.1464
  129.0000   -51.3576     8.2578    94.7782     0.0236     2.4298     6.2301     6.4125     0.1466
  129.5000   -51.3576     8.2648    99.7416     0.0226     2.4286     6.2301     6.4202     0.1468
  130.0000   -51.3576     8.2678   102.5912     0.0215     2.4282     6.2301     6.4279     0.1454
  130.5000   -51.3576     8.2474   104.8605     0.0205     2.4279     6.2301     6.4356     0.1434
  131.0000   -51.3576     8.2269   106.3965     0.0195     2.4330     6.2301     6.4434     0.1415
  131.5000   -51.3576     8.2065   105.7850     0.0201     2.4389     6.2301     6.4511     0.1396
  132.0000   -51.3576     8.1912   102.4201     0.0207     2.4407     6.2301     6.4589     0.1403
  132.5000   -51.3576     8.1972    97.8622     0.0213     2.4418     6.2301     6.4666     0.1415
  133.0000   -51.3576     8.2052    96.6823     0.0219     2.4401     6.2301     6.4744     0.1427
  133.5000   -51.3576     8.2117    99.6272     0.0225     2.4383     6.2301     6.4822     0.1425
  134.0000   -51.3576     8.2152   101.4943     0.0231     2.4372     6.2301     6.4900     0.1416
  134.5000   -51.3576     8.2240    97.6128     0.0239     2.4397     6.2301     6.4978     0.1423
  135.0000   -51.3576     8.2311    98.3555     0.0256     2.4368     6.2302     6.5056     0.1431
  135.5000   -51.3576     8.2289    99.7856     0.0271     2.4335     6.2307     6.5134     0.1439
  136.0000   -51.3576     8.2269   100.2000     0.0287     2.4320     6.2278     6.5225     0.1444
  136.5000   -51.3576     8.2249   102.1435     0.0303     2.4370     6.2917     6.5910     0.1413
  137.0000   -51.3576     8.2229   104.5432     0.0319     2.4419     6.4651     6.7702     0.1384
  137.5000   -51.3576     8.2209   104.6261     0.0334     2.4469     6.4341     6.7491     0.1364
  138.0000   -51.3576     8.2190   101.1135     0.0326     2.4490     6.3873     6.7130     0.1362
  138.5000   -51.3576     8.2170    94.6208     0.0318     2.4494     6.3409     6.6772     0.1360
  139.0000   -51.3576     8.2150    94.8070     0.0274     2.4497     6.2947     6.6422     0.1357
  139.5000   -51.3576     8.2130    97.2582     0.0203     2.4500     6.2489     6.6073     0.1355
  140.0000   -51.3576     8.2114   101.3768     0.0132     2.4503     6.2301     6.5900     0.1353
  140.5000   -51.3576     8.2115   103.8050     0.0099     2.4506     6.2301     6.6276     0.1361
  141.0000   -51.3576     8.2115   100.9678     0.0116     2.4493     6.2301     6.6580     0.1392
