~VERSION INFORMATION
 VERS.                2.0:   CWLS LOG ASCII STANDARD - VERSION 2.0
 WRAP.                 NO:   ONE LINE PER DEPTH STEP
~WELL INFORMATION
#MNEM.UNIT      DATA TYPE    INFORMATION
#----------   ------------   ------------------------------
 STRT.F           30.0000:   START DEPTH
 STOP.F          626.0000:   STOP DEPTH
 STEP.F            0.5000:   STEP LENGTH
 NULL.          -999.2500:   NO VALUE
 COMP.       F D SERV INC:   COMPANY
 WELL.    63-2 SX-3 #63-3:   WELL
 FLD .             TEAPOT:   FIELD
 LOC .       S3 T38N R78W:   LOCATION
 CNTY.            NATRONA:   COUNTY
 STAT.            WYOMING:   STATE
 CTRY. UNITED STATES OF AMERICA:   COUNTRY
 SRVC.     Atlas Wireline:   SERVICE COMPANY
 DATE.        29-APR-1992:   LOGDATE
 API .       490252251900:   API NUMBER
~CURVE INFORMATION
#MNEM.UNIT       API CODE    CURVE DESCRIPTION
#----------   ------------   ------------------------------
 DEPT.F                  :   
 CALD.IN     45 280 60 00:   CALIPER FROM DENSITY
 CORR.G/C3   45 356 01 00:   DENSITY CORRECTION
 DEN .G/C3   45 350 01 00:   COMPENSATED BULK DENSTIY
 GRD .GAPI   45 310 01 00:   GAMMA RAY FROM DENSITY LOG
 PORD.DEC    45 890 12 00:   POROSITY DENSITY SANDSTONE
 RILD.OHMM   07 120 46 00:   INDUCTION LOG DEEP RESISTIVITY
 RILM.OHMM   07 120 44 00:   INDUCTION LOG MEDIUM RESISTIVITY
~PARAMETER INFORMATION
#MNEM.UNIT          VALUE    DESCRIPTION
#----------   ------------   ------------------------------
 PD  .                 GL:   PERMANENT DATUM
 EPD .F              5160:   ELEVATION PERMANENT DATUM
 LMF .                 KB:   LOG MEASURED FROM
 DAPD.F                 5:   FEET ABOVE PERMANENT DATUM
 DMF .                 KB:   DRILLING MEASURED FROM
 EKB .F              5165:   KELLING BUSHING
 EGL .F              5160:   GROUND LEVEL
 DATE.        29-APR-1992:   RUN DATE
 RUN .                  1:   RUN NUMBER
 DD  .F               630:   DEPTH DRILLER
 DL  .F               629:   DEPTH LOGGER
 BLI .F               626:   BOTTOM LOG INTERVAL
 CS  .IN            8.625:   CASING SIZE
 CBD .F                45:   CASING BOTTOM DRILLER
 CBL .F                45:   CASING BOTTOM LOGGER
 BS  .IN            7.875:   BIT SIZE
 BSD .F               630:   BIT SIZE AT DEPTH
 DFT .                AIR:   DRILLING FLUID TYPE
 LUN .            HL-6212:   LOGGING UNIT NUMBER
 LUL .             CASPER:   LOGGING UNIT LOCATION
 ENGI.             ZIEGEN:   RECORDING ENGINEER
 WITN.             STRONG:   WITNESSED BY
 CLNT.            A2DTECH:   CLIENT CODE
 ORIG.           5" PRINT:   ORIGIN OF DATA
 UWI .       490252251900:   UNIQUE WELL ID
 DICO. A2D Technologies, Inc.:   DIGITIZING COMPANY
~OTHER INFORMATION
~A   DEPT     CALD       CORR        DEN        GRD       PORD       RILD       RILM   
# ...
  394.0000     8.2865     0.0068     2.3920   154.1872     0.1549    21.4166    20.4211
  394.5000     8.2858     0.0068     2.3807   156.2931     0.1613    21.7115    20.4211
  395.0000     8.2850     0.0159     2.3732   157.2105     0.1646    21.8583    20.7068
  395.5000     8.2995     0.0220     2.3747   157.1430     0.1676    21.8536    20.8511
  396.0000     8.2986     0.0205     2.3792   154.8317     0.1652    22.0003    20.9965
  396.5000     8.2979     0.0160     2.3769   149.3065     0.1649    21.9958    21.1428
  397.0000     8.2820     0.0160     2.3724   149.5997     0.1670    22.2998    21.4386
  397.5000     8.2054     0.0145     2.3693   149.2886     0.1694    22.4505    21.5880
  398.0000     8.1901     0.0099     2.3702   147.4670     0.1685    22.4448    21.7385
  398.5000     8.2218     0.0053     2.3738   145.6454     0.1667    22.4402    21.8900
  399.0000     8.2489     0.0026     2.3730   145.3366     0.1686    22.4356    21.8900
  399.5000     8.2632     0.0041     2.3678   147.7423     0.1737    22.4310    21.7385
  400.0000     8.2776     0.0093     2.3600   149.7668     0.1783    22.4272    21.5880
  400.5000     8.2767     0.0148     2.3534   150.4413     0.1788    22.4251    21.4371
  401.0000     8.2911     0.0177     2.3579   148.8722     0.1769    22.2684    21.4347
  401.5000     8.3054     0.0102     2.3625   147.0914     0.1737    21.9599    20.6995
  402.0000     8.3047    -0.0019     2.3594   145.2668     0.1758    21.3571    20.1319
  402.5000     8.3190    -0.0064     2.3526   144.6507     0.1800    21.3556    19.9931
  403.0000     8.3334     0.0011     2.3511   145.8473     0.1803    21.2065    19.9917
  403.5000     8.3324     0.0026     2.3624   148.8566     0.1719    20.7680    19.9903
  404.0000     8.3317    -0.0064     2.3752   153.9807     0.1650    20.3387    19.9889
  404.5000     8.3310    -0.0034     2.3805   155.4824     0.1625    20.0569    19.8450
  405.0000     8.3302     0.0011     2.3827   153.0507     0.1613    19.7790    19.5604
  405.5000     8.3295    -0.0019     2.3845   150.9240     0.1595    19.6408    18.6437
  406.0000     8.3287    -0.0036     2.3805   149.4016     0.1601    19.5036    18.2529
  406.5000     8.3280     0.0011     2.3759   147.8792     0.1631    19.1004    18.1303
  407.0000     8.3273     0.0087     2.3737   147.5652     0.1653    19.0991    18.0036
  407.5000     8.3265     0.0087     2.3782   150.3625     0.1652    19.0978    18.1278
  408.0000     8.3107     0.0069     2.3895   151.4689     0.1566    19.0964    18.1266
  408.5000     8.2949     0.0011     2.3963   152.0583     0.1532    19.0951    18.1253
  409.0000     8.2791     0.0041     2.3925   152.9529     0.1550    19.0938    18.1316
  409.5000     8.2781     0.0087     2.3827   155.6600     0.1601    19.2258    18.3844
  410.0000     8.2927     0.0087     2.3721   158.9714     0.1674    19.2241    18.6321
  410.5000     8.2917     0.0072     2.3623   161.6786     0.1722    19.2228    18.6308
  411.0000     8.2910     0.0087     2.3616   160.4583     0.1749    19.2214    18.6295
  411.5000     8.3055     0.0057     2.3669   154.4041     0.1722    19.2201    18.6282
  412.0000     8.3046     0.0026     2.3713   148.3500     0.1701    19.2188    18.4980
  412.5000     8.2888    -0.0019     2.3645   147.9860     0.1695    19.0845    18.3687
  413.0000     8.2579    -0.0049     2.3623   149.2326     0.1725    19.0832    18.1140
  413.5000     8.2545    -0.0034     2.3645   150.1481     0.1731    18.8188    17.9874
  414.0000     8.2715     0.0042     2.3811   150.4173     0.1710    18.4297    17.6038
  414.5000     8.2707     0.0087     2.3977   147.6835     0.1546    18.0487    16.9787
  415.0000     8.2851     0.0041     2.4067   146.1611     0.1480    17.5533    16.2042
  415.5000     8.2994     0.0026     2.4127   147.0556     0.1447    17.4307    16.2031
  416.0000     8.3138     0.0026     2.4157   152.1797     0.1414    17.0703    16.2020
  416.5000     8.3281     0.0132     2.4195   153.0771     0.1396    16.9510    16.2008
  417.0000     8.3121     0.0192     2.4202   148.5305     0.1405    16.9499    16.1997
  417.5000     8.3114     0.0207     2.4164   144.8933     0.1445    16.8315    16.1986
  418.0000     8.2805     0.0268     2.4063   146.9963     0.1496    16.5983    16.1975
  418.5000     8.2646     0.0328     2.3984   150.9119     0.1511    16.4823    16.1963
  419.0000     8.2488     0.0373     2.4044   150.9000     0.1517    16.4812    16.1952
  419.5000     8.2481     0.0358     2.4481   150.8882     0.1360    16.1404    16.1941
  420.0000     8.2926     0.0087     2.4737   152.4271     0.1143    15.8067    15.7348
  420.5000     8.3220     0.0026     2.4699   153.9285     0.1113    15.6963    15.3021
  421.0000     8.3665     0.0133     2.4616   154.1759     0.1137    15.5867    14.9851
  421.5000     8.3825     0.0147     2.4533   152.0462     0.1182    15.5856    14.8949
  422.0000     8.4103     0.0132     2.4390   150.8259     0.1257    15.5845    14.7908
  422.5000     8.4246     0.0087     2.4232   150.5120     0.1351    15.5834    14.5705
  423.0000     8.4086     0.0011     2.4156   153.5213     0.1411    15.5823    14.4837
  423.5000     8.3928     0.0026     2.4171   156.2284     0.1399    15.5813    14.4827
  424.0000     8.3770     0.0087     2.4194   157.1259     0.1369    15.5802    14.5827
  424.5000     8.3612     0.0087     2.4224   154.9963     0.1360    15.4713    14.7856
  425.0000     8.3604     0.0041     2.4264   150.7548     0.1360    15.2570    14.8876
  425.5000     8.3597     0.0026     2.4352   147.1176     0.1309    15.2559    14.8866
  426.0000     8.3589     0.0072     2.4420   145.5951     0.1252    15.1494    14.8855
  426.5000     8.3582     0.0117     2.4465   145.9237     0.1225    14.8362    14.8845
  427.0000     8.3575     0.0057     2.4465   149.2811     0.1209    14.7325    14.8649
  427.5000     8.3416     0.0041     2.4465   150.6955     0.1216    14.6296    14.4563
  428.0000     8.3258     0.0102     2.4532   151.2849     0.1200    14.4269    13.9436
  428.5000     8.3249     0.0084     2.4698   152.1794     0.1143    14.3261    13.5777
  429.0000     8.3242     0.0026     2.4766   153.6781     0.1092    14.2261    13.3891
  429.5000     8.3387    -0.0004     2.4668   153.9713     0.1133    14.1267    13.3134
  430.0000     8.3530     0.0026     2.4547   152.4460     0.1170    14.0280    13.4050
  430.5000     8.3521     0.0041     2.4494   151.8299     0.1203    14.0270    13.3113
  431.0000     8.3514     0.0057     2.4487   153.0265     0.1213    13.9290    13.3104
  431.5000     8.3506     0.0087     2.4579   153.9214     0.1167    13.7361    13.2174
  432.0000     8.3499     0.0072     2.4637   154.2115     0.1116    13.5458    13.0341
  432.5000     8.3491     0.0026     2.4675   156.3141     0.1089    13.3581    12.9430
  433.0000     8.3484    -0.0019     2.4705   159.0757     0.1080    13.2648    12.8525
  433.5000     8.3477    -0.0064     2.4735   162.3737     0.1068    13.2639    12.6743
  434.0000     8.3469    -0.0019     2.4765   162.9251     0.1047    13.2629    12.4986
  434.5000     8.3611     0.0073     2.4795   158.0764     0.1035    13.2620    12.4977
  435.0000     8.3603     0.0087     2.4765   153.5329     0.1044    13.2611    12.5840
  435.5000     8.3596     0.0041     2.4712   148.9893     0.1107    13.2602    12.6708
  436.0000     8.3740    -0.0049     2.4614   145.6571     0.1146    13.2593    12.9367
  436.5000     8.3732    -0.0079     2.4524   148.9656     0.1171    13.5375    13.2082
  437.0000     8.3877    -0.0079     2.4471   150.1651     0.1195    13.8212    13.2996
  437.5000     8.4021    -0.0079     2.4456   149.2440     0.1206    14.0134    13.6731
  438.0000     8.4164    -0.0034     2.4518   150.4406     0.1191    14.0124    13.6721
  438.5000     8.4004     0.0026     2.4584   154.6583     0.1173    14.1093    13.7667
  439.0000     8.3846     0.0087     2.4614   157.3656     0.1167    14.2066    13.7655
