~VERSION INFORMATION
 VERS.                2.0:   CWLS LOG ASCII STANDARD - VERSION 2.0
 WRAP.                 NO:   ONE LINE PER DEPTH STEP
~WELL INFORMATION
#MNEM.UNIT      DATA TYPE    INFORMATION
#----------   ------------   ------------------------------
 STRT.F            0.0000:   START DEPTH
 STOP.F          446.0000:   STOP DEPTH
 STEP.F            0.5000:   STEP LENGTH
 NULL.          -999.2500:   NO VALUE
 COMP.       F D SERV INC:   COMPANY
 WELL. NAVAL PETROLEUM RESERVE 3 SX-1 #63-5-10:   WELL
 FLD .            WILDCAT:   FIELD
 LOC .      S10 T38N R78W:   LOCATION
 CNTY.            NATRONA:   COUNTY
 STAT.            WYOMING:   STATE
 CTRY. UNITED STATES OF AMERICA:   COUNTRY
 SRVC.     Atlas Wireline:   SERVICE COMPANY
 DATE.        02-FEB-1993:   LOGDATE
 API .       490252257100:   API NUMBER
~CURVE INFORMATION
#MNEM.UNIT       API CODE    CURVE DESCRIPTION
#----------   ------------   ------------------------------
 DEPT.F                  :   
 GRR .GAPI   07 310 01 00:   GAMMA RAY
 RILD.OHMM   07 120 46 00:   INDUCTION LOG DEEP RESISTIVITY
 RILM.OHMM   07 120 44 00:   RESITIVITY LONG MEDIUM
 PORZ.DEC    45 890 12 00:   DENSITY POROSITY SANDSTONE
 ZCOR.G/C3   45 356 01 00:   DENSITY CORRECTION
 ZDEN.G/C3   45 350 01 00:   BULK DENSITY
 NPHI.DEC    42 890 03 00:   NEUTRON POROSITY SANDSTONE
 C13 .IN     45 280 13 00:   CALIPER X
~PARAMETER INFORMATION
#MNEM.UNIT          VALUE    DESCRIPTION
#----------   ------------   ------------------------------
 PD  .                 GL:   PERMANENT DATUM
 EPD .F              5182:   ELEVATION PERMANENT DATUM
 LMF .                 KB:   LOG MEASURED FROM
 DAPD.F                10:   FEET ABOVE PERMANENT DATUM
 DMF .                 KB:   DRILLING MEASURED FROM
 EKB .F              5192:   KELLING BUSHING
 EDF .F              5191:   DRILLING FLOOR
 EGL .F              5182:   GROUND LEVEL
 DATE.        02-FEB-1993:   RUN DATE
 RUN .                  1:   RUN NUMBER
 DD  .F               450:   DEPTH DRILLER
 DL  .F               450:   DEPTH LOGGER
 BLI .F               442:   BOTTOM LOG INTERVAL
 CS  .IN            8.625:   CASING SIZE
 CBD .F                84:   CASING BOTTOM DRILLER
 CBL .F                84:   CASING BOTTOM LOGGER
 BS  .IN            7.875:   BIT SIZE
 BSD .F               450:   BIT SIZE AT DEPTH
 DFT .                AIR:   DRILLING FLUID TYPE
 MRT .F                51:   MAXIMUM RECORDED TEMPERATURE
 LUN .            HL 6274:   LOGGING UNIT NUMBER
 LUL .             CASPER:   LOGGING UNIT LOCATION
 ENGI.       P. RASMUSSEN:   RECORDING ENGINEER
 WITN.          G. STRONG:   WITNESSED BY
 CLNT.            A2DTECH:   CLIENT CODE
 ORIG.           5" PRINT:   ORIGIN OF DATA
 UWI .       490252257100:   UNIQUE WELL ID
 DICO. A2D Technologies, Inc.:   DIGITIZING COMPANY
~OTHER INFORMATION
~A    DEPT      GRR      RILD       RILM       PORZ       ZCOR       ZDEN       NPHI        C13   
# ...
   81.0000    82.9287  -999.2500  -999.2500  -999.2500  -999.2500  -999.2500     0.4866  -999.2500
   81.5000    83.5141  -999.2500  -999.2500  -999.2500  -999.2500  -999.2500     0.4710  -999.2500
   82.0000    85.9096  -999.2500  -999.2500  -999.2500  -999.2500  -999.2500     0.4533  -999.2500
   82.5000    87.1055  -999.2500  -999.2500  -999.2500  -999.2500  -999.2500     0.4277  -999.2500
   83.0000    87.0877  -999.2500  -999.2500  -999.2500  -999.2500  -999.2500     0.3669  -999.2500
   83.5000    87.0734  -999.2500  -999.2500  -999.2500  -999.2500  -999.2500     0.3298  -999.2500
   84.0000    90.6183  9944.2344  9897.5166     0.1240    -0.2800     2.1229     0.2984     8.2435
   84.5000   109.6657  9871.5234  9893.1484     0.1160    -0.0801     2.2492     0.2895     8.2450
   85.0000   119.3045  5952.4287  9889.2949     0.1073     0.0462     2.4110     0.2847     8.2457
   85.5000   126.5301    12.4267     7.1142     0.1064     0.0641     2.4388     0.2820     8.2444
   86.0000   128.0282     2.3763     3.4604     0.1142     0.0611     2.4547     0.2802     8.2432
   86.5000   127.4065     2.1711     3.7849     0.1240     0.0488     2.4643     0.2796     8.2271
   87.0000   129.1986     3.4997     4.6571     0.1372     0.0339     2.4741     0.2800     8.2261
   87.5000   129.4896     5.8391     5.8505     0.1348     0.0233     2.4771     0.2797     8.2252
   88.0000   127.9634    12.0798     7.5555     0.1279     0.0278     2.4590     0.2779     8.2392
   88.5000   125.4630    17.0724     8.9801     0.1228     0.0397     2.4273     0.2764     8.2533
   89.0000   121.8981    15.8151    10.0981     0.1198     0.0442     2.4258     0.2761     8.2520
   89.5000   120.6772    10.4110    10.9688     0.1225     0.0411     2.4348     0.2774     8.2510
   90.0000   121.8696     8.4153     8.7843     0.1259     0.0290     2.4445     0.2795     8.2498
   90.5000   125.4992     8.2396     8.4235     0.1241     0.0169     2.4520     0.2813     8.2641
   91.0000   131.1889     8.0119     9.1499     0.1202     0.0032     2.4437     0.2834     8.2629
   91.5000   135.0962     7.6297    10.1854     0.1187    -0.0058     2.4430     0.2825     8.2619
   92.0000   136.5938     8.0060    11.5700     0.1175    -0.0028     2.4489     0.2798     8.2456
   92.5000   131.4477     9.3853    10.8656     0.1166     0.0032     2.4527     0.2780     8.2446
   93.0000   126.3017    10.6278     9.8578     0.1167     0.0046     2.4564     0.2787     8.2436
   93.5000   126.5891    11.3076     9.3867     0.1176     0.0045     2.4586     0.2823     8.2426
   94.0000   126.8800    10.7681     9.3831     0.1197     0.0015     2.4586     0.2865     8.2416
   94.5000   125.9572    10.1142     9.5102     0.1219    -0.0001     2.4548     0.2896     8.2253
   95.0000   123.8110     9.5594     9.5065     0.1255    -0.0002     2.4472     0.2902     8.2243
   95.5000   121.4002     9.1096     9.3065     0.1240    -0.0002     2.4427     0.2884     8.2233
   96.0000   119.5760     9.2979     9.3676     0.1201    -0.0018     2.4427     0.2860     8.2223
   96.5000   121.6733     9.5559     9.5614     0.1150    -0.0018     2.4494     0.2824     8.2060
   97.0000   122.8658     9.5470     9.4908     0.1108    -0.0019     2.4562     0.2788     8.1900
   97.5000   122.5462     9.2239     9.2270     0.1103    -0.0020     2.4674     0.2830     8.2341
   98.0000   124.0402     8.9071     8.9715     0.1181    -0.0022     2.4666     0.2954     8.2331
   98.5000   128.5508     8.7212     8.7836     0.1293    -0.0066     2.4485     0.3021     8.2472
   99.0000   132.1564     8.5307     8.5323     0.1371    -0.0036     2.4297     0.3069     8.2460
   99.5000   135.2227     8.2451     8.3029     0.1387     0.0023     2.4228     0.3123     8.2450
  100.0000   136.9509     8.0730     8.0729     0.1366     0.0083     2.4244     0.3142     8.2289
  100.5000   137.2831     8.0147     7.9588     0.1333     0.0022     2.4289     0.3154     8.2277
  101.0000   134.2119     7.9561     7.9000     0.1309    -0.0069     2.4318     0.3112     8.2267
  101.5000   129.3741     7.9535     7.8969     0.1276    -0.0160     2.4348     0.3058     8.2257
  102.0000   127.2511     7.9509     7.8939     0.1237    -0.0085     2.4416     0.3073     8.2247
  102.5000   127.2398     8.0036     7.9456     0.1231    -0.0009     2.4460     0.3115     8.2234
  103.0000   129.0356     8.0566     8.0525     0.1241     0.0004     2.4453     0.3163     8.2225
  103.5000   131.1359     8.1099     8.1053     0.1277    -0.0042     2.4415     0.3166     8.2215
  104.0000   132.9374     8.1067     8.1022     0.1304    -0.0057     2.4368     0.3145     8.2205
  104.5000   131.9980     8.1040     8.1553     0.1320    -0.0088     2.4316     0.3143     8.2192
  105.0000   131.4008     8.1007     8.1513     0.1329    -0.0134     2.4293     0.3146     8.2335
  105.5000   135.0094     8.0422     8.1481     0.1332    -0.0165     2.4286     0.3149     8.2323
  106.0000   136.8085     7.9841     8.1450     0.1320    -0.0150     2.4300     0.3149     8.2313
  106.5000   134.8658     7.9815     8.0855     0.1315    -0.0060     2.4323     0.3149     8.2454
  107.0000   129.2411     8.0902     8.0259     0.1330    -0.0046     2.4322     0.3137     8.2441
  107.5000   128.0232     8.1438     8.0228     0.1387    -0.0122     2.4314     0.3107     8.2431
  108.0000   129.2185     8.2540     8.0754     0.1361    -0.0153     2.4209     0.3077     8.2271
  108.5000   132.5226     8.3087     8.2409     0.1320    -0.0123     2.4218     0.3050     8.2110
  109.0000   136.4329     8.4211     8.3526     0.1268    -0.0033     2.4306     0.3023     8.2098
  109.5000   140.3431     8.4776     8.4666     0.1247    -0.0034     2.4396     0.3023     8.2088
  110.0000   139.4268     8.5331     8.5805     0.1262    -0.0095     2.4441     0.3033     8.2078
  110.5000   131.8712     8.6485     8.6367     0.1280    -0.0156     2.4418     0.3039     8.2068
  111.0000   130.0500     8.6457     8.6934     0.1281    -0.0201     2.4373     0.3045     8.2209
  111.5000   131.2453     8.6429     8.7504     0.1263    -0.0172     2.4365     0.3055     8.2196
  112.0000   135.2157     8.6401     8.8069     0.1239    -0.0112     2.4402     0.3081     8.2339
  112.5000   140.8729     8.6366     8.6815     0.1233    -0.0128     2.4439     0.3096     8.2327
  113.0000   143.8782     8.5742     8.4997     0.1240    -0.0159     2.4454     0.3105     8.2166
  113.5000   143.5652     8.4535     8.4378     0.1279    -0.0159     2.4431     0.3094     8.2458
  114.0000   139.7325     8.3345     8.4344     0.1304    -0.0070     2.4378     0.3066     8.2445
  114.5000   135.6966     8.4480     8.4304     0.1322    -0.0040     2.4340     0.3025     8.2435
  115.0000   134.4787     8.4446     8.4865     0.1334    -0.0025     2.4332     0.2983     8.2573
  115.5000   134.4674     8.4418     8.4823     0.1358    -0.0086     2.4280     0.2986     8.2563
  116.0000   135.0566     8.4978     8.5965     0.1362    -0.0117     2.4242     0.2995     8.2553
  116.5000   137.1597     8.5533     8.6537     0.1338    -0.0118     2.4241     0.2989     8.2543
  117.0000   136.5422     8.6107     8.6495     0.1326    -0.0103     2.4286     0.2962     8.2383
  117.5000   136.5309     8.6671     8.6461     0.1311    -0.0119     2.4310     0.2959     8.2371
  118.0000   138.6312     8.7244     8.6419     0.1296    -0.0134     2.4346     0.2977     8.2514
  118.5000   138.9216     8.6607     8.6385     0.1278    -0.0120     2.4376     0.2986     8.2501
  119.0000   139.2091     8.6578     8.6351     0.1254    -0.0090     2.4405     0.2984     8.2491
  119.5000   138.8758     8.5953     8.6317     0.1233    -0.0061     2.4436     0.2984     8.2479
  120.0000   137.6753     8.5325     8.5680     0.1210    -0.0047     2.4480     0.2987     8.2469
  120.5000   134.9491     8.4709     8.5647     0.1195    -0.0032     2.4510     0.2987     8.2308
  121.0000   132.8262     8.4097     8.5023     0.1174    -0.0003     2.4525     0.2987     8.2298
