~VERSION INFORMATION
 VERS.                2.0:   CWLS LOG ASCII STANDARD - VERSION 2.0
 WRAP.                 NO:   ONE LINE PER DEPTH STEP
~WELL INFORMATION
#MNEM.UNIT      DATA TYPE    INFORMATION
#----------   ------------   ------------------------------
 STRT.F           32.0000:   START DEPTH
 STOP.F          738.0000:   STOP DEPTH
 STEP.F            0.5000:   STEP LENGTH
 NULL.          -999.2500:   NO VALUE
 COMP. FENIX & SCISSON INC:   COMPANY
 WELL.       NPR-3 #43-34:   WELL
 FLD .             TEAPOT:   FIELD
 LOC .      S34 T39N R78W:   LOCATION
 CNTY.            NATRONA:   COUNTY
 STAT.            WYOMING:   STATE
 CTRY. UNITED STATES OF AMERICA:   COUNTRY
 SRVC.            Unknown:   SERVICE COMPANY
 DATE.        26-AUG-1978:   LOGDATE
 API .       490251069900:   API NUMBER
~CURVE INFORMATION
#MNEM.UNIT       API CODE    CURVE DESCRIPTION
#----------   ------------   ------------------------------
 DEPT.F                  :   
 GRD .GAPI   45 310 01 00:   GAMMA RAY FROM DENSITY LOG
 CALD.IN     45 280 60 00:   CALIPER
 RHOB.G/C3   45 350 01 00:   BULK DENSITY
 DPHI.DEC    45 890 12 00:   DENSITY POROSITY SANDSTONE
 CORR.G/C3   45 356 01 00:   DENSITY CORRECTION
 SPR .MV     05 010 01 00:   SPONTANEOUS POTENTIAL FROM RES.
 SN  .OHMM   05 040 16 00:   SHORT NORMAL 16"
 ILD .OHMM   05 120 46 00:   INDUCTION LOG DEEP
~PARAMETER INFORMATION
#MNEM.UNIT          VALUE    DESCRIPTION
#----------   ------------   ------------------------------
 PD  .                 GL:   PERMANENT DATUM
 EPD .F              5110:   ELEVATION PERMANENT DATUM
 LMF .                 KB:   LOG MEASURED FROM
 DAPD.F                 4:   FEET ABOVE PERMANENT DATUM
 DMF .                 KB:   DRILLING MEASURED FROM
 EKB .F              5114:   KELLING BUSHING
 EGL .F              5110:   GROUND LEVEL
 DATE.            8-26-78:   RUN DATE
 RUN .                  1:   RUN NUMBER
 DD  .F               748:   DEPTH DRILLER
 DL  .F               738:   DEPTH LOGGER
 BLI .F               732:   BOTTOM LOG INTERVAL
 TLI .F                40:   TOP LOG INTERVAL
 CS  .IN            8.625:   CASING SIZE
 CBD .F                40:   CASING BOTTOM DRILLER
 CBL .F                40:   CASING BOTTOM LOGGER
 BS  .IN            7.875:   BIT SIZE
 BSD .F               748:   BIT SIZE AT DEPTH
 DFT .                KCL:   DRILLING FLUID TYPE
 DFD .                8.7:   DRILLING FLUID DENSITY
 DFV .                 33:   DRILLING FLUID VISCOSITY
 DFPH.                  9:   DRILLING FLUID PH
 DFL .                 10:   DRILLING FLUID LOSS
 MSS .          FLOW LINE:   MUD SAMPLE SOURCE
 RMS .OHMM            .36:   RESISTIVITY MUD SAMPLE
 MST .F                80:   MUD SAMPLE TEMPERATURE
 RMF .OHMM             .3:   RESISTIVITY MUD FILTRATE SAMPLE
 MFST.F                80:   MUD FILTRATE SAMPLE TEMPERATURE
 RMC .OHMM            .48:   RESISTIVITY MUD CAKE
 MCST.F                82:   MUD CAKE SAMPLE TEMPERATURE
 MFSS.               MEAS:   MUD FILTRATE SAMPLE SOURCE
 MCSS.               MEAS:   MUD CAKE SAMPLE SOURCE
 TCS .HRS               2:   TIME CURCULATED STOPPED
 LUN .               2958:   LOGGING UNIT NUMBER
 LUL .               CASP:   LOGGING UNIT LOCATION
 ENGI.             MILLER:   RECORDING ENGINEER
 WITN.              AMEND:   WITNESSED BY
 CLNT.            A2DTECH:   CLIENT CODE
 ORIG.           5" PRINT:   ORIGIN OF DATA
 UWI .       490251069900:   UNIQUE WELL ID
 DICO. A2D Technologies, Inc.:   DIGITIZING COMPANY
~OTHER INFORMATION
~A   DEPT       GRD      CALD       RHOB       DPHI       CORR        SPR         SN        ILD   
# ...
  396.5000    92.1050     7.2164     2.4595     0.1384     0.0199   -38.8963     7.6087     7.6293
  397.0000    91.4248     7.2164     2.4529     0.1373     0.0196   -39.1041     7.4611     7.3760
  397.5000    90.0437     7.2164     2.4532     0.1347     0.0195   -39.1148     7.3065     7.3775
  398.0000    88.0931     7.2180     2.4556     0.1336     0.0193   -39.1362     7.2959     7.3958
  398.5000    86.6014     7.2298     2.4580     0.1332     0.0190   -39.1577     7.2748     7.4141
  399.0000    86.6680     7.2416     2.4602     0.1264     0.0188   -39.1795     7.2537     7.4329
  399.5000    88.0336     7.2534     2.4621     0.1214     0.0186   -39.2012     7.2409     7.4773
  400.0000    89.9094     7.2652     2.4708     0.1220     0.0183   -39.2229     7.4640     7.5955
  400.5000    90.8118     7.2770     2.4739     0.1276     0.0181   -39.2446     7.5821     7.7134
  401.0000    90.2545     7.2888     2.4707     0.1304     0.0179   -39.2665     7.8114     7.8689
  401.5000    89.4878     7.3006     2.4671     0.1308     0.0177   -39.2883     8.0875     7.8683
  402.0000    89.2623     7.3124     2.4634     0.1311     0.0175   -39.2995     8.0875     7.8511
  402.5000    89.7564     7.3243     2.4637     0.1248     0.0175   -39.2368     8.0875     7.8282
  403.0000    90.0789     7.3361     2.4702     0.1262     0.0175   -39.1735     8.0875     7.8054
  403.5000    90.5235     7.3295     2.4740     0.1281     0.0174   -39.1120     8.0875     7.7827
  404.0000    93.4233     7.3217     2.4707     0.1301     0.0178   -38.9946     8.0875     7.7601
  404.5000    97.6961     7.3140     2.4674     0.1308     0.0217   -38.8094     8.0875     7.7393
  405.0000    96.7544     7.3063     2.4639     0.1300     0.0255   -38.4940     8.0875     7.7211
  405.5000    91.7731     7.2985     2.4639     0.1274     0.0293   -38.4476     8.0875     7.8812
  406.0000    89.8978     7.2845     2.4668     0.1244     0.0330   -38.3871     8.0875     7.9677
  406.5000    91.1883     7.2687     2.4776     0.1214     0.0368   -38.3274     8.0875     8.0552
  407.0000    91.1320     7.2563     2.4888     0.1196     0.0394   -38.3145     8.0875     8.1622
  407.5000    87.7956     7.2478     2.4946     0.1230     0.0366   -38.1979     8.0875     8.1243
  408.0000    86.5866     7.1695     2.4824     0.1248     0.0354   -37.9264     8.0876     8.0796
  408.5000    88.5810     7.0737     2.4752     0.1160     0.0425   -37.9180     8.0876     8.0351
  409.0000    88.6218     7.0526     2.4903     0.1084     0.0575   -37.9263     8.0875     7.9908
  409.5000    88.6518     7.1235     2.5031     0.1009     0.0595   -38.0698     8.0616     7.9467
  410.0000    90.9729     7.2492     2.5151     0.1049     0.0592   -38.1227     8.0083     7.9029
  410.5000    93.6907     7.2576     2.5140     0.1084     0.0581   -38.1198     7.9553     7.8594
  411.0000    93.8220     7.2604     2.5022     0.1130     0.0571   -38.1188     7.9028     7.7956
  411.5000    93.8564     7.2670     2.4970     0.1143     0.0561   -38.1188     7.8676     7.8676
  412.0000    93.8620     7.2737     2.4911     0.1289     0.0554   -38.1188     7.8839     7.9921
  412.5000    93.2143     7.2804     2.4841     0.1429     0.0560   -38.1188     7.9144     8.1282
  413.0000    92.5760     7.2872     2.4571     0.1423     0.0579   -38.1188     7.9402     8.1622
  413.5000    91.9362     7.2939     2.4409     0.1400     0.0614   -38.1188     7.8231     8.1234
  414.0000    91.9336     7.2960     2.4474     0.1310     0.0747   -38.1188     7.7242     8.0552
  414.5000    93.6509     7.2931     2.4626     0.1208     0.0876   -38.1178     7.7327     8.0135
  415.0000    95.9267     7.2902     2.4773     0.1107     0.1008   -38.1147     7.7777     8.0412
  415.5000    96.5783     7.2873     2.4918     0.1044     0.1006   -38.1677     7.8230     8.0875
  416.0000    93.8645     7.2844     2.5033     0.1095     0.0931   -38.3201     7.8686     8.0135
  416.5000    94.4866     7.2814     2.4990     0.1147     0.0856   -38.3899     7.7592     7.9435
  417.0000    93.7807     7.2786     2.4930     0.1168     0.0783   -38.4519     7.6293     7.8076
  417.5000    91.8693     7.2863     2.4890     0.1144     0.0734   -38.5131     7.5016     7.6825
  418.0000    90.0248     7.3059     2.4890     0.1132     0.0734   -38.5381     7.3760     7.5588
  418.5000    88.8067     7.3190     2.4908     0.1139     0.0734   -38.5987     7.3098     7.4454
  419.0000    88.6754     7.3319     2.4931     0.1145     0.0734   -38.6591     7.3340     7.4454
  419.5000    87.9347     7.3311     2.4944     0.1152     0.0734   -38.7196     7.3568     7.3643
  420.0000    88.0306     7.3186     2.4872     0.1219     0.0695   -38.7799     7.3775     7.2899
  420.5000    90.6709     7.3061     2.4768     0.1276     0.0626   -38.8395     7.3222     7.2162
  421.0000    93.5888     7.2936     2.4682     0.1215     0.0556   -38.9020     7.2439     7.1433
  421.5000    96.3731     7.2810     2.4714     0.1201     0.0534   -39.0083     7.1667     7.0711
  422.0000    96.5507     7.2767     2.4786     0.1249     0.0512   -39.4824     7.0904     6.9997
  422.5000    89.7086     7.2765     2.4770     0.1284     0.0441   -39.9504     7.0148     6.7989
  423.0000    89.5947     7.2632     2.4719     0.1287     0.0393   -40.1813     6.8659     6.5864
  423.5000    89.4047     7.2483     2.4681     0.1331     0.0394   -40.3654     6.6616     6.3805
  424.0000    89.0052     7.2298     2.4639     0.1372     0.0395   -40.4985     6.4630     6.1810
  424.5000    89.0964     7.1955     2.4573     0.1345     0.0395   -40.5242     6.2714     6.0823
  425.0000    89.6114     7.1617     2.4583     0.1316     0.0395   -40.5840     6.1951     6.1384
  425.5000    86.9176     7.1279     2.4613     0.1300     0.0395   -40.6388     6.2740     6.1562
  426.0000    84.6113     7.0941     2.4644     0.1288     0.0393   -40.5598     6.3540     6.1741
  426.5000    85.1426     7.0603     2.4675     0.1273     0.0418   -40.0917     6.3683     6.1921
  427.0000    87.9716     7.0264     2.4706     0.1258     0.0436   -39.6906     6.3683     6.2523
  427.5000    89.1850     6.9961     2.4737     0.1252     0.0456   -39.2857     6.6563     6.3470
  428.0000    90.4016     7.0074     2.4743     0.1286     0.0474   -39.1602     7.0459     6.4613
  428.5000    93.0436     7.0300     2.4657     0.1308     0.0463   -39.3366     7.0400     6.5464
  429.0000    91.4839     7.0533     2.4640     0.1318     0.0439   -39.3909     7.0315     6.5465
  429.5000    89.0430     7.0776     2.4633     0.1365     0.0415   -39.4379     7.0225     6.5464
  430.0000    86.7578     7.0766     2.4600     0.1380     0.0427   -39.4856     7.0136     6.5463
  430.5000    86.3811     7.0882     2.4546     0.1347     0.0448   -39.5064     7.0047     6.5482
  431.0000    88.8524     7.1266     2.4537     0.1316     0.0470   -39.4365     6.9958     6.5651
  431.5000    90.7454     7.1571     2.4603     0.1253     0.0474   -39.3498     6.9872     6.5819
  432.0000    90.7863     7.1518     2.4669     0.1312     0.0475   -39.2626     6.9424     6.6068
  432.5000    91.3699     7.1303     2.4703     0.1343     0.0474   -39.1756     6.8277     6.5384
  433.0000    91.9008     7.1166     2.4630     0.1472     0.0474   -39.1035     6.7148     6.4146
  433.5000    91.9125     7.1489     2.4553     0.1462     0.0474   -39.2465     6.6039     6.2936
  434.0000    91.2957     7.1770     2.4405     0.1439     0.0534   -39.4131     6.4947     6.1948
  434.5000    91.4795     7.1764     2.4413     0.1483     0.0669   -39.5792     6.3876     6.1955
  435.0000    94.1451     7.1764     2.4433     0.1543     0.0714   -39.7065     6.2825     6.0823
  435.5000    96.7308     7.1764     2.4312     0.1601     0.0715   -39.6553     6.1772     5.8627
  436.0000    94.8849     7.1764     2.4206     0.1770     0.0714   -39.5869     5.9367     5.3380
  436.5000    92.5178     7.1764     2.4035     0.1815     0.0714   -39.5301     5.6183     4.9687
