~VERSION INFORMATION
 VERS.                2.0:   CWLS LOG ASCII STANDARD - VERSION 2.0
 WRAP.                 NO:   ONE LINE PER DEPTH STEP
~WELL INFORMATION
#MNEM.UNIT      DATA TYPE    INFORMATION
#----------   ------------   ------------------------------
 STRT.F           30.0000:   START DEPTH
 STOP.F          440.0000:   STOP DEPTH
 STEP.F            0.5000:   STEP LENGTH
 NULL.          -999.2500:   NO VALUE
 COMP. FENIX & SCISSON INC:   COMPANY
 WELL.    54 SX 10 #54-10:   WELL
 FLD .             TEAPOT:   FIELD
 LOC .      S10 T38N R78W:   LOCATION
 CNTY.            NATRONA:   COUNTY
 STAT.            WYOMING:   STATE
 CTRY. UNITED STATES OF AMERICA:   COUNTRY
 SRVC.            Unknown:   SERVICE COMPANY
 DATE.        10-NOV-1978:   LOGDATE
 API .       490251072800:   API NUMBER
~CURVE INFORMATION
#MNEM.UNIT       API CODE    CURVE DESCRIPTION
#----------   ------------   ------------------------------
 DEPT.F                  :   
 CALD.IN     45 280 60 00:   CALIPER
 GRD .GAPI   45 310 01 00:   GAMMA RAY FROM DENSITY LOG
 DPHI.DEC    45 890 12 00:   DENSITY POROSITY SANDSTONE
 RHOB.G/C3   45 350 01 00:   BULK DENSITY
 CORR.G/C3   45 356 01 00:   DENSITY CORRECTION
 SPR .MV     05 010 01 00:   SPONTANEOUS POTENTIAL FROM RES.
 ILD .OHMM   05 120 46 00:   INDUCTION LOG DEEP
 SN  .OHMM   05 040 16 00:   SHORT NORMAL 16"
~PARAMETER INFORMATION
#MNEM.UNIT          VALUE    DESCRIPTION
#----------   ------------   ------------------------------
 PD  .                 GL:   PERMANENT DATUM
 EPD .F              5196:   ELEVATION PERMANENT DATUM
 LMF .                 KB:   LOG MEASURED FROM
 DAPD.F                 4:   FEET ABOVE PERMANENT DATUM
 DMF .                 KB:   DRILLING MEASURED FROM
 EKB .F              5200:   KELLING BUSHING
 EGL .F              5196:   GROUND LEVEL
 DATE.           11-10-78:   RUN DATE
 RUN .                  1:   RUN NUMBER
 DD  .F               435:   DEPTH DRILLER
 DL  .F               442:   DEPTH LOGGER
 BLI .F               436:   BOTTOM LOG INTERVAL
 TLI .F                50:   TOP LOG INTERVAL
 CS  .IN            8.625:   CASING SIZE
 CBD .F                40:   CASING BOTTOM DRILLER
 CBL .F                50:   CASING BOTTOM LOGGER
 BS  .IN            7.875:   BIT SIZE
 BSD .F               435:   BIT SIZE AT DEPTH
 DFT .            SEA MUD:   DRILLING FLUID TYPE
 DFD .                8.7:   DRILLING FLUID DENSITY
 DFV .                 34:   DRILLING FLUID VISCOSITY
 DFPH.                 10:   DRILLING FLUID PH
 MSS .            MUD PIT:   MUD SAMPLE SOURCE
 RMS .OHMM             .4:   RESISTIVITY MUD SAMPLE
 MST .F                57:   MUD SAMPLE TEMPERATURE
 RMF .OHMM            .34:   RESISTIVITY MUD FILTRATE SAMPLE
 MFST.F                64:   MUD FILTRATE SAMPLE TEMPERATURE
 RMC .OHMM            .44:   RESISTIVITY MUD CAKE
 MCST.F                60:   MUD CAKE SAMPLE TEMPERATURE
 MFSS.            MUD PIT:   MUD FILTRATE SAMPLE SOURCE
 MCSS.            MUD PIT:   MUD CAKE SAMPLE SOURCE
 RMB .OHMM            .36:   RESISTIVITY MUD AT BHT
 BHT .F                72:   BOTTOM HOLE TEMPERATURE
 TCS .HRS               1:   TIME CURCULATED STOPPED
 MRT .F                70:   MAXIMUM RECORDED TEMPERATURE
 LUN .               3006:   LOGGING UNIT NUMBER
 LUL .               CASP:   LOGGING UNIT LOCATION
 ENGI.             MILLER:   RECORDING ENGINEER
 WITN.           DINSMORE:   WITNESSED BY
 CLNT.            A2DTECH:   CLIENT CODE
 ORIG.           5" PRINT:   ORIGIN OF DATA
 UWI .       490251072800:   UNIQUE WELL ID
 DICO. A2D Technologies, Inc.:   DIGITIZING COMPANY
~OTHER INFORMATION
~A   DEPT     CALD         GRD      DPHI       RHOB       CORR        SPR        ILD         SN   
# ...
  313.5000     8.0193    85.8048     0.1745     2.3901     0.0179   -36.9696    18.1254    15.4162
  314.0000     8.0208    85.5964     0.1743     2.3958     0.0179   -34.7775    17.9714    15.5568
  314.5000     8.0222    85.3863     0.1750     2.3971     0.0179   -32.3668    17.8188    15.4482
  315.0000     8.0236    85.2251     0.1766     2.3966     0.0179   -32.2161    17.6675    15.3812
  315.5000     8.0250    85.2285     0.1782     2.3922     0.0179   -32.2100    17.5174    15.3145
  316.0000     8.0264    85.2311     0.1789     2.3879     0.0179   -32.1903    17.3687    15.2480
  316.5000     8.0278    85.2335     0.1783     2.3841     0.0179   -32.1673    17.2211    15.1819
  317.0000     8.0293    85.0960     0.1743     2.3844     0.0179   -32.1442    17.0749    15.1160
  317.5000     8.0307    83.6139     0.1702     2.3871     0.0181   -32.1212    16.9299    15.0504
  318.0000     8.0321    81.5922     0.1662     2.3911     0.0192   -32.0981    16.7861    14.9851
  318.5000     8.0335    80.9367     0.1645     2.4012     0.0203   -32.0750    16.6435    14.9201
  319.0000     8.0349    84.6886     0.1640     2.4093     0.0213   -32.0526    16.5022    14.8554
  319.5000     8.0363    88.7748     0.1635     2.4095     0.0224   -32.0505    16.3620    14.7910
  320.0000     8.0378    92.9038     0.1613     2.4099     0.0235   -32.0563    16.2231    14.7268
  320.5000     8.0392    94.0422     0.1588     2.4112     0.0246   -31.6674    16.0853    14.6629
  321.0000     8.0406    93.2211     0.1562     2.4162     0.0257   -31.0711    15.9487    14.5988
  321.5000     8.0420    92.4148     0.1565     2.4208     0.0267   -30.4684    15.8106    14.5884
  322.0000     8.0434    92.4593     0.1581     2.4237     0.0278   -29.8649    15.6640    14.5774
  322.5000     8.0448    92.5287     0.1596     2.4210     0.0289   -29.2619    15.5188    14.5665
  323.0000     8.0463    91.9051     0.1606     2.4169     0.0298   -28.6697    15.3748    14.5558
  323.5000     8.0477    90.3599     0.1578     2.4160     0.0265   -28.6043    15.2323    14.5450
  324.0000     8.0491    88.8272     0.1540     2.4197     0.0230   -29.3762    15.1388    14.5343
  324.5000     8.0505    87.2705     0.1502     2.4262     0.0195   -30.0682    15.2481    14.5235
  325.0000     8.0519    86.7996     0.1463     2.4327     0.0160   -30.0878    15.3303    14.5128
  325.5000     8.0533    88.0900     0.1464     2.4382     0.0138   -30.2290    15.4129    14.5021
  326.0000     8.0548    89.9213     0.1487     2.4389     0.0136   -30.2816    15.4960    14.4913
  326.5000     8.0562    91.0221     0.1510     2.4400     0.0134   -30.2362    15.5795    14.4806
  327.0000     8.0576    92.1175     0.1533     2.4305     0.0132   -30.1820    15.6635    14.4699
  327.5000     8.0590    94.0882     0.1556     2.4278     0.0131   -30.1263    15.7479    14.4592
  328.0000     8.0604    96.0226     0.1578     2.4264     0.0128   -30.0618    15.8330    14.4485
  328.5000     8.0618    94.9790     0.1594     2.4227     0.0126   -30.6646    15.9178    14.4379
  329.0000     8.0633    93.2736     0.1584     2.4181     0.0125   -31.3427    15.9864    14.4272
  329.5000     8.0647    91.6150     0.1549     2.4142     0.0122   -32.0730    15.8564    14.4165
  330.0000     8.0662    90.9740     0.1515     2.4186     0.0121   -32.2368    15.7490    14.4059
  330.5000     8.0675    90.9911     0.1498     2.4267     0.0119   -32.1629    15.6424    14.3952
  331.0000     8.0623    90.9939     0.1495     2.4346     0.0119   -32.0855    15.5365    14.3846
  331.5000     8.0316    90.9948     0.1491     2.4341     0.0119   -32.0101    15.4313    14.3740
  332.0000     8.0018    91.0029     0.1480     2.4333     0.0119   -31.9350    15.3268    14.3632
  332.5000     7.9720    90.8479     0.1470     2.4349     0.0119   -31.8599    15.2231    14.3526
  333.0000     7.9421    89.8166     0.1461     2.4390     0.0119   -31.7848    15.1200    14.3356
  333.5000     7.9109    88.6655     0.1451     2.4393     0.0119   -31.7097    15.0019    14.3849
  334.0000     7.8777    87.8527     0.1433     2.4397     0.0119   -31.6341    15.0583    14.4962
  334.5000     7.8429    86.9895     0.1411     2.4430     0.0119   -31.5603    15.1253    14.6092
  335.0000     7.8079    86.8755     0.1404     2.4475     0.0119   -31.4775    15.1925    14.7231
  335.5000     7.7732    90.3320     0.1404     2.4503     0.0119   -31.8475    15.2601    14.8378
  336.0000     7.7481    94.1643     0.1404     2.4478     0.0119   -32.4105    15.5033    14.9534
  336.5000     7.7425    96.3867     0.1412     2.4460     0.0119   -32.9860    15.7458    15.1911
  337.0000     7.7366    97.6206     0.1458     2.4484     0.0119   -33.2220    15.9873    15.5212
  337.5000     7.7301    97.7778     0.1602     2.4460     0.0119   -32.5903    16.6548    15.8419
  338.0000     7.7079    99.0186     0.1817     2.4286     0.0119   -30.8859    17.4041    16.5055
  338.5000     7.6849   101.4656     0.2043     2.3894     0.0120   -29.1944    18.2378    17.1639
  339.0000     7.6620   103.4865     0.2269     2.3503     0.0133   -27.5273    19.3378    17.8491
  339.5000     7.6389    98.8448     0.2445     2.3114     0.0185   -26.3089    20.7373    18.5613
  340.0000     7.6332    94.0400     0.2421     2.2734     0.0241   -26.4156    22.2381    19.3020
  340.5000     7.6358    89.2933     0.2329     2.2734     0.0298   -26.5243    23.8474    20.0722
  341.0000     7.6386    84.5368     0.2238     2.2928     0.0300   -26.6405    25.5733    20.8732
  341.5000     7.6414    79.8450     0.2166     2.3093     0.0273   -26.7156    26.1957    21.7061
  342.0000     7.6442    76.3447     0.2149     2.3188     0.0258   -26.3462    26.5941    22.5723
  342.5000     7.6470    76.1606     0.2174     2.3249     0.0258   -25.9685    26.9960    23.3883
  343.0000     7.6497    75.9056     0.2229     2.3246     0.0258   -25.5986    27.4049    24.0363
  343.5000     7.6662    75.2453     0.2284     2.3158     0.0253   -25.4063    27.8205    24.7256
  344.0000     7.6941    74.7204     0.2340     2.3069     0.0234   -25.9186    28.2423    24.7170
  344.5000     7.7221    76.4302     0.2358     2.2979     0.0216   -26.4229    28.6705    24.7194
  345.0000     7.7492    78.2001     0.2338     2.2892     0.0198   -26.7288    29.1053    24.7194
  345.5000     7.7639    78.0862     0.2301     2.2942     0.0179   -26.7247    29.5466    24.7194
  346.0000     7.7730    77.8748     0.2274     2.3000     0.0161   -26.7264    29.9946    24.7194
  346.5000     7.7775    77.6681     0.2267     2.3047     0.0142   -26.7900    30.4494    24.7194
  347.0000     7.7819    77.4575     0.2271     2.3044     0.0140   -27.0574    30.9112    24.7194
  347.5000     7.7864    77.3436     0.2272     2.3042     0.0158   -27.3045    31.3017    24.7194
  348.0000     7.7909    78.9133     0.2261     2.3039     0.0177   -27.1253    31.5872    24.7194
  348.5000     7.7953    80.4861     0.2208     2.3035     0.0196   -26.9183    31.3641    24.7190
  349.0000     7.7997    81.4680     0.2105     2.3093     0.0199   -26.7346    30.9995    24.7194
  349.5000     7.8042    78.7312     0.2001     2.3251     0.0199   -26.8683    30.6392    24.7174
  350.0000     7.8087    76.4896     0.1909     2.3416     0.0199   -27.0093    30.2829    24.8666
  350.5000     7.8131    75.2834     0.1914     2.3577     0.0217   -27.1491    29.9308    24.9838
  351.0000     7.8176    74.5849     0.1919     2.3616     0.0241   -27.2976    29.5817    25.1011
  351.5000     7.8220    74.3450     0.1894     2.3619     0.0306   -27.0360    29.2355    25.2191
  352.0000     7.8265    74.1138     0.1723     2.3719     0.0380   -26.6765    28.8357    25.3376
  352.5000     7.8309    73.8844     0.1421     2.3900     0.0455   -26.3144    29.5243    25.4567
  353.0000     7.8354    73.6541     0.1118     2.4360     0.0461   -26.4711    30.6034    25.5764
  353.5000     7.8398    73.4240     0.0842     2.4823     0.0304   -27.1459    31.7220    25.6966
