~VERSION INFORMATION
 VERS.                2.0:   CWLS LOG ASCII STANDARD - VERSION 2.0
 WRAP.                 NO:   ONE LINE PER DEPTH STEP
~WELL INFORMATION
#MNEM.UNIT      DATA TYPE    INFORMATION
#----------   ------------   ------------------------------
 STRT.F            0.0000:   START DEPTH
 STOP.F         4113.0000:   STOP DEPTH
 STEP.F            0.5000:   STEP LENGTH
 NULL.          -999.2500:   NO VALUE
 COMP. LAWRENCE/ALLISON INC:   COMPANY
 WELL.  NPR # #3 76 -MX-3:   WELL
 FLD .             TEAPOT:   FIELD
 LOC .       S3 T38N R78W:   LOCATION
 CNTY.            NATRONA:   COUNTY
 STAT.            WYOMING:   STATE
 CTRY. UNITED STATES OF AMERICA:   COUNTRY
 SRVC.      Dresser Atlas:   SERVICE COMPANY
 DATE.        04-SEP-1983:   LOGDATE
 API .       490251094300:   API NUMBER
~CURVE INFORMATION
#MNEM.UNIT       API CODE    CURVE DESCRIPTION
#----------   ------------   ------------------------------
 DEPT.F                  :   
 GRR .GAPI   07 310 01 00:   GAMMA RAY
 SPR .MV     07 010 01 00:   SPONTANEOUS POTENTIAL
 RILD.OHMM   07 120 46 00:   INDUCTION LOG DEEP RESISTIVITY
 RILM.OHMM   07 120 44 00:   INDUCTION LOG MEDIUM RESISTIVITY
 RFOC.OHMM   07 220 04 00:   RESISTIVITY FOCUSED LOG
 CNCF.DEC    42 890 03 00:   NEUTRON POROSITY SANDSTONE
 PORD.DEC    45 890 12 00:   POROSITY DENSITY SANDSTONE
 CALD.IN     45 280 60 00:   CALIPER FROM DENSITY LOG
 CORR.G/C3   45 356 01 00:   DENSITY CORRECTION
 DEN .G/C3   45 350 01 00:   COMPENSATED BULK DENSTIY
 AC  .US/F   60 520 00 00:   ACCOUSTIC
~PARAMETER INFORMATION
#MNEM.UNIT          VALUE    DESCRIPTION
#----------   ------------   ------------------------------
 PD  .                 GL:   PERMANENT DATUM
 EPD .F              5147:   ELEVATION PERMANENT DATUM
 LMF .                 KB:   LOG MEASURED FROM
 DAPD.F                10:   FEET ABOVE PERMANENT DATUM
 DMF .                 KB:   DRILLING MEASURED FROM
 EKB .F              5157:   KELLING BUSHING
 EGL .F              5147:   GROUND LEVEL
 DATE.        04-SEP-1983:   RUN DATE
 RUN .                  1:   RUN NUMBER
 DD  .F              4119:   DEPTH DRILLER
 DL  .F              4115:   DEPTH LOGGER
 BLI .F              4112:   BOTTOM LOG INTERVAL
 CS  .IN            9.625:   CASING SIZE
 CBD .F               491:   CASING BOTTOM DRILLER
 CBL .F               494:   CASING BOTTOM LOGGER
 BS  .IN             8.75:   BIT SIZE
 BSD .F              4119:   BIT SIZE AT DEPTH
 DFT .            KCL GEL:   DRILLING FLUID TYPE
 DFD .                8.9:   DRILLING FLUID DENSITY
 DFV .                 46:   DRILLING FLUID VISCOSITY
 DFPH.                9.0:   DRILLING FLUID PH
 DFL .               13.6:   DRILLING FLUID LOSS
 MSS .           MUD TANK:   MUD SAMPLE SOURCE
 RMS .OHMM           .315:   RESISTIVITY MUD SAMPLE
 MST .F                92:   MUD SAMPLE TEMPERATURE
 RMF .OHMM            .25:   RESISTIVITY MUD FILTRATE SAMPLE
 MFST.F                84:   MUD FILTRATE SAMPLE TEMPERATURE
 RMC .OHMM             .4:   RESISTIVITY MUD CAKE
 MCST.F                92:   MUD CAKE SAMPLE TEMPERATURE
 MFSS.               MEAS:   MUD FILTRATE SAMPLE SOURCE
 MCSS.               CALC:   MUD CAKE SAMPLE SOURCE
 RMB .OHMM            .22:   RESISTIVITY MUD AT BHT
 BHT .F               132:   BOTTOM HOLE TEMPERATURE
 TCS .HRS               4:   TIME CURCULATED STOPPED
 MRT .F               132:   MAXIMUM RECORDED TEMPERATURE
 LUN .               6274:   LOGGING UNIT NUMBER
 LUL .              GLTE.:   LOGGING UNIT LOCATION
 ENGI.             RAUTIO:   RECORDING ENGINEER
 WITN.             STRONG:   WITNESSED BY
 CLNT.            A2DTECH:   CLIENT CODE
 ORIG.        2" 5" PRINT:   ORIGIN OF DATA
 UWI .       490251094300:   UNIQUE WELL ID
 DICO. A2D Technologies, Inc.:   DIGITIZING COMPANY
~OTHER INFORMATION
~A    DEPT     GRR        SPR       RILD       RILM       RFOC       CNCF       PORD       CALD       CORR        DEN         AC   
# ...
 3843.0000   138.6846   -35.5182     2.9410     3.0970     3.3883     0.2588     0.0271    10.0794     0.0943     2.6092    93.6250
 3843.5000   129.2219   -35.5340     3.3241     3.3510     3.3619     0.2519     0.0033    10.0791     0.1124     2.6469    92.7012
 3844.0000   118.3480   -35.5498     3.8955     3.8569     3.8831     0.2235     0.0002    10.0788     0.0748     2.6498    87.8252
 3844.5000   106.7899   -35.5656     4.4671     4.5728     5.1834     0.2044     0.0045    10.0785     0.0658     2.6303    82.1015
 3845.0000    97.0531   -35.1112     6.1819     6.1943     8.1129     0.1832     0.0137    10.0782     0.0764     2.6212    77.4322
 3845.5000    89.1972   -34.3433     8.1328     7.8051    12.2469     0.1772     0.0169    10.0779     0.0719     2.6182    73.0640
 3846.0000    82.9086   -33.5754     9.3262     9.8348    15.9969     0.1736     0.0191    10.0776     0.0493     2.6122    70.4277
 3846.5000    79.7549   -32.3372    11.6640    12.4823    20.5948     0.1676     0.0257    10.0622     0.0163     2.5949    69.5915
 3847.0000    82.5573   -30.9424    13.0886    17.1550    23.9602     0.1661     0.0357    10.0619     0.0073     2.5843    69.3719
 3847.5000    85.9866   -29.3908    14.5814    17.7803    24.6530     0.1686     0.0399    10.0616     0.0239     2.5821    69.5219
 3848.0000    89.1024   -27.9959    15.4429    18.1654    24.2811     0.1740     0.0403    10.0613     0.0347     2.5828    70.1234
 3848.5000    91.2778   -26.6010    15.1049    18.2905    22.9022     0.1809     0.0405    10.0610     0.0420     2.5798    70.8004
 3849.0000    91.5771   -25.5196    14.6680    18.1518    21.2913     0.1870     0.0427    10.0758     0.0391     2.5730    71.4021
 3849.5000    91.2399   -24.2815    14.2437    17.5004    20.6719     0.1897     0.0479    10.0905     0.0361     2.5707    71.7143
 3850.0000    93.0541   -23.5788    13.7742    16.1990    20.9522     0.1906     0.0468    10.0902     0.0419     2.5783    71.5842
 3850.5000    96.2498   -22.5363    13.0726    13.5544    21.5701     0.1876     0.0374    10.0880     0.0469     2.5866    71.0986
 3851.0000   100.0231   -21.6570    12.4899    12.3475    18.3861     0.1883     0.0313    10.0854     0.0422     2.5941    71.3238
 3851.5000   103.2086   -20.8857    12.1287    12.7010    15.4487     0.1982     0.0326    10.0828     0.0483     2.5979    72.2267
 3852.0000   105.8941   -20.1144    11.9495    13.1614    13.3617     0.2076     0.0359    10.0802     0.0649     2.5904    74.1083
 3852.5000    93.0220   -19.4998    11.8583    13.6385    12.6977     0.2025     0.0399    10.0777     0.0724     2.5791    75.9148
 3853.0000    81.4078   -19.3524    11.8532    14.2355    15.4288     0.1896     0.0450    10.0751     0.0544     2.5730    75.6882
 3853.5000    77.9479   -18.8946    11.9341    14.8586    21.6684     0.1752     0.0450    10.0725     0.0364     2.5723    74.2568
 3854.0000    85.4520   -18.4399    12.1027    15.6216    22.9522     0.1719     0.0372    10.0699     0.0319     2.5784    72.4843
 3854.5000    93.9005   -18.1388    12.3650    16.0711    22.4473     0.1822     0.0355    10.0669     0.0530     2.5882    70.4148
 3855.0000    95.7658   -17.8377    12.6284    16.1809    21.6405     0.1839     0.0367    10.0510     0.0621     2.5867    70.4894
 3855.5000    91.3616   -17.6928    12.4226    16.0528    21.3227     0.1704     0.0433    10.0351     0.0530     2.5782    71.2417
 3856.0000    87.2709   -17.7058    11.7977    14.3937    21.9371     0.1662     0.0549    10.0343     0.0470     2.5596    70.1114
 3856.5000    86.6323   -17.7182    10.8562    12.5378    22.2476     0.1675     0.0548    10.0182     0.0441     2.5543    69.1091
 3857.0000    96.0173   -17.8873     9.3044    10.7644    19.6640     0.1765     0.0546    10.0173     0.0426     2.5596    68.9805
 3857.5000   104.1523   -17.8997     7.9903     9.0434    13.9895     0.1883     0.0558    10.0164     0.0336     2.5573    70.4103
 3858.0000   118.8703   -18.0690     7.0632     7.2186     8.9938     0.2127     0.0576    10.0156     0.0276     2.5528    72.5180
 3858.5000   123.5570   -18.0815     6.5678     6.2355     7.7204     0.2493     0.0582    10.0147     0.0306     2.5483    75.2493
 3859.0000   125.4223   -18.2508     6.2410     5.9769     7.1751     0.2644     0.0574     9.9988     0.0400     2.5506    79.5947
 3859.5000   125.4068   -18.2878     6.1488     6.1481     6.8680     0.2656     0.0568     9.9978     0.0593     2.5529    82.0790
 3860.0000   124.4509   -18.5918     6.2809     6.7019     6.6737     0.2608     0.0547     9.9969     0.0729     2.5559    83.2078
 3860.5000   120.9871   -18.9177     6.6520     7.4660     7.4582     0.2278     0.0523     9.9960     0.0699     2.5589    83.1318
 3861.0000   114.3885   -19.2436     7.1995     8.6861     9.9258     0.2062     0.0484     9.9952     0.0579     2.5620    82.3937
 3861.5000   104.9686   -19.7262     8.1375    10.1056    12.9670     0.2011     0.0424     9.9943     0.0518     2.5672    79.8169
 3862.0000    96.1384   -20.2088     9.2645    11.6724    19.1572     0.1987     0.0391     9.9934     0.0429     2.5755    77.1053
 3862.5000    94.5928   -20.8482    10.5475    13.4820    22.7802     0.1915     0.0428     9.9924     0.0384     2.5830    72.9631
 3863.0000   100.1065   -21.8010    11.6659    15.0190    22.4433     0.1852     0.0473    10.0068     0.0324     2.5763    69.8750
 3863.5000   107.6265   -22.9106    12.6261    16.0204    20.8679     0.1913     0.0510    10.0057     0.0219     2.5694    69.5729
 3864.0000   110.2203   -24.1770    12.9924    16.4814    18.5788     0.1988     0.0540    10.0048     0.0189     2.5620    70.9276
 3864.5000   109.8874   -25.4433    12.9854    15.8868    18.1720     0.1985     0.0570    10.0038     0.0205     2.5567    71.9058
 3865.0000   109.5584   -26.8663    12.6098    14.6630    17.5189     0.1985     0.0586    10.0029     0.0235     2.5529    72.2816
 3865.5000   109.2294   -28.1327    12.2452    13.4360    16.1717     0.2036     0.0577    10.0020     0.0265     2.5514    72.5105
 3866.0000   109.5274   -29.2422    11.9773    12.9512    15.1457     0.2106     0.0586    10.0012     0.0281     2.5522    72.9577
 3866.5000   110.1389   -30.5086    11.6309    12.5662    14.3915     0.2121     0.0598    10.0002     0.0281     2.5521    73.4088
 3867.0000   111.0677   -31.7749    11.3764    12.2087    13.8743     0.2104     0.0608    10.0145     0.0283     2.5492    74.0105
 3867.5000   112.6157   -33.0412    11.2083    12.1141    13.3756     0.2044     0.0608    10.0134     0.0327     2.5469    74.6122
 3868.0000   113.5445   -34.1508    11.2034    12.5514    12.9884     0.2049     0.0534    10.0126     0.0372     2.5515    74.5160
 3868.5000   108.8229   -35.2604    11.3738    13.7820    13.7565     0.2155     0.0503    10.0116     0.0403     2.5620    73.8576
 3869.0000   108.1805   -36.2132    11.5378    14.9152    15.1067     0.2204     0.0491    10.0108     0.0313     2.5651    73.0285
 3869.5000   107.8515   -37.1736    12.1140    16.0252    16.4698     0.2195     0.0470    10.0098     0.0253     2.5681    71.8983
 3870.0000   106.5820   -38.1401    12.7373    17.2178    17.5704     0.2147     0.0386    10.0089     0.0283     2.5741    70.9940
 3870.5000    99.9835   -38.9500    13.4899    18.3658    18.4753     0.2123     0.0336    10.0080     0.0329     2.5884    70.0142
 3871.0000    94.0118   -39.7354    14.2870    19.8759    20.4430     0.2088     0.0275    10.0072     0.0374     2.5997    69.1851
 3871.5000    88.9807   -40.6671    15.1311    21.2188    22.9882     0.1965     0.0227    10.0063     0.0465     2.6081    68.3561
 3872.0000    89.2786   -41.4632    16.0252    22.3090    29.3372     0.1787     0.0191    10.0052     0.0571     2.6148    67.9789
 3872.5000    90.8305   -42.2593    16.8498    23.0978    29.7604     0.1679     0.0198    10.0194     0.0676     2.6155    67.4447
 3873.0000    89.2476   -43.0554    17.4625    23.5912    29.9353     0.1665     0.0300    10.0186     0.0646     2.6065    67.0737
