~VERSION INFORMATION
 VERS.                2.0:   CWLS LOG ASCII STANDARD - VERSION 2.0
 WRAP.                 NO:   ONE LINE PER DEPTH STEP
~WELL INFORMATION
#MNEM.UNIT      DATA TYPE    INFORMATION
#----------   ------------   ------------------------------
 STRT.F            1.0000:   START DEPTH
 STOP.F          755.5000:   STOP DEPTH
 STEP.F            0.5000:   STEP LENGTH
 NULL.          -999.2500:   NO VALUE
 COMP. FENIX & SCISSON INC:   COMPANY
 WELL.       25-SX #25-14:   WELL
 FLD .        TEAPOT DOME:   FIELD
 LOC .      S14 T38N R78W:   LOCATION
 CNTY.            NATRONA:   COUNTY
 STAT.            WYOMING:   STATE
 CTRY. UNITED STATES OF AMERICA:   COUNTRY
 SRVC.           BIRDWELL:   SERVICE COMPANY
 DATE.        29-DEC-1978:   LOGDATE
 API .       490251076000:   API NUMBER
~CURVE INFORMATION
#MNEM.UNIT       API CODE    CURVE DESCRIPTION
#----------   ------------   ------------------------------
 DEPT.F                  :   
 SPR .MV     05 010 01 00:   SPONTANEOUS POTENTIAL FROM RES.
 SN  .OHMM   05 040 16 00:   SHORT NORMAL 16"
 IL  .OHMM   05 120 00 00:   INDUCTION LOG
 CALD.IN     45 280 60 00:   CALIPER
 GRD .GAPI   45 310 01 00:   GAMMA RAY FROM DENSITY LOG
 CORR.G/C3   45 356 01 00:   DENSITY CORRECTION
 DPHI.DEC    45 890 12 00:   DENSITY POROSITY SANDSTONE
 RHOB.G/C3   45 350 01 00:   BULK DENSITY
~PARAMETER INFORMATION
#MNEM.UNIT          VALUE    DESCRIPTION
#----------   ------------   ------------------------------
 PD  .                 GL:   PERMANENT DATUM
 EPD .F              5214:   ELEVATION PERMANENT DATUM
 LMF .                 KB:   LOG MEASURED FROM
 DAPD.F                 4:   FEET ABOVE PERMANENT DATUM
 DMF .                 KB:   DRILLING MEASURED FROM
 EKB .F              5218:   KELLING BUSHING
 EGL .F              5214:   GROUND LEVEL
 DATE.           12-29-79:   RUN DATE
 RUN .                  1:   RUN NUMBER
 DD  .F               765:   DEPTH DRILLER
 DL  .F               747:   DEPTH LOGGER
 BLI .F               740:   BOTTOM LOG INTERVAL
 TLI .F                40:   TOP LOG INTERVAL
 CS  .IN            8.625:   CASING SIZE
 CBD .F                40:   CASING BOTTOM DRILLER
 CBL .F                40:   CASING BOTTOM LOGGER
 BS  .IN            7.875:   BIT SIZE
 BSD .F               765:   BIT SIZE AT DEPTH
 DFT .                KCL:   DRILLING FLUID TYPE
 DFD .                8.8:   DRILLING FLUID DENSITY
 DFV .                 48:   DRILLING FLUID VISCOSITY
 DFPH.                9.2:   DRILLING FLUID PH
 MSS .           FLOWLINE:   MUD SAMPLE SOURCE
 RMS .OHMM            .17:   RESISTIVITY MUD SAMPLE
 MST .F                56:   MUD SAMPLE TEMPERATURE
 RMF .OHMM            .15:   RESISTIVITY MUD FILTRATE SAMPLE
 MFST.F                56:   MUD FILTRATE SAMPLE TEMPERATURE
 RMC .OHMM            .23:   RESISTIVITY MUD CAKE
 MCST.F                64:   MUD CAKE SAMPLE TEMPERATURE
 MFSS.           MEASURED:   MUD FILTRATE SAMPLE SOURCE
 MCSS.           MEASURED:   MUD CAKE SAMPLE SOURCE
 RMB .OHMM            .16:   RESISTIVITY MUD AT BHT
 BHT .F                59:   BOTTOM HOLE TEMPERATURE
 TCS .HRS              12:   TIME CURCULATED STOPPED
 MRT .F                59:   MAXIMUM RECORDED TEMPERATURE
 LUN .               2958:   LOGGING UNIT NUMBER
 LUL .             CASPER:   LOGGING UNIT LOCATION
 ENGI.            ROLLINS:   RECORDING ENGINEER
 WITN.         RICHARDSON:   WITNESSED BY
 CLNT.            A2DTECH:   CLIENT CODE
 ORIG.           5" PRINT:   ORIGIN OF DATA
 UWI .       490251076000:   UNIQUE WELL ID
 DICO. A2D Technologies, Inc.:   DIGITIZING COMPANY
~OTHER INFORMATION
~A    DEPT     SPR         SN         IL       CALD         GRD      CORR       DPHI       RHOB   
# ...
  446.5000   -69.2150     5.5210     4.7020     7.4970   107.9220     0.0130     0.1130     2.4920
  447.0000   -69.4450     5.4780     4.6550     7.5000   107.1310     0.0110     0.1140     2.4920
  447.5000   -69.6740     5.4360     4.6040     7.5020   107.4090     0.0090     0.1150     2.4930
  448.0000   -69.8430     5.4030     4.3920     7.5050   108.9120     0.0070     0.1150     2.4930
  448.5000   -69.8390     5.3820     4.2270     7.5070   109.4570     0.0070     0.1180     2.4890
  449.0000   -69.8390     5.3600     4.2440     7.5090   109.7040     0.0070     0.1210     2.4840
  449.5000   -69.8400     5.3380     4.2560     7.5120   109.7040     0.0080     0.1240     2.4800
  450.0000   -69.8400     5.3230     4.2690     7.5140   108.6810     0.0080     0.1220     2.4760
  450.5000   -69.8400     5.3590     4.2810     7.5170   107.5360     0.0080     0.1180     2.4720
  451.0000   -69.8400     5.3870     4.2940     7.5190   106.6840     0.0080     0.1140     2.4760
  451.5000   -69.8400     5.4140     4.3430     7.5220   106.7050     0.0080     0.1100     2.4850
  452.0000   -69.8400     5.4420     4.4270     7.5240   106.7050     0.0090     0.1060     2.4880
  452.5000   -69.8400     5.4700     4.5110     7.5270   106.7210     0.0090     0.1050     2.4910
  453.0000   -69.8400     5.4980     4.5950     7.5290   108.4690     0.0090     0.1050     2.4990
  453.5000   -69.8400     5.5260     4.6830     7.5310   110.6730     0.0080     0.1040     2.5040
  454.0000   -69.8400     5.5550     4.6720     7.5340   110.7980     0.0080     0.1040     2.5040
  454.5000   -69.8400     5.5550     4.6600     7.5360   110.8590     0.0070     0.1040     2.5050
  455.0000   -69.8400     5.5550     4.6480     7.5360   110.9090     0.0070     0.1040     2.5050
  455.5000   -69.8400     5.5550     4.6360     7.5350   110.2100     0.0060     0.1040     2.5060
  456.0000   -69.8400     5.5550     4.6230     7.5330   108.9240     0.0050     0.1050     2.5060
  456.5000   -69.8400     5.5350     4.6110     7.5310   109.5780     0.0050     0.1060     2.5040
  457.0000   -69.8570     5.5150     4.5950     7.5300   110.6110     0.0060     0.1070     2.5030
  457.5000   -69.9640     5.4950     4.5720     7.5280   111.6570     0.0060     0.1090     2.5010
  458.0000   -70.0720     5.4760     4.5490     7.5260   111.8140     0.0070     0.1100     2.4990
  458.5000   -70.1810     5.4560     4.5260     7.5250   110.3430     0.0070     0.1110     2.4960
  459.0000   -70.2910     5.4360     4.4980     7.5230   109.6820     0.0070     0.1120     2.4930
  459.5000   -70.3980     5.4160     4.4690     7.5220   109.4250     0.0080     0.1130     2.4930
  460.0000   -70.7740     5.3960     4.4410     7.5200   109.1630     0.0080     0.1150     2.4940
  460.5000   -71.2810     5.3760     4.4130     7.5180   108.9040     0.0090     0.1170     2.4940
  461.0000   -71.3820     5.2940     4.3840     7.5170   108.6440     0.0090     0.1180     2.4920
  461.5000   -71.4970     5.1770     4.3340     7.5150   108.3720     0.0100     0.1190     2.4870
  462.0000   -71.6140     5.0590     4.1930     7.5130   108.7810     0.0100     0.1190     2.4830
  462.5000   -71.7320     4.9420     4.0260     7.5120   109.4050     0.0100     0.1190     2.4790
  463.0000   -71.8490     4.8240     3.8590     7.5100   110.9350     0.0110     0.1200     2.4790
  463.5000   -71.9660     4.7060     3.6920     7.5090   113.4440     0.0110     0.1200     2.4800
  464.0000   -72.0820     4.5700     3.5040     7.5070   114.7910     0.0100     0.1270     2.4770
  464.5000   -72.2000     4.4130     3.5090     7.5050   114.4040     0.0100     0.1400     2.4730
  465.0000   -72.2440     4.3000     3.5150     7.5040   112.1440     0.0090     0.1530     2.4620
  465.5000   -72.2440     4.3000     3.5220     7.5020   109.6440     0.0090     0.1600     2.4480
  466.0000   -72.2430     4.3000     3.5280     7.5000   107.7320     0.0090     0.1670     2.4230
  466.5000   -72.2420     4.4500     3.5340     7.4990   108.0950     0.0080     0.1610     2.4060
  467.0000   -72.2510     4.6650     3.5640     7.4970   108.4050     0.0080     0.1480     2.4050
  467.5000   -71.7050     4.8810     3.7770     7.4760   108.7750     0.0070     0.1340     2.4380
  468.0000   -70.8780     5.0960     4.0800     7.3740   110.9630     0.0070     0.1210     2.4660
  468.5000   -70.2240     5.3120     4.3820     7.3890   112.3210     0.0070     0.1130     2.4740
  469.0000   -70.2410     5.4560     4.5700     7.4260   112.3150     0.0070     0.1110     2.4730
  469.5000   -70.2420     5.5350     4.6830     7.4650   111.9870     0.0070     0.1120     2.4740
  470.0000   -70.2320     5.6140     4.7110     7.4980   111.1020     0.0070     0.1140     2.4740
  470.5000   -70.1900     5.7550     4.7400     7.4990   110.9490     0.0070     0.1160     2.4730
  471.0000   -70.1490     5.7750     4.7700     7.5010   113.5340     0.0070     0.1180     2.4750
  471.5000   -70.1090     5.7950     4.7990     7.5020   114.6970     0.0070     0.1190     2.4760
  472.0000   -70.0690     5.8150     4.8290     7.5040   115.0070     0.0070     0.1170     2.4780
  472.5000   -70.0290     5.8350     4.8590     7.5060   114.9150     0.0070     0.1130     2.4880
  473.0000   -69.9890     5.8550     4.8880     7.5070   112.6390     0.0070     0.1090     2.5030
  473.5000   -69.9480     5.8750     4.9180     7.5090   110.6430     0.0070     0.1060     2.5170
  474.0000   -69.9080     5.8950     4.9470     7.5110   110.5240     0.0070     0.1020     2.5210
  474.5000   -69.8680     5.9150     4.9770     7.5130   110.3640     0.0070     0.1000     2.5240
  475.0000   -69.8280     5.9470     5.0060     7.5140   110.3650     0.0070     0.1000     2.5200
  475.5000   -69.7870     5.9410     5.0360     7.5160   111.1220     0.0070     0.1040     2.5100
  476.0000   -69.7470     5.9260     5.0650     7.5160   111.8050     0.0070     0.1050     2.5070
  476.5000   -69.7070     5.9110     5.1000     7.5090   109.1380     0.0070     0.1020     2.5120
  477.0000   -69.6680     5.8950     5.0860     7.5030   108.5180     0.0060     0.1010     2.5160
  477.5000   -69.6600     5.8800     5.0680     7.4970   109.2580     0.0040     0.1010     2.5140
  478.0000   -69.7380     5.8650     5.0510     7.4910   111.6860     0.0030     0.1000     2.5130
  478.5000   -69.8120     5.8500     5.0330     7.4850   114.8740     0.0030     0.1000     2.5140
  479.0000   -69.8870     5.8350     5.0160     7.4780   115.0240     0.0040     0.1000     2.5150
  479.5000   -69.9610     5.8190     4.9980     7.4720   115.0820     0.0040     0.1000     2.5160
  480.0000   -70.0360     5.8040     4.9810     7.4660   115.1420     0.0040     0.1000     2.5170
  480.5000   -70.1100     5.7890     4.9500     7.4600   113.5300     0.0040     0.1000     2.5180
  481.0000   -70.1850     5.7740     4.9040     7.4540   111.2230     0.0050     0.1010     2.5190
  481.5000   -70.2600     5.7590     4.8590     7.4480   110.4640     0.0050     0.1010     2.5190
  482.0000   -70.3370     5.7310     4.8130     7.4420   110.6620     0.0050     0.1020     2.5150
  482.5000   -70.4100     5.6700     4.7670     7.4360   110.8600     0.0050     0.1040     2.5110
  483.0000   -70.7850     5.6090     4.7210     7.4360   111.0640     0.0060     0.1060     2.5070
  483.5000   -71.3890     5.5490     4.6750     7.4350   111.2700     0.0060     0.1080     2.5030
  484.0000   -71.7460     5.4880     4.6190     7.4350   111.4710     0.0060     0.1100     2.4990
  484.5000   -71.9290     5.4270     4.5380     7.4340   111.6530     0.0060     0.1090     2.4990
  485.0000   -72.1130     5.3670     4.4580     7.4340   112.9970     0.0070     0.1080     2.4980
  485.5000   -72.2960     5.3060     4.3770     7.4330   113.8470     0.0070     0.1060     2.4980
  486.0000   -72.4760     5.2140     4.2970     7.4330   115.5930     0.0070     0.1070     2.4980
  486.5000   -72.6610     5.0930     4.2090     7.4320   117.5990     0.0060     0.1120     2.4980
