~VERSION INFORMATION
 VERS.                2.0:   CWLS LOG ASCII STANDARD - VERSION 2.0
 WRAP.                 NO:   ONE LINE PER DEPTH STEP
~WELL INFORMATION
#MNEM.UNIT      DATA TYPE    INFORMATION
#----------   ------------   ------------------------------
 STRT.F            1.0000:   START DEPTH
 STOP.F          755.5000:   STOP DEPTH
 STEP.F            0.5000:   STEP LENGTH
 NULL.          -999.2500:   NO VALUE
 COMP. FENIX & SCISSON INC:   COMPANY
 WELL.       25-SX #25-14:   WELL
 FLD .        TEAPOT DOME:   FIELD
 LOC .      S14 T38N R78W:   LOCATION
 CNTY.            NATRONA:   COUNTY
 STAT.            WYOMING:   STATE
 CTRY. UNITED STATES OF AMERICA:   COUNTRY
 SRVC.           BIRDWELL:   SERVICE COMPANY
 DATE.        29-DEC-1978:   LOGDATE
 API .       490251076000:   API NUMBER
~CURVE INFORMATION
#MNEM.UNIT       API CODE    CURVE DESCRIPTION
#----------   ------------   ------------------------------
 DEPT.F                  :   
 SPR .MV     05 010 01 00:   SPONTANEOUS POTENTIAL FROM RES.
 SN  .OHMM   05 040 16 00:   SHORT NORMAL 16"
 IL  .OHMM   05 120 00 00:   INDUCTION LOG
 CALD.IN     45 280 60 00:   CALIPER
 GRD .GAPI   45 310 01 00:   GAMMA RAY FROM DENSITY LOG
 CORR.G/C3   45 356 01 00:   DENSITY CORRECTION
 DPHI.DEC    45 890 12 00:   DENSITY POROSITY SANDSTONE
 RHOB.G/C3   45 350 01 00:   BULK DENSITY
~PARAMETER INFORMATION
#MNEM.UNIT          VALUE    DESCRIPTION
#----------   ------------   ------------------------------
 PD  .                 GL:   PERMANENT DATUM
 EPD .F              5214:   ELEVATION PERMANENT DATUM
 LMF .                 KB:   LOG MEASURED FROM
 DAPD.F                 4:   FEET ABOVE PERMANENT DATUM
 DMF .                 KB:   DRILLING MEASURED FROM
 EKB .F              5218:   KELLING BUSHING
 EGL .F              5214:   GROUND LEVEL
 DATE.           12-29-79:   RUN DATE
 RUN .                  1:   RUN NUMBER
 DD  .F               765:   DEPTH DRILLER
 DL  .F               747:   DEPTH LOGGER
 BLI .F               740:   BOTTOM LOG INTERVAL
 TLI .F                40:   TOP LOG INTERVAL
 CS  .IN            8.625:   CASING SIZE
 CBD .F                40:   CASING BOTTOM DRILLER
 CBL .F                40:   CASING BOTTOM LOGGER
 BS  .IN            7.875:   BIT SIZE
 BSD .F               765:   BIT SIZE AT DEPTH
 DFT .                KCL:   DRILLING FLUID TYPE
 DFD .                8.8:   DRILLING FLUID DENSITY
 DFV .                 48:   DRILLING FLUID VISCOSITY
 DFPH.                9.2:   DRILLING FLUID PH
 MSS .           FLOWLINE:   MUD SAMPLE SOURCE
 RMS .OHMM            .17:   RESISTIVITY MUD SAMPLE
 MST .F                56:   MUD SAMPLE TEMPERATURE
 RMF .OHMM            .15:   RESISTIVITY MUD FILTRATE SAMPLE
 MFST.F                56:   MUD FILTRATE SAMPLE TEMPERATURE
 RMC .OHMM            .23:   RESISTIVITY MUD CAKE
 MCST.F                64:   MUD CAKE SAMPLE TEMPERATURE
 MFSS.           MEASURED:   MUD FILTRATE SAMPLE SOURCE
 MCSS.           MEASURED:   MUD CAKE SAMPLE SOURCE
 RMB .OHMM            .16:   RESISTIVITY MUD AT BHT
 BHT .F                59:   BOTTOM HOLE TEMPERATURE
 TCS .HRS              12:   TIME CURCULATED STOPPED
 MRT .F                59:   MAXIMUM RECORDED TEMPERATURE
 LUN .               2958:   LOGGING UNIT NUMBER
 LUL .             CASPER:   LOGGING UNIT LOCATION
 ENGI.            ROLLINS:   RECORDING ENGINEER
 WITN.         RICHARDSON:   WITNESSED BY
 CLNT.            A2DTECH:   CLIENT CODE
 ORIG.           5" PRINT:   ORIGIN OF DATA
 UWI .       490251076000:   UNIQUE WELL ID
 DICO. A2D Technologies, Inc.:   DIGITIZING COMPANY
~OTHER INFORMATION
~A    DEPT     SPR         SN         IL       CALD         GRD      CORR       DPHI       RHOB   
# ...
  487.0000   -72.9260     4.9700     4.0740     7.4310   115.1630     0.0060     0.1130     2.4970
  487.5000   -73.3680     4.8420     3.9400     7.4310   111.8380     0.0060     0.1140     2.4920
  488.0000   -74.0420     4.7140     3.8050     7.4300   109.2450     0.0060     0.1190     2.4860
  488.5000   -74.5000     4.5160     3.6150     7.4300   106.8210     0.0050     0.1240     2.4780
  489.0000   -74.9310     4.2960     3.3270     7.4290   106.4740     0.0050     0.1310     2.4710
  489.5000   -75.3500     4.0750     3.0300     7.4280   108.7080     0.0050     0.1370     2.4640
  490.0000   -76.1770     3.8420     2.7420     7.4280   111.9000     0.0040     0.1440     2.4570
  490.5000   -77.0500     3.6000     2.4460     7.4270   114.3940     0.0040     0.1510     2.4490
  491.0000   -77.9300     3.3570     2.1490     7.4270   114.3290     0.0040     0.1630     2.4420
  491.5000   -78.8090     3.1100     1.9800     7.4260   113.7000     0.0040     0.1780     2.4290
  492.0000   -79.6530     2.8410     1.8970     7.4260   110.9200     0.0030     0.1950     2.3960
  492.5000   -80.1170     2.6650     1.8320     7.4250   107.4520     0.0030     0.2180     2.3550
  493.0000   -80.4580     2.5990     1.8420     7.4240   104.9140     0.0030     0.2420     2.3160
  493.5000   -80.4030     2.6390     1.8600     7.4240   104.0720     0.0030     0.2650     2.2760
  494.0000   -80.3570     2.6880     1.9480     7.4230   101.7710     0.0030     0.2730     2.2360
  494.5000   -80.3120     2.7350     2.0470     7.4230    94.8440     0.0030     0.2630     2.1950
  495.0000   -80.2640     2.9430     2.3370     7.4220    91.5470     0.0040     0.2540     2.1860
  495.5000   -79.8230     3.1050     2.6180     7.4220    91.1280     0.0040     0.2360     2.2750
  496.0000   -79.2980     3.4970     2.8980     7.4210    93.6350     0.0040     0.1990     2.3310
  496.5000   -78.6730     3.9470     3.1790     7.4200   109.0400     0.0040     0.1650     2.3870
  497.0000   -78.0460     4.2020     3.4360     7.4200   119.1780     0.0040     0.1380     2.4240
  497.5000   -77.2420     4.4580     3.6260     7.4190   120.7830     0.0040     0.1240     2.4540
  498.0000   -76.3270     4.6430     3.6880     7.4190   117.2350     0.0040     0.1100     2.4770
  498.5000   -75.8570     4.6430     3.6380     7.4180   115.1050     0.0040     0.1080     2.4930
  499.0000   -75.8570     4.6570     3.5990     7.4180   113.8600     0.0050     0.1070     2.4990
  499.5000   -75.8500     4.6830     3.5290     7.4170   113.7740     0.0050     0.1060     2.4990
  500.0000   -75.5620     4.6240     3.4540     7.4160   115.6370     0.0050     0.1070     2.4990
  500.5000   -75.8780     4.5390     3.3800     7.4170   118.5410     0.0050     0.1120     2.4970
  501.0000   -75.8530     4.4530     3.3290     7.4000   120.8960     0.0050     0.1190     2.4900
  501.5000   -75.8500     4.3370     3.3370     7.3780   122.1680     0.0040     0.1260     2.4810
  502.0000   -75.8330     4.3440     3.3430     7.3550   123.7020     0.0040     0.1300     2.4680
  502.5000   -75.7690     4.3590     3.3490     7.3320   124.0580     0.0030     0.1320     2.4550
  503.0000   -75.7050     4.3740     3.3560     7.3170   123.4740     0.0030     0.1330     2.4480
  503.5000   -75.6240     4.4320     3.4190     7.3220   121.3620     0.0030     0.1300     2.4480
  504.0000   -75.4190     4.5440     3.5040     7.3260   116.4570     0.0040     0.1260     2.4540
  504.5000   -75.2130     4.6550     3.5950     7.3310   113.9120     0.0040     0.1230     2.4640
  505.0000   -75.0080     4.7660     3.7400     7.3360   112.8920     0.0040     0.1190     2.4730
  505.5000   -74.8020     4.8770     3.8950     7.3360   114.6190     0.0040     0.1160     2.4790
  506.0000   -74.5960     4.9970     4.0500     7.3360   118.3990     0.0050     0.1120     2.4860
  506.5000   -74.3910     5.1670     4.2060     7.3360   123.8070     0.0050     0.1050     2.4950
  507.0000   -74.1850     5.3120     4.3510     7.3360   125.1500     0.0050     0.1010     2.5030
  507.5000   -73.9800     5.4140     4.3770     7.3360   124.4370     0.0060     0.1020     2.5120
  508.0000   -73.8300     5.4140     4.3980     7.3360   121.2100     0.0140     0.1040     2.5110
  508.5000   -73.7860     5.4140     4.4180     7.3360   118.8930     0.0230     0.1050     2.4910
  509.0000   -73.7400     5.3960     4.4380     7.3360   118.7630     0.0260     0.1050     2.4910
  509.5000   -73.6940     5.3770     4.4590     7.3360   118.5930     0.0280     0.1060     2.4950
  510.0000   -73.6480     5.3570     4.4790     7.3360   119.1130     0.0290     0.1070     2.4980
  510.5000   -73.6030     5.3380     4.4880     7.3360   120.1780     0.0280     0.1080     2.5000
  511.0000   -73.5580     5.3080     4.4560     7.3360   121.2390     0.0230     0.1070     2.5000
  511.5000   -73.5130     5.2310     4.4170     7.3330   122.0750     0.0170     0.1070     2.5010
  512.0000   -73.4660     5.1530     4.3770     7.3280   122.3310     0.0170     0.1060     2.5010
  512.5000   -73.6150     5.0760     4.3380     7.3220   122.5940     0.0180     0.1070     2.5010
  513.0000   -73.8870     5.0030     4.2980     7.3160   123.4170     0.0180     0.1100     2.5000
  513.5000   -74.1600     4.9510     4.2590     7.3110   122.9740     0.0190     0.1120     2.4960
  514.0000   -74.4310     4.8990     4.2060     7.3050   122.5740     0.0170     0.1150     2.4890
  514.5000   -74.6560     4.8460     4.1040     7.3000   122.7780     0.0140     0.1170     2.4810
  515.0000   -74.6530     4.7940     4.0020     7.2960   126.2250     0.0120     0.1200     2.4760
  515.5000   -74.7260     4.7540     3.9000     7.2980   129.6700     0.0100     0.1200     2.4750
  516.0000   -75.0960     4.7320     3.7980     7.2990   130.2680     0.0080     0.1200     2.4770
  516.5000   -75.4460     4.7100     3.7190     7.3000   126.8670     0.0070     0.1230     2.4800
  517.0000   -75.5660     4.6870     3.7500     7.3020   123.5550     0.0080     0.1260     2.4760
  517.5000   -75.6760     4.6650     3.8210     7.3030   120.6710     0.0100     0.1290     2.4690
  518.0000   -75.7870     4.6430     3.8910     7.3040   124.0740     0.0120     0.1300     2.4650
  518.5000   -75.8000     4.7490     3.9620     7.3060   129.1120     0.0130     0.1250     2.4620
  519.0000   -75.6880     4.8460     4.0330     7.3070   130.1710     0.0150     0.1200     2.4670
  519.5000   -75.3800     5.0630     4.1360     7.3080   127.7160     0.0170     0.1170     2.4750
  520.0000   -74.9700     5.3310     4.3370     7.3100   127.4790     0.0180     0.1150     2.4830
  520.5000   -74.5600     5.4410     4.5370     7.3110   127.7990     0.0200     0.1130     2.4870
  521.0000   -74.1510     5.5240     4.7230     7.3120   127.9900     0.0220     0.1110     2.4890
  521.5000   -73.8310     5.6020     4.7230     7.3140   127.0820     0.0240     0.1100     2.4910
  522.0000   -73.7940     5.6770     4.7270     7.3150   126.9860     0.0250     0.1080     2.4960
  522.5000   -73.7510     5.7470     4.7330     7.3130   129.2560     0.0240     0.1060     2.5020
  523.0000   -73.7080     5.7970     4.7390     7.3000   129.8760     0.0230     0.1050     2.5070
  523.5000   -73.6650     5.7850     4.7450     7.2880   129.9850     0.0230     0.1040     2.5090
  524.0000   -73.6220     5.7760     4.7510     7.2760   129.4400     0.0220     0.1020     2.5100
  524.5000   -73.5790     5.7670     4.7570     7.2640   128.2610     0.0210     0.1010     2.5120
  525.0000   -73.5370     5.7580     4.7640     7.2570   127.3950     0.0210     0.1000     2.5140
  525.5000   -73.4930     5.7480     4.7070     7.2630   127.3730     0.0200     0.0990     2.5150
  526.0000   -73.4510     5.7480     4.6040     7.2690   127.3340     0.0100     0.0990     2.5170
  526.5000   -73.5780     5.7480     4.6060     7.2750   127.2890     0.0070     0.0980     2.5180
  527.0000   -73.7210     5.7480     4.6090     7.2800   127.2390     0.0070     0.0970     2.5190
