~VERSION INFORMATION
 VERS.                2.0:   CWLS LOG ASCII STANDARD - VERSION 2.0
 WRAP.                 NO:   ONE LINE PER DEPTH STEP
~WELL INFORMATION
#MNEM.UNIT      DATA TYPE    INFORMATION
#----------   ------------   ------------------------------
 STRT.F            0.0000:   START DEPTH
 STOP.F          596.0000:   STOP DEPTH
 STEP.F            0.1000:   STEP LENGTH
 NULL.          -999.2500:   NO VALUE
 COMP. BROWN JOHN E&C INC:   COMPANY
 WELL.    72-5 SX-3 #72-3:   WELL
 FLD .             TEAPOT:   FIELD
 LOC .       S3 T38N R78W:   LOCATION
 CNTY.            NATRONA:   COUNTY
 STAT.            WYOMING:   STATE
 CTRY. UNITED STATES OF AMERICA:   COUNTRY
 SRVC.      Western Atlas:   SERVICE COMPANY
 DATE.        15-APR-1992:   LOGDATE
 API .       490252250900:   API NUMBER
~CURVE INFORMATION
#MNEM.UNIT       API CODE    CURVE DESCRIPTION
#----------   ------------   ------------------------------
 DEPT.F                  :   
 GRR .GAPI   07 310 01 00:   GAMMA RAY
 RILD.OHMM   07 120 46 00:   INDUCTION LOG DEEP RESISTIVITY
 RILM.OHMM   07 120 44 00:   INDUCTION LOG MEDIUM RESISTIVITY
~PARAMETER INFORMATION
#MNEM.UNIT          VALUE    DESCRIPTION
#----------   ------------   ------------------------------
 PD  .                 GL:   PERMANENT DATUM
 EPD .F              5132:   ELEVATION PERMANENT DATUM
 LMF .                 KB:   LOG MEASURED FROM
 DAPD.F                 5:   FEET ABOVE PERMANENT DATUM
 DMF .                 KB:   DRILLING MEASURED FROM
 EKB .F              5137:   KELLING BUSHING
 EDF .F              5136:   DRILLING FLOOR
 EGL .F              5132:   GROUND LEVEL
 DATE.        15-APR-1992:   RUN DATE
 RUN .                  1:   RUN NUMBER
 DD  .F               605:   DEPTH DRILLER
 DL  .F               599:   DEPTH LOGGER
 BLI .F               596:   BOTTOM LOG INTERVAL
 TLI .F                46:   TOP LOG INTERVAL
 CS  .IN            8.625:   CASING SIZE
 CBD .F                48:   CASING BOTTOM DRILLER
 CBL .F                46:   CASING BOTTOM LOGGER
 BS  .IN            7.875:   BIT SIZE
 BSD .F               605:   BIT SIZE AT DEPTH
 DFT .                AIR:   DRILLING FLUID TYPE
 LUN .            HL-6321:   LOGGING UNIT NUMBER
 LUL .        RK. SPRINGS:   LOGGING UNIT LOCATION
 ENGI.            TRIBBLE:   RECORDING ENGINEER
 WITN.             STRONG:   WITNESSED BY
 CLNT.            A2DTECH:   CLIENT CODE
 ORIG.           5" PRINT:   ORIGIN OF DATA
 UWI .       490252250900:   UNIQUE WELL ID
 DICO. A2D Technologies, Inc.:   DIGITIZING COMPANY
~OTHER INFORMATION
~A    DEPT     GRR       RILD       RILM   
# ...
  327.6000   128.2861     5.7587     5.8996
  327.7000   128.2842     5.8248     5.9670
  327.8000   128.2824     5.8917     6.0352
  327.9000   128.2915     5.9654     6.1136
  328.0000   128.5815     6.0279     6.1741
  328.1000   128.5800     6.0972     6.2447
  328.2000   128.5782     6.1673     6.3009
  328.3000   128.5764     6.2381     6.3366
  328.4000   128.6117     6.3097     6.3734
  328.5000   128.8756     6.3961     6.4445
  328.6000   129.1034     6.4257     6.4902
  328.7000   129.3493     6.4624     6.5469
  328.8000   129.5951     6.5131     6.6100
  328.9000   129.9044     6.5822     6.6443
  329.0000   130.3899     6.6226     6.6439
  329.1000   130.6827     6.6577     6.7094
  329.2000   131.0819     6.6958     6.7613
  329.3000   131.5755     6.7340     6.7996
  329.4000   132.0692     6.7725     6.8307
  329.5000   132.5627     6.8112     6.8302
  329.6000   133.0980     6.8569     6.8679
  329.7000   133.3230     6.8892     6.9068
  329.8000   133.7402     6.9286     6.9460
  329.9000   134.1178     6.9682     6.9854
  330.0000   134.3636     7.0015     7.0250
  330.1000   134.6094     7.0012     7.0705
  330.2000   134.8553     7.0390     7.0701
  330.3000   135.2988     7.0500     7.0697
  330.4000   135.6501     7.0498     7.0861
  330.5000   135.9829     7.0496     7.1186
  330.6000   136.4763     7.0494     7.0685
  330.7000   137.0174     7.0491     7.0682
  330.8000   137.2396     7.0490     7.0678
  330.9000   137.6540     7.0239     7.0674
  331.0000   138.1475     6.9995     7.0548
  331.1000   138.6409     6.9993     7.0174
  331.2000   139.1345     6.9991     7.0170
  331.3000   139.6281     6.9989     7.0166
  331.4000   139.9269     6.9987     7.0162
  331.5000   140.1728     6.9985     7.0158
  331.6000   140.4186     6.9983     7.0154
  331.7000   140.6360     6.9981     7.0150
  331.8000   140.6337     6.9979     7.0147
  331.9000   140.6321     6.9636     6.9846
  332.0000   140.4647     6.9488     6.9651
  332.1000   140.3255     6.9486     6.9647
  332.2000   140.2138     6.9484     6.9643
  332.3000   139.7157     6.9482     6.9638
  332.4000   139.2194     6.9480     6.9297
  332.5000   138.7222     6.9478     6.9147
  332.6000   138.2250     6.9476     6.9143
  332.7000   137.6466     6.9474     6.9066
  332.8000   136.9276     6.9473     6.8654
  332.9000   136.3713     6.9470     6.8273
  333.0000   136.1516     6.9124     6.8169
  333.1000   135.7393     6.8727     6.7964
  333.2000   135.4570     6.8333     6.7573
  333.3000   135.4030     6.7941     6.7184
  333.4000   135.1503     6.7546     6.6740
  333.5000   134.9040     6.7544     6.6413
  333.6000   134.6545     6.7246     6.6269
  333.7000   134.4050     6.6653     6.6112
  333.8000   134.2339     6.6014     6.5731
  333.9000   134.2091     6.5635     6.5339
  334.0000   133.9270     6.5216     6.4622
  334.1000   133.4948     6.4884     6.4425
  334.2000   132.9976     6.4512     6.4232
  334.3000   132.3958     6.4142     6.3863
  334.4000   131.6509     6.3856     6.3470
  334.5000   130.8878     6.3853     6.2636
  334.6000   130.1611     6.3486     6.2633
  334.7000   129.2300     6.2841     6.2406
  334.8000   128.3685     6.2323     6.1905
  334.9000   127.7748     6.2087     6.1261
  335.0000   127.5455     6.2042     6.0894
  335.1000   127.5434     6.1651     6.0559
  335.2000   127.7543     6.1017     6.0210
  335.3000   128.0002     6.0556     5.9690
  335.4000   128.2461     6.0208     5.9008
  335.5000   128.5384     5.9781     5.8334
  335.6000   129.0496     5.9098     5.7566
  335.7000   129.2866     5.8424     5.7286
  335.8000   129.7159     5.7758     5.6555
  335.9000   130.0814     5.6912     5.5844
  336.0000   130.3273     5.5941     5.5410
  336.1000   130.5731     5.4901     5.4424
  336.2000   130.8567     5.3220     5.3830
  336.3000   131.2745     5.2116     5.2995
  336.4000   131.6138     5.1137     5.2092
  336.5000   131.9586     5.0401     5.1120
  336.6000   132.4958     4.9897     4.9979
  336.7000   133.2720     4.9621     4.8995
  336.8000   134.2141     4.9619     4.8757
  336.9000   135.3836     4.9618     4.8649
  337.0000   136.4949     4.9617     4.8646
  337.1000   137.4139     4.9510     4.8644
  337.2000   138.1839     4.9225     4.8641
  337.3000   139.6245     4.8924     4.8638
  337.4000   140.6575     4.8923     4.8635
  337.5000   141.7426     4.8722     4.8633
  337.6000   142.6352     4.8443     4.8630
  337.7000   143.3355     4.8240     4.8645
  337.8000   143.8581     4.8224     4.8965
  337.9000   144.3226     4.7901     4.8963
  338.0000   144.8162     4.7673     4.9134
  338.1000   145.0648     4.7731     4.9412
  338.2000   145.0630     4.8004     4.9692
  338.3000   145.0612     4.8278     4.9988
  338.4000   145.0591     4.8568     4.9985
  338.5000   145.0576     4.8832     5.0191
  338.6000   145.0557     4.9316     5.0476
  338.7000   145.0539     4.9738     5.0762
  338.8000   145.0141     5.0104     5.1050
  338.9000   144.7471     5.0660     5.1386
  339.0000   144.5151     5.0994     5.1880
  339.1000   144.2657     5.1241     5.2473
  339.2000   144.0162     5.1719     5.2953
  339.3000   143.7023     5.2313     5.3306
  339.4000   143.2052     5.2914     5.3945
  339.5000   142.6148     5.3544     5.4532
  339.6000   141.8085     5.3839     5.4926
  339.7000   140.8160     5.4378     5.5398
  339.8000   139.8234     5.5003     5.6031
  339.9000   138.7958     5.5538     5.6652
  340.0000   137.4544     5.5881     5.7025
  340.1000   136.5430     5.6613     5.7296
  340.2000   135.5503     5.6891     5.7825
  340.3000   134.5576     5.7428     5.8486
  340.4000   133.8109     5.8087     5.9096
  340.5000   133.8212     5.8620     5.9449
  340.6000   134.4130     5.8618     6.0094
  340.7000   134.8083     5.9278     6.0529
  340.8000   135.1588     5.9959     6.1048
  340.9000   135.4923     6.0460     6.1746
  341.0000   135.9535     6.0917     6.2430
  341.1000   136.2223     6.1582     6.2843
  341.2000   136.4453     6.1977     6.3443
  341.3000   136.6912     6.2602     6.3944
  341.4000   136.9370     6.3322     6.4306
  341.5000   137.1242     6.3888     6.4733
  341.6000   137.1224     6.4333     6.5514
  341.7000   137.1206     6.5076     6.5865
  341.8000   137.3144     6.5446     6.5966
  341.9000   137.4200     6.5820     6.6151
  342.0000   137.5030     6.6196     6.6526
  342.1000   137.7196     6.6574     6.6903
  342.2000   137.7174     6.6954     6.7347
  342.3000   137.7158     6.7378     6.7344
  342.4000   137.7139     6.7376     6.7575
  342.5000   137.8232     6.7634     6.7808
  342.6000   138.0691     6.7845     6.7868
  342.7000   138.3150     6.7933     6.8275
  342.8000   138.5608     6.8321     6.8640
  342.9000   138.8066     6.8712     6.8746
  343.0000   139.0525     6.9104     6.8938
  343.1000   139.2984     6.9273     6.9220
  343.2000   139.5178     6.9271     6.9237
  343.3000   139.5155     6.9269     6.9697
  343.4000   139.2950     6.9267     6.9693
  343.5000   139.0455     6.9626     6.9690
  343.6000   138.6876     6.9749     6.9839
  343.7000   138.1905     6.9747     7.0171
  343.8000   137.6885     6.9745     7.0166
  343.9000   136.7058     6.9743     7.0162
  344.0000   136.0930     6.9741     7.0158
  344.1000   135.5958     6.9739     7.0154
  344.2000   134.9402     6.9737     7.0150
  344.3000   133.9715     6.9735     7.0147
  344.4000   133.1319     6.9733     7.0142
  344.5000   132.6979     6.9731     6.9808
  344.6000   132.0399     6.9729     6.9647
  344.7000   131.2951     6.9727     6.9643
  344.8000   130.6005     6.9725     6.9639
  344.9000   130.0927     6.9723     6.9635
  345.0000   130.3333     6.9722     6.9631
  345.1000   130.3921     6.9719     6.9627
  345.2000   130.5220     6.9718     6.9623
  345.3000   130.7679     6.9716     6.9620
  345.4000   131.0137     6.9714     6.9616
  345.5000   131.2937     6.9712     6.9611
  345.6000   131.5055     6.9710     6.9608
  345.7000   131.7513     6.9708     6.9365
