~VERSION INFORMATION
 VERS.                2.0:   CWLS LOG ASCII STANDARD - VERSION 2.0
 WRAP.                 NO:   ONE LINE PER DEPTH STEP
~WELL INFORMATION
#MNEM.UNIT      DATA TYPE    INFORMATION
#----------   ------------   ------------------------------
 STRT.F           18.0000:   START DEPTH
 STOP.F          449.0000:   STOP DEPTH
 STEP.F            0.5000:   STEP LENGTH
 NULL.          -999.2500:   NO VALUE
 COMP.   LAWRENCE-ALLISON:   COMPANY
 WELL. NPR 3 #51-46SX10OB4:   WELL
 FLD .             TEAPOT:   FIELD
 LOC .      S10 T38N R78W:   LOCATION
 CNTY.            NATRONA:   COUNTY
 STAT.            WYOMING:   STATE
 CTRY. UNITED STATES OF AMERICA:   COUNTRY
 SRVC.      Dresser Atlas:   SERVICE COMPANY
 DATE.        19-NOV-1984:   LOGDATE
 API .       490251100700:   API NUMBER
~CURVE INFORMATION
#MNEM.UNIT       API CODE    CURVE DESCRIPTION
#----------   ------------   ------------------------------
 DEPT.F                  :   
 AC  .US/F   60 520 00 00:   ACCOUSTIC
 PORD.DEC    45 890 12 00:   POROSITY DENSITY SANDSTONE
 CNC .DEC    42 890 03 00:   NEUTRON POROSITY SANDSTONE
 CALD.IN     45 280 60 00:   CALIPER FROM DENSITY
 CORR.G/C3   45 356 01 00:   DENSITY CORRECTION
 DEN .G/C3   45 350 01 00:   COMPENSATED BULK DENSTIY
 GRD .GAPI   45 310 01 00:   GAMMA RAY FROM DENSITY LOG
~PARAMETER INFORMATION
#MNEM.UNIT          VALUE    DESCRIPTION
#----------   ------------   ------------------------------
 PD  .                 GL:   PERMANENT DATUM
 EPD .F              5163:   ELEVATION PERMANENT DATUM
 LMF .                 GL:   LOG MEASURED FROM
 DMF .                 GL:   DRILLING MEASURED FROM
 EGL .F              5163:   GROUND LEVEL
 DATE.        19-DEC-1984:   RUN DATE
 RUN .                  1:   RUN NUMBER
 DD  .F               450:   DEPTH DRILLER
 DL  .F               451:   DEPTH LOGGER
 BLI .F               449:   BOTTOM LOG INTERVAL
 TLI .F                20:   TOP LOG INTERVAL
 CS  .IN            8.625:   CASING SIZE
 CBD .F                20:   CASING BOTTOM DRILLER
 CBL .F                20:   CASING BOTTOM LOGGER
 BS  .IN             6.25:   BIT SIZE
 BSD .F               450:   BIT SIZE AT DEPTH
 DFT .          KCL WATER:   DRILLING FLUID TYPE
 MSS .            MUDTANK:   MUD SAMPLE SOURCE
 RMS .OHMM          0.146:   RESISTIVITY MUD SAMPLE
 MST .F               100:   MUD SAMPLE TEMPERATURE
 RMF .OHMM          0.110:   RESISTIVITY MUD FILTRATE SAMPLE
 MFST.F               100:   MUD FILTRATE SAMPLE TEMPERATURE
 RMC .OHMM          0.183:   RESISTIVITY MUD CAKE
 MCST.F               100:   MUD CAKE SAMPLE TEMPERATURE
 MFSS.               CALC:   MUD FILTRATE SAMPLE SOURCE
 MCSS.               CALC:   MUD CAKE SAMPLE SOURCE
 TCS .HRS               2:   TIME CURCULATED STOPPED
 MRT .F               100:   MAXIMUM RECORDED TEMPERATURE
 LUN .               6270:   LOGGING UNIT NUMBER
 ENGI.        TOM GAUGHAN:   RECORDING ENGINEER
 WITN.              LUERS:   WITNESSED BY
 CLNT.            A2DTECH:   CLIENT CODE
 ORIG.           5" PRINT:   ORIGIN OF DATA
 UWI .       490251100700:   UNIQUE WELL ID
 DICO. A2D Technologies, Inc.:   DIGITIZING COMPANY
~OTHER INFORMATION
~A   DEPT        AC      PORD        CNC       CALD       CORR        DEN        GRD   
# ...
  291.0000    97.3792     0.1848     0.2533     6.4340     0.0245     2.3670    79.9635
  291.5000    96.9955     0.1809     0.2449     6.4337     0.0290     2.3746    76.9484
  292.0000    96.6905     0.1785     0.2412     6.4484     0.0183     2.3806    78.4514
  292.5000    96.6190     0.1821     0.2458     6.4481    -0.0030     2.3821    82.2135
  293.0000    96.8155     0.1849     0.2561     6.4478    -0.0120     2.3737    84.4696
  293.5000    97.0450     0.1824     0.2618     6.4475    -0.0104     2.3729    82.2075
  294.0000    97.5252     0.1788     0.2594     6.4472     0.0081     2.3797    76.3311
  294.5000    97.6007     0.1782     0.2561     6.4469     0.0260     2.3843    73.6172
  295.0000    97.2642     0.1800     0.2537     6.4466     0.0348     2.3797    72.7114
  295.5000    96.6758     0.1870     0.2474     6.4463     0.0394     2.3683    74.5149
  296.0000    96.1269     0.1937     0.2368     6.4460     0.0370     2.3553    79.9336
  296.5000    95.4298     0.1916     0.2392     6.4307     0.0182     2.3523    83.9968
  297.0000    94.8960     0.1883     0.2435     6.4304    -0.0019     2.3644    84.0753
  297.5000    95.1415     0.1795     0.2475     6.4300    -0.0156     2.3841    81.1294
  298.0000    95.2379     0.1713     0.2433     6.4297    -0.0157     2.3954    79.9036
  298.5000    95.5535     0.1692     0.2323     6.4294    -0.0127     2.3984    82.3282
  299.0000    95.7988     0.1689     0.2223     6.4442     0.0024     2.3992    83.3795
  299.5000    95.9665     0.1683     0.2236     6.4439     0.0129     2.3984    82.6235
  300.0000    96.1321     0.1716     0.2287     6.4444     0.0023     2.3953    80.3614
  300.5000    95.8271     0.1738     0.2369     6.4540     0.0022     2.3914    79.1539
  301.0000    95.2075     0.1741     0.2339     6.4575     0.0157     2.3891    79.9032
  301.5000    95.5315     0.1729     0.2314     6.4568     0.0383     2.3915    81.1050
  302.0000    94.9121     0.1704     0.2372     6.4562     0.0336     2.3944    81.5546
  302.5000    94.2926     0.1705     0.2442     6.4405     0.0259     2.3951    80.7978
  303.0000    93.7518     0.1708     0.2424     6.4399     0.0243     2.3935    79.7406
  303.5000    93.2895     0.1711     0.2387     6.4243     0.0257     2.3935    79.1352
  304.0000    93.0545     0.1717     0.2463     6.4237     0.0181     2.3919    77.0238
  304.5000    93.5443     0.1726     0.2490     6.4231    -0.0062     2.3911    74.9124
  305.0000    93.5538     0.1708     0.2487     6.4225    -0.0124     2.3956    75.3612
  305.5000    93.6419     0.1678     0.2484     6.4219    -0.0109     2.4001    76.5630
  306.0000    93.4155     0.1690     0.2475     6.4213    -0.0049     2.3932    77.6143
  306.5000    93.1101     0.1717     0.2412     6.4207    -0.0006     2.3917    77.1595
  307.0000    92.6482     0.1721     0.2376     6.4201     0.0011     2.3931    77.1335
  307.5000    92.1860     0.1705     0.2412     6.4045     0.0067     2.3992    78.5089
  308.0000    91.9573     0.1639     0.2427     6.4039     0.0097     2.4082    82.1204
  308.5000    91.9691     0.1572     0.2428     6.4033    -0.0056     2.4158    84.6777
  309.0000    92.1358     0.1554     0.2425     6.4027    -0.0178     2.4195    84.9759
  309.5000    92.2239     0.1536     0.2422     6.4021    -0.0194     2.4233    85.1235
  310.0000    92.3120     0.1478     0.2425     6.4035     0.0274     2.4293    85.1305
  310.5000    92.5573     0.1405     0.2446     6.4160     0.0469     2.4399    85.2681
  311.0000    92.8812     0.1412     0.2491     6.4303     0.0453     2.4407    85.2651
  311.5000    92.9693     0.1466     0.2558     6.4447     0.0240     2.4284    85.2354
  312.0000    93.0574     0.1569     0.2643     6.4441    -0.0003     2.4146    83.3006
  312.5000    93.0668     0.1616     0.2764     6.4435    -0.0019     2.4108    83.2976
  313.0000    93.0763     0.1622     0.2749     6.4279     0.0071     2.4093    83.2947
  313.5000    93.0048     0.1603     0.2634     6.4273     0.0327     2.4134    82.0868
  314.0000    92.9380     0.1540     0.2555     6.4267     0.0507     2.4236    79.8248
  314.5000    92.9475     0.1531     0.2525     6.4411     0.0522     2.4205    80.5749
  315.0000    92.7211     0.1585     0.2489     6.4405     0.0414     2.4136    81.7767
  315.5000    92.2879     0.1622     0.2474     6.4249     0.0277     2.4053    82.6773
  316.0000    92.2957     0.1634     0.2510     6.4395     0.0110     2.4082    82.5237
  316.5000    92.0676     0.1619     0.2535     6.3786    -0.0043     2.4135    82.6713
  317.0000    92.0754     0.1589     0.2526     6.3932    -0.0119     2.4180    83.4214
  317.5000    92.0046     0.1559     0.2505     6.4225    -0.0166     2.4240    83.8709
  318.0000    92.0126     0.1492     0.2508     6.4219    -0.0091     2.4293    84.4696
  318.5000    92.0204     0.1440     0.2565     6.4213    -0.0016     2.4391    86.8763
  319.0000    92.0283     0.1416     0.2547     6.4207    -0.0048     2.4421    88.8311
  319.5000    92.0495     0.1401     0.2454     6.4201    -0.0031     2.4444    90.0337
  320.0000    92.3600     0.1392     0.2427     6.4195     0.0107     2.4473    88.0721
  320.5000    92.7609     0.1380     0.2542     6.4189     0.0254     2.4503    86.5631
  321.0000    93.3191     0.1371     0.2621     6.4334     0.0326     2.4526    85.5059
  321.5000    94.3489     0.1362     0.2647     6.4328     0.0416     2.4540    85.3389
  322.0000    96.7938     0.1347     0.2632     6.4171     0.0626     2.4563    87.4578
  322.5000    99.3173     0.1338     0.2598     6.4165     0.0504     2.4562    89.4127
  323.0000   101.2119     0.1371     0.2525     6.4159     0.0292     2.4509    87.8766
  323.5000   102.4776     0.1514     0.2485     6.4304     0.0200     2.4363    82.8368
  324.0000   104.2935     0.1712     0.2566     6.4146     0.0153     2.4073    77.9297
  324.5000   105.0069     0.1903     0.2788     6.4140     0.0137     2.3686    76.5406
  325.0000   104.1519     0.2058     0.2853     6.4134     0.0121     2.3419    74.3372
  325.5000   103.0591     0.2159     0.2804     6.4128     0.0135     2.3118    71.1711
  326.0000    99.7650     0.2235     0.2700     6.4122     0.0255     2.2988    71.6199
  326.5000    96.8640     0.2237     0.2672     6.4116     0.0375     2.3094    72.2193
  327.0000    94.6706     0.2147     0.2648     6.4111     0.0435     2.3215    72.5183
  327.5000    93.8922     0.2061     0.2615     6.4405     0.0206     2.3359    72.9664
  328.0000    95.8654     0.1843     0.2591     6.4702     0.0084     2.3601    71.9092
  328.5000    99.8040     0.1721     0.2573     6.4093     0.0038     2.3851    70.0990
  329.0000   101.3055     0.1682     0.2600     6.3936     0.0052     2.3995    70.9996
  329.5000   101.6278     0.1728     0.2685     6.3780     0.0142     2.3896    73.2557
  330.0000   100.8494     0.1916     0.2830     6.3774     0.0231     2.3607    74.1570
  330.5000   100.0711     0.2007     0.2864     6.3768     0.0200     2.3470    73.5509
  331.0000    99.7644     0.2028     0.2849     6.3913     0.0169     2.3416    73.8491
  331.5000    99.4576     0.2038     0.2821     6.3907     0.0122     2.3393    74.2979
  332.0000    99.1509     0.2035     0.2846     6.3901     0.0106     2.3385    73.3913
  332.5000    99.3947     0.2017     0.2842     6.3895     0.0182     2.3392    71.7317
  333.0000    99.5598     0.2001     0.2788     6.3889     0.0302     2.3415    74.5902
  333.5000    99.7257     0.2005     0.2773     6.3883     0.0360     2.3422    76.3944
  334.0000    99.8113     0.2026     0.2757     6.3877     0.0311     2.3414    76.0902
  334.5000    99.6564     0.2038     0.2709     6.3871     0.0191     2.3390    74.5812
  335.0000    99.4183     0.2063     0.2680     6.3865     0.0069     2.3329    73.3734
  335.5000    98.8711     0.2087     0.2746     6.3859    -0.0038     2.3291    72.4668
  336.0000    96.6099     0.2102     0.2735     6.3701     0.0007     2.3283    71.7108
