~VERSION INFORMATION
 VERS.                2.0:   CWLS LOG ASCII STANDARD - VERSION 2.0
 WRAP.                 NO:   ONE LINE PER DEPTH STEP
~WELL INFORMATION
#MNEM.UNIT      DATA TYPE    INFORMATION
#----------   ------------   ------------------------------
 STRT.F            8.0000:   START DEPTH
 STOP.F          598.0000:   STOP DEPTH
 STEP.F            0.5000:   STEP LENGTH
 NULL.          -999.2500:   NO VALUE
 COMP. FENIX & SCISSON INC:   COMPANY
 WELL.    16-SX-11 #16-11:   WELL
 FLD .             TEAPOT:   FIELD
 LOC .      S11 T38N R78W:   LOCATION
 CNTY.            NATRONA:   COUNTY
 STAT.            WYOMING:   STATE
 CTRY. UNITED STATES OF AMERICA:   COUNTRY
 SRVC.            Unknown:   SERVICE COMPANY
 DATE.        13-DEC-1978:   LOGDATE
 API .       490251078400:   API NUMBER
~CURVE INFORMATION
#MNEM.UNIT       API CODE    CURVE DESCRIPTION
#----------   ------------   ------------------------------
 DEPT.F                  :   
 RHOB.G/C3   45 350 01 00:   BULK DENSITY
 CORR.G/C3   45 356 01 00:   DENSITY CORRECTION
 SN  .OHMM   05 040 16 00:   SHORT NORMAL 16"
 ILD .OHMM   05 120 46 00:   INDUCTION LOG DEEP
 SPR .MV     05 010 01 00:   SPONTANEOUS POTENTIAL FROM RES.
 DPHI.DEC    45 890 12 00:   DENSITY POROSITY SANDSTONE
 CALD.IN     45 280 60 00:   CALIPER
 GRD .GAPI   45 310 01 00:   GAMMA RAY FROM DENSITY LOG
~PARAMETER INFORMATION
#MNEM.UNIT          VALUE    DESCRIPTION
#----------   ------------   ------------------------------
 PD  .                 GL:   PERMANENT DATUM
 EPD .F              5209:   ELEVATION PERMANENT DATUM
 LMF .                 KB:   LOG MEASURED FROM
 DAPD.F                 4:   FEET ABOVE PERMANENT DATUM
 DMF .                 KB:   DRILLING MEASURED FROM
 EKB .F              5213:   KELLING BUSHING
 EGL .F              5209:   GROUND LEVEL
 DATE.           12-13-78:   RUN DATE
 RUN .                  1:   RUN NUMBER
 DD  .F               590:   DEPTH DRILLER
 DL  .F               598:   DEPTH LOGGER
 BLI .F               591:   BOTTOM LOG INTERVAL
 TLI .F                40:   TOP LOG INTERVAL
 CS  .IN            8.625:   CASING SIZE
 CBD .F                40:   CASING BOTTOM DRILLER
 CBL .F                25:   CASING BOTTOM LOGGER
 BS  .IN            7.875:   BIT SIZE
 BSD .F               590:   BIT SIZE AT DEPTH
 DFT .                KCL:   DRILLING FLUID TYPE
 DFD .                8.8:   DRILLING FLUID DENSITY
 DFV .                 37:   DRILLING FLUID VISCOSITY
 DFPH.                8.9:   DRILLING FLUID PH
 MSS .           FLOWLINE:   MUD SAMPLE SOURCE
 RMS .OHMM             .3:   RESISTIVITY MUD SAMPLE
 MST .F                56:   MUD SAMPLE TEMPERATURE
 RMF .OHMM            .26:   RESISTIVITY MUD FILTRATE SAMPLE
 MFST.F                66:   MUD FILTRATE SAMPLE TEMPERATURE
 RMC .OHMM            .24:   RESISTIVITY MUD CAKE
 MCST.F                66:   MUD CAKE SAMPLE TEMPERATURE
 MFSS.           MEASURED:   MUD FILTRATE SAMPLE SOURCE
 MCSS.           MEASURED:   MUD CAKE SAMPLE SOURCE
 RMB .OHMM            .29:   RESISTIVITY MUD AT BHT
 BHT .F                58:   BOTTOM HOLE TEMPERATURE
 TCS .HRS               3:   TIME CURCULATED STOPPED
 MRT .F                58:   MAXIMUM RECORDED TEMPERATURE
 LUN .               2958:   LOGGING UNIT NUMBER
 LUL .             CASPER:   LOGGING UNIT LOCATION
 ENGI.            ROLLINS:   RECORDING ENGINEER
 WITN.         RICHARDSON:   WITNESSED BY
 CLNT.            A2DTECH:   CLIENT CODE
 ORIG.       2", 5" PRINT:   ORIGIN OF DATA
 UWI .       490251078400:   UNIQUE WELL ID
 DICO. A2D Technologies, Inc.:   DIGITIZING COMPANY
~OTHER INFORMATION
~A    DEPT    RHOB       CORR         SN        ILD        SPR       DPHI       CALD         GRD  
# ...
  534.5000     2.3947     0.0332    11.6091    13.6258   -36.8084     0.1768     5.9196    97.9902
  535.0000     2.3924     0.0225    11.5219    13.6258   -36.9645     0.1779     5.9226    93.1458
  535.5000     2.3911     0.0193    11.4354    13.4670   -37.0567     0.1790     5.9256    98.5009
  536.0000     2.3902     0.0188    11.3495    13.3421   -37.0737     0.1800     5.9286    79.5081
  536.5000     2.3927     0.0195    11.2642    13.2461   -37.0913     0.1796     5.9311    82.1246
  537.0000     2.3953     0.0203    11.2123    13.2212   -37.1086     0.1789     5.9243    82.0650
  537.5000     2.3958     0.0211    11.1949    13.1967   -37.1261     0.1783     5.9093    82.0552
  538.0000     2.3954     0.0219    11.1776    13.1722   -37.1435     0.1777     5.8945    82.0608
  538.5000     2.3951     0.0227    11.1602    13.1477   -37.1610     0.1771     5.8796    82.4280
  539.0000     2.3937     0.0235    11.1428    13.1232   -37.1784     0.1820     5.8647    83.5981
  539.5000     2.4059     0.0238    11.1257    13.0987   -37.1959     0.1799     5.8498    84.8167
  540.0000     2.4055     0.0226    11.1177    13.0743   -37.2133     0.1769     5.8346    84.3190
  540.5000     2.4030     0.0220    11.1176    13.0500   -37.2303     0.1739     5.8317    83.2481
  541.0000     2.4042     0.0220    11.1176    13.0257   -37.2421     0.1723     5.8316    82.1506
  541.5000     2.4129     0.0365    11.1176    13.0014   -37.5150     0.1613     7.9500    80.8848
  542.0000     2.4166     0.0385    11.1176    12.9772   -37.8641     0.1597     7.9496    79.6718
  542.5000     2.4239     0.0383    11.1176    12.9531   -38.2151     0.1564     7.9485    80.9382
  543.0000     2.4277     0.0371    11.1176    12.9289   -38.5653     0.1523     7.9471    83.8319
  543.5000     2.4294     0.0360    11.1176    12.9048   -38.9171     0.1516     7.9457    85.0897
  544.0000     2.4295     0.0349    11.1189    12.7706   -39.1652     0.1509     7.9443    84.9832
  544.5000     2.4301     0.0338    11.0910    12.5377   -39.3498     0.1492     7.9429    84.8563
  545.0000     2.4307     0.0327    11.0269    12.5377   -39.4835     0.1488     7.9415    84.7474
  545.5000     2.4288     0.0337    10.9627    12.5377   -39.6115     0.1488     7.9401    83.1288
  546.0000     2.4255     0.0351    10.8990    12.4698   -39.7385     0.1500     7.9387    80.8923
  546.5000     2.4221     0.0365    10.8357    12.3167   -39.8650     0.1529     7.9373    80.6250
  547.0000     2.4212     0.0387    10.7727    12.1641   -39.9915     0.1556     7.9359    80.5775
  547.5000     2.4311     0.0527    10.7101    12.0747   -40.1180     0.1533     7.9345    81.2886
  548.0000     2.4430     0.0666    10.6479    12.0576   -40.2442     0.1485     7.9331    84.1158
  548.5000     2.4548     0.0799    10.6074    12.0406   -40.3711     0.1388     7.9317    87.0356
  549.0000     2.4639     0.0727    10.5907    12.0237   -40.5027     0.1237     7.9303    89.7474
  549.5000     2.4678     0.0606    10.5740    12.0067   -40.6688     0.1188     7.9289    90.1889
  550.0000     2.4682     0.0456    10.5574    11.9897   -40.8304     0.1216     7.9275    87.2919
  550.5000     2.4579     0.0300    10.5408    11.9718   -40.9918     0.1309     7.9261    87.3414
  551.0000     2.4439     0.0197    10.5242    11.9461   -41.1508     0.1392     7.9248    88.4400
  551.5000     2.4334     0.0190    10.5077    11.9186   -41.2680     0.1424     7.9234    89.4996
  552.0000     2.4318     0.0196    10.4911    11.8910   -41.3393     0.1416     7.9220    90.5614
  552.5000     2.4328     0.0202    10.4746    11.8634   -41.5951     0.1408     7.9206    88.6027
  553.0000     2.4329     0.0208    10.4582    11.8360   -41.8466     0.1400     7.9192    86.0773
  553.5000     2.4338     0.0214    10.4418    11.8085   -42.0747     0.1384     7.9178    83.5896
  554.0000     2.4430     0.0220    10.4214    11.7812   -42.0694     0.1339     7.9164    83.2344
  554.5000     2.4529     0.0220    10.4376    11.7519   -42.0790     0.1290     7.9150    84.8606
  555.0000     2.4627     0.0206    10.4614    11.6728   -42.1141     0.1240     7.9136    86.4397
  555.5000     2.4715     0.0204    10.4850    11.5877   -42.1488     0.1203     7.9122    88.0188
  556.0000     2.4729     0.0132    10.5087    11.5036   -42.1834     0.1197     7.9108    89.5945
  556.5000     2.4628     0.0053    10.5325    11.4247   -42.2183     0.1285     7.9100    91.1615
  557.0000     2.4445    -0.0024    10.5564    11.3876   -42.2525     0.1398     7.9100    91.5184
  557.5000     2.4265    -0.0074    10.5803    11.3499   -42.4167     0.1488     7.9100    90.5391
  558.0000     2.4194    -0.0078    10.6152    11.2701   -42.6872     0.1519     7.9100    89.5948
  558.5000     2.4168    -0.0036    10.5423    11.1090   -42.8375     0.1550     7.9100    88.6457
  559.0000     2.4173     0.0004    10.4070    10.9501   -42.7212     0.1577     7.9100    87.6955
  559.5000     2.4229     0.0044    10.2738    10.7934   -42.6063     0.1573     7.9100    86.7393
  560.0000     2.4344     0.0085    10.1423    10.6390   -42.4792     0.1522     7.9100    85.7368
  560.5000     2.4458     0.0124    10.0125    10.4868   -42.9029     0.1399     7.9113    86.8764
  561.0000     2.4517     0.0105     9.8844    10.3368   -43.3374     0.1364     7.9131    88.2012
  561.5000     2.4481     0.0090     9.7580    10.1890   -43.7798     0.1354     7.9150    89.5275
  562.0000     2.4447     0.0110     9.6332    10.0433   -44.0654     0.1382     7.9168    90.2975
  562.5000     2.4419     0.0119     9.5099     9.8996   -44.3165     0.1423     7.9187    90.9352
  563.0000     2.4426     0.0128     9.3883     9.7580   -44.5390     0.1432     7.9205    90.3110
  563.5000     2.4453     0.0136     9.2682     9.6185   -44.9717     0.1428     7.9223    89.6167
  564.0000     2.4483     0.0145     9.1887     9.4809   -45.7963     0.1397     7.9242    89.4020
  564.5000     2.4556     0.0127     9.1217     9.3453   -46.6129     0.1351     7.9260    86.9012
  565.0000     2.4630     0.0090     9.0552     9.2116   -47.3606     0.1304     7.9278    86.1383
  565.5000     2.4567     0.0053     8.9875     8.7626   -47.6837     0.1268     7.9297    87.9630
  566.0000     2.4478     0.0027     8.6410     8.1186   -48.0172     0.1348     7.9315    90.2273
  566.5000     2.4390     0.0035     8.2996     7.5219   -48.4846     0.1445     7.9334    92.4769
  567.0000     2.4367     0.0045     7.9718     6.9532   -48.9892     0.1469     7.9352    94.7680
  567.5000     2.4433     0.0039     7.6569     6.3621   -49.4880     0.1436     7.9370    95.2432
  568.0000     2.4497     0.0029     7.2717     5.7129   -49.7461     0.1397     7.9389    92.1301
  568.5000     2.4495     0.0008     6.7833     5.7338   -49.9056     0.1356     7.9407    90.2353
  569.0000     2.4329    -0.0010     6.3278     5.7604   -49.9128     0.1345     7.9425    96.0740
  569.5000     2.4181     0.0008     5.9028     5.8195   -49.9228     0.1475     7.9444    95.9078
  570.0000     2.4160     0.0015     5.6603     6.0700   -49.9324     0.1565     7.9462    96.1441
  570.5000     2.3995     0.0022     5.8736     6.4002   -49.9421     0.1655     7.9481    97.2769
  571.0000     2.3827     0.0079     6.2903     6.7475   -49.9518     0.1707     7.9499   100.7162
  571.5000     2.3778     0.0219     6.7746     7.2284   -49.9614     0.1772     7.9517   101.0884
  572.0000     2.3761     0.0355     7.2965     7.8756   -49.9711     0.1845     7.9536   105.2219
  572.5000     2.4133     0.0408     7.8581     8.5807   -49.9808     0.1784     7.9554   111.7779
  573.0000     2.4522     0.0359     8.4630     9.3489   -49.9905     0.1594     7.9572   118.3818
  573.5000     2.4808     0.0316     8.9108     9.7266   -50.0001     0.1293     7.9591   120.5993
  574.0000     2.4849     0.0272     9.2403     9.9524   -50.0098     0.1140     7.9609   121.1713
  574.5000     2.4858     0.0227     9.3262     9.9518   -50.0195     0.1132     7.9627   111.4167
