~VERSION INFORMATION
 VERS.                2.0:   CWLS LOG ASCII STANDARD - VERSION 2.0
 WRAP.                 NO:   ONE LINE PER DEPTH STEP
~WELL INFORMATION
#MNEM.UNIT      DATA TYPE    INFORMATION
#----------   ------------   ------------------------------
 STRT.F          717.0000:   START DEPTH
 STOP.F         2448.0000:   STOP DEPTH
 STEP.F            0.5000:   STEP LENGTH
 NULL.          -999.2500:   NO VALUE
 COMP.   FLUOR DANIEL INC:   COMPANY
 WELL. NAVAL PETROLEUM RESERVE 3X27 #34-27:   WELL
 FLD .             TEAPOT:   FIELD
 LOC .      S27 T39N R78W:   LOCATION
 CNTY.            NATRONA:   COUNTY
 STAT.            WYOMING:   STATE
 CTRY. UNITED STATES OF AMERICA:   COUNTRY
 SRVC.            Unknown:   SERVICE COMPANY
 DATE.        17-MAY-1996:   LOGDATE
 API .       490252279300:   API NUMBER
~CURVE INFORMATION
#MNEM.UNIT       API CODE    CURVE DESCRIPTION
#----------   ------------   ------------------------------
 DEPT.F                  :   
 TGAS.TC/CC  91 830 01 00:   TOTAL GAS UNIT
 ROP .FT/HR  91 810 01 00:   RAT OF DRILLING PENETRATION
~PARAMETER INFORMATION
#MNEM.UNIT          VALUE    DESCRIPTION
#----------   ------------   ------------------------------
 EPD .F              5039:   ELEVATION PERMANENT DATUM
 EKB .F              5049:   KELLING BUSHING
 EGL .F              5039:   GROUND LEVEL
 DATE.        17-MAY-1996:   RUN DATE
 RUN .                  1:   RUN NUMBER
 ENGI.     R.HUSK/C.TOWER:   RECORDING ENGINEER
 CLNT.            A2DTECH:   CLIENT CODE
 ORIG.           5" PRINT:   ORIGIN OF DATA
 UWI .       490252279300:   UNIQUE WELL ID
 DICO. A2D Technologies, Inc.:   DIGITIZING COMPANY
~OTHER INFORMATION
~A   DEPT       TGAS        ROP 
# ...
 2175.0000     2.0533     0.7801
 2175.5000     2.0497     0.7799
 2176.0000     2.0460     0.7797
 2176.5000     2.0424     0.7795
 2177.0000     2.0387     0.7793
 2177.5000     2.0351     0.7791
 2178.0000     2.0314     0.7789
 2178.5000     1.8410     0.7788
 2179.0000     1.8373     0.7786
 2179.5000     1.8336     0.7784
 2180.0000     3.1362     1.0038
 2180.5000     7.6139     0.9941
 2181.0000    10.5978     1.0034
 2181.5000    13.2082     1.0032
 2182.0000    14.6993     1.1158
 2182.5000     7.4125     1.1156
 2183.0000     7.2222     1.1060
 2183.5000     6.8451     1.1055
 2184.0000     5.7211     0.7767
 2184.5000     4.4104     0.7765
 2185.0000     3.4730     0.7763
 2185.5000     3.0672     0.7761
 2186.0000     2.7180     0.7759
 2186.5000     2.7143     0.7757
 2187.0000     2.7107     0.7756
 2187.5000     2.8946     0.7754
 2188.0000     3.0777     0.5214
 2188.5000     3.0731     0.5212
 2189.0000     3.2571     0.5305
 2189.5000     3.2526     0.5302
 2190.0000     3.2489     0.5301
 2190.5000     3.2452     0.5299
 2191.0000     3.2415     0.5297
 2191.5000     3.2370     0.5389
 2192.0000     3.4210     0.5387
 2192.5000     3.4164     0.5479
 2193.0000     3.6004     0.5477
 2193.5000     3.7835     0.5475
 2194.0000     3.7789     0.5473
 2194.5000     3.7753     0.5472
 2195.0000     3.7716     0.5470
 2195.5000     3.5812     0.5468
 2196.0000     3.5776     1.1482
 2196.5000     3.5739     1.1479
 2197.0000     3.5701     1.1477
 2197.5000     3.5657     1.1038
 2198.0000     3.7488     0.7714
 2198.5000     3.5593     0.7712
 2199.0000     3.5547     0.7710
 2199.5000     3.7387     0.7708
 2200.0000     3.7341     0.7707
 2200.5000     3.7305     0.7705
 2201.0000     3.9135     0.7703
 2201.5000     4.0967     0.7701
 2202.0000     4.0929     0.7699
 2202.5000     4.4627     0.7697
 2203.0000     4.8316     0.7695
 2203.5000     4.8280     0.9761
 2204.0000     4.8168     1.0229
 2204.5000     4.7205     1.0227
 2205.0000     4.6242     1.0225
 2205.5000     4.5280     0.9942
 2206.0000     4.4589     0.9094
 2206.5000     4.4567     0.9186
 2207.0000     4.4549     0.9184
 2207.5000     4.4530     0.9558
 2208.0000     4.4512     0.7770
 2208.5000     4.4494     0.7863
 2209.0000     4.4475     0.7861
 2209.5000     4.4457     0.7859
 2210.0000     4.4439     0.7857
 2210.5000     4.2553     0.7855
 2211.0000     4.2535     0.7853
 2211.5000     4.2516     0.7946
 2212.0000     4.2498     0.9166
 2212.5000     4.2479     0.9163
 2213.0000     4.2461     0.9161
 2213.5000     4.2438     0.9160
 2214.0000     4.2420     0.8406
 2214.5000     4.2402     0.8216
 2215.0000     4.2383     0.8214
 2215.5000     4.2365     0.8212
 2216.0000     4.2347     0.8210
 2216.5000     4.2328     0.8208
 2217.0000     4.2310     0.8301
 2217.5000     4.2292     0.8299
 2218.0000     4.2273     0.8297
 2218.5000     4.0388     0.8295
 2219.0000     3.8502     0.8293
 2219.5000     3.4749     0.8291
 2220.0000     3.4730     0.6967
 2220.5000     3.2841     0.6502
 2221.0000     3.2822     0.6500
 2221.5000     3.4676     0.6498
 2222.0000     3.4653     0.6496
 2222.5000     3.4635     0.6494
 2223.0000     3.4616     0.6492
 2223.5000     3.4598     0.6491
 2224.0000     3.4580     0.6489
 2224.5000     3.6433     0.6487
 2225.0000     3.4543     0.6485
 2225.5000     3.4524     0.6483
 2226.0000     3.4506     0.9113
 2226.5000     3.4488     0.8923
 2227.0000     3.4469     0.9203
 2227.5000     3.4450     0.9201
 2228.0000     3.2561     0.9199
 2228.5000     3.0675     0.9197
 2229.0000     3.0657     0.9195
 2229.5000     3.0639     0.9194
 2230.0000     3.0620     1.0319
 2230.5000     3.2469     1.0600
 2231.0000     3.4318     1.0504
 2231.5000     3.2432     1.0502
 2232.0000     3.2414     1.0500
 2232.5000     3.4263     1.0498
 2233.0000     3.4245     1.0402
 2233.5000     3.4226     1.0306
 2234.0000     3.4207     1.0304
 2234.5000     3.4189     1.0302
 2235.0000     3.4167     1.0395
 2235.5000     3.4148     1.0393
 2236.0000     3.4130     1.0297
 2236.5000     3.4112     0.9731
 2237.0000     3.4093     0.9353
 2237.5000     3.4075     0.9461
 2238.0000     3.4057     0.9538
 2238.5000     3.4038     0.9535
 2239.0000     3.4020     0.9440
 2239.5000     3.4001     0.9344
 2240.0000     3.3983     0.7180
 2240.5000     3.3965     0.7084
 2241.0000     3.3946     0.7177
 2241.5000     3.3927     0.7269
 2242.0000     3.3905     0.7173
 2242.5000     3.3887     0.9709
 2243.0000     3.3868     0.9613
 2243.5000     3.3850     0.9517
 2244.0000     3.3832     0.9515
 2244.5000     3.3813     0.9419
 2245.0000     3.3795     0.9417
 2245.5000     3.3777     0.9510
 2246.0000     3.3758     0.9507
 2246.5000     3.3740     0.9412
 2247.0000     3.3722     0.9504
 2247.5000     3.3703     0.9502
 2248.0000     3.3685     0.9500
 2248.5000     3.3666     0.9498
 2249.0000     3.3644     0.9496
 2249.5000     3.3625     0.9494
 2250.0000     3.3607     0.6297
 2250.5000     3.3589     0.6107
 2251.0000     3.3570     0.6105
 2251.5000     2.9817     0.6103
 2252.0000     2.9799     0.6101
 2252.5000     2.9781     0.6100
 2253.0000     2.9762     0.6098
 2253.5000     2.9744     0.6096
 2254.0000     2.9726     0.6094
 2254.5000     2.9707     0.6092
 2255.0000     2.9689     0.6090
 2255.5000     2.9670     0.6088
 2256.0000     2.9651     0.6086
 2256.5000     2.9888     0.6084
 2257.0000     3.0702     0.6082
 2257.5000     3.1517     0.6081
 2258.0000     3.2044     0.6079
 2258.5000     3.2062     0.6077
 2259.0000     3.0209     0.6075
 2259.5000     3.0231     0.6073
 2260.0000     3.0250     0.7669
 2260.5000     3.0268     0.7573
 2261.0000     3.0286     0.7666
 2261.5000     3.0305     0.7569
 2262.0000     3.0327     0.7662
 2262.5000     3.0345     0.7566
 2263.0000     3.2226     0.7564
 2263.5000     3.0377     0.7562
 2264.0000     3.0400     1.6301
 2264.5000     3.0418     1.6299
 2265.0000     3.0437     1.6297
 2265.5000     3.0455     1.6295
 2266.0000     3.0473     1.6387
 2266.5000     3.0492     1.1498
 2267.0000     3.0510     1.1590
 2267.5000     3.0532     1.1494
 2268.0000     3.0551     0.9894
 2268.5000     3.0569     0.7731
 2269.0000     3.2454     0.7729
 2269.5000     3.2473     0.7822
 2270.0000     3.4358     0.7819
 2270.5000     3.4376     0.7818
 2271.0000     3.4395     0.7910
 2271.5000     3.4413     0.7908
 2272.0000     3.4432     0.7906
 2272.5000     3.4454     0.7810
 2273.0000     3.4472     0.7714
 2273.5000     3.4490     0.7806
 2274.0000     3.4509     0.9590
 2274.5000     3.4527     0.9588
 2275.0000     3.4545     0.9586
 2275.5000     3.4563     0.9584
 2276.0000     3.6449     1.1086
 2276.5000     3.6467     1.1273
 2277.0000     3.6485     1.1271
 2277.5000     3.6504     1.1269
 2278.0000     3.6526     1.9255
 2278.5000     3.6545     1.9347
 2279.0000     3.6563     1.9346
 2279.5000     3.6581     1.9344
 2280.0000     3.6599     1.2763
 2280.5000     3.6618     1.2668
 2281.0000     3.6636     1.2760
 2281.5000     3.6654     1.2663
 2282.0000     3.6672     0.6553
 2282.5000     3.4823     0.6457
 2283.0000     3.4842     0.6361
 2283.5000     3.4864     0.6359
 2284.0000     3.4883     0.6263
 2284.5000     3.4901     0.6167
 2285.0000     3.4919     0.6260
 2285.5000     3.4937     0.6257
 2286.0000     3.4956     0.6161
 2286.5000     3.4974     0.6160
 2287.0000     3.4992     0.6158
 2287.5000     3.5010     0.6156
 2288.0000     3.5029     0.6154
 2288.5000     3.5051     0.6152
 2289.0000     3.5070     0.6150
 2289.5000     3.5088     0.6243
 2290.0000     3.5106     0.6240
 2290.5000     3.5124     0.6238
 2291.0000     3.5143     0.6237
 2291.5000     3.5161     0.6329
 2292.0000     3.5179     0.9993
 2292.5000     3.5197     0.9990
 2293.0000     3.5216     0.9989
 2293.5000     3.5234     0.9987
 2294.0000     3.5257     0.9282
 2294.5000     3.3403     0.8062
 2295.0000     2.9687     0.8158
 2295.5000     2.9710     0.8160
 2296.0000     2.9728     0.8162
