~VERSION INFORMATION
 VERS.                2.0:   CWLS LOG ASCII STANDARD - VERSION 2.0
 WRAP.                 NO:   ONE LINE PER DEPTH STEP
~WELL INFORMATION
#MNEM.UNIT      DATA TYPE    INFORMATION
#----------   ------------   ------------------------------
 STRT.F            8.0000:   START DEPTH
 STOP.F          598.0000:   STOP DEPTH
 STEP.F            0.5000:   STEP LENGTH
 NULL.          -999.2500:   NO VALUE
 COMP. FENIX & SCISSON INC:   COMPANY
 WELL.    16-SX-11 #16-11:   WELL
 FLD .             TEAPOT:   FIELD
 LOC .      S11 T38N R78W:   LOCATION
 CNTY.            NATRONA:   COUNTY
 STAT.            WYOMING:   STATE
 CTRY. UNITED STATES OF AMERICA:   COUNTRY
 SRVC.            Unknown:   SERVICE COMPANY
 DATE.        13-DEC-1978:   LOGDATE
 API .       490251078400:   API NUMBER
~CURVE INFORMATION
#MNEM.UNIT       API CODE    CURVE DESCRIPTION
#----------   ------------   ------------------------------
 DEPT.F                  :   
 RHOB.G/C3   45 350 01 00:   BULK DENSITY
 CORR.G/C3   45 356 01 00:   DENSITY CORRECTION
 SN  .OHMM   05 040 16 00:   SHORT NORMAL 16"
 ILD .OHMM   05 120 46 00:   INDUCTION LOG DEEP
 SPR .MV     05 010 01 00:   SPONTANEOUS POTENTIAL FROM RES.
 DPHI.DEC    45 890 12 00:   DENSITY POROSITY SANDSTONE
 CALD.IN     45 280 60 00:   CALIPER
 GRD .GAPI   45 310 01 00:   GAMMA RAY FROM DENSITY LOG
~PARAMETER INFORMATION
#MNEM.UNIT          VALUE    DESCRIPTION
#----------   ------------   ------------------------------
 PD  .                 GL:   PERMANENT DATUM
 EPD .F              5209:   ELEVATION PERMANENT DATUM
 LMF .                 KB:   LOG MEASURED FROM
 DAPD.F                 4:   FEET ABOVE PERMANENT DATUM
 DMF .                 KB:   DRILLING MEASURED FROM
 EKB .F              5213:   KELLING BUSHING
 EGL .F              5209:   GROUND LEVEL
 DATE.           12-13-78:   RUN DATE
 RUN .                  1:   RUN NUMBER
 DD  .F               590:   DEPTH DRILLER
 DL  .F               598:   DEPTH LOGGER
 BLI .F               591:   BOTTOM LOG INTERVAL
 TLI .F                40:   TOP LOG INTERVAL
 CS  .IN            8.625:   CASING SIZE
 CBD .F                40:   CASING BOTTOM DRILLER
 CBL .F                25:   CASING BOTTOM LOGGER
 BS  .IN            7.875:   BIT SIZE
 BSD .F               590:   BIT SIZE AT DEPTH
 DFT .                KCL:   DRILLING FLUID TYPE
 DFD .                8.8:   DRILLING FLUID DENSITY
 DFV .                 37:   DRILLING FLUID VISCOSITY
 DFPH.                8.9:   DRILLING FLUID PH
 MSS .           FLOWLINE:   MUD SAMPLE SOURCE
 RMS .OHMM             .3:   RESISTIVITY MUD SAMPLE
 MST .F                56:   MUD SAMPLE TEMPERATURE
 RMF .OHMM            .26:   RESISTIVITY MUD FILTRATE SAMPLE
 MFST.F                66:   MUD FILTRATE SAMPLE TEMPERATURE
 RMC .OHMM            .24:   RESISTIVITY MUD CAKE
 MCST.F                66:   MUD CAKE SAMPLE TEMPERATURE
 MFSS.           MEASURED:   MUD FILTRATE SAMPLE SOURCE
 MCSS.           MEASURED:   MUD CAKE SAMPLE SOURCE
 RMB .OHMM            .29:   RESISTIVITY MUD AT BHT
 BHT .F                58:   BOTTOM HOLE TEMPERATURE
 TCS .HRS               3:   TIME CURCULATED STOPPED
 MRT .F                58:   MAXIMUM RECORDED TEMPERATURE
 LUN .               2958:   LOGGING UNIT NUMBER
 LUL .             CASPER:   LOGGING UNIT LOCATION
 ENGI.            ROLLINS:   RECORDING ENGINEER
 WITN.         RICHARDSON:   WITNESSED BY
 CLNT.            A2DTECH:   CLIENT CODE
 ORIG.       2", 5" PRINT:   ORIGIN OF DATA
 UWI .       490251078400:   UNIQUE WELL ID
 DICO. A2D Technologies, Inc.:   DIGITIZING COMPANY
~OTHER INFORMATION
~A    DEPT    RHOB       CORR         SN        ILD        SPR       DPHI       CALD         GRD  
# ...
  129.5000     2.4766     0.0142     8.9581     8.3976    -1.7025     0.1370     7.9323   109.4240
  130.0000     2.4765     0.0160     9.0011     8.4466    -1.6411     0.1337     7.9243   104.0103
  130.5000     2.4733     0.0150     9.0443     8.4959    -1.5798     0.1344     7.9446   102.8972
  131.0000     2.4724     0.0130     9.0877     8.5454    -1.5184     0.1367     7.9683   105.4649
  131.5000     2.4785     0.0110     9.1313     8.5952    -1.4571     0.1356     7.9921   106.7996
  132.0000     2.4799     0.0090     9.1752     8.6454    -1.3958     0.1320     8.0161   106.8643
  132.5000     2.4759     0.0070     9.2192     8.6958    -1.3344     0.1302     8.0228   104.6000
  133.0000     2.4780     0.0050     9.2634     8.7465    -1.2731     0.1300     8.0230   103.0305
  133.5000     2.4773     0.0047     9.3079     8.7975    -1.2117     0.1325     8.0229   103.5912
  134.0000     2.4742     0.0061     9.3526     8.8488    -1.1505     0.1355     8.0229   104.2704
  134.5000     2.4804     0.0074     9.3975     8.9048    -1.0991     0.1313     8.0229   109.3553
  135.0000     2.4869     0.0088     9.4426     9.0282    -1.0795     0.1271     8.0229   110.4554
  135.5000     2.4870     0.0099     9.4879     9.1651    -1.0597     0.1243     8.0229   109.4836
  136.0000     2.4835     0.0089     9.6773     9.3041    -1.0399     0.1239     7.9997   108.4003
  136.5000     2.4741     0.0079     9.9260     9.4451    -1.0201     0.1291     7.9532   107.4253
  137.0000     2.4662     0.0069    10.0591     9.5883    -1.0002     0.1362     7.9067   109.1024
  137.5000     2.4627     0.0060    10.0848     9.7337    -0.9804     0.1389     7.8829   112.0442
  138.0000     2.4521     0.0067    10.1124     9.8654    -0.9605     0.1416     7.9105   114.9345
  138.5000     2.4534     0.0129    10.1432     9.9114    -0.9406     0.1475     7.9486   115.3296
  139.0000     2.4713     0.0158    10.1905     9.9576    -0.9208     0.1413     7.9833   106.8804
  139.5000     2.4780     0.0152    10.2380    10.0040    -0.9026     0.1339     7.9879   105.2221
  140.0000     2.4791     0.0147    10.2857    10.0507    -0.9277     0.1302     7.9920   105.3265
  140.5000     2.4781     0.0142    10.3337    10.0976    -0.9604     0.1323     7.9962   105.1372
  141.0000     2.4771     0.0144    10.3819    10.1359    -0.9933     0.1347     8.0005   104.1036
  141.5000     2.4773     0.0150    10.4205    10.1046    -1.0261     0.1348     8.0047   104.5169
  142.0000     2.4806     0.0156    10.3955    10.0732    -1.0589     0.1341     8.0089   107.9848
  142.5000     2.4834     0.0160    10.3746    10.0420    -1.0917     0.1274     8.0132   108.0475
  143.0000     2.4794     0.0160    10.3536    10.0109    -1.1245     0.1277     8.0174   106.1981
  143.5000     2.4749     0.0160    10.3326     9.9799    -1.1573     0.1297     8.0223   103.8688
  144.0000     2.4757     0.0186    10.3118     9.9490    -1.1901     0.1317     7.9922   101.9474
  144.5000     2.4739     0.0200    10.2909     9.9182    -1.2228     0.1325     7.9489   101.0925
  145.0000     2.4711     0.0200    10.2701     9.8875    -1.2557     0.1333     7.9053   101.2754
  145.5000     2.4706     0.0191    10.2494     9.8569    -1.2884     0.1340     7.9211   102.1764
  146.0000     2.4651     0.0172    10.2298     9.8264    -1.3212     0.1354     7.9952   102.6195
  146.5000     2.4575     0.0154    10.2080     9.7959    -1.3540     0.1425     8.0032   102.0181
  147.0000     2.4553     0.0157    10.1874     9.7656    -1.3868     0.1454     8.0035   101.4413
  147.5000     2.4553     0.0214    10.1669     9.7354    -1.4196     0.1464     8.0046   101.9328
  148.0000     2.4564     0.0227    10.1463     9.7052    -1.4524     0.1466     8.0058   104.9189
  148.5000     2.4578     0.0233    10.1258     9.6776    -1.4852     0.1453     8.0070   106.4435
  149.0000     2.4622     0.0240    10.1054     9.6404    -1.5180     0.1441     8.0083   105.8513
  149.5000     2.4676     0.0279    10.0850     9.6062    -1.5508     0.1418     8.0095   105.0306
  150.0000     2.4760     0.0365    10.0646     9.5720    -1.5836     0.1384     8.0107   104.2160
  150.5000     2.4874     0.0479    10.0442     9.5380    -1.6164     0.1312     8.0120   103.7255
  151.0000     2.4973     0.0467     9.9984     9.5041    -1.6492     0.1203     8.0132   104.1444
  151.5000     2.4961     0.0391     9.9499     9.4703    -1.6820     0.1179     8.0144   103.6445
  152.0000     2.4884     0.0291     9.9016     9.4367    -1.7148     0.1226     8.0157   102.8309
  152.5000     2.4784     0.0239     9.8535     9.4031    -1.7476     0.1320     8.0169   103.3981
  153.0000     2.4734     0.0235     9.8056     9.3697    -1.7804     0.1365     8.0181   105.5169
  153.5000     2.4752     0.0231     9.7580     9.3364    -1.8132     0.1360     8.0194   107.4628
  154.0000     2.4788     0.0227     9.7107     9.3033    -1.8458     0.1351     8.0207   108.9713
  154.5000     2.4824     0.0223     9.6635     9.2702    -1.8785     0.1311     8.0219   108.7084
  155.0000     2.4839     0.0220     9.6166     9.2372    -1.9240     0.1280     8.0180   108.4455
  155.5000     2.4839     0.0220     9.5699     9.2044    -2.0526     0.1270     7.9782   108.4817
  156.0000     2.4819     0.0221     9.5234     9.1717    -2.1827     0.1282     7.9467   112.4668
  156.5000     2.4799     0.0220     9.4711     9.1391    -2.3126     0.1304     7.9851   114.0671
  157.0000     2.4812     0.0221     9.4128     9.1066    -2.4426     0.1312     8.0005   115.3212
  157.5000     2.4837     0.0199     9.3550     9.0743    -2.5733     0.1286     7.9969   114.5605
  158.0000     2.4855     0.0156     9.2975     8.9958    -2.7049     0.1260     7.9929   112.4417
  158.5000     2.4819     0.0113     9.2403     8.9130    -2.6877     0.1250     7.9889   111.2839
  159.0000     2.4749     0.0100     9.1836     8.8310    -2.6420     0.1307     7.9849   110.9327
  159.5000     2.4711     0.0101     9.0710     8.7497    -2.5968     0.1354     7.9908   110.0895
  160.0000     2.4704     0.0129     8.9765     8.5744    -2.5517     0.1376     8.0050   109.0570
  160.5000     2.4698     0.0220     8.8433     8.3923    -2.5066     0.1379     8.0197   109.3776
  161.0000     2.4697     0.0223     8.7120     8.2140    -2.4616     0.1375     8.0183   113.4218
  161.5000     2.4727     0.0225     8.5826     8.0396    -2.4166     0.1369     8.0101   116.3078
  162.0000     2.4757     0.0227     8.4552     7.8688    -2.3715     0.1344     8.0018   120.5874
  162.5000     2.4732     0.0230     8.3296     7.7425    -2.3265     0.1319     7.9934   119.3368
  163.0000     2.4676     0.0232     8.2060     7.7127    -2.2814     0.1361     7.9851   116.7884
  163.5000     2.4691     0.0234     8.1183     7.6797    -2.2364     0.1380     7.9768   115.6856
  164.0000     2.4669     0.0236     8.1183     7.7459    -2.1911     0.1375     7.9686   115.3565
  164.5000     2.4619     0.0238     8.2317     7.8415    -2.1462     0.1420     7.9619   113.6585
  165.0000     2.4582     0.0246     8.3957     7.9381    -2.1114     0.1443     7.9586   111.5375
  165.5000     2.4604     0.0295     8.5788     8.0359    -2.1389     0.1443     7.9553   110.7366
  166.0000     2.4701     0.0346     8.7659     8.1349    -2.1656     0.1417     7.9520   114.2732
  166.5000     2.4714     0.0369     8.9052     8.2352    -2.1921     0.1375     7.9486   114.1519
  167.0000     2.4714     0.0382     8.8917     8.3367    -2.2186     0.1373     7.9454   112.7797
  167.5000     2.4714     0.0395     8.8760     8.3468    -2.2450     0.1372     7.9432   113.9264
  168.0000     2.4730     0.0406     8.8607     8.3467    -2.2715     0.1371     7.9432   113.6007
  168.5000     2.4752     0.0424     8.8455     8.3466    -2.2980     0.1355     7.9432   107.1037
  169.0000     2.4759     0.0441     8.8304     8.3466    -2.3245     0.1335     7.9432   107.4079
  169.5000     2.4764     0.0459     8.8153     8.3466    -2.3509     0.1337     7.9432   107.6659
