~VERSION INFORMATION
 VERS.                2.0:   CWLS LOG ASCII STANDARD - VERSION 2.0
 WRAP.                 NO:   ONE LINE PER DEPTH STEP
~WELL INFORMATION
#MNEM.UNIT      DATA TYPE    INFORMATION
#----------   ------------   ------------------------------
 STRT.F            1.0000:   START DEPTH
 STOP.F          524.0000:   STOP DEPTH
 STEP.F            0.1000:   STEP LENGTH
 NULL.          -999.2500:   NO VALUE
 COMP.       F D SERV INC:   COMPANY
 WELL.    87-2 SX-3 #87-3:   WELL
 FLD .             TEAPOT:   FIELD
 LOC .       S3 T38N R78W:   LOCATION
 CNTY.            NATRONA:   COUNTY
 STAT.            WYOMING:   STATE
 CTRY. UNITED STATES OF AMERICA:   COUNTRY
 SRVC.     Atlas Wireline:   SERVICE COMPANY
 DATE.        20-OCT-1992:   LOGDATE
 API .       490252254700:   API NUMBER
~CURVE INFORMATION
#MNEM.UNIT       API CODE    CURVE DESCRIPTION
#----------   ------------   ------------------------------
 DEPT.F                  :   
 GRR .GAPI   07 310 01 00:   GAMMA RAY
 RILD.OHMM   07 120 46 00:   INDUCTION LOG DEEP RESISTIVITY
 RILM.OHMM   07 120 44 00:   INDUCTION LOG MEDIUM RESISTIVITY
~PARAMETER INFORMATION
#MNEM.UNIT          VALUE    DESCRIPTION
#----------   ------------   ------------------------------
 PD  .                 GL:   PERMANENT DATUM
 EPD .F              5124:   ELEVATION PERMANENT DATUM
 LMF .                 KB:   LOG MEASURED FROM
 DAPD.F                10:   FEET ABOVE PERMANENT DATUM
 DMF .                 KB:   DRILLING MEASURED FROM
 EKB .F              5134:   KELLING BUSHING
 EDF .F              5133:   DRILLING FLOOR
 EGL .F              5124:   GROUND LEVEL
 DATE.        20-OCT-1992:   RUN DATE
 RUN .                  1:   RUN NUMBER
 DD  .F               533:   DEPTH DRILLER
 DL  .F               532:   DEPTH LOGGER
 BLI .F               524:   BOTTOM LOG INTERVAL
 TLI .F                74:   TOP LOG INTERVAL
 CS  .IN            8.625:   CASING SIZE
 CBD .F                85:   CASING BOTTOM DRILLER
 CBL .F                74:   CASING BOTTOM LOGGER
 BS  .IN            7.875:   BIT SIZE
 BSD .F               533:   BIT SIZE AT DEPTH
 DFT .           AIR FOAM:   DRILLING FLUID TYPE
 TCS .HRS               3:   TIME CURCULATED STOPPED
 MRT .F                70:   MAXIMUM RECORDED TEMPERATURE
 LUN .            HL-6274:   LOGGING UNIT NUMBER
 LUL .             CASPER:   LOGGING UNIT LOCATION
 ENGI.             RAUTIO:   RECORDING ENGINEER
 WITN.        GARY STRONG:   WITNESSED BY
 CLNT.            A2DTECH:   CLIENT CODE
 ORIG.           5" PRINT:   ORIGIN OF DATA
 UWI .       490252254700:   UNIQUE WELL ID
 DICO. A2D Technologies, Inc.:   DIGITIZING COMPANY
~OTHER INFORMATION
~A    DEPT     GRR       RILD       RILM   
# ...
  510.6000  -999.2500    10.1486    10.4475
  510.7000  -999.2500    10.2063    10.4947
  510.8000  -999.2500    10.2358    10.5539
  510.9000  -999.2500    10.2509    10.6133
  511.0000  -999.2500    10.3074    10.6681
  511.1000  -999.2500    10.3074    10.6678
  511.2000  -999.2500    10.3074    10.6676
  511.3000  -999.2500    10.3074    10.6673
  511.4000  -999.2500    10.3074    10.6453
  511.5000  -999.2500    10.3074    10.5925
  511.6000  -999.2500    10.3074    10.5922
  511.7000  -999.2500    10.3074    10.5394
  511.8000  -999.2500    10.3074    10.5179
  511.9000  -999.2500    10.3074    10.5177
  512.0000  -999.2500    10.3074    10.5175
  512.1000  -999.2500    10.3074    10.5172
  512.2000  -999.2500    10.3074    10.5170
  512.3000  -999.2500    10.2895    10.5167
  512.4000  -999.2500    10.2358    10.5165
  512.5000  -999.2500    10.2358    10.5162
  512.6000  -999.2500    10.2358    10.5160
  512.7000  -999.2500    10.2358    10.5157
  512.8000  -999.2500    10.2358    10.5155
  512.9000  -999.2500    10.2358    10.5153
  513.0000  -999.2500    10.2358    10.5150
  513.1000  -999.2500    10.2358    10.5143
  513.2000  -999.2500    10.2358    10.4549
  513.3000  -999.2500    10.2358    10.4410
  513.4000  -999.2500    10.2358    10.4408
  513.5000  -999.2500    10.2358    10.4405
  513.6000  -999.2500    10.1781    10.4403
  513.7000  -999.2500    10.1646    10.4400
  513.8000  -999.2500    10.1338    10.4398
  513.9000  -999.2500    10.0939    10.4395
  514.0000  -999.2500    10.0939    10.4199
  514.1000  -999.2500    10.0939    10.3663
  514.2000  -999.2500    10.0939    10.3660
  514.3000  -999.2500    10.0591    10.3162
  514.4000  -999.2500    10.0237    10.2933
  514.5000  -999.2500    10.0153    10.2716
  514.6000  -999.2500     9.9540    10.2211
  514.7000  -999.2500     9.9540    10.2209
  514.8000  -999.2500     9.9154    10.1694
  514.9000  -999.2500     9.8593    10.1492
  515.0000  -999.2500     9.8036    10.1253
  515.1000  -999.2500     9.7478    10.0682
  515.2000  -999.2500     9.7478    10.0075
  515.3000  -999.2500     9.7058     9.9547
  515.4000  -999.2500     9.6801     9.8985
  515.5000  -999.2500     9.6636     9.8426
  515.6000  -999.2500     9.6089     9.7988
  515.7000  -999.2500     9.5459     9.7986
  515.8000  -999.2500     9.5007     9.7447
  515.9000  -999.2500     9.4470     9.6896
  516.0000  -999.2500     9.3935     9.6618
  516.1000  -999.2500     9.3404     9.6477
  516.2000  -999.2500     9.2832     9.5932
  516.3000  -999.2500     9.2352     9.5390
  516.4000  -999.2500     9.1830     9.5267
  516.5000  -999.2500     9.1545     9.4977
  516.6000  -999.2500     9.1316     9.4441
  516.7000  -999.2500     9.0277     9.3907
  516.8000  -999.2500     8.9771     9.3280
  516.9000  -999.2500     8.9649     9.2850
  517.0000  -999.2500     8.9381     9.2325
  517.1000  -999.2500     8.8727     9.1803
  517.2000  -999.2500     8.7759     9.1285
  517.3000  -999.2500     8.7181     9.0697
  517.4000  -999.2500     8.6769     9.0257
  517.5000  -999.2500     8.6279     8.9436
  517.6000  -999.2500     8.5791     8.8618
  517.7000  -999.2500     8.5306     8.7980
  517.8000  -999.2500     8.4782     8.6354
  517.9000  -999.2500     8.4345     8.5914
  518.0000  -999.2500     8.3545     8.5429
  518.1000  -999.2500  -999.2500     8.4947
  518.2000  -999.2500  -999.2500     8.4467
  518.3000  -999.2500  -999.2500     8.3962
  518.4000  -999.2500  -999.2500     8.3515
  518.5000  -999.2500  -999.2500     8.3044
  518.6000  -999.2500  -999.2500     8.2361
  518.7000  -999.2500  -999.2500     8.1434
  518.8000  -999.2500  -999.2500     8.0502
  518.9000  -999.2500  -999.2500     8.0056
  519.0000  -999.2500  -999.2500     7.8942
  519.1000  -999.2500  -999.2500     7.7616
  519.2000  -999.2500  -999.2500     7.6310
  519.3000  -999.2500  -999.2500     7.5024
  519.4000  -999.2500  -999.2500     7.3766
  519.5000  -999.2500  -999.2500     7.2848
  519.6000  -999.2500  -999.2500     7.1810
  519.7000  -999.2500  -999.2500     7.0723
  519.8000  -999.2500  -999.2500     6.9926
  519.9000  -999.2500  -999.2500     6.9004
  520.0000  -999.2500  -999.2500     6.8682
  520.1000  -999.2500  -999.2500     6.8070
  520.2000  -999.2500  -999.2500     6.7435
  520.3000  -999.2500  -999.2500     6.7014
  520.4000  -999.2500  -999.2500     6.6161
  520.5000  -999.2500  -999.2500     6.5517
  520.6000  -999.2500  -999.2500     6.4780
  520.7000  -999.2500  -999.2500     6.3913
  520.8000  -999.2500  -999.2500     6.2837
  520.9000  -999.2500  -999.2500     6.1685
  521.0000  -999.2500  -999.2500     6.0436
  521.1000  -999.2500  -999.2500     5.9087
  521.2000  -999.2500  -999.2500     5.7494
  521.3000  -999.2500  -999.2500     5.5461
  521.4000  -999.2500  -999.2500     5.2883
  521.5000  -999.2500  -999.2500     5.1216
  521.6000  -999.2500  -999.2500     4.9125
  521.7000  -999.2500  -999.2500     4.7198
  521.8000  -999.2500  -999.2500     4.5739
  521.9000  -999.2500  -999.2500     4.4706
  522.0000  -999.2500  -999.2500     4.3963
  522.1000  -999.2500  -999.2500     4.2864
  522.2000  -999.2500  -999.2500     4.1436
  522.3000  -999.2500  -999.2500     3.9710
  522.4000  -999.2500  -999.2500     3.7753
  522.5000  -999.2500  -999.2500     3.6499
  522.6000  -999.2500  -999.2500     3.5599
  522.7000  -999.2500  -999.2500     3.4487
  522.8000  -999.2500  -999.2500     3.3036
  522.9000  -999.2500  -999.2500     3.1404
  523.0000  -999.2500  -999.2500     2.9792
  523.1000  -999.2500  -999.2500     2.9238
  523.2000  -999.2500  -999.2500     2.8776
  523.3000  -999.2500  -999.2500     2.8452
  523.4000  -999.2500  -999.2500     2.8132
  523.5000  -999.2500  -999.2500     2.7776
  523.6000  -999.2500  -999.2500     2.7639
  523.7000  -999.2500  -999.2500     2.7483
  523.8000  -999.2500  -999.2500     2.7389
  523.9000  -999.2500  -999.2500     2.7364
  524.0000  -999.2500  -999.2500     2.7209
