~VERSION INFORMATION
 VERS.                2.0:   CWLS LOG ASCII STANDARD - VERSION 2.0
 WRAP.                 NO:   ONE LINE PER DEPTH STEP
~WELL INFORMATION
#MNEM.UNIT      DATA TYPE    INFORMATION
#----------   ------------   ------------------------------
 STRT.F            2.0000:   START DEPTH
 STOP.F          500.0000:   STOP DEPTH
 STEP.F            0.1000:   STEP LENGTH
 NULL.          -999.2500:   NO VALUE
 COMP.   FLUOR DANIEL INC:   COMPANY
 WELL.   73-5 X 10 #73-10:   WELL
 FLD .             TEAPOT:   FIELD
 LOC .      S10 T38N R78W:   LOCATION
 CNTY.            NATRONA:   COUNTY
 STAT.            WYOMING:   STATE
 CTRY. UNITED STATES OF AMERICA:   COUNTRY
 SRVC.      Western Atlas:   SERVICE COMPANY
 DATE.        07-JUN-1995:   LOGDATE
 API .       490252271400:   API NUMBER
~CURVE INFORMATION
#MNEM.UNIT       API CODE    CURVE DESCRIPTION
#----------   ------------   ------------------------------
 DEPT.F                  :   
 GRR .GAPI   07 310 01 00:   GAMMA RAY
 RILD.OHMM   07 120 46 00:   INDUCTION LOG DEEP RESISTIVITY
 RILM.OHMM   07 120 44 00:   RESITIVITY LONG MEDIUM
~PARAMETER INFORMATION
#MNEM.UNIT          VALUE    DESCRIPTION
#----------   ------------   ------------------------------
 PD  .                 GL:   PERMANENT DATUM
 EPD .F              5175:   ELEVATION PERMANENT DATUM
 LMF .                 KB:   LOG MEASURED FROM
 DAPD.F                10:   FEET ABOVE PERMANENT DATUM
 DMF .                 KB:   DRILLING MEASURED FROM
 EKB .F              5185:   KELLING BUSHING
 EDF .F              5184:   DRILLING FLOOR
 EGL .F              5175:   GROUND LEVEL
 DATE.        07-JUN-1995:   RUN DATE
 RUN .                  1:   RUN NUMBER
 DD  .F               511:   DEPTH DRILLER
 DL  .F               508:   DEPTH LOGGER
 BLI .F               500:   BOTTOM LOG INTERVAL
 TLI .F                96:   TOP LOG INTERVAL
 CS  .IN            9.625:   CASING SIZE
 CBD .F                96:   CASING BOTTOM DRILLER
 CBL .F                96:   CASING BOTTOM LOGGER
 BS  .IN             8.75:   BIT SIZE
 BSD .F               511:   BIT SIZE AT DEPTH
 DFT .                AIR:   DRILLING FLUID TYPE
 MRT .F               116:   MAXIMUM RECORDED TEMPERATURE
 LUN .            HL 6530:   LOGGING UNIT NUMBER
 LUL .             CASPER:   LOGGING UNIT LOCATION
 ENGI.        VERN RAUTIO:   RECORDING ENGINEER
 WITN.        GARY STRONG:   WITNESSED BY
 CLNT.            A2DTECH:   CLIENT CODE
 ORIG.           5" PRINT:   ORIGIN OF DATA
 UWI .       490252271400:   UNIQUE WELL ID
 DICO. A2D Technologies, Inc.:   DIGITIZING COMPANY
~OTHER INFORMATION
~A    DEPT       GRR     RILD       RILM   
# ...
  457.0000    99.4820    11.7571    11.7551
  457.1000    98.8102    11.7581    11.7559
  457.2000    98.2418    11.7591    11.7567
  457.3000    97.4063    11.7602    11.7379
  457.4000    96.2951    11.7610    11.6772
  457.5000    95.5723    11.7620    11.6782
  457.6000    95.8249    11.7630    11.6789
  457.7000    96.0725    11.7526    11.6797
  457.8000    96.3201    11.6837    11.6805
  457.9000    96.7417    11.6846    11.6813
  458.0000    97.4819    11.6856    11.6821
  458.1000    98.2905    11.6866    11.6829
  458.2000    99.1863    11.6876    11.6331
  458.3000    99.8353    11.6885    11.6040
  458.4000   100.3294    11.6896    11.6048
  458.5000   100.7641    11.6905    11.6056
  458.6000   101.0117    11.6914    11.6065
  458.7000   101.2592    11.6924    11.6072
  458.8000   101.3108    11.6934    11.6080
  458.9000   101.4532    11.6944    11.6088
  459.0000   101.6145    11.6953    11.5941
  459.1000   101.5842    11.6963    11.5303
  459.2000   101.3158    11.6973    11.5311
  459.3000   101.3169    11.6983    11.5319
  459.4000   101.3181    11.6992    11.5327
  459.5000   101.3193    11.7003    11.5335
  459.6000   101.3205    11.7012    11.5343
  459.7000   101.3217    11.7021    11.5352
  459.8000   101.3229    11.7031    11.4756
  459.9000   101.3241    11.7041    11.4571
  460.0000   101.3253    11.7051    11.4579
  460.1000   101.3265    11.7060    11.4587
  460.2000   101.3277    11.7070    11.4595
  460.3000   101.3290    11.7080    11.4605
  460.4000   101.3301    11.7090    11.4611
  460.5000   101.3313    11.7099    11.4619
  460.6000   101.3325    11.7110    11.4627
  460.7000   101.3337    11.7119    11.4635
  460.8000   101.3349    11.7129    11.4643
  460.9000   101.3362    11.7138    11.4651
  461.0000   101.3373    11.7148    11.4659
  461.1000   101.3386    11.7158    11.4667
  461.2000   101.4249    11.6360    11.4478
  461.3000   101.7028    11.6368    11.3891
  461.4000   102.2459    11.5992    11.3901
  461.5000   102.6908    11.5106    11.3907
  461.6000   103.3519    11.3908    11.3498
  461.7000   104.0922    11.3225    11.3138
  461.8000   104.8898    11.2049    11.3011
  461.9000   105.8740    11.1237    11.2373
  462.0000   106.6145    11.0311    11.1750
  462.1000   107.1606    10.9238    11.1613
  462.2000   107.7939    10.8628    11.1271
  462.3000   108.3653    10.7918    11.0859
  462.4000   108.6426    10.7418    11.0793
  462.5000   109.1869    10.6819    11.0111
  462.6000   109.4092    10.6222    10.9558
  462.7000   109.4904    10.5629    10.8945
  462.8000   109.6032    10.5010    10.8619
  462.9000   109.8508    10.5018    10.8477
  463.0000   110.0984    10.4592    10.7885
  463.1000   110.3460    10.4310    10.7894
  463.2000   110.5936    10.4146    10.7408
  463.3000   110.8412    10.3607    10.6807
  463.4000   111.0887    10.3617    10.6432
  463.5000   111.3363    10.3123    10.6349
  463.6000   111.6098    10.2917    10.5713
  463.7000   111.8316    10.2926    10.5720
  463.8000   111.9133    10.2821    10.5300
  463.9000   111.9145    10.2232    10.5005
  464.0000   111.9157    10.2240    10.4848
  464.1000   111.9183    10.1811    10.4295
  464.2000   112.1659    10.1551    10.4304
  464.3000   112.2205    10.1377    10.3815
  464.4000   112.2217    10.0866    10.3598
  464.5000   112.2229    10.0876    10.3369
  464.6000   112.2241    10.0382    10.2896
  464.7000   112.2254    10.0195    10.2905
  464.8000   112.2265    10.0203    10.2912
  464.9000   112.0624    10.0087    10.2484
  465.0000   111.9277     9.9528    10.2216
  465.1000   111.9289     9.9536    10.2044
  465.2000   111.9301     9.9104    10.1473
  465.3000   111.9313     9.8865    10.0833
  465.4000   111.9325     9.8873    10.0839
  465.5000   112.0713     9.8813    10.0473
  465.6000   112.2362     9.8208    10.0158
  465.7000   112.2374     9.8215    10.0042
  465.8000   112.2387     9.8223     9.9481
  465.9000   112.4592     9.7974     9.9488
  466.0000   112.7068     9.7561     9.9056
  466.1000   112.8446     9.7569     9.8815
  466.2000   112.9008     9.7579     9.8631
  466.3000   113.1482     9.7585     9.8147
  466.4000   113.1494     9.7270     9.8155
  466.5000   113.1506     9.6928     9.7658
  466.6000   113.1518     9.6936     9.7491
  466.7000   113.1530     9.6944     9.7239
  466.8000   113.1269     9.6443     9.6832
  466.9000   112.8543     9.6290     9.6839
  467.0000   112.6365     9.6032     9.6847
  467.1000   112.3914     9.5641     9.6406
  467.2000   112.1462     9.5649     9.6191
  467.3000   111.9010     9.5658     9.5993
  467.4000   111.6554     9.5665     9.5540
  467.5000   111.1646     9.5343     9.5548
  467.6000   110.8642     9.5020     9.5554
  467.7000   110.7554     9.5028     9.5561
  467.8000   110.6751     9.5036     9.5296
  467.9000   110.4565     9.5044     9.4915
  468.0000   110.4580     9.5052     9.4921
  468.1000   110.4590     9.5060     9.4929
  468.2000   110.6237     9.5068     9.4934
  468.3000   110.7626     9.5036     9.4941
  468.4000   110.8715     9.4428     9.4727
  468.5000   111.3675     9.4435     9.4298
  468.6000   111.8594     9.4442     9.4306
  468.7000   112.3533     9.4450     9.4312
  468.8000   112.8473     9.4458     9.4319
  468.9000   113.2604     9.4466     9.4325
  469.0000   113.5080     9.4474     9.4332
  469.1000   113.7845     9.4482     9.4286
  469.2000   114.0032     9.4490     9.3695
  469.3000   114.0879     9.4497     9.3701
  469.4000   113.9811     9.4453     9.3707
  469.5000   113.7360     9.3861     9.3479
  469.6000   113.4892     9.3868     9.3074
  469.7000   113.0008     9.3876     9.3081
  469.8000   112.3193     9.3884     9.3087
  469.9000   111.7165     9.3892     9.3093
  470.0000   111.1446     9.3899     9.3100
  470.1000   110.4065     9.3907     9.3106
  470.2000   109.5809     9.3500     9.3043
  470.3000   108.9307     9.3274     9.2478
  470.4000   108.5172     9.3282     9.2483
  470.5000   108.3795     9.3290     9.2490
  470.6000   108.3807     9.3298     9.2496
  470.7000   108.3819     9.3305     9.2503
  470.8000   108.3831     9.3313     9.2509
  470.9000   108.3843     9.3321     9.2517
  471.0000   108.6546     9.3328     9.2522
  471.1000   109.1486     9.3336     9.2528
  471.2000   109.6922     9.3346     9.2535
  471.3000   110.7989     9.3352     9.2541
  471.4000   111.2330     9.3360     9.2548
  471.5000   111.7268     9.3367     9.2554
  471.6000   112.0072     9.3375     9.2560
  471.7000   112.0084     9.3383     9.2567
  471.8000   112.0097     9.3391     9.2573
  471.9000   111.7673     9.3024     9.2579
  472.0000   111.5221     9.2761     9.2587
  472.1000   111.1430     9.2769     9.2592
  472.2000   110.5723     9.2776     9.2266
  472.3000   109.8587     9.2786     9.1966
  472.4000   109.3062     9.2792     9.1973
  472.5000   108.8755     9.2800     9.1979
  472.6000   108.5450     9.2807     9.1475
  472.7000   108.4060     9.2815     9.1358
  472.8000   108.4072     9.2823     9.1364
  472.9000   108.4084     9.2330     9.1203
  473.0000   108.4096     9.2197     9.0746
  473.1000   108.5990     9.2205     9.0753
  473.2000   108.7133     9.2212     9.0759
  473.3000   108.7930     9.2220     9.0422
  473.4000   109.0406     9.2229     9.0146
  473.5000   109.3194     9.1789     9.0152
  473.6000   109.5358     9.1606     9.0158
  473.7000   109.6229     9.1614     8.9647
  473.8000   109.6241     9.1520     8.9549
  473.9000   109.5745     9.0996     8.9555
  474.0000   109.3253     9.1004     8.9561
  474.1000   109.3265     9.0621     8.9497
  474.2000   109.1402     9.0390     8.8956
  474.3000   108.8950     9.0398     8.8962
  474.4000   108.6498     9.0355     8.8615
  474.5000   108.4046     8.9789     8.8361
  474.6000   108.1279     8.9796     8.8367
  474.7000   107.9143     8.9803     8.8350
  474.8000   107.8289     8.9587     8.7771
  474.9000   107.8301     8.9087     8.7776
  475.0000   107.8313     8.8589     8.7782
  475.1000   107.8326     8.8597     8.7594
