~VERSION INFORMATION
 VERS.                2.0:   CWLS LOG ASCII STANDARD - VERSION 2.0
 WRAP.                 NO:   ONE LINE PER DEPTH STEP
~WELL INFORMATION
#MNEM.UNIT      DATA TYPE    INFORMATION
#----------   ------------   ------------------------------
 STRT.F         1379.5000:   START DEPTH
 STOP.F         2168.0000:   STOP DEPTH
 STEP.F            0.5000:   STEP LENGTH
 NULL.          -999.2500:   NO VALUE
 COMP.   FLUOR DANIEL INC:   COMPANY
 WELL. NAVAL PETROLEUM RESERVE 3  83-5-STX-10 #83-5-10:   WELL
 FLD .            WILDCAT:   FIELD
 LOC .      S10 T38N R78W:   LOCATION
 CNTY.            NATRONA:   COUNTY
 STAT.            WYOMING:   STATE
 CTRY. UNITED STATES OF AMERICA:   COUNTRY
 SRVC.            Unknown:   SERVICE COMPANY
 DATE.        20-JAN-1995:   LOGDATE
 API .       490252265500:   API NUMBER
~CURVE INFORMATION
#MNEM.UNIT       API CODE    CURVE DESCRIPTION
#----------   ------------   ------------------------------
 DEPT.F                  :   
 C1  .VF     91 831 01 00:   METHANE
 C2  .VF     91 832 01 00:   ETHANE
 ROP .FT/HR  91 810 01 00:   RAT OF DRILLING PENETRATION
 TGAS.TC/CC  91 830 01 00:   TOTAL GAS UNIT
~PARAMETER INFORMATION
#MNEM.UNIT          VALUE    DESCRIPTION
#----------   ------------   ------------------------------
 DATE.        20-JAN-1995:   RUN DATE
 BLI .F              2165:   BOTTOM LOG INTERVAL
 TLI .F              1380:   TOP LOG INTERVAL
 CLNT.            A2DTECH:   CLIENT CODE
 ORIG.         2.5" PRINT:   ORIGIN OF DATA
 UWI .       490252265500:   UNIQUE WELL ID
 DICO. A2D Technologies, Inc.:   DIGITIZING COMPANY
~OTHER INFORMATION
~A  DEPT        C1         C2        ROP        TGAS  
# ...
 1598.5000  -999.2500  -999.2500     0.4953  1202.8131
 1599.0000  -999.2500  -999.2500     0.4951  1195.2944
 1599.5000  -999.2500  -999.2500     0.4948  1187.7935
 1600.0000  -999.2500  -999.2500     0.4945  1187.6874
 1600.5000  -999.2500  -999.2500     0.4942  1180.2046
 1601.0000  -999.2500  -999.2500     0.4940  1180.0990
 1601.5000  -999.2500  -999.2500     0.4937  1179.9757
 1602.0000  -999.2500  -999.2500     0.4934  1187.2472
 1602.5000  -999.2500  -999.2500     0.4931  1194.5186
 1603.0000  -999.2500  -999.2500     0.4929  1194.4128
 1603.5000  -999.2500  -999.2500     0.4926  1186.9127
 1604.0000  -999.2500  -999.2500     0.4923  1186.8070
 1604.5000  -999.2500  -999.2500     0.4920  1186.7014
 1605.0000  -999.2500  -999.2500     0.4918  1186.5781
 1605.5000  -999.2500  -999.2500     0.4915  1186.4725
 1606.0000  -999.2500  -999.2500     0.4912  1186.3668
 1606.5000  -999.2500  -999.2500     0.4909  1193.6558
 1607.0000  -999.2500  -999.2500     0.4907  1193.5149
 1607.5000  -999.2500  -999.2500     0.4904  1193.4093
 1608.0000  -999.2500  -999.2500     0.4901  1193.3037
 1608.5000  -999.2500  -999.2500     0.4898  1200.5778
 1609.0000  -999.2500  -999.2500     0.4896  1200.4519
 1609.5000  -999.2500  -999.2500     0.4893  1200.3462
 1610.0000  -999.2500  -999.2500     0.4890  1200.2406
 1610.5000  -999.2500  -999.2500     0.4887  1200.1173
 1611.0000  -999.2500  -999.2500     0.4885  1200.0117
 1611.5000  -999.2500  -999.2500     0.4882  1199.9060
 1612.0000  -999.2500  -999.2500     0.7626  1199.7828
 1612.5000  -999.2500  -999.2500     0.7623  1199.6926
 1613.0000  -999.2500  -999.2500     0.7621  1199.5819
 1613.5000  -999.2500  -999.2500     0.7618  1199.4713
 1614.0000  -999.2500  -999.2500     0.7615  1199.3427
 1614.5000  -999.2500  -999.2500     0.7613  1199.2371
 1615.0000  -999.2500  -999.2500     0.7609  1199.1313
 1615.5000  -999.2500  -999.2500     0.7607  1199.0082
 1616.0000  -999.2500  -999.2500     0.7604  1198.9025
 1616.5000  -999.2500  -999.2500     0.4854  1198.7969
 1617.0000  -999.2500  -999.2500     0.4851  1198.6967
 1617.5000  -999.2500  -999.2500     0.4849  1198.5856
 1618.0000  -999.2500  -999.2500     0.4663  1198.4753
 1618.5000  -999.2500  -999.2500     0.4847  1198.3647
 1619.0000  -999.2500  -999.2500     0.4895  1198.2335
 1619.5000  -999.2500  -999.2500     0.4943  1198.1433
 1620.0000  -999.2500  -999.2500     0.4992  1198.0222
 1620.5000  -999.2500  -999.2500     0.5040  1197.9165
 1621.0000  -999.2500  -999.2500     0.5089  1197.7933
 1621.5000  -999.2500  -999.2500     0.5137  1197.7008
 1622.0000  -999.2500  -999.2500     0.5186  1197.5901
 1622.5000  -999.2500  -999.2500     0.5234  1197.4587
 1623.0000  -999.2500  -999.2500     0.5283  1197.3688
 1623.5000  -999.2500  -999.2500     0.5331  1197.2476
 1624.0000  -999.2500  -999.2500     0.6095  1197.1418
 1624.5000  -999.2500  -999.2500     0.7924  1197.0187
 1625.0000  -999.2500  -999.2500     0.8288  1196.9130
 1625.5000  -999.2500  -999.2500     0.8284  1196.8074
 1626.0000  -999.2500  -999.2500     0.8282  1196.7017
 1626.5000  -999.2500  -999.2500     0.8279  1196.5785
 1627.0000  -999.2500  -999.2500     0.8276  1196.4729
 1627.5000  -999.2500  -999.2500     0.8274  1196.3729
 1628.0000  -999.2500  -999.2500     0.6439  1196.2439
 1628.5000  -999.2500  -999.2500     0.5874  1196.1516
 1629.0000  -999.2500  -999.2500     0.5843  1196.0327
 1629.5000  -999.2500  -999.2500     0.5812  1195.9094
 1630.0000  -999.2500  -999.2500     0.5781  1195.8038
 1630.5000  -999.2500  -999.2500     0.5750  1195.6981
 1631.0000  -999.2500  -999.2500     0.5720  1195.5984
 1631.5000  -999.2500  -999.2500     0.5689  1195.4877
 1632.0000  -999.2500  -999.2500     0.5658  1195.3770
 1632.5000  -999.2500  -999.2500     0.5627  1195.2579
 1633.0000  -999.2500  -999.2500     0.5596  1195.1523
 1633.5000  -999.2500  -999.2500     0.5565  1195.0292
 1634.0000  -999.2500  -999.2500     0.5535  1194.9235
 1634.5000  -999.2500  -999.2500     0.5504  1194.8179
 1635.0000  -999.2500  -999.2500     0.5473  1194.6946
 1635.5000  -999.2500  -999.2500     0.5442  1194.6024
 1636.0000  -999.2500  -999.2500     0.5411  1194.4917
 1636.5000  -999.2500  -999.2500     0.5381  1194.3601
 1637.0000  -999.2500  -999.2500     0.5350  1194.2705
 1637.5000  -999.2500  -999.2500     0.5319  1194.1488
 1638.0000  -999.2500  -999.2500     0.5285  1194.0492
 1638.5000  -999.2500  -999.2500     0.6932  1193.9375
 1639.0000  -999.2500  -999.2500     0.6745  1193.8143
 1639.5000  -999.2500  -999.2500     0.6743  1193.7172
 1640.0000  -999.2500  -999.2500     0.6374  1193.5854
 1640.5000  -999.2500  -999.2500     0.6446  1193.4797
 1641.0000  -999.2500  -999.2500     0.6509  1193.3741
 1641.5000  -999.2500  -999.2500     0.6573  1185.8915
 1642.0000  -999.2500  -999.2500     0.6636  1185.7682
 1642.5000  -999.2500  -999.2500     0.6700  1185.6761
 1643.0000  -999.2500  -999.2500     0.6763  1185.5656
 1643.5000  -999.2500  -999.2500     0.6827  1185.4337
 1644.0000  -999.2500  -999.2500     0.6890  1185.3442
 1644.5000  -999.2500  -999.2500     0.6954  1185.2224
 1645.0000  -999.2500  -999.2500     0.7018  1185.1167
 1645.5000  -999.2500  -999.2500     0.7081  1185.0111
 1646.0000  -999.2500  -999.2500     0.7145  1184.8878
 1646.5000  -999.2500  -999.2500     0.7208  1184.7822
 1647.0000  -999.2500  -999.2500     0.7272  1184.6589
 1647.5000  -999.2500  -999.2500     0.7335  1184.5533
 1648.0000  -999.2500  -999.2500     0.7399  1184.4478
 1648.5000  -999.2500  -999.2500     0.7426  1191.7191
 1649.0000  -999.2500  -999.2500     0.6507  1191.6135
 1649.5000  -999.2500  -999.2500     0.6321  1191.5040
 1650.0000  -999.2500  -999.2500     0.6136  1191.3934
 1650.5000  -999.2500  -999.2500     0.6160  1191.2614
 1651.0000  -999.2500  -999.2500     0.6192  1191.1721
 1651.5000  -999.2500  -999.2500     0.6224  1191.0615
 1652.0000  -999.2500  -999.2500     0.6257  1190.9445
 1652.5000  -999.2500  -999.2500     0.6289  1190.8212
 1653.0000  -999.2500  -999.2500     0.6322  1190.7156
 1653.5000  -999.2500  -999.2500     0.6354  1190.6100
 1654.0000  -999.2500  -999.2500     0.6387  1190.4867
 1654.5000  -999.2500  -999.2500     0.6419  1190.3976
 1655.0000  -999.2500  -999.2500     0.6451  1190.2869
 1655.5000  -999.2500  -999.2500     0.6484  1190.1698
 1656.0000  -999.2500  -999.2500     0.6516  1190.0465
 1656.5000  -999.2500  -999.2500     0.6549  1189.9409
 1657.0000  -999.2500  -999.2500     0.6581  1189.8352
 1657.5000  -999.2500  -999.2500     0.6613  1189.7120
 1658.0000  -999.2500  -999.2500     0.6824  1189.6063
 1658.5000  -999.2500  -999.2500     0.8469  1189.5007
 1659.0000  -999.2500  -999.2500     0.8834  1196.7722
 1659.5000  -999.2500  -999.2500     0.5900  1196.6489
 1660.0000  -999.2500  -999.2500     0.5348  1196.5433
 1660.5000  -999.2500  -999.2500     0.5162  1196.4376
 1661.0000  -999.2500  -999.2500     0.5176  1196.3145
 1661.5000  -999.2500  -999.2500     0.5192  1203.6211
 1662.0000  -999.2500  -999.2500     0.5208  1210.8749
 1662.5000  -999.2500  -999.2500     0.5223  1210.7516
 1663.0000  -999.2500  -999.2500     0.5239  1210.6284
 1663.5000  -999.2500  -999.2500     0.5255  1210.5227
 1664.0000  -999.2500  -999.2500     0.5270  1210.4171
 1664.5000  -999.2500  -999.2500     0.5286  1210.2938
 1665.0000  -999.2500  -999.2500     0.5302  1210.1882
 1665.5000  -999.2500  -999.2500     0.5318  1210.0826
 1666.0000  -999.2500  -999.2500     0.6597  1195.2228
 1666.5000  -999.2500  -999.2500     0.7327  1187.7225
 1667.0000  -999.2500  -999.2500     0.7324  1187.6168
 1667.5000  -999.2500  -999.2500     0.7505  1180.1342
 1668.0000  -999.2500  -999.2500     0.9517  1165.2568
 1668.5000  -999.2500  -999.2500     0.9513  1157.7742
 1669.0000  -999.2500  -999.2500     0.9695  1142.9144
 1669.5000  -999.2500  -999.2500     0.9691  1128.0547
 1670.0000  -999.2500  -999.2500     0.8589  1127.9315
 1670.5000  -999.2500  -999.2500     0.8038  1105.6947
 1671.0000  -999.2500  -999.2500     0.8035  1090.8350
