~VERSION INFORMATION
 VERS.                2.0:   CWLS LOG ASCII STANDARD - VERSION 2.0
 WRAP.                 NO:   ONE LINE PER DEPTH STEP
~WELL INFORMATION
#MNEM.UNIT      DATA TYPE    INFORMATION
#----------   ------------   ------------------------------
 STRT.F            4.0000:   START DEPTH
 STOP.F          614.0000:   STOP DEPTH
 STEP.F            0.1000:   STEP LENGTH
 NULL.          -999.2500:   NO VALUE
 COMP.   FLUOR DANIEL INC:   COMPANY
 WELL.     63-4 X 3 #63-3:   WELL
 FLD .          N.P.R. #3:   FIELD
 LOC .       S3 T38N R78W:   LOCATION
 CNTY.            NATRONA:   COUNTY
 STAT.            WYOMING:   STATE
 CTRY. UNITED STATES OF AMERICA:   COUNTRY
 SRVC.      Western Atlas:   SERVICE COMPANY
 DATE.        01-JUN-1995:   LOGDATE
 API .       490252271300:   API NUMBER
~CURVE INFORMATION
#MNEM.UNIT       API CODE    CURVE DESCRIPTION
#----------   ------------   ------------------------------
 DEPT.F                  :   
 GRR .GAPI   07 310 01 00:   GAMMA RAY
 RILD.OHMM   07 120 46 00:   INDUCTION LOG DEEP RESISTIVITY
 RILM.OHMM   07 120 44 00:   INDUCTION LOG MEDIUM RESISTIVITY
~PARAMETER INFORMATION
#MNEM.UNIT          VALUE    DESCRIPTION
#----------   ------------   ------------------------------
 PD  .                 GL:   PERMANENT DATUM
 EPD .F              5173:   ELEVATION PERMANENT DATUM
 LMF .                 KB:   LOG MEASURED FROM
 DAPD.F                10:   FEET ABOVE PERMANENT DATUM
 DMF .                 KB:   DRILLING MEASURED FROM
 EKB .F              5183:   KELLING BUSHING
 EDF .F              5182:   DRILLING FLOOR
 EGL .F              5173:   GROUND LEVEL
 DATE.        01-JUN-1995:   RUN DATE
 RUN .                  1:   RUN NUMBER
 DD  .F               626:   DEPTH DRILLER
 DL  .F               622:   DEPTH LOGGER
 BLI .F               614:   BOTTOM LOG INTERVAL
 TLI .F                95:   TOP LOG INTERVAL
 CS  .IN            9.625:   CASING SIZE
 CBD .F                95:   CASING BOTTOM DRILLER
 CBL .F                95:   CASING BOTTOM LOGGER
 BS  .IN             8.75:   BIT SIZE
 BSD .F               626:   BIT SIZE AT DEPTH
 DFT .                AIR:   DRILLING FLUID TYPE
 MRT .F               147:   MAXIMUM RECORDED TEMPERATURE
 LUN .            HL 6530:   LOGGING UNIT NUMBER
 LUL .             CASPER:   LOGGING UNIT LOCATION
 ENGI.        VERN RAUTIO:   RECORDING ENGINEER
 WITN.        STEVE HARDY:   WITNESSED BY
 CLNT.            A2DTECH:   CLIENT CODE
 ORIG.           5" PRINT:   ORIGIN OF DATA
 UWI .       490252271300:   UNIQUE WELL ID
 DICO. A2D Technologies, Inc.:   DIGITIZING COMPANY
~OTHER INFORMATION
~A    DEPT       GRR     RILD       RILM   
# ...
  295.2000   118.2504     7.7798     7.2182
  295.3000   118.2319     7.7448     7.1976
  295.4000   117.9487     7.7436     7.1845
  295.5000   117.4982     7.6917     7.1484
  295.6000   117.1676     7.6918     7.1486
  295.7000   116.7832     7.6630     7.1096
  295.8000   116.2748     7.5984     7.0376
  295.9000   115.8371     7.5340     6.9792
  296.0000   115.8371     7.5307     6.9389
  296.1000   115.8371     7.4823     6.8987
  296.2000   115.8371     7.4055     6.8588
  296.3000   115.8371     7.3496     6.8119
  296.4000   116.0365     7.3071     6.7477
  296.5000   116.5450     7.2648     6.6941
  296.6000   117.0485     7.2174     6.6554
  296.7000   117.3454     7.1286     6.6071
  296.8000   117.7686     7.0900     6.5332
  296.9000   118.1128     7.0490     6.4909
  297.0000   118.4836     6.9857     6.4250
  297.1000   118.9229     6.9195     6.3508
  297.2000   119.1554     6.8795     6.2774
  297.3000   119.1554     6.8390     6.2048
  297.4000   118.9268     6.7613     6.1285
  297.5000   118.4917     6.7140     6.0161
  297.6000   117.9834     6.6287     5.9508
  297.7000   117.4749     6.5450     5.8565
  297.8000   117.0051     6.4905     5.7552
  297.9000   116.7421     6.3768     5.6433
  298.0000   116.2514     6.2069     5.5133
  298.1000   115.9409     6.0870     5.3863
  298.2000   115.6867     5.9918     5.2760
  298.3000   115.3295     5.9225     5.2017
  298.4000   114.8766     5.8449     5.1118
  298.5000   114.6305     5.7462     5.0361
  298.6000   114.6305     5.6724     4.9706
  298.7000   114.4157     5.6141     4.8845
  298.8000   114.3288     5.5492     4.7896
  298.9000   114.2090     5.4850     4.7171
  299.0000   114.0272     5.4315     4.6727
  299.1000   114.0272     5.3961     4.6322
  299.2000   114.0272     5.3297     4.5870
  299.3000   114.0272     5.2721     4.5571
  299.4000   114.2113     5.1887     4.5012
  299.5000   114.3288     5.1152     4.4282
  299.6000   114.4181     5.0454     4.3517
  299.7000   114.6305     4.9580     4.2626
  299.8000   114.6305     4.8707     4.1556
  299.9000   115.1277     4.7879     4.0405
  300.0000   115.5354     4.6409     3.9473
  300.1000   115.5354     4.4510     3.8132
  300.2000   115.7494     4.2382     3.7072
  300.3000   115.8371     4.0361     3.5928
  300.4000   115.8371     3.8970     3.4984
  300.5000   115.8371     3.7423     3.4227
  300.6000   115.8371     3.6521     3.3611
  300.7000   115.8371     3.5342     3.2526
  300.8000   115.8371     3.3603     3.1874
  300.9000   115.6284     3.1467     3.0775
  301.0000   115.5354     2.9905     2.9217
  301.1000   115.2933     2.8952     2.7494
  301.2000   114.8549     2.8360     2.6121
  301.3000   114.5637     2.7708     2.5010
  301.4000   114.0272     2.7070     2.4340
  301.5000   113.2850     2.6495     2.3848
  301.6000   112.1045     2.6035     2.3511
  301.7000   110.9751     2.5556     2.3189
  301.8000   109.9438     2.5279     2.2837
  301.9000   108.9126     2.4987     2.2704
  302.0000   107.9376     2.4858     2.2238
  302.1000   107.3906     2.4806     2.2134
  302.2000   106.9065     2.4687     2.2086
  302.3000   106.1925     2.4688     2.2031
  302.4000   105.4190     2.4689     2.1967
  302.5000   104.7561     2.4690     2.2088
  302.6000   104.2405     2.4604     2.2089
  302.7000   103.7249     2.4520     2.2202
  302.8000   103.1674     2.4521     2.2332
  302.9000   102.6936     2.4526     2.2595
  303.0000   102.1779     2.4693     2.2993
  303.1000   101.6623     2.4694     2.3399
  303.2000   101.2521     2.4694     2.3840
  303.3000   100.9943     2.4762     2.4233
  303.4000   100.7365     2.4868     2.4662
  303.5000   100.4525     2.4892     2.5180
  303.6000   100.4525     2.5217     2.5774
  303.7000   100.4525     2.5349     2.6382
  303.8000   100.5965     2.5498     2.7006
  303.9000   100.9544     2.5647     2.7765
  304.0000   101.5262     2.5798     2.8162
  304.1000   102.3245     2.5988     2.8764
  304.2000   103.7707     2.6477     2.9443
  304.3000   104.6766     2.6916     3.0137
  304.4000   105.7079     2.7392     3.0847
  304.5000   107.0168     2.7785     3.1672
  304.6000   108.5635     2.8172     3.2323
  304.7000   110.1101     2.8669     3.3087
  304.8000   111.6426     2.9183     3.3868
  304.9000   112.8205     2.9521     3.4730
  305.0000   113.4843     3.0148     3.5730
  305.1000   114.0803     3.0971     3.6683
  305.2000   114.4623     3.1888     3.7520
  305.3000   114.8994     3.2787     3.8782
  305.4000   115.5813     3.3566     3.9893
  305.5000   115.8391     3.4720     4.0851
  305.6000   116.1388     3.5412     4.1831
  305.7000   116.3548     3.6814     4.2808
  305.8000   116.4404     3.8149     4.3628
  305.9000   116.4404     3.9240     4.4608
  306.0000   116.4404     4.0831     4.5472
  306.1000   116.3998     4.2175     4.6455
  306.2000   116.1388     4.3288     4.7448
  306.3000   116.1388     4.4571     4.8375
  306.4000   116.1388     4.5753     4.9535
  306.5000   115.9719     4.6833     5.0822
  306.6000   115.8371     4.7937     5.1945
  306.7000   115.8371     4.9140     5.2956
  306.8000   115.8371     5.0230     5.3722
  306.9000   115.8371     5.1193     5.4498
  307.0000   115.8371     5.1928     5.5396
  307.1000   115.8371     5.2651     5.6059
  307.2000   115.6754     5.3525     5.6794
  307.3000   115.4176     5.4164     5.7102
  307.4000   115.0858     5.5108     5.7444
  307.5000   114.5096     5.6083     5.7788
  307.6000   113.4238     5.6872     5.8272
  307.7000   112.4473     5.7681     5.8810
  307.8000   111.4161     5.8622     5.8853
  307.9000   111.6363     5.9322     5.9636
  308.0000   112.5551     6.0538     5.9954
  308.1000   113.3287     6.1137     6.0056
  308.2000   114.0771     6.1856     6.0256
  308.3000   114.6305     6.2583     6.0480
  308.4000   115.3471     6.3319     6.0484
  308.5000   116.1206     6.4003     6.0502
  308.6000   116.7428     6.4005     6.0911
  308.7000   117.3659     6.4339     6.1230
  308.8000   118.0759     6.4717     6.1340
  308.9000   118.6111     6.5098     6.1539
  309.0000   119.4570     6.5480     6.1773
  309.1000   119.4570     6.5816     6.1849
  309.2000   119.6468     6.5818     6.2209
  309.3000   119.7587     6.5819     6.2213
  309.4000   119.6565     6.5821     6.2215
  309.5000   119.4570     6.5823     6.2474
  309.6000   119.4426     6.5825     6.2654
  309.7000   119.1554     6.5827     6.2789
  309.8000   118.4700     6.5828     6.3165
  309.9000   118.0658     6.5830     6.3538
  310.0000   117.6671     6.5832     6.3542
  310.1000   117.4424     6.5834     6.3545
  310.2000   117.7532     6.5836     6.3804
  310.3000   118.2504     6.5753     6.3994
  310.4000   118.2504     6.5384     6.3997
  310.5000   118.4736     6.5386     6.4001
  310.6000   118.5520     6.5388     6.4004
  310.7000   118.5520     6.5389     6.4008
  310.8000   118.4603     6.5216     6.3387
  310.9000   118.2504     6.4941     6.2645
  311.0000   118.2464     6.5152     6.1911
  311.1000   117.9487     6.4383     6.1186
  311.2000   117.5127     6.3581     6.0415
  311.3000   117.1712     6.2397     5.9336
  311.4000   116.7831     6.1701     5.8524
  311.5000   116.3540     6.0692     5.7689
  311.6000   116.0961     5.9620     5.6677
  311.7000   115.8371     5.8722     5.5683
  311.8000   116.1388     5.8029     5.4804
  311.9000   116.5643     5.7344     5.4075
  312.0000   117.2489     5.6635     5.2771
  312.1000   117.8972     5.5369     5.1580
  312.2000   118.5754     5.4322     5.0615
  312.3000   119.5318     5.2781     4.9362
  312.4000   120.0603     5.1339     4.8053
  312.5000   120.6637     5.0346     4.6931
  312.6000   121.2863     4.9197     4.5866
  312.7000   121.8960     4.8293     4.5024
  312.8000   122.4117     4.7746     4.4272
  312.9000   122.9273     4.7407     4.3495
  313.0000   123.4429     4.7127     4.2579
  313.1000   123.9819     4.6721     4.1693
  313.2000   124.4742     4.6251     4.0895
  313.3000   124.9899     4.5942     3.9964
