~VERSION INFORMATION
 VERS.                2.0:   CWLS LOG ASCII STANDARD - VERSION 2.0
 WRAP.                 NO:   ONE LINE PER DEPTH STEP
~WELL INFORMATION
#MNEM.UNIT      DATA TYPE    INFORMATION
#----------   ------------   ------------------------------
 STRT.F           25.0000:   START DEPTH
 STOP.F          681.0000:   STOP DEPTH
 STEP.F            0.5000:   STEP LENGTH
 NULL.          -999.2500:   NO VALUE
 COMP. FENIX & SCISSON INC:   COMPANY
 WELL.    56-SX-34 #56-34:   WELL
 FLD .             TEAPOT:   FIELD
 LOC .      S34 T39N R78W:   LOCATION
 CNTY.            NATRONA:   COUNTY
 STAT.            WYOMING:   STATE
 CTRY. UNITED STATES OF AMERICA:   COUNTRY
 SRVC.            Unknown:   SERVICE COMPANY
 DATE.        28-JAN-1979:   LOGDATE
 API .       490251077200:   API NUMBER
~CURVE INFORMATION
#MNEM.UNIT       API CODE    CURVE DESCRIPTION
#----------   ------------   ------------------------------
 DEPT.F                  :   
 SPR .MV     05 010 01 00:   SPONTANEOUS POTENTIAL FROM RES.
 DRHO.G/C3   45 356 01 00:   DENSITY CORRECTION
 RHOB.G/C3   45 350 01 00:   BULK DENSITY
 DPHI.DEC    45 890 12 00:   DENSITY POROSITY SANDSTONE
 CALD.IN     45 280 60 00:   CALIPER
 GRD .GAPI   45 310 01 00:   GAMMA RAY FROM DENSITY LOG
 SN  .OHMM   05 040 16 00:   SHORT NORMAL 16'
 ILD .OHMM   05 120 46 00:   INDUCTION LOG DEEP RESISTIVITY
~PARAMETER INFORMATION
#MNEM.UNIT          VALUE    DESCRIPTION
#----------   ------------   ------------------------------
 PD  .                 GL:   PERMANENT DATUM
 EPD .F              5088:   ELEVATION PERMANENT DATUM
 LMF .                 KB:   LOG MEASURED FROM
 DAPD.F                 4:   FEET ABOVE PERMANENT DATUM
 DMF .                 KB:   DRILLING MEASURED FROM
 EKB .F              5092:   KELLING BUSHING
 EGL .F              5088:   GROUND LEVEL
 DATE.            1-28-79:   RUN DATE
 RUN .                  1:   RUN NUMBER
 DD  .F               680:   DEPTH DRILLER
 DL  .F               681:   DEPTH LOGGER
 BLI .F               679:   BOTTOM LOG INTERVAL
 TLI .F                40:   TOP LOG INTERVAL
 CS  .IN            8.625:   CASING SIZE
 CBD .F                40:   CASING BOTTOM DRILLER
 CBL .F                40:   CASING BOTTOM LOGGER
 BS  .IN            7.875:   BIT SIZE
 BSD .F               680:   BIT SIZE AT DEPTH
 DFT .                KCL:   DRILLING FLUID TYPE
 DFD .                8.9:   DRILLING FLUID DENSITY
 DFV .                 43:   DRILLING FLUID VISCOSITY
 DFPH.                8.5:   DRILLING FLUID PH
 DFL .                9.8:   DRILLING FLUID LOSS
 MSS .           FLOWLINE:   MUD SAMPLE SOURCE
 RMS .OHMM            1.5:   RESISTIVITY MUD SAMPLE
 MST .F                66:   MUD SAMPLE TEMPERATURE
 RMF .OHMM            1.3:   RESISTIVITY MUD FILTRATE SAMPLE
 MFST.F                76:   MUD FILTRATE SAMPLE TEMPERATURE
 RMC .OHMM            1.3:   RESISTIVITY MUD CAKE
 MCST.F                78:   MUD CAKE SAMPLE TEMPERATURE
 MFSS.           MEASURED:   MUD FILTRATE SAMPLE SOURCE
 MCSS.           MEASURED:   MUD CAKE SAMPLE SOURCE
 RMB .OHMM            1.3:   RESISTIVITY MUD AT BHT
 BHT .F                76:   BOTTOM HOLE TEMPERATURE
 TCS .HRS               3:   TIME CURCULATED STOPPED
 MRT .F                76:   MAXIMUM RECORDED TEMPERATURE
 LUN .               3006:   LOGGING UNIT NUMBER
 LUL .             CASPER:   LOGGING UNIT LOCATION
 ENGI.            ROLLINS:   RECORDING ENGINEER
 WITN.              AMEND:   WITNESSED BY
 CLNT.            A2DTECH:   CLIENT CODE
 ORIG.       2", 5" PRINT:   ORIGIN OF DATA
 UWI .       490251077200:   UNIQUE WELL ID
 DICO. A2D Technologies, Inc.:   DIGITIZING COMPANY
~OTHER INFORMATION
~A   DEPT      SPR       DRHO       RHOB       DPHI       CALD         GRD        SN        ILD   
# ...
  187.0000   -41.4851     0.0563     2.4689     0.1274     7.7451    97.1621     7.5046     8.3466
  187.5000   -41.4851     0.0550     2.4689     0.1286     7.7290    98.8534     7.5982     8.4463
  188.0000   -41.4851     0.0538     2.4672     0.1297     7.7182   100.7566     7.6929     8.5506
  188.5000   -41.4851     0.0525     2.4640     0.1309     7.7772   101.6605     7.7888     8.6562
  189.0000   -41.4851     0.0518     2.4592     0.1330     7.8598   100.4265     7.8858     8.7631
  189.5000   -41.4851     0.0525     2.4543     0.1368     7.8848    99.7174     7.9841     8.8713
  190.0000   -41.4851     0.0531     2.4449     0.1406     7.9112    99.4186     8.0835     8.9808
  190.5000   -41.4851     0.0536     2.4364     0.1417     7.9375    97.1773     8.1937     9.0917
  191.0000   -41.4851     0.0641     2.4363     0.1414     7.9637    96.6722     8.2027     9.1553
  191.5000   -41.4851     0.0804     2.4374     0.1410     7.9903    95.5786     8.2114     9.1553
  192.0000   -41.4851     0.0963     2.4399     0.1401     7.9912    97.4729     8.2201     9.1553
  192.5000   -41.4851     0.1123     2.4423     0.1374     7.9868   100.5565     8.2288     9.1553
  193.0000   -41.4851     0.1283     2.4504     0.1319     7.9818   100.4962     8.2374     9.1641
  193.5000   -41.4851     0.1426     2.4610     0.1265     7.9771   101.9356     8.2460     9.2210
  194.0000   -41.4851     0.1360     2.4716     0.1235     7.9387   101.9591     8.2546     9.2783
  194.5000   -41.4851     0.1285     2.4790     0.1255     7.8741    99.4493     8.2641     9.3359
  195.0000   -41.4851     0.1003     2.4744     0.1269     7.8139    97.9331     8.2694     9.4125
  195.5000   -41.4851     0.0680     2.4700     0.1262     7.7769    98.7968     8.1677     9.3440
  196.0000   -41.4851     0.0629     2.4698     0.1257     7.7462   101.5039     8.0886     9.2413
  196.5000   -41.4851     0.0617     2.4673     0.1318     7.7163   102.9067     8.0435     9.1399
  197.0000   -41.4851     0.0617     2.4546     0.1385     7.7102   101.2656     8.0435     9.0398
  197.5000   -41.4851     0.0642     2.4415     0.1435     7.7399    99.7035     8.0435     8.9408
  198.0000   -41.4851     0.0705     2.4296     0.1460     7.7936    98.1721     7.9002     8.8429
  198.5000   -41.4851     0.0783     2.4301     0.1458     7.8916    98.2670     7.7581     8.7416
  199.0000   -41.4851     0.0936     2.4304     0.1448     7.9908    99.2860     7.6184     8.7409
  199.5000   -41.4851     0.1173     2.4303     0.1372     8.0261    98.5009     7.4700     8.7417
  200.0000   -41.4851     0.1422     2.4501     0.1272     8.0434    97.6923     7.5955     8.7416
  200.5000   -41.4851     0.1618     2.4768     0.1172     8.0699    98.5911     7.7349     8.7416
  201.0000   -41.4851     0.1537     2.4917     0.1158     8.1288    96.7009     7.8769     8.7416
  201.5000   -41.4851     0.1287     2.4927     0.1154     8.1865    97.8968     7.8962     8.7410
  202.0000   -41.4851     0.1042     2.4918     0.1161     8.2438    99.4985     7.8962     8.7600
  202.5000   -41.4851     0.0894     2.4904     0.1178     8.2544    98.8298     7.8962     8.7814
  203.0000   -41.4851     0.0795     2.4890     0.1179     8.2569    99.7025     7.8962     8.8031
  203.5000   -41.4851     0.0705     2.4905     0.1157     8.2591   100.9072     7.9982     8.8248
  204.0000   -41.4851     0.0657     2.4938     0.1150     8.2614   102.1301     8.0713     8.8465
  204.5000   -41.4851     0.0637     2.4913     0.1179     8.2638   103.0256     8.1450     8.8683
  205.0000   -41.4851     0.0637     2.4886     0.1182     8.2661   103.3835     8.1937     8.8901
  205.5000   -41.4851     0.0637     2.4869     0.1178     8.2684   102.3865     8.1937     8.9120
  206.0000   -41.4851     0.0634     2.4876     0.1177     8.2708    99.2019     8.1937     8.9340
  206.5000   -41.4851     0.0611     2.4884     0.1188     8.2723   100.1986     8.1938     8.9560
  207.0000   -41.4851     0.0572     2.4888     0.1209     8.2723   101.8000     8.1932     8.9780
  207.5000   -41.4851     0.0488     2.4764     0.1269     8.2723   103.0369     8.1931     9.0001
  208.0000   -41.4851     0.0422     2.4625     0.1298     8.2723   102.7499     8.2640     9.0223
  208.5000   -41.4851     0.0464     2.4588     0.1289     8.2723   100.5983     8.3305     9.0445
  209.0000   -41.4851     0.0508     2.4658     0.1244     8.2729    97.9954     8.3975     9.0668
  209.5000   -41.4851     0.0551     2.4757     0.1203     8.2736   100.4209     8.4736     9.1367
  210.0000   -41.4851     0.0554     2.4848     0.1181     8.2742   101.3083     8.5557     9.2186
  210.5000   -41.4851     0.0551     2.4850     0.1178     8.2749   103.3847     8.6387     9.3012
  211.0000   -41.4851     0.0547     2.4848     0.1179     8.2756   104.7116     8.7225     9.3846
  211.5000   -41.4851     0.0544     2.4844     0.1181     8.2763   101.2528     8.8069     9.4686
  212.0000   -41.4851     0.0541     2.4841     0.1182     8.2770    97.4900     8.8925     9.5535
  212.5000   -41.4851     0.0538     2.4839     0.1184     8.2776    95.2060     8.9875     9.6391
  213.0000   -41.4851     0.0534     2.4851     0.1177     8.2783    96.0195     9.0798     9.7255
  213.5000   -41.4851     0.0531     2.4881     0.1165     8.2790   102.7768     9.1837     9.8126
  214.0000   -41.4851     0.0528     2.4913     0.1152     8.2797   107.8634     9.2888     9.9005
  214.5000   -41.4851     0.0525     2.4941     0.1153     8.2804   109.4169     9.3950     9.9672
  215.0000   -41.4851     0.0521     2.4932     0.1154     8.2810   110.1813     9.4163    10.0075
  215.5000   -41.4851     0.0518     2.4924     0.1155     8.2817   104.8641     9.4316    10.0479
  216.0000   -41.4851     0.0508     2.4916     0.1156     8.2824   103.8215     9.4469    10.0883
  216.5000   -41.4851     0.0491     2.4908     0.1157     8.2831   101.5086     9.4623    10.1289
  217.0000   -41.4851     0.0475     2.4901     0.1168     8.2837   101.4975     9.4777    10.1697
  217.5000   -41.4851     0.0458     2.4891     0.1177     8.2844   101.8748     9.4931    10.2106
  218.0000   -41.4851     0.0441     2.4874     0.1182     8.2851   102.9563     9.5315    10.3019
  218.5000   -41.4851     0.0439     2.4857     0.1184     8.2858   106.0951     9.7825    10.4386
  219.0000   -41.4851     0.0443     2.4840     0.1187     8.2865   109.1427    10.0402    10.5772
  219.5000   -41.4851     0.0447     2.4823     0.1191     8.2872   109.6093    10.2736    10.7176
  220.0000   -41.4851     0.0451     2.4809     0.1186     8.2878   108.5652    10.4307    10.8599
  220.5000   -41.4851     0.0453     2.4842     0.1162     8.2885   106.1276    10.5903    11.0040
  221.0000   -41.4851     0.0526     2.4921     0.1117     8.2892   103.7227    10.7390    11.1501
  221.5000   -41.4851     0.0603     2.5000     0.1072     8.2899   102.9954    10.8452    11.2981
  222.0000   -41.4851     0.0615     2.5080     0.1070     8.2906   100.4448    10.9530    11.4481
  222.5000   -41.4851     0.0577     2.5098     0.1105     8.2913    99.9810    11.0618    11.6001
  223.0000   -41.4851     0.0537     2.5052     0.1140     8.2918   101.8236    11.1718    11.7540
  223.5000   -41.4851     0.0496     2.4943     0.1185     8.2873   102.6465    11.2207    11.9103
  224.0000   -41.4851     0.0490     2.4869     0.1169     8.2711   101.8522    11.2015    12.0682
  224.5000   -41.4851     0.0515     2.4911     0.1141     8.2554    99.7500    11.1813    12.2284
  225.0000   -41.4851     0.0536     2.4957     0.1128     8.2398    99.5996    11.1609    12.4223
  225.5000   -41.4851     0.0512     2.4981     0.1157     8.2242   106.0171    11.1407    12.3440
  226.0000   -41.4851     0.0484     2.4906     0.1208     8.2126   104.8516    11.1206    12.2322
  226.5000   -41.4851     0.0477     2.4800     0.1245     8.2129   103.4603    10.9872    12.1214
  227.0000   -41.4851     0.0476     2.4733     0.1236     8.2129   100.0992    10.8380    12.0116
