~VERSION INFORMATION
 VERS.                2.0:   CWLS LOG ASCII STANDARD - VERSION 2.0
 WRAP.                 NO:   ONE LINE PER DEPTH STEP
~WELL INFORMATION
#MNEM.UNIT      DATA TYPE    INFORMATION
#----------   ------------   ------------------------------
 STRT.F           16.0000:   START DEPTH
 STOP.F          484.5000:   STOP DEPTH
 STEP.F            0.5000:   STEP LENGTH
 NULL.          -999.2500:   NO VALUE
 COMP. FENIX & SCISSON INC:   COMPANY
 WELL. NPR 3 #83 SX 10-10:   WELL
 FLD .             TEAPOT:   FIELD
 LOC .      S10 T38N R78W:   LOCATION
 CNTY.            NATRONA:   COUNTY
 STAT.            WYOMING:   STATE
 CTRY. UNITED STATES OF AMERICA:   COUNTRY
 SRVC.           BIRDWELL:   SERVICE COMPANY
 DATE.        25-NOV-1978:   LOGDATE
 API .       490251075200:   API NUMBER
~CURVE INFORMATION
#MNEM.UNIT       API CODE    CURVE DESCRIPTION
#----------   ------------   ------------------------------
 DEPT.F                  :   
 SPR .MV     05 010 01 00:   SPONTANEOUS POTENTIAL FROM RES.
 SN  .OHMM   05 040 16 00:   SHORT NORMAL 16"
 IL  .OHMM   05 120 00 00:   INDUCTION LOG
 CALD.IN     45 280 60 00:   CALIPER
 GRD .GAPI   45 310 01 00:   GAMMA RAY FROM DENSITY LOG
 CORR.G/C3   45 356 01 00:   DENSITY CORRECTION
 DPHI.DEC    45 890 12 00:   DENSITY POROSITY SANDSTONE
 RHOB.G/C3   45 350 01 00:   BULK DENSITY
~PARAMETER INFORMATION
#MNEM.UNIT          VALUE    DESCRIPTION
#----------   ------------   ------------------------------
 PD  .                 GL:   PERMANENT DATUM
 EPD .F              5145:   ELEVATION PERMANENT DATUM
 LMF .                 KB:   LOG MEASURED FROM
 DAPD.F                 4:   FEET ABOVE PERMANENT DATUM
 DMF .                 KB:   DRILLING MEASURED FROM
 EKB .F              5149:   KELLING BUSHING
 EGL .F              5145:   GROUND LEVEL
 DATE.           11-25-78:   RUN DATE
 RUN .                  1:   RUN NUMBER
 DD  .F               490:   DEPTH DRILLER
 DL  .F               487:   DEPTH LOGGER
 BLI .F               481:   BOTTOM LOG INTERVAL
 TLI .F                30:   TOP LOG INTERVAL
 CS  .IN            8.625:   CASING SIZE
 CBD .F                40:   CASING BOTTOM DRILLER
 CBL .F                35:   CASING BOTTOM LOGGER
 BS  .IN            7.875:   BIT SIZE
 BSD .F               490:   BIT SIZE AT DEPTH
 DFT .             SEAMUD:   DRILLING FLUID TYPE
 DFD .                8.8:   DRILLING FLUID DENSITY
 DFV .                 38:   DRILLING FLUID VISCOSITY
 DFPH.               11.1:   DRILLING FLUID PH
 DFL .                9.6:   DRILLING FLUID LOSS
 MSS .           FLOWLINE:   MUD SAMPLE SOURCE
 RMS .OHMM            .28:   RESISTIVITY MUD SAMPLE
 MST .F                58:   MUD SAMPLE TEMPERATURE
 RMF .OHMM            .25:   RESISTIVITY MUD FILTRATE SAMPLE
 MFST.F                70:   MUD FILTRATE SAMPLE TEMPERATURE
 RMC .OHMM             .3:   RESISTIVITY MUD CAKE
 MCST.F                70:   MUD CAKE SAMPLE TEMPERATURE
 MFSS.           MEASURED:   MUD FILTRATE SAMPLE SOURCE
 MCSS.           MEASURED:   MUD CAKE SAMPLE SOURCE
 BHT .F                58:   BOTTOM HOLE TEMPERATURE
 TCS .HRS               3:   TIME CURCULATED STOPPED
 MRT .F                58:   MAXIMUM RECORDED TEMPERATURE
 LUN .               3029:   LOGGING UNIT NUMBER
 LUL .               CASP:   LOGGING UNIT LOCATION
 ENGI.           REYNOLDS:   RECORDING ENGINEER
 WITN.           DINSMORE:   WITNESSED BY
 CLNT.            A2DTECH:   CLIENT CODE
 ORIG.     1", 2.5" PRINT:   ORIGIN OF DATA
 UWI .       490251075200:   UNIQUE WELL ID
 DICO. A2D Technologies, Inc.:   DIGITIZING COMPANY
~OTHER INFORMATION
~A   DEPT      SPR         SN         IL       CALD         GRD      CORR       DPHI       RHOB   
# ...
  340.0000   -45.1570    15.5490    17.6800     7.5600    80.5620     0.1060     0.1530     2.4340
  340.5000   -45.2400    15.2790    17.4630     7.5350    81.2290     0.1060     0.1370     2.4580
  341.0000   -45.3220    15.1540    17.2470     7.5350    83.1250     0.1040     0.1310     2.4660
  341.5000   -45.4040    15.0150    17.0310     7.5490    84.8310     0.1010     0.1310     2.4690
  342.0000   -45.4870    14.8760    16.8140     7.5600    86.6400     0.0910     0.1330     2.4660
  342.5000   -45.5690    14.7370    16.5980     7.5720    88.1130     0.0770     0.1410     2.4550
  343.0000   -45.6520    14.5980    16.3810     7.5840    88.7360     0.0630     0.1500     2.4430
  343.5000   -45.7330    14.4600    16.1650     7.5960    89.3750     0.0500     0.1580     2.4300
  344.0000   -45.8170    14.3210    15.9480     7.6070    89.7880     0.0370     0.1670     2.4170
  344.5000   -45.8980    14.1820    15.7320     7.6190    91.6310     0.0340     0.1730     2.4040
  345.0000   -45.9670    14.0430    15.5160     7.6300    94.9070     0.0320     0.1730     2.3980
  345.5000   -45.8180    13.9040    15.2990     7.6440    95.0250     0.0360     0.1640     2.4050
  346.0000   -45.6440    13.7650    15.0830     7.6380    93.2980     0.0440     0.1550     2.4220
  346.5000   -45.4660    13.6270    14.8660     7.6070    92.0850     0.0520     0.1460     2.4350
  347.0000   -45.2970    13.4880    14.6500     7.5810    90.4320     0.0600     0.1380     2.4520
  347.5000   -45.1140    13.4170    14.4510     7.5520    91.7970     0.0580     0.1400     2.4610
  348.0000   -44.9520    13.4550    14.5360     7.5240    94.6720     0.0500     0.1410     2.4560
  348.5000   -44.7700    13.5120    14.6140     7.4970    98.1440     0.0420     0.1420     2.4520
  349.0000   -44.9660    13.5690    14.6930     7.4680    96.6970     0.0350     0.1470     2.4410
  349.5000   -45.3290    13.6250    14.7710     7.4420    91.9790     0.0270     0.1520     2.4290
  350.0000   -45.6490    13.6820    14.8500     7.4090    90.4210     0.0220     0.1570     2.4250
  350.5000   -45.9830    13.7400    14.9280     7.4230    90.6050     0.0190     0.1600     2.4210
  351.0000   -46.3110    13.7970    15.0070     7.4640    90.2160     0.0150     0.1620     2.4170
  351.5000   -46.6440    13.8540    15.0850     7.5030    87.8310     0.0120     0.1650     2.4130
  352.0000   -46.9710    13.9250    15.1640     7.5420    85.5760     0.0090     0.1660     2.4090
  352.5000   -47.3060    13.8930    15.2790     7.5820    85.8900     0.0120     0.1640     2.4090
  353.0000   -47.6320    13.8000    15.1900     7.6210    86.6590     0.0180     0.1600     2.4190
  353.5000   -47.9640    13.7060    15.0250     7.6650    87.4490     0.0210     0.1570     2.4290
  354.0000   -47.9930    13.6130    14.8590     7.6910    88.0400     0.0220     0.1520     2.4400
  354.5000   -47.9970    13.5190    14.6930     7.6740    90.0490     0.0230     0.1480     2.4490
  355.0000   -47.9570    13.4260    14.5270     7.6590    93.6510     0.0240     0.1430     2.4520
  355.5000   -47.8780    13.3330    14.3610     7.6420    95.7650     0.0250     0.1390     2.4540
  356.0000   -47.8020    13.2400    14.1960     7.6260    97.0890     0.0260     0.1340     2.4590
  356.5000   -47.7260    13.1560    14.0300     7.6100    98.2580     0.0280     0.1350     2.4650
  357.0000   -47.6500    13.1020    13.8640     7.5940    98.2160     0.0260     0.1390     2.4580
  357.5000   -47.5720    13.0480    13.6680     7.5780    97.5960     0.0190     0.1440     2.4480
  358.0000   -47.4990    12.9930    13.6680     7.5610    96.1910     0.0130     0.1490     2.4420
  358.5000   -47.4190    12.9270    13.6680     7.5450    94.6920     0.0080     0.1510     2.4380
  359.0000   -47.3470    13.3880    14.3560     7.5290    93.7380     0.0070     0.1530     2.4350
  359.5000   -47.2690    13.9690    14.9300     7.5130    89.4810     0.0060     0.1550     2.4280
  360.0000   -47.1550    14.5500    15.5040     7.4960    82.7130     0.0060     0.1640     2.4230
  360.5000   -46.5580    15.1310    16.0780     7.4800    76.7230     0.0040     0.1820     2.3940
  361.0000   -45.8940    16.2880    17.2740     7.4640    70.4520     0.0060     0.2010     2.3500
  361.5000   -45.2300    17.6420    19.6740     7.4480    67.5590     0.0130     0.2220     2.3330
  362.0000   -44.5710    18.9970    22.0750     7.4320    67.6100     0.0270     0.2050     2.3260
  362.5000   -43.9080    20.3510    24.4760     7.4150    67.4990     0.0340     0.1860     2.3680
  363.0000   -43.2490    21.7060    26.8760     7.4050    67.0550     0.0330     0.1670     2.4080
  363.5000   -42.5800    23.0600    29.2770     7.4230    66.3830     0.0250     0.1550     2.4360
  364.0000   -41.9380    24.4150    31.6780     7.4490    66.6280     0.0190     0.1710     2.4210
  364.5000   -41.2260    25.6980    33.9520     7.4720    66.8880     0.0110     0.2000     2.3680
  365.0000   -41.0220    25.8550    36.0990     7.4960    69.5550     0.0080     0.2240     2.3190
  365.5000   -42.0350    26.0030    37.2560     7.5210    72.3730     0.0080     0.2300     2.3040
  366.0000   -42.6850    26.1800    37.1400     7.5440    75.7340     0.0080     0.2280     2.3070
  366.5000   -42.1910    26.0000    37.0270     7.5670    77.0730     0.0080     0.2290     2.3070
  367.0000   -41.7380    25.7800    36.9140     7.5680    78.7660     0.0100     0.2300     2.3080
  367.5000   -41.2510    25.5590    36.8010     7.5690    79.1280     0.0130     0.2330     2.3020
  368.0000   -40.7950    25.3390    36.6880     7.5680    77.9670     0.0160     0.2360     2.2970
  368.5000   -40.3140    25.1180    36.5700     7.5690    76.4570     0.0160     0.2380     2.2920
  369.0000   -39.8550    24.8980    36.1260     7.5680    74.9450     0.0160     0.2390     2.2900
  369.5000   -39.3660    24.6770    35.3180     7.5690    74.9180     0.0160     0.2370     2.2970
  370.0000   -39.1240    24.4570    34.5110     7.5690    75.0790     0.0150     0.2270     2.3070
  370.5000   -39.2880    24.2360    33.7040     7.5690    75.0360     0.0250     0.2020     2.3470
  371.0000   -39.4980    23.8580    32.8970     7.5690    73.5920     0.0460     0.1760     2.3920
  371.5000   -39.6950    23.8940    32.0900     7.5690    71.8730     0.0670     0.1500     2.4380
  372.0000   -39.8940    24.0160    31.2820     7.5690    73.0590     0.0700     0.1310     2.5020
  372.5000   -40.0920    24.1390    30.4750     7.5680    75.8000     0.0630     0.1170     2.4970
  373.0000   -40.2910    24.3060    29.6680     7.5650    77.0190     0.0610     0.1380     2.4630
  373.5000   -40.4890    24.2880    28.7270     7.5620    76.4230     0.0640     0.1560     2.4270
  374.0000   -40.6880    24.2130    28.8190     7.5590    74.6410     0.0660     0.1740     2.3910
  374.5000   -40.8850    24.1380    28.9300     7.5560    73.7070     0.0690     0.2030     2.3630
  375.0000   -41.0850    24.0620    29.0410     7.5530    73.4410     0.0720     0.1990     2.3520
  375.5000   -41.2080    23.9860    29.1520     7.5500    72.0420     0.0750     0.1900     2.3650
  376.0000   -41.2730    23.9110    29.2650     7.5470    69.4060     0.0740     0.1810     2.3950
  376.5000   -41.3430    23.8350    29.2650     7.5440    69.5020     0.0690     0.1600     2.4240
  377.0000   -41.4100    23.7590    29.2650     7.5410    70.5160     0.0640     0.1390     2.4500
  377.5000   -41.4790    23.6840    29.2650     7.5380    74.6360     0.0590     0.1290     2.4800
  378.0000   -41.5470    23.6080    29.2650     7.5350    81.4540     0.0550     0.1520     2.4490
  378.5000   -41.6160    23.5330    29.2650     7.5320    82.9620     0.0630     0.1750     2.4110
  379.0000   -41.6840    23.4570    29.2650     7.5290    81.7290     0.0710     0.1970     2.3680
  379.5000   -41.7530    23.0400    29.2650     7.5260    82.7390     0.0710     0.2120     2.3400
  380.0000   -41.8210    22.2780    29.0100     7.5230    85.0700     0.0670     0.2110     2.3350
