~VERSION INFORMATION
 VERS.                2.0:   CWLS LOG ASCII STANDARD - VERSION 2.0
 WRAP.                 NO:   ONE LINE PER DEPTH STEP
~WELL INFORMATION
#MNEM.UNIT      DATA TYPE    INFORMATION
#----------   ------------   ------------------------------
 STRT.F            0.0000:   START DEPTH
 STOP.F          534.0000:   STOP DEPTH
 STEP.F            0.1000:   STEP LENGTH
 NULL.          -999.2500:   NO VALUE
 COMP.       F D SERV INC:   COMPANY
 WELL. NAVAL PETROLEUM RESERVE 3 SX-1 #71-2-10:   WELL
 FLD .            N.P.R 3:   FIELD
 LOC .      S10 T38N R78W:   LOCATION
 CNTY.            NATRONA:   COUNTY
 STAT.            WYOMING:   STATE
 CTRY. UNITED STATES OF AMERICA:   COUNTRY
 SRVC.     Atlas Wireline:   SERVICE COMPANY
 DATE.        07-DEC-1992:   LOGDATE
 API .       490252257200:   API NUMBER
~CURVE INFORMATION
#MNEM.UNIT       API CODE    CURVE DESCRIPTION
#----------   ------------   ------------------------------
 DEPT.F                  :   
 GRR .GAPI   07 310 01 00:   GAMMA RAY
 RILD.OHMM   07 120 46 00:   INDUCTION LOG DEEP RESISTIVITY
 RILM.OHMM   07 120 44 00:   RESITIVITY LONG MEDIUM
~PARAMETER INFORMATION
#MNEM.UNIT          VALUE    DESCRIPTION
#----------   ------------   ------------------------------
 PD  .                 GL:   PERMANENT DATUM
 EPD .F              5165:   ELEVATION PERMANENT DATUM
 LMF .                 KB:   LOG MEASURED FROM
 DAPD.F                10:   FEET ABOVE PERMANENT DATUM
 DMF .                 KB:   DRILLING MEASURED FROM
 EKB .F              5175:   KELLING BUSHING
 EDF .F              5174:   DRILLING FLOOR
 EGL .F              5165:   GROUND LEVEL
 DATE.        07-DEC-1992:   RUN DATE
 RUN .                  1:   RUN NUMBER
 DD  .F               540:   DEPTH DRILLER
 DL  .F               542:   DEPTH LOGGER
 BLI .F               534:   BOTTOM LOG INTERVAL
 CS  .IN            8.625:   CASING SIZE
 CBD .F                78:   CASING BOTTOM DRILLER
 CBL .F                82:   CASING BOTTOM LOGGER
 BS  .IN            7.875:   BIT SIZE
 BSD .F               540:   BIT SIZE AT DEPTH
 DFT .           AIR FOAM:   DRILLING FLUID TYPE
 BHT .F                70:   BOTTOM HOLE TEMPERATURE
 MRT .F                70:   MAXIMUM RECORDED TEMPERATURE
 LUN .           HL- 6345:   LOGGING UNIT NUMBER
 LUL .         FT. MORGAN:   LOGGING UNIT LOCATION
 ENGI.             BURLEY:   RECORDING ENGINEER
 WITN.        GARY STRONG:   WITNESSED BY
 CLNT.            A2DTECH:   CLIENT CODE
 ORIG.           5" PRINT:   ORIGIN OF DATA
 UWI .       490252257200:   UNIQUE WELL ID
 DICO. A2D Technologies, Inc.:   DIGITIZING COMPANY
~OTHER INFORMATION
~A    DEPT      GRR      RILD       RILM   
# ...
  109.2000   121.3542     6.8473     6.8929
  109.3000   121.3501     6.8631     6.9331
  109.4000   121.3470     6.8946     6.9521
  109.5000   121.6647     6.8940     6.9519
  109.6000   122.0506     6.8935     6.9517
  109.7000   122.5209     6.8931     6.9515
  109.8000   123.7542     6.8926     6.9513
  109.9000   124.6415     6.8921     6.9794
  110.0000   125.2410     6.8916     7.0202
  110.1000   125.6872     6.8911     7.0498
  110.2000   126.0289     6.8906     7.0496
  110.3000   126.5233     6.8902     7.0494
  110.4000   127.0336     6.9113     7.0492
  110.5000   127.2711     6.9377     7.0758
  110.6000   127.3277     6.9372     7.0988
  110.7000   127.3241     6.9366     7.0986
  110.8000   127.3205     6.9362     7.0994
  110.9000   127.3169     6.9643     7.1486
  111.0000   127.3130     6.9840     7.1484
  111.1000   127.5386     6.9835     7.1482
  111.2000   127.7839     6.9830     7.1480
  111.3000   127.9048     6.9825     7.1478
  111.4000   127.9012     7.0177     7.1476
  111.5000   127.9177     7.0580     7.1885
  111.6000   128.1947     7.0796     7.2305
  111.7000   128.1916     7.0896     7.2488
  111.8000   128.1880     7.1303     7.2637
  111.9000   128.1843     7.1780     7.3061
  112.0000   128.2410     7.1776     7.3515
  112.1000   128.4784     7.2034     7.3513
  112.2000   128.4741     7.2448     7.3825
  112.3000   128.4711     7.2774     7.4256
  112.4000   128.3148     7.2769     7.4554
  112.5000   128.1626     7.3190     7.4596
  112.6000   128.1109     7.3611     7.5079
  112.7000   127.8542     7.3780     7.5077
  112.8000   127.3607     7.3940     7.5376
  112.9000   127.2446     7.4365     7.5606
  113.0000   126.9598     7.4806     7.5603
  113.1000   126.2815     7.4801     7.5601
  113.2000   125.2819     7.4796     7.5599
  113.3000   124.2178     7.5273     7.5597
  113.4000   123.9815     7.5841     7.5761
  113.5000   123.7289     7.5836     7.6019
  113.6000   123.4763     7.5830     7.6276
  113.7000   123.3000     7.5825     7.6534
  113.8000   123.2964     7.5820     7.6791
  113.9000   123.2924     7.5814     7.7049
  114.0000   123.5100     7.5809     7.7307
  114.1000   124.0928     7.5847     7.7564
  114.2000   124.8361     7.6331     7.7822
  114.3000   125.6438     7.6326     7.8079
  114.4000   126.6120     7.6321     7.8295
  114.5000   127.1862     7.6316     7.8292
  114.6000   127.1831     7.6310     7.8290
  114.7000   127.4928     7.6305     7.8631
  114.8000   127.8827     7.6299     7.8841
  114.9000   128.0237     7.6294     7.8839
  115.0000   127.7711     7.6289     7.8837
  115.1000   127.5185     7.6239     7.8834
  115.2000   127.2659     7.6132     7.8832
  115.3000   126.8687     7.6026     7.8830
  115.4000   126.2747     7.5919     7.8828
  115.5000   125.6044     7.5812     7.8826
  115.6000   125.3396     7.5706     7.8823
  115.7000   125.3361     7.5599     7.8821
  115.8000   124.9631     7.5492     7.8420
  115.9000   124.1964     7.5385     7.8261
  116.0000   123.3574     7.5279     7.8053
  116.1000   122.8558     7.5169     7.7705
  116.2000   122.3057     7.5164     7.7703
  116.3000   121.8526     7.5158     7.7700
  116.4000   121.3510     7.5153     7.7698
  116.5000   121.0904     7.5148     7.7696
  116.6000   121.0185     7.5142     7.7694
  116.7000   120.7822     7.5137     7.7692
  116.8000   121.0790     7.5132     7.7690
  116.9000   121.0759     7.5127     7.7687
  117.0000   121.0723     7.5347     7.7685
  117.1000   121.0687     7.5644     7.7683
  117.2000   121.0651     7.5639     7.7681
  117.3000   121.0574     7.5633     7.7679
  117.4000   120.7559     7.5629     7.7676
  117.5000   120.7530     7.5623     7.7674
  117.6000   120.7494     7.5618     7.7338
  117.7000   120.6494     7.5613     7.7122
  117.8000   120.3526     7.5607     7.7120
  117.9000   119.8348     7.5601     7.7068
  118.0000   119.8313     7.5597     7.6572
  118.1000   119.4502     7.5591     7.6570
  118.2000   119.0851     7.5586     7.6568
  118.3000   118.7482     7.5581     7.6566
  118.4000   118.2787     7.5576     7.6564
  118.5000   118.0057     7.5569     7.6561
  118.6000   118.0024     7.5565     7.6559
  118.7000   117.9988     7.5560     7.6944
  118.8000   117.9952     7.5554     7.7098
  118.9000   117.9916     7.5549     7.7096
  119.0000   117.9880     7.5544     7.7200
  119.1000   117.9839     7.5539     7.7639
  119.2000   118.4145     7.5533     7.7637
  119.3000   119.0735     7.5528     7.7635
  119.4000   119.7044     7.5681     7.7633
  119.5000   120.1988     7.6049     7.7630
  119.6000   120.7012     7.6043     7.7628
  119.7000   121.5765     7.6456     7.7626
  119.8000   121.7783     7.6567     7.7624
  119.9000   122.4815     7.6562     7.7622
  120.0000   123.1727     7.6557     7.7619
  120.1000   123.4663     7.6551     7.7617
  120.2000   123.9686     7.6545     7.7615
  120.3000   124.7000     7.6541     7.7613
  120.4000   125.0578     7.6535     7.7611
  120.5000   125.3032     7.6530     7.7608
  120.6000   125.3719     7.6651     7.7606
  120.7000   125.1554     7.7058     7.7604
  120.8000   125.1516     7.7051     7.7602
  120.9000   124.9152     7.7047     7.7599
  121.0000   124.6626     7.7041     7.8005
  121.1000   124.5386     7.7036     7.8146
  121.2000   124.5349     7.7030     7.8144
  121.3000   124.4831     7.7025     7.8142
  121.4000   123.9249     7.7019     7.8167
  121.5000   123.9217     7.7014     7.8692
  121.6000   123.7494     7.7009     7.8690
  121.7000   123.4968     7.7189     7.8687
  121.8000   123.3084     7.7540     7.8685
  121.9000   123.2928     7.7534     7.8683
  122.0000   122.9994     7.7529     7.8681
  122.1000   122.7876     7.7169     7.8678
  122.2000   122.6916     7.6201     7.9049
  122.3000   122.6879     7.6243     7.9511
  122.4000   122.6843     7.6428     7.9793
  122.5000   122.6807     7.6423     7.9876
  122.6000   122.6771     7.6417     8.0355
  122.7000   122.6735     7.6412     8.0352
  122.8000   122.6699     7.6828     8.0711
  122.9000   122.6663     7.7270     8.0918
  123.0000   122.5823     7.7714     8.0916
  123.1000   122.0564     7.8161     8.0979
  123.2000   121.5791     7.8664     8.1486
  123.3000   121.0775     7.9660     8.1928
  123.4000   120.7084     7.9655     8.2060
  123.5000   120.2952     7.9974     8.2304
  123.6000   119.5727     8.0434     8.2785
  123.7000   119.0225     8.0762     8.3268
  123.8000   118.5695     8.0830     8.3810
  123.9000   118.0678     8.1890     8.4244
  124.0000   117.5662     8.1885     8.4400
  124.1000   117.0647     8.2195     8.4630
  124.2000   116.5952     8.2668     8.5124
  124.3000   116.5910     8.3024     8.5596
  124.4000   116.5880     8.3056     8.5593
  124.5000   116.5843     8.4183     8.6441
  124.6000   117.0145     8.4178     8.6808
  124.7000   117.8494     8.4478     8.7022
  124.8000   118.1446     8.4964     8.7530
  124.9000   118.4398     8.5349     8.8037
  125.0000   118.7349     8.5343     8.8035
  125.1000   119.2133     8.5834     8.8861
  125.2000   120.4746     8.6328     8.9284
  125.3000   120.7161     8.6529     8.9282
  125.4000   120.7687     8.6713     8.9370
  125.5000   120.7651     8.7212     8.9910
  125.6000   120.7614     8.7732     9.0417
  125.7000   120.7578     8.7726     9.0544
  125.8000   120.7540     8.8105     9.0541
  125.9000   120.7506     8.8612     9.0718
  126.0000   120.3856     8.8946     9.1248
  126.1000   119.8840     8.9008     9.1823
  126.2000   119.4586     8.9559     9.2317
  126.3000   119.2060     9.0034     9.2856
  126.4000   118.9249     9.0177     9.3124
  126.5000   118.9217     9.0170     9.3121
  126.6000   118.7494     9.0321     9.3165
  126.7000   118.4968     9.0840     9.3777
  126.8000   118.3084     9.1423     9.4257
  126.9000   118.3048     9.1418     9.4437
  127.0000   118.3006     9.1411     9.4435
  127.1000   118.2976     9.1654     9.4571
  127.2000   118.4506     9.2181     9.5123
  127.3000   118.5916     9.2683     9.5772
