~VERSION INFORMATION
 VERS.                2.0:   CWLS LOG ASCII STANDARD - VERSION 2.0
 WRAP.                 NO:   ONE LINE PER DEPTH STEP
~WELL INFORMATION
#MNEM.UNIT      DATA TYPE    INFORMATION
#----------   ------------   ------------------------------
 STRT.F           10.0000:   START DEPTH
 STOP.F          756.0000:   STOP DEPTH
 STEP.F            0.1000:   STEP LENGTH
 NULL.          -999.2500:   NO VALUE
 COMP. BROWN JOHN E&C INC:   COMPANY
 WELL. N P R 3 SHX- #31-1-X-14:   WELL
 FLD .             TEAPOT:   FIELD
 LOC .      S14 T38N R78W:   LOCATION
 CNTY.            NATRONA:   COUNTY
 STAT.            WYOMING:   STATE
 CTRY. UNITED STATES OF AMERICA:   COUNTRY
 SRVC.     Atlas Wireline:   SERVICE COMPANY
 DATE.        07-JAN-1992:   LOGDATE
 API .       490252249700:   API NUMBER
~CURVE INFORMATION
#MNEM.UNIT       API CODE    CURVE DESCRIPTION
#----------   ------------   ------------------------------
 DEPT.F                  :   
 GRR .GAPI   07 310 01 00:   GAMMA RAY
 RFOC.OHMM   07 220 04 00:   RESISTIVITY FOCUSED LOG RES.
 RILD.OHMM   07 120 46 00:   INDUCTION LOG DEEP RESISTIVITY
 RILM.OHMM   07 120 44 00:   INDUCTION LOG MEDIUM  RESISTIVITY
~PARAMETER INFORMATION
#MNEM.UNIT          VALUE    DESCRIPTION
#----------   ------------   ------------------------------
 PD  .                 GL:   PERMANENT DATUM
 EPD .F              5210:   ELEVATION PERMANENT DATUM
 LMF .                 KB:   LOG MEASURED FROM
 DAPD.F                10:   FEET ABOVE PERMANENT DATUM
 DMF .                 KB:   DRILLING MEASURED FROM
 EKB .F              5220:   KELLING BUSHING
 EDF .F              5219:   DRILLING FLOOR
 EGL .F              5210:   GROUND LEVEL
 DATE.        07-JAN-1992:   RUN DATE
 RUN .                  1:   RUN NUMBER
 DD  .F               762:   DEPTH DRILLER
 DL  .F               760:   DEPTH LOGGER
 BLI .F               758:   BOTTOM LOG INTERVAL
 CS  .IN            9.625:   CASING SIZE
 CBD .F                48:   CASING BOTTOM DRILLER
 CBL .F                50:   CASING BOTTOM LOGGER
 BS  .IN             8.75:   BIT SIZE
 BSD .F               762:   BIT SIZE AT DEPTH
 DFT .    FORMATION FLUID:   DRILLING FLUID TYPE
 MRT .F                90:   MAXIMUM RECORDED TEMPERATURE
 LUN .            HL-6274:   LOGGING UNIT NUMBER
 LUL .             CASPER:   LOGGING UNIT LOCATION
 ENGI.             RAUTIC:   RECORDING ENGINEER
 WITN.        GARY STRONG:   WITNESSED BY
 CLNT.            A2DTECH:   CLIENT CODE
 ORIG.           5" PRINT:   ORIGIN OF DATA
 UWI .       490252249700:   UNIQUE WELL ID
 DICO. A2D Technologies, Inc.:   DIGITIZING COMPANY
~OTHER INFORMATION
~A   DEPT       GRR      RFOC       RILD       RILM   
# ...
  375.0000   112.4874     8.8153     7.6104     7.7763
  375.1000   112.2348     8.8156     7.6108     7.7763
  375.2000   111.9375     8.8158     7.6110     7.7763
  375.3000   111.7297     8.8161     7.6114     7.7763
  375.4000   111.4771     8.8163     7.6117     7.7763
  375.5000   111.3384     8.8166     7.6120     7.7763
  375.6000   111.2741     8.8168     7.6123     7.7763
  375.7000   111.0397     8.8171     7.6127     7.7763
  375.8000   111.0419     8.8173     7.6512     7.7763
  375.9000   110.8185     8.7825     7.6664     7.7763
  376.0000   110.7432     8.7565     7.6667     7.7763
  376.1000   110.7450     8.7568     7.6798     7.7807
  376.2000   110.7468     8.7570     7.7208     7.8305
  376.3000   110.7486     8.7573     7.7212     7.8721
  376.4000   110.7505     8.7575     7.7624     7.9182
  376.5000   110.9930     8.7578     7.8082     7.9646
  376.6000   111.0562     8.7580     7.8302     8.0112
  376.7000   111.2032     8.7768     7.8458     8.0581
  376.8000   111.5570     8.8198     7.8921     8.1072
  376.9000   112.0177     8.8200     7.9408     8.1072
  377.0000   112.2759     8.8713     7.9855     8.1438
  377.1000   112.8783     8.8822     8.0326     8.1915
  377.2000   113.2972     8.9141     8.0799     8.2207
  377.3000   113.8077     8.9668     8.1276     8.2303
  377.4000   114.3182     9.0198     8.1755     8.2780
  377.5000   114.8288     9.0731     8.2237     8.2780
  377.6000   115.3038     9.1347     8.2815     8.3178
  377.7000   115.0038     9.1807     8.3210     8.3665
  377.8000   114.5567     9.2350     8.3399     8.3938
  377.9000   114.0498     9.2896     8.3612     8.4062
  378.0000   113.5428     9.3445     8.4105     8.4523
  378.1000   112.9547     9.3943     8.4600     8.4523
  378.2000   112.1934     9.3946     8.5171     8.4955
  378.3000   111.3892     9.4451     8.5174     8.5453
  378.4000   110.9109     9.4609     8.5510     8.5705
  378.5000   110.4039     9.4907     8.5775     8.5858
  378.6000   110.0415     9.5276     8.5922     8.6302
  378.7000   109.8858     9.5365     8.6381     8.6302
  378.8000   109.8876     9.5948     8.6385     8.6302
  378.9000   109.8894     9.5951     8.6846     8.6675
  379.0000   109.8916     9.5953     8.6994     8.6904
  379.1000   109.8931     9.5956     8.7265     8.6904
  379.2000   110.0552     9.6184     8.7608     8.6989
  379.3000   110.3114     9.6633     8.7612     8.7510
  379.4000   110.5676     9.6635     8.7616     8.7510
  379.5000   110.8410     9.6638     8.7619     8.7510
  379.6000   111.4129     9.7115     8.8014     8.7817
  379.7000   111.8620     9.7320     8.8533     8.8120
  379.8000   112.3726     9.7584     8.8857     8.8120
  379.9000   112.7549     9.8006     8.8960     8.8120
  380.0000   113.0111     9.8054     8.9484     8.8120
  380.1000   113.2344     9.8697     9.0113     8.8554
  380.2000   113.2364     9.8700     9.0116     8.8734
  380.3000   113.2381     9.8703     9.0447     8.8974
  380.4000   113.2399     9.8705     9.0980     8.9352
  380.5000   113.2417     9.8897     9.1389     8.9396
  380.6000   113.2435     9.9402     9.1418     8.9975
  380.7000   113.2453     9.9405     9.2035     9.0446
  380.8000   113.2471     9.9962     9.2500     9.0976
  380.9000   113.2493    10.0105     9.2684     9.1509
  381.0000   113.2508    10.0445     9.2946     9.1870
  381.1000   113.2526    10.1038     9.3494     9.1943
  381.2000   113.2544    10.1520     9.4046     9.2510
  381.3000   113.1920    10.1525     9.4653     9.3023
  381.4000   112.9394    10.2236     9.5158     9.3568
  381.5000   112.6558    10.3224     9.5720     9.4116
  381.6000   112.4342    10.4060     9.6581     9.4667
  381.7000   112.0061    10.4947     9.7528     9.5327
  381.8000   111.3715    10.6030     9.8186     9.6447
  381.9000   110.5303    10.6657     9.9397     9.7119
  382.0000   109.5146    10.7367     9.9956     9.7579
  382.1000   108.4370    10.7922    10.0996     9.8151
  382.2000   107.7220    10.8999    10.1844     9.8975
  382.3000   106.9607    10.9966    10.2445     9.9996
  382.4000   106.3428    11.0616    10.3049    10.0611
  382.5000   105.8358    11.1192    10.3656    10.1958
  382.6000   105.3289    11.1195    10.4385    10.2472
  382.7000   104.8224    11.1807    10.4883    10.3480
  382.8000   104.8245    11.1979    10.5502    10.4695
  382.9000   104.8260    11.2347    10.6124    10.5742
  383.0000   104.8278    11.3011    10.6601    10.6426
  383.1000   104.9410    11.3678    10.6635    10.7784
  383.2000   105.1335    11.4359    10.7354    10.8361
  383.3000   105.1512    11.5026    10.7897    10.8995
  383.4000   105.4395    11.5165    10.8112    10.9634
  383.5000   105.6636    11.5582    10.8418    11.0053
  383.6000   105.7450    11.6265    10.9057    11.0154
  383.7000   105.8739    11.6792    10.9639    11.0820
  383.8000   106.0508    11.6795    10.9644    11.1448
  383.9000   106.0842    11.6799    11.0229    11.1593
  384.0000   106.3566    11.6802    11.0417    11.1977
  384.1000   106.3583    11.7264    11.0761    11.2632
  384.2000   106.3601    11.7626    11.1414    11.3154
  384.3000   106.3619    11.7629    11.1977    11.3154
  384.4000   106.4589    11.7632    11.1982    11.3154
  384.5000   106.6677    11.7636    11.2612    11.3154
  384.6000   106.6695    11.8271    11.2772    11.3154
  384.7000   106.6716    11.8465    11.2777    11.3452
  384.8000   106.4668    11.8468    11.2782    11.3943
  384.9000   106.3728    11.8472    11.2787    11.3943
  385.0000   106.1531    11.8475    11.2791    11.3943
  385.1000   105.5201    11.8478    11.2797    11.3943
  385.2000   104.4889    11.7810    11.2801    11.3943
  385.3000   103.0570    11.7662    11.2805    11.3943
  385.4000   102.1708    11.7665    11.3093    11.3943
  385.5000   101.5036    11.7668    11.3602    11.3943
  385.6000   101.2495    11.7523    11.3606    11.3943
  385.7000   101.2514    11.6857    11.3612    11.3943
  385.8000   101.2842    11.6861    11.3616    11.3943
  385.9000   101.5572    11.6864    11.3621    11.3943
  386.0000   102.0343    11.6867    11.3625    11.3943
  386.1000   102.9247    11.6870    11.3630    11.3943
  386.2000   104.5126    11.6873    11.3635    11.3943
  386.3000   106.3605    11.6877    11.3640    11.3943
  386.4000   107.7952    11.6880    11.3644    11.3943
  386.5000   108.8187    11.6883    11.3649    11.3943
  386.6000   109.7272    11.6404    11.3654    11.3943
  386.7000   109.9344    11.6078    11.3438    11.3943
  386.8000   110.1906    11.6081    11.2875    11.3943
  386.9000   110.3366    11.6084    11.2881    11.3943
  387.0000   110.3384    11.6087    11.2885    11.3943
  387.1000   110.3254    11.6091    11.2890    11.3943
  387.2000   110.0401    11.6094    11.2895    11.3943
  387.3000   109.8204    11.5707    11.2899    11.3943
  387.4000   109.2205    11.5294    11.2779    11.3943
  387.5000   108.5850    11.5297    11.2127    11.3943
  387.6000   108.0000    11.5300    11.2132    11.3345
  387.7000   107.2691    11.5304    11.2136    11.3154
  387.8000   106.7276    11.5306    11.1737    11.3154
  387.9000   106.4922    11.5310    11.1369    11.3154
  388.0000   106.4290    11.5313    11.1219    11.3060
  388.1000   106.5724    11.5316    11.0606    11.2371
  388.2000   106.7347    11.5319    11.0612    11.2371
  388.3000   106.7827    11.5323    11.0064    11.1871
  388.4000   107.0405    11.5326    10.9854    11.1593
  388.5000   107.3448    11.4864    10.9554    11.1343
  388.6000   107.7562    11.4531    10.8921    11.0695
  388.7000   108.2668    11.4534    10.8291    11.0050
  388.8000   108.6679    11.4537    10.7605    10.9292
  388.9000   108.9240    11.4541    10.7043    10.9292
  389.0000   109.1802    11.4544    10.6868    10.8893
  389.1000   109.4703    11.4047    10.6547    10.8535
  389.2000   109.2511    11.3754    10.5931    10.8379
  389.3000   109.1716    11.3757    10.5318    10.7748
  389.4000   108.9228    11.3760    10.4680    10.7038
  389.5000   108.5710    11.3764    10.4104    10.7038
