~VERSION INFORMATION
 VERS.                2.0:   CWLS LOG ASCII STANDARD - VERSION 2.0
 WRAP.                 NO:   ONE LINE PER DEPTH STEP
~WELL INFORMATION
#MNEM.UNIT      DATA TYPE    INFORMATION
#----------   ------------   ------------------------------
 STRT.M            0.0000:   START DEPTH
 STOP.M          642.0000:   STOP DEPTH
 STEP.M            0.1000:   STEP LENGTH
 NULL.          -999.2500:   NO VALUE
 COMP.   FLUOR DANIEL INC:   COMPANY
 WELL.     71-1 X 3 #71-3:   WELL
 FLD .             TEAPOT:   FIELD
 LOC .       S3 T38N R78W:   LOCATION
 CNTY.            NATRONA:   COUNTY
 STAT.            WYOMING:   STATE
 CTRY. UNITED STATES OF AMERICA:   COUNTRY
 SRVC.      Western Atlas:   SERVICE COMPANY
 DATE.        04-JAN-1995:   LOGDATE
 API .       490252267900:   API NUMBER
~CURVE INFORMATION
#MNEM.UNIT       API CODE    CURVE DESCRIPTION
#----------   ------------   ------------------------------
 DEPT.M                  :   
 RILD.OHMM   07 120 46 00:   INDUCTION LOG DEEP RESISTIVITY
 RILM.OHMM   07 120 44 00:   INDUCTION LOG MEDIUM RESISTIVITY
 GRR .GAPI   07 310 01 00:   GAMMA RAY
~PARAMETER INFORMATION
#MNEM.UNIT          VALUE    DESCRIPTION
#----------   ------------   ------------------------------
 PD  .                 GL:   PERMANENT DATUM
 EPD .F              5123:   ELEVATION PERMANENT DATUM
 LMF .                 KB:   LOG MEASURED FROM
 DAPD.F                10:   FEET ABOVE PERMANENT DATUM
 DMF .                 KB:   DRILLING MEASURED FROM
 EKB .F              5133:   KELLING BUSHING
 EDF .F              5132:   DRILLING FLOOR
 EGL .F              5123:   GROUND LEVEL
 DATE.        04-JAN-1995:   RUN DATE
 RUN .                  1:   RUN NUMBER
 DD  .F               647:   DEPTH DRILLER
 DL  .F               650:   DEPTH LOGGER
 BLI .F               642:   BOTTOM LOG INTERVAL
 TLI .F                96:   TOP LOG INTERVAL
 CS  .IN            9.625:   CASING SIZE
 CBD .F                96:   CASING BOTTOM DRILLER
 CBL .F                96:   CASING BOTTOM LOGGER
 BS  .IN             8.75:   BIT SIZE
 BSD .F               647:   BIT SIZE AT DEPTH
 DFT .                AIR:   DRILLING FLUID TYPE
 MRT .F                91:   MAXIMUM RECORDED TEMPERATURE
 LUN .            HL 6530:   LOGGING UNIT NUMBER
 LUL .             CASPER:   LOGGING UNIT LOCATION
 ENGI.        VERN RAUTIO:   RECORDING ENGINEER
 WITN.        GARY STRONG:   WITNESSED BY
 CLNT.            A2DTECH:   CLIENT CODE
 ORIG.           5" PRINT:   ORIGIN OF DATA
 UWI .       490252267900:   UNIQUE WELL ID
 DICO. A2D Technologies, Inc.:   DIGITIZING COMPANY
~OTHER INFORMATION
~A    DEPT    RILD       RILM        GRR   
# ...
  509.6000    12.6600    12.4378    96.3964
  509.7000    12.6597    12.4375    96.0017
  509.8000    12.6593    12.4371    95.6101
  509.9000    12.6590    12.4368    95.3680
  510.0000    12.6586    12.4364    95.1059
  510.1000    12.6583    12.5068    95.1082
  510.2000    12.6579    12.5224    95.1106
  510.3000    12.6576    12.5221    95.1130
  510.4000    12.6350    12.5217    95.1670
  510.5000    12.5693    12.5214    95.4200
  510.6000    12.5689    12.5210    96.1377
  510.7000    12.5686    12.5207    96.6928
  510.8000    12.5683    12.5203    97.3075
  510.9000    12.5679    12.5200    98.0436
  511.0000    12.5676    12.5196    98.7795
  511.1000    12.5672    12.5193    99.5154
  511.2000    12.5669    12.5189    99.8615
  511.3000    12.5665    12.5186   100.1084
  511.4000    12.5662    12.5182   100.1958
  511.5000    12.5658    12.5179    99.9316
  511.6000    12.5655    12.5175    99.3744
  511.7000    12.5651    12.5171    98.7493
  511.8000    12.5648    12.4562    97.7152
  511.9000    12.5250    12.4299    96.5888
  512.0000    12.4772    12.4295    95.6495
  512.1000    12.4768    12.4162    94.8546
  512.2000    12.4764    12.3428    94.1873
  512.3000    12.4152    12.3424    93.6217
  512.4000    12.3895    12.3421    93.1350
  512.5000    12.3892    12.3418    92.7492
  512.6000    12.3888    12.3414    92.7517
  512.7000    12.3885    12.3368    92.2795
  512.8000    12.3219    12.2552    91.9726
  512.9000    12.2522    12.1970    91.7306
  513.0000    12.2167    12.1698    91.6172
  513.1000    12.2163    12.1695    91.8643
  513.2000    12.2137    12.1579    92.1112
  513.3000    12.1311    12.0845    92.5519
  513.4000    12.1308    12.0842    93.0433
  513.5000    12.1109    12.0839    93.5347
  513.6000    12.0765    12.0501    94.0052
  513.7000    12.0459    11.9996    94.2892
  513.8000    12.0456    11.9992    94.7069
  513.9000    12.0453    11.9988    95.0481
  514.0000    12.0227    11.9986    95.3877
  514.1000    11.9885    11.9982    95.8790
  514.2000    11.9543    11.9922    96.4159
  514.3000    11.9203    11.9762    96.6401
  514.4000    11.8864    11.9602    96.8871
  514.5000    11.8772    11.9442    97.2408
  514.6000    11.8429    11.9282    97.6830
  514.7000    11.7944    11.9132    97.9385
  514.8000    11.7941    11.9128    98.1768
  514.9000    11.7937    11.9125    98.6021
  515.0000    11.7662    11.9122    98.9728
  515.1000    11.7328    11.9119    99.2198
  515.2000    11.7112    11.9115    99.4723
  515.3000    11.7109    11.9112    99.9638
  515.4000    11.7105    11.9109   100.0701
  515.5000    11.7102    11.9106   100.2074
  515.6000    11.6656    11.9102   100.3770
  515.7000    11.6286    11.9099   100.3596
  515.8000    11.6283    11.9096   100.0801
  515.9000    11.6279    11.9092    99.6688
  516.0000    11.5633    11.9089    99.1823
  516.1000    11.5469    11.9086    98.6957
  516.2000    11.5466    11.9082    98.2091
  516.3000    11.5462    11.9079    97.6752
  516.4000    11.5459    11.9076    96.7945
  516.5000    11.5455    11.9072    95.8187
  516.6000    11.5453    11.9069    95.0542
  516.7000    11.5450    11.9066    94.5677
  516.8000    11.5446    11.9063    94.0617
  516.9000    11.5443    11.9059    93.3597
  517.0000    11.5440    11.9056    92.6283
  517.1000    11.5437    11.9053    92.0168
  517.2000    11.5434    11.9049    91.5923
  517.3000    11.5430    11.9046    91.3502
  517.4000    11.5427    11.9043    91.1082
  517.5000    11.5424    11.9039    91.0574
  517.6000    11.5421    11.9036    91.0598
  517.7000    11.5418    11.9033    91.1384
  517.8000    11.5414    11.9029    91.3853
  517.9000    11.5411    11.9026    91.6717
  518.0000    11.5408    11.9023    91.8792
  518.1000    11.5404    11.9020    92.2739
  518.2000    11.5402    11.9016    92.6751
  518.3000    11.5398    11.9013    92.9546
  518.4000    11.5395    11.9010    93.4963
  518.5000    11.5392    11.9006    93.9376
  518.6000    11.5389    11.9003    94.2671
  518.7000    11.5386    11.9000    94.6183
  518.8000    11.5382    11.8996    95.1098
  518.9000    11.5379    11.8993    95.6231
  519.0000    11.5429    11.8990    95.8591
  519.1000    11.5644    11.8986    96.2821
  519.2000    11.5859    11.8983    96.7734
  519.3000    11.6073    11.8980    97.2648
  519.4000    11.6167    11.8977    97.7563
  519.5000    11.6163    11.8973    98.2476
  519.6000    11.6193    11.8970    98.7391
  519.7000    11.6518    11.8967    99.2306
  519.8000    11.6844    11.8963    99.7221
  519.9000    11.6959    11.8960   100.1963
  520.0000    11.6956    11.8957   100.4838
  520.1000    11.6953    11.8953   100.6900
  520.2000    11.6950    11.8950   100.9369
  520.3000    11.6946    11.8947   101.0949
  520.4000    11.6943    11.8943   101.0658
  520.5000    11.6940    11.8940   100.7978
  520.6000    11.6937    11.8937   100.8000
  520.7000    11.6933    11.8934   100.8024
  520.8000    11.6930    11.8930   100.8048
  520.9000    11.6927    11.8927   100.8073
  521.0000    11.6924    11.8924   100.8098
  521.1000    11.6920    11.8920   101.0446
  521.2000    11.6917    11.8917   101.2914
  521.3000    11.6914    11.8914   101.5384
  521.4000    11.6911    11.8910   101.7853
  521.5000    11.7342    11.8907   102.0341
  521.6000    11.7718    11.8904   102.5256
  521.7000    11.7715    11.8901   103.0172
  521.8000    11.7712    11.8897   103.5087
  521.9000    11.8353    11.8894   104.0001
  522.0000    11.8525    11.8891   104.4914
  522.1000    11.8522    11.8216   105.0663
  522.2000    11.8519    11.8061   105.0683
  522.3000    11.8548    11.8058   105.0707
  522.4000    11.9337    11.8055   105.0731
  522.5000    11.9334    11.8051   105.0452
  522.6000    11.9730    11.8048   104.7761
  522.7000    12.0159    11.8045   104.5611
  522.8000    12.0155    11.8041   104.1595
  522.9000    12.0152    11.8038   103.7749
  523.0000    12.0149    11.8172   103.4886
  523.1000    12.0145    11.8854   102.9754
  523.2000    12.0142    11.8851   102.5152
  523.3000    12.0139    11.8848   102.0286
  523.4000    12.0135    11.8844   101.4260
  523.5000    12.0132    11.8841   100.8117
  523.6000    12.0129    11.8893   100.5688
  523.7000    12.0125    11.9662   100.0821
  523.8000    12.0122    11.9659    99.5956
  523.9000    12.0119    11.9656    99.1090
  524.0000    12.0115    11.9653    98.6224
  524.1000    12.0112    11.9649    98.1507
  524.2000    12.0109    11.9646    97.8663
  524.3000    12.0105    11.9643    97.4646
  524.4000    12.0102    11.9640    97.1222
  524.5000    12.0098    11.9636    96.8801
  524.6000    12.0095    11.9633    96.6668
  524.7000    12.0092    11.9630    96.6698
  524.8000    12.0089    11.9626    96.6719
  524.9000    12.0085    11.9057    96.6743
  525.0000    12.0082    11.8792    96.6767
  525.1000    12.0079    11.8788    96.6792
  525.2000    12.0075    11.8675    96.6817
  525.3000    11.9707    11.7959    96.9140
  525.4000    11.9238    11.7956    97.1609
  525.5000    11.9207    11.7953    97.2930
  525.6000    11.8869    11.7950    97.4097
  525.7000    11.8530    11.7946    97.9021
  525.8000    11.8400    11.7916    97.9045
  525.9000    11.8135    11.7123    98.0935
  526.0000    11.7575    11.7120    98.3404
  526.1000    11.7571    11.6725    98.5160
  526.2000    11.7259    11.6303    98.5458
  526.3000    11.6925    11.6206    99.1255
  526.4000    11.6749    11.5491    99.1275
  526.5000    11.6584    11.4889    99.2730
  526.6000    11.5924    11.4686    99.5198
  526.7000    11.5268    11.4683    99.7667
  526.8000    11.5126    11.4521   100.0438
  526.9000    11.4762    11.3882   100.2605
  527.0000    11.4113    11.3879   100.3504
  527.1000    11.3530    11.3364   100.4524
  527.2000    11.3526    11.3085   100.6574
  527.3000    11.3523    11.3082   100.6600
  527.4000    11.3112    11.3000   100.8910
  527.5000    11.2472    11.2292   100.9668
  527.6000    11.1949    11.2290   100.8556
  527.7000    11.1946    11.1859   100.6134
