~VERSION INFORMATION
 VERS.                2.0:   CWLS LOG ASCII STANDARD - VERSION 2.0
 WRAP.                 NO:   ONE LINE PER DEPTH STEP
~WELL INFORMATION
#MNEM.UNIT      DATA TYPE    INFORMATION
#----------   ------------   ------------------------------
 STRT.F            0.0000:   START DEPTH
 STOP.F          534.0000:   STOP DEPTH
 STEP.F            0.1000:   STEP LENGTH
 NULL.          -999.2500:   NO VALUE
 COMP.       F D SERV INC:   COMPANY
 WELL. NAVAL PETROLEUM RESERVE 3 SX-1 #71-2-10:   WELL
 FLD .            N.P.R 3:   FIELD
 LOC .      S10 T38N R78W:   LOCATION
 CNTY.            NATRONA:   COUNTY
 STAT.            WYOMING:   STATE
 CTRY. UNITED STATES OF AMERICA:   COUNTRY
 SRVC.     Atlas Wireline:   SERVICE COMPANY
 DATE.        07-DEC-1992:   LOGDATE
 API .       490252257200:   API NUMBER
~CURVE INFORMATION
#MNEM.UNIT       API CODE    CURVE DESCRIPTION
#----------   ------------   ------------------------------
 DEPT.F                  :   
 GRR .GAPI   07 310 01 00:   GAMMA RAY
 RILD.OHMM   07 120 46 00:   INDUCTION LOG DEEP RESISTIVITY
 RILM.OHMM   07 120 44 00:   RESITIVITY LONG MEDIUM
~PARAMETER INFORMATION
#MNEM.UNIT          VALUE    DESCRIPTION
#----------   ------------   ------------------------------
 PD  .                 GL:   PERMANENT DATUM
 EPD .F              5165:   ELEVATION PERMANENT DATUM
 LMF .                 KB:   LOG MEASURED FROM
 DAPD.F                10:   FEET ABOVE PERMANENT DATUM
 DMF .                 KB:   DRILLING MEASURED FROM
 EKB .F              5175:   KELLING BUSHING
 EDF .F              5174:   DRILLING FLOOR
 EGL .F              5165:   GROUND LEVEL
 DATE.        07-DEC-1992:   RUN DATE
 RUN .                  1:   RUN NUMBER
 DD  .F               540:   DEPTH DRILLER
 DL  .F               542:   DEPTH LOGGER
 BLI .F               534:   BOTTOM LOG INTERVAL
 CS  .IN            8.625:   CASING SIZE
 CBD .F                78:   CASING BOTTOM DRILLER
 CBL .F                82:   CASING BOTTOM LOGGER
 BS  .IN            7.875:   BIT SIZE
 BSD .F               540:   BIT SIZE AT DEPTH
 DFT .           AIR FOAM:   DRILLING FLUID TYPE
 BHT .F                70:   BOTTOM HOLE TEMPERATURE
 MRT .F                70:   MAXIMUM RECORDED TEMPERATURE
 LUN .           HL- 6345:   LOGGING UNIT NUMBER
 LUL .         FT. MORGAN:   LOGGING UNIT LOCATION
 ENGI.             BURLEY:   RECORDING ENGINEER
 WITN.        GARY STRONG:   WITNESSED BY
 CLNT.            A2DTECH:   CLIENT CODE
 ORIG.           5" PRINT:   ORIGIN OF DATA
 UWI .       490252257200:   UNIQUE WELL ID
 DICO. A2D Technologies, Inc.:   DIGITIZING COMPANY
~OTHER INFORMATION
~A    DEPT      GRR      RILD       RILM   
# ...
  273.0000   146.1529     5.8535     6.0024
  273.1000   145.6535     5.7712     5.9619
  273.2000   145.0683     5.6921     5.9337
  273.3000   144.2411     5.6269     5.8790
  273.4000   142.7832     5.5624     5.8118
  273.5000   141.6307     5.4965     5.7452
  273.6000   141.3811     5.4357     5.6773
  273.7000   141.1229     5.3967     5.5836
  273.8000   140.8817     5.3657     5.4882
  273.9000   140.8194     5.3249     5.4109
  274.0000   140.8194     5.2672     5.3392
  274.1000   140.8194     5.2339     5.2477
  274.2000   140.8194     5.2068     5.1485
  274.3000   140.8194     5.1769     5.0441
  274.4000   140.8194     5.1332     4.8918
  274.5000   140.8194     5.0744     4.7632
  274.6000   140.8194     5.0149     4.6751
  274.7000   140.8797     4.9147     4.5686
  274.8000   141.1294     4.8912     4.4464
  274.9000   141.4264     4.8631     4.3636
  275.0000   142.0335     4.8463     4.3089
  275.1000   142.6339     4.8463     4.2650
  275.2000   143.1332     4.8462     4.2005
  275.3000   143.5917     4.8190     4.1755
  275.4000   143.8543     4.8123     4.1754
  275.5000   144.0911     4.8123     4.1575
  275.6000   144.3407     4.8122     4.1463
  275.7000   144.7194     4.8121     4.1462
  275.8000   145.1435     4.8121     4.1487
  275.9000   145.3718     4.8120     4.1751
  276.0000   145.3718     4.8119     4.1965
  276.1000   145.3718     4.8253     4.2207
  276.2000   145.3718     4.8455     4.2562
  276.3000   145.3718     4.8454     4.2992
  276.4000   145.3159     4.8454     4.3247
  276.5000   145.0642     4.8453     4.3838
  276.6000   144.5648     4.8452     4.4252
  276.7000   144.0656     4.8452     4.4607
  276.8000   143.1341     4.8451     4.4964
  276.9000   142.1564     4.8450     4.5483
  277.0000   141.6570     4.8726     4.6029
  277.1000   141.1229     4.8788     4.6539
  277.2000   140.8907     4.8788     4.6875
  277.3000   140.6410     4.8885     4.7289
  277.4000   140.3913     4.9166     4.7834
  277.5000   140.0708     4.9472     4.8386
  277.6000   139.5714     4.9998     4.9008
  277.7000   138.9985     5.0371     4.9510
  277.8000   138.7856     5.0805     5.0277
  277.9000   138.5359     5.1476     5.1014
  278.0000   138.3915     5.2370     5.1676
  278.1000   138.3915     5.3417     5.2563
  278.2000   138.3915     5.3943     5.3283
  278.3000   138.3915     5.4567     5.4038
  278.4000   138.7783     5.5198     5.4977
  278.5000   138.9985     5.5835     5.5932
  278.6000   139.0843     5.6482     5.6846
  278.7000   139.3020     5.7134     5.7530
  278.8000   139.3020     5.7795     5.8166
  278.9000   139.5297     5.8656     5.8837
  279.0000   139.6055     5.9553     5.9516
  279.1000   139.6055     6.0241     6.0203
  279.2000   139.6055     6.0986     6.0897
  279.3000   139.6055     6.1642     6.1683
  279.4000   139.6055     6.2355     6.1996
  279.5000   139.6055     6.3076     6.2835
  279.6000   139.6055     6.3912     6.3759
  279.7000   139.6055     6.4965     6.4494
  279.8000   139.6524     6.5392     6.5228
  279.9000   139.9090     6.5716     6.5675
  280.0000   140.1517     6.6342     6.5981
  280.1000   140.2124     6.6773     6.6588
  280.2000   140.2124     6.6942     6.7209
  280.3000   140.2124     6.7710     6.7595
  280.4000   140.2124     6.7709     6.8002
  280.5000   140.2124     6.8018     6.8374
  280.6000   139.7657     6.8410     6.8187
  280.7000   139.6055     6.8659     6.7796
  280.8000   139.3739     6.8539     6.7406
  280.9000   138.7507     6.7705     6.6984
  281.0000   137.7684     6.7704     6.6125
  281.1000   137.1775     6.7421     6.5791
  281.2000   137.1775     6.7034     6.5413
  281.3000   137.1775     6.6535     6.4871
  281.4000   136.9849     6.5804     6.4129
  281.5000   136.5706     6.5376     6.3394
  281.6000   136.5706     6.4725     6.2529
  281.7000   136.3322     6.3984     6.2240
  281.8000   136.4516     6.3411     6.1883
  281.9000   136.7013     6.2882     6.1264
  282.0000   137.1047     6.1814     6.0326
  282.1000   137.7845     6.1389     5.9961
  282.2000   137.7845     6.0547     5.8992
  282.3000   137.7845     5.9510     5.8227
  282.4000   137.7845     5.8615     5.7391
  282.5000   137.5619     5.7890     5.6313
  282.6000   137.1775     5.6846     5.5058
  282.7000   137.1775     5.6229     5.3998
  282.8000   137.1775     5.5353     5.3192
  282.9000   136.9780     5.4566     5.2480
  283.0000   136.4371     5.3941     5.1749
  283.1000   135.5964     5.3323     5.0996
  283.2000   134.7496     5.2639     5.0694
  283.3000   134.7496     5.2372     4.9657
  283.4000   134.7496     5.2071     4.8977
  283.5000   134.9297     5.1907     4.8301
  283.6000   135.4318     5.1764     4.7648
  283.7000   136.4706     5.1185     4.6916
  283.8000   138.1253     5.1184     4.6631
  283.9000   138.6950     5.0945     4.6129
  284.0000   139.3385     5.0827     4.5984
  284.1000   140.2480     5.0714     4.6120
  284.2000   141.0330     5.0472     4.6385
  284.3000   141.5324     5.0471     4.6651
  284.4000   142.0334     5.0470     4.6954
  284.5000   142.5311     5.0254     4.7189
  284.6000   143.0304     5.0118     4.7460
  284.7000   143.5297     5.0117     4.7733
  284.8000   143.6795     5.0117     4.8007
  284.9000   143.0456     5.0116     4.8286
  285.0000   141.4264     5.0115     4.8844
  285.1000   140.9675     5.0310     4.9182
  285.2000   140.2926     5.0600     4.9631
  285.3000   139.3000     5.0891     5.0204
  285.4000   137.8476     5.1194     5.0829
  285.5000   135.8502     5.1892     5.1764
  285.6000   133.5357     5.2138     5.2326
  285.7000   132.4857     5.2438     5.2710
  285.8000   132.0182     5.2861     5.3169
  285.9000   132.0182     5.3415     5.3782
  286.0000   132.0182     5.3732     5.4402
  286.1000   132.0182     5.4638     5.5114
  286.2000   132.0182     5.5107     5.5666
  286.3000   132.0182     5.5773     5.6309
  286.4000   132.0182     5.6634     5.6959
  286.5000   132.0182     5.7288     5.7616
  286.6000   132.0182     5.8017     5.8281
  286.7000   132.0182     5.8927     5.9132
  286.8000   132.0182     5.9715     5.9983
  286.9000   132.1894     6.0571     6.0542
  287.0000   132.3217     6.1531     6.1019
  287.1000   132.3217     6.2242     6.1722
  287.2000   132.3217     6.3083     6.2481
  287.3000   132.3217     6.3082     6.3156
  287.4000   132.1162     6.3306     6.3885
  287.5000   132.0182     6.3820     6.4622
  287.6000   132.1162     6.4486     6.5258
  287.7000   132.4100     6.4865     6.5662
  287.8000   132.9287     6.5230     6.6524
  287.9000   133.1686     6.5606     6.7187
  288.0000   133.4183     6.6194     6.7963
  288.1000   133.6680     6.6828     6.8747
  288.2000   133.9177     6.7309     6.9452
  288.3000   134.1426     6.8586     6.9853
  288.4000   134.1426     6.8945     7.0660
  288.5000   134.1426     6.9622     7.1151
  288.6000   134.1426     7.0426     7.1798
  288.7000   134.0298     7.1129     7.2476
  288.8000   133.7801     7.1538     7.2892
  288.9000   133.5304     7.2016     7.3340
  289.0000   133.2322     7.2365     7.3732
  289.1000   133.0310     7.2781     7.4156
  289.2000   132.6340     7.3200     7.4582
  289.3000   132.2282     7.3707     7.4887
  289.4000   131.8596     7.4569     7.4917
  289.5000   130.8042     7.4568     7.5409
  289.6000   129.1557     7.4900     7.5408
  289.7000   128.1347     7.5331     7.5687
  289.8000   127.5136     7.5614     7.6122
  289.9000   126.9404     7.5671     7.6465
  290.0000   126.2115     7.6141     7.6464
  290.1000   125.6449     7.6140     7.6903
  290.2000   125.4289     7.6449     7.6997
  290.3000   125.1791     7.6672     7.6996
  290.4000   125.0379     7.6671     7.6995
  290.5000   125.0379     7.6670     7.6994
  290.6000   125.0396     7.6668     7.6992
  290.7000   125.5389     7.6668     7.6991
  290.8000   125.8416     7.6666     7.6990
  290.9000   126.2341     7.6665     7.6989
  291.0000   126.6444     7.6664     7.6988
  291.1000   126.8941     7.6663     7.6987
