~VERSION INFORMATION
 VERS.                2.0:   CWLS LOG ASCII STANDARD - VERSION 2.0
 WRAP.                 NO:   ONE LINE PER DEPTH STEP
~WELL INFORMATION
#MNEM.UNIT      DATA TYPE    INFORMATION
#----------   ------------   ------------------------------
 STRT.F            0.0000:   START DEPTH
 STOP.F          635.0000:   STOP DEPTH
 STEP.F            0.1000:   STEP LENGTH
 NULL.          -999.2500:   NO VALUE
 COMP.   FLUOR DANIEL INC:   COMPANY
 WELL. NAVAL PETROLEUM RESERVE 3 SX-3 #72-7-3:   WELL
 FLD .             TEAPOT:   FIELD
 LOC .       S3 T38N R78W:   LOCATION
 CNTY.            NATRONA:   COUNTY
 STAT.            WYOMING:   STATE
 CTRY. UNITED STATES OF AMERICA:   COUNTRY
 SRVC.      Western Atlas:   SERVICE COMPANY
 DATE.        11-JAN-1995:   LOGDATE
 API .       490252264900:   API NUMBER
~CURVE INFORMATION
#MNEM.UNIT       API CODE    CURVE DESCRIPTION
#----------   ------------   ------------------------------
 DEPT.F                  :   
 GRR .GAPI   07 310 01 00:   GAMMA RAY
 RILD.OHMM   07 120 46 00:   INDUCTION LOG DEEP RESISTIVITY
 RILM.OHMM   07 120 44 00:   RESITIVITY LONG MEDIUM
~PARAMETER INFORMATION
#MNEM.UNIT          VALUE    DESCRIPTION
#----------   ------------   ------------------------------
 PD  .                 GL:   PERMANENT DATUM
 EPD .F              5144:   ELEVATION PERMANENT DATUM
 LMF .                 KB:   LOG MEASURED FROM
 DAPD.F                10:   FEET ABOVE PERMANENT DATUM
 DMF .                 KB:   DRILLING MEASURED FROM
 EKB .F              5154:   KELLING BUSHING
 EDF .F              5153:   DRILLING FLOOR
 EGL .F              5144:   GROUND LEVEL
 DATE.        11-JAN-1995:   RUN DATE
 RUN .                  1:   RUN NUMBER
 DD  .F               641:   DEPTH DRILLER
 DL  .F               642:   DEPTH LOGGER
 BLI .F               635:   BOTTOM LOG INTERVAL
 CS  .IN            9.625:   CASING SIZE
 CBD .F                97:   CASING BOTTOM DRILLER
 CBL .F                97:   CASING BOTTOM LOGGER
 BS  .IN             8.75:   BIT SIZE
 BSD .F               641:   BIT SIZE AT DEPTH
 DFT .                AIR:   DRILLING FLUID TYPE
 MRT .F                89:   MAXIMUM RECORDED TEMPERATURE
 LUN .            HL 6530:   LOGGING UNIT NUMBER
 LUL .             CASPER:   LOGGING UNIT LOCATION
 ENGI.      PAT RASMUSSEN:   RECORDING ENGINEER
 WITN.        STEVE HARDY:   WITNESSED BY
 CLNT.            A2DTECH:   CLIENT CODE
 ORIG.           5" PRINT:   ORIGIN OF DATA
 UWI .       490252264900:   UNIQUE WELL ID
 DICO. A2D Technologies, Inc.:   DIGITIZING COMPANY
~OTHER INFORMATION
~A    DEPT      GRR      RILD       RILM   
# ...
  345.8000   112.3296     4.0139     4.2632
  345.9000   111.4188     4.0415     4.2887
  346.0000   110.7916     4.0416     4.3145
  346.1000   110.0754     4.0750     4.3442
  346.2000   109.0450     4.1111     4.3886
  346.3000   108.0411     4.1357     4.4413
  346.4000   107.4661     4.1652     4.4946
  346.5000   106.5577     4.2151     4.5485
  346.6000   105.8948     4.2731     4.6083
  346.7000   105.1014     4.3388     4.6913
  346.8000   104.0710     4.4170     4.7881
  346.9000   103.1445     4.5106     4.8873
  347.0000   102.6465     4.6093     4.9845
  347.1000   102.6493     4.6923     5.0425
  347.2000   102.4290     4.7762     5.0837
  347.3000   102.7085     4.8422     5.1447
  347.4000   103.3620     4.8918     5.2064
  347.5000   104.5926     4.9504     5.2774
  347.6000   106.6606     5.0095     5.3321
  347.7000   108.7170     5.0695     5.3962
  347.8000   109.9170     5.1303     5.4609
  347.9000   110.7875     5.1917     5.5264
  348.0000   111.8227     5.2637     5.5927
  348.1000   112.8580     5.3170     5.6585
  348.2000   113.8932     5.3808     5.6968
  348.3000   114.8870     5.4453     5.7565
  348.4000   115.6713     5.5105     5.8010
  348.5000   116.5805     5.5707     5.8547
  348.6000   117.0063     5.6041     5.9250
  348.7000   117.1891     5.6430     5.9960
  348.8000   117.0675     5.6999     6.0679
  348.9000   116.7315     5.7683     6.1497
  349.0000   116.2175     5.8552     6.2145
  349.1000   115.6883     5.9485     6.2624
  349.2000   115.0869     6.0135     6.3206
  349.3000   114.4689     6.0497     6.3964
  349.4000   113.8594     6.1342     6.4648
  349.5000   113.3454     6.1958     6.5035
  349.6000   112.7565     6.2952     6.5470
  349.7000   111.9843     6.4086     6.5818
  349.8000   107.8514     6.5113     6.5929
  349.9000   107.1047     6.5973     6.6149
  350.0000   105.7402     6.7141     6.6621
  350.1000   104.0647     6.8555     6.7333
  350.2000   102.8145     6.9548     6.8129
  350.3000   102.3653     7.0783     6.8933
  350.4000   102.1220     7.1849     6.9746
  350.5000   102.1242     7.2810     7.0688
  350.6000   102.1257     7.4066     7.1405
  350.7000   102.1275     7.5037     7.2535
  350.8000   102.1293     7.5827     7.3402
  350.9000   102.2014     7.6405     7.3966
  351.0000   102.4350     7.6857     7.4839
  351.1000   102.4370     7.7311     7.5790
  351.2000   102.6667     7.7767     7.5794
  351.3000   103.1024     7.8242     7.6456
  351.4000   103.6122     7.8689     7.6861
  351.5000   104.1219     7.8793     7.7029
  351.6000   104.6315     7.9072     7.7404
  351.7000   105.1669     7.9347     7.7409
  351.8000   105.4099     7.9350     7.7952
  351.9000   105.8588     7.9354     7.7956
  352.0000   106.3686     7.9357     7.7960
  352.1000   106.8783     7.8964     7.7965
  352.2000   107.3394     7.8815     7.7969
  352.3000   107.5959     7.8594     7.7973
  352.4000   108.2009     7.8139     7.7978
  352.5000   108.6154     7.7740     7.7982
  352.6000   108.9667     7.7744     7.7986
  352.7000   109.1124     7.7324     7.7765
  352.8000   109.1142     7.7213     7.7456
  352.9000   109.1021     7.6962     7.7404
  353.0000   108.8160     7.6517     7.6929
  353.1000   108.8175     7.6073     7.6933
  353.2000   108.8193     7.5637     7.6268
  353.3000   108.8212     7.5641     7.5882
  353.4000   108.8230     7.5643     7.5720
  353.5000   108.8248     7.5364     7.5283
  353.6000   108.8267     7.4928     7.4848
  353.7000   108.8284     7.4611     7.4337
  353.8000   109.2000     7.4577     7.3987
  353.9000   109.8465     7.4102     7.3560
  354.0000   110.5216     7.4105     7.3135
  354.1000   110.9502     7.3799     7.2713
  354.2000   110.6502     7.3372     7.2293
  354.3000   110.6520     7.2947     7.1827
  354.4000   110.4556     7.2524     7.1830
  354.5000   110.3535     7.2094     7.1254
  354.6000   110.3553     7.1687     7.0638
  354.7000   110.3571     7.1272     7.0231
  354.8000   110.3589     7.0859     6.9770
  354.9000   110.3610     7.0449     6.8922
  355.0000   110.3625     7.0041     6.8925
  355.1000   110.3643     6.9656     6.8319
  355.2000   110.4814     6.9659     6.7983
  355.3000   110.8042     6.8960     6.7680
  355.4000   111.3329     6.8433     6.7054
  355.5000   112.1845     6.8036     6.7058
  355.6000   113.0854     6.7520     6.6599
  355.7000   114.1029     6.6786     6.6280
  355.8000   115.1205     6.6377     6.5898
  355.9000   116.1382     6.6015     6.5518
  356.0000   117.0917     6.5343     6.5139
  356.1000   117.6333     6.4586     6.4763
  356.2000   117.8731     6.3837     6.4350
  356.3000   117.7491     6.3097     6.4018
  356.4000   117.4969     6.2372     6.3386
  356.5000   117.2447     6.1951     6.2653
  356.6000   116.9925     6.1353     6.2049
  356.7000   116.7378     6.0642     6.1585
  356.8000   116.4883     5.9939     6.0476
  356.9000   116.2361     5.9149     6.0141
  357.0000   115.8288     5.8090     5.9257
  357.1000   115.4296     5.6628     5.8429
  357.2000   115.1187     5.5441     5.7619
  357.3000   114.6232     5.4162     5.6620
  357.4000   114.3338     5.3244     5.5638
  357.5000   114.1188     5.2626     5.4523
  357.6000   113.8666     5.2016     5.3729
  357.7000   113.6145     5.1404     5.2798
  357.8000   113.4344     5.0349     5.1883
  357.9000   113.4362     5.0116     5.1067
  358.0000   113.4382     4.9647     5.0448
  358.1000   113.6697     4.9195     4.9494
  358.2000   113.7438     4.8840     4.8974
  358.3000   113.8792     4.8291     4.8408
  358.4000   114.0495     4.7977     4.7701
  358.5000   114.0514     4.7490     4.6968
  358.6000   114.0532     4.6940     4.6468
  358.7000   113.5688     4.6532     4.6193
  358.8000   113.0626     4.6263     4.5933
  358.9000   112.7033     4.5995     4.5878
  359.0000   112.3525     4.5716     4.6043
  359.1000   111.8464     4.5464     4.6428
  359.2000   111.3426     4.5404     4.6851
  359.3000   111.0450     4.5406     4.6876
  359.4000   110.6300     4.5514     4.7511
  359.5000   110.2840     4.5783     4.7751
  359.6000   110.0318     4.6061     4.8034
  359.7000   109.7797     4.6690     4.8455
  359.8000   109.5431     4.6923     4.8942
  359.9000   109.5452     4.7200     4.9232
  360.0000   109.5468     4.7347     4.9546
  360.1000   109.5486     4.7430     4.9816
  360.2000   109.6757     4.7710     5.0111
  360.3000   109.9315     4.8014     5.0570
  360.4000   110.2163     4.8016     5.0951
  360.5000   110.7645     4.8225     5.1111
  360.6000   111.0010     4.8354     5.2028
  360.7000   111.2568     4.8356     5.3125
  360.8000   111.3740     4.8358     5.3628
  360.9000   111.2854     4.8360     5.4458
  361.0000   111.0333     4.8699     5.5285
  361.1000   110.7753     4.8701     5.5938
  361.2000   110.5289     4.8881     5.6580
  361.3000   110.0768     4.9170     5.6959
  361.4000   109.5706     4.9535     5.7543
  361.5000   109.0644     5.0120     5.8223
  361.6000   108.6139     5.0779     5.8911
  361.7000   108.3617     5.1311     5.9607
  361.8000   108.0692     5.1917     6.0310
  361.9000   108.0707     5.2691     6.1070
  362.0000   108.0725     5.3625     6.1744
  362.1000   108.1913     5.4624     6.2201
  362.2000   108.5160     5.5967     6.2775
  362.3000   109.0257     5.6924     6.3377
  362.4000   109.5905     5.7935     6.3822
  362.5000   110.0454     5.9378     6.4575
  362.6000   110.5551     6.0846     6.5482
  362.7000   111.0649     6.2008     6.5484
  362.8000   111.5746     6.3446     6.5971
  362.9000   112.0163     6.4306     6.6578
  363.0000   112.0182     6.4955     6.6972
  363.1000   112.0199     6.5722     6.7368
  363.2000   112.0218     6.6498     6.7814
  363.3000   112.1671     6.7283     6.8168
  363.4000   112.3275     6.8077     6.8851
  363.5000   112.3767     6.8938     6.9457
  363.6000   112.6332     6.9695     6.9868
  363.7000   112.9375     6.9906     7.0336
  363.8000   113.1440     7.0369     7.1211
  363.9000   113.5568     7.0887     7.1610
