~VERSION INFORMATION
 VERS.                2.0:   CWLS LOG ASCII STANDARD - VERSION 2.0
 WRAP.                 NO:   ONE LINE PER DEPTH STEP
~WELL INFORMATION
#MNEM.UNIT      DATA TYPE    INFORMATION
#----------   ------------   ------------------------------
 STRT.F            0.0000:   START DEPTH
 STOP.F          551.0000:   STOP DEPTH
 STEP.F            0.1000:   STEP LENGTH
 NULL.          -999.2500:   NO VALUE
 COMP.       F D SERV INC:   COMPANY
 WELL.    62-2 SX-3 #62-3:   WELL
 FLD .          N.P.R. #3:   FIELD
 LOC .       S3 T38N R78W:   LOCATION
 CNTY.            NATRONA:   COUNTY
 STAT.            WYOMING:   STATE
 CTRY. UNITED STATES OF AMERICA:   COUNTRY
 SRVC.     Atlas Wireline:   SERVICE COMPANY
 DATE.        17-APR-1992:   LOGDATE
 API .       490252250700:   API NUMBER
~CURVE INFORMATION
#MNEM.UNIT       API CODE    CURVE DESCRIPTION
#----------   ------------   ------------------------------
 DEPT.F                  :   
 GRR .GAPI   07 310 01 00:   GAMMA RAY
 RILD.OHMM   07 120 46 00:   INDUCTION LOG DEEP RESISTIVITY
 RILM.OHMM   07 120 44 00:   INDUCTION LOG MEDIUM RESISTIVITY
~PARAMETER INFORMATION
#MNEM.UNIT          VALUE    DESCRIPTION
#----------   ------------   ------------------------------
 PD  .                 GL:   PERMANENT DATUM
 EPD .F              5130:   ELEVATION PERMANENT DATUM
 LMF .                 KB:   LOG MEASURED FROM
 DAPD.F                 5:   FEET ABOVE PERMANENT DATUM
 DMF .                 KB:   DRILLING MEASURED FROM
 EKB .F              5135:   KELLING BUSHING
 EDF .F              5134:   DRILLING FLOOR
 EGL .F              5130:   GROUND LEVEL
 DATE.        17-APR-1992:   RUN DATE
 RUN .                  1:   RUN NUMBER
 DD  .F               560:   DEPTH DRILLER
 DL  .F               560:   DEPTH LOGGER
 BLI .F               558:   BOTTOM LOG INTERVAL
 CS  .IN            8.625:   CASING SIZE
 CBD .F                47:   CASING BOTTOM DRILLER
 CBL .F                50:   CASING BOTTOM LOGGER
 BS  .IN            7.875:   BIT SIZE
 BSD .F               560:   BIT SIZE AT DEPTH
 DFT .                AIR:   DRILLING FLUID TYPE
 TCS .HRS               2:   TIME CURCULATED STOPPED
 MRT .F                83:   MAXIMUM RECORDED TEMPERATURE
 LUN .           HL- 6274:   LOGGING UNIT NUMBER
 LUL .             CASPER:   LOGGING UNIT LOCATION
 ENGI.            LEBSOCK:   RECORDING ENGINEER
 WITN.        GARY STRONG:   WITNESSED BY
 CLNT.            A2DTECH:   CLIENT CODE
 ORIG.           5" PRINT:   ORIGIN OF DATA
 UWI .       490252250700:   UNIQUE WELL ID
 DICO. A2D Technologies, Inc.:   DIGITIZING COMPANY
~OTHER INFORMATION
~A    DEPT      GRR      RILD       RILM   
# ...
   36.4000    80.7076  -999.2500  -999.2500
   36.5000    80.5991  -999.2500  -999.2500
   36.6000    80.5249  -999.2500  -999.2500
   36.7000    80.3035  -999.2500  -999.2500
   36.8000    80.3079  -999.2500  -999.2500
   36.9000    80.0994  -999.2500  -999.2500
   37.0000    80.0121  -999.2500  -999.2500
   37.1000    80.0157  -999.2500  -999.2500
   37.2000    80.0193  -999.2500  -999.2500
   37.3000    80.0232  -999.2500  -999.2500
   37.4000    80.2595  -999.2500  -999.2500
   37.5000    80.5094  -999.2500  -999.2500
   37.6000    80.7593  -999.2500  -999.2500
   37.7000    81.0092  -999.2500  -999.2500
   37.8000    81.2590  -999.2500  -999.2500
   37.9000    81.5584  -999.2500  -999.2500
   38.0000    81.5613  -999.2500  -999.2500
   38.1000    81.2820  -999.2500  -999.2500
   38.2000    80.8782  -999.2500  -999.2500
   38.3000    80.6068  -999.2500  -999.2500
   38.4000    80.0633  -999.2500  -999.2500
   38.5000    79.6289  -999.2500  -999.2500
   38.6000    79.1398  -999.2500  -999.2500
   38.7000    78.7572  -999.2500  -999.2500
   38.8000    78.5146  -999.2500  -999.2500
   38.9000    78.2658  -999.2500  -999.2500
   39.0000    78.2693  -999.2500  -999.2500
   39.1000    78.2729  -999.2500  -999.2500
   39.2000    78.4041  -999.2500  -999.2500
   39.3000    78.6540  -999.2500  -999.2500
   39.4000    78.9039  -999.2500  -999.2500
   39.5000    79.1958  -999.2500  -999.2500
   39.6000    79.4038  -999.2500  -999.2500
   39.7000    79.6537  -999.2500  -999.2500
   39.8000    79.9036  -999.2500  -999.2500
   39.9000    80.1536  -999.2500  -999.2500
   40.0000    80.4239  -999.2500  -999.2500
   40.1000    80.6534  -999.2500  -999.2500
   40.2000    80.9033  -999.2500  -999.2500
   40.3000    81.2669  -999.2500  -999.2500
   40.4000    81.7058  -999.2500  -999.2500
   40.5000    81.9546  -999.2500  -999.2500
   40.6000    81.9583  -999.2500  -999.2500
   40.7000    82.3440  -999.2500  -999.2500
   40.8000    82.7055  -999.2500  -999.2500
   40.9000    82.9554  -999.2500  -999.2500
   41.0000    83.2052  -999.2500  -999.2500
   41.1000    83.4898  -999.2500  -999.2500
   41.2000    83.7051  -999.2500  -999.2500
   41.3000    83.7991  -999.2500  -999.2500
   41.4000    83.9025  -999.2500  -999.2500
   41.5000    84.1083  -999.2500  -999.2500
   41.6000    83.8102  -999.2500  -999.2500
   41.7000    83.8136  -999.2500  -999.2500
   41.8000    83.4629  -999.2500  -999.2500
   41.9000    82.8531  -999.2500  -999.2500
   42.0000    82.1180  -999.2500  -999.2500
   42.1000    81.3908  -999.2500  -999.2500
   42.2000    80.8068  -999.2500  -999.2500
   42.3000    80.6113  -999.2500  -999.2500
   42.4000    80.5107  -999.2500  -999.2500
   42.5000    80.6001  -999.2500  -999.2500
   42.6000    80.8205  -999.2500  -999.2500
   42.7000    80.8246  -999.2500  -999.2500
   42.8000    81.0474  -999.2500  -999.2500
   42.9000    81.4605  -999.2500  -999.2500
   43.0000    81.8497  -999.2500  -999.2500
   43.1000    82.1505  -999.2500  -999.2500
   43.2000    82.6579  -999.2500  -999.2500
   43.3000    82.9021  -999.2500  -999.2500
   43.4000    82.9676  -999.2500  -999.2500
   43.5000    82.8432  -999.2500  -999.2500
   43.6000    82.5286  -999.2500  -999.2500
   43.7000    82.0706  -999.2500  -999.2500
   43.8000    82.0750  -999.2500  -999.2500
   43.9000    81.8725  -999.2500  -999.2500
   44.0000    81.6298  -999.2500  -999.2500
   44.1000    81.4802  -999.2500  -999.2500
   44.2000    81.4471  -999.2500  -999.2500
   44.3000    81.1852  -999.2500  -999.2500
   44.4000    81.1885  -999.2500  -999.2500
   44.5000    81.1921  -999.2500  -999.2500
   44.6000    81.0816  -999.2500  -999.2500
   44.7000    80.8968  -999.2500  -999.2500
   44.8000    80.9004  -999.2500  -999.2500
   44.9000    80.9041  -999.2500  -999.2500
   45.0000    80.9077  -999.2500  -999.2500
   45.1000    80.7759  -999.2500  -999.2500
   45.2000    80.6124  -999.2500  -999.2500
   45.3000    80.6160  -999.2500  -999.2500
   45.4000    80.6202  -999.2500  -999.2500
   45.5000    80.4105  -999.2500  -999.2500
   45.6000    80.3244  -999.2500  -999.2500
   45.7000    80.3280  -999.2500  -999.2500
   45.8000    80.3757  -999.2500  -999.2500
   45.9000    80.6380  -999.2500  -999.2500
   46.0000    80.8755  -999.2500  -999.2500
   46.1000    81.1254  -999.2500  -999.2500
   46.2000    81.4968  -999.2500  -999.2500
   46.3000    81.9279  -999.2500  -999.2500
   46.4000    82.1866  -999.2500  -999.2500
   46.5000    82.7783  -999.2500  -999.2500
   46.6000    83.1791  -999.2500  -999.2500
   46.7000    83.8180  -999.2500  -999.2500
   46.8000    84.4742  -999.2500  -999.2500
   46.9000    84.9402  -999.2500  -999.2500
   47.0000    85.2167  -999.2500  -999.2500
   47.1000    84.9999  -999.2500  -999.2500
   47.2000    84.7572  -999.2500  -999.2500
   47.3000    84.6221  -999.2500  -999.2500
   47.4000    84.5745  -999.2500  -999.2500
   47.5000    84.3269  -999.2500  -999.2500
   47.6000    83.8479  -999.2500  -999.2500
   47.7000    83.7289  -999.2500  -999.2500
   47.8000    83.6037  -999.2500  -999.2500
   47.9000    83.4336  -999.2500  -999.2500
   48.0000    83.4212  -999.2500  -999.2500
   48.1000    83.1389  -999.2500  -999.2500
   48.2000    82.9357  -999.2500  -999.2500
   48.3000    82.8430  -999.2500  -999.2500
   48.4000    82.8466  -999.2500  -999.2500
   48.5000    82.8502  -999.2500  -999.2500
   48.6000    82.8541  -999.2500  -999.2500
   48.7000    82.8575  -999.2500  -999.2500
   48.8000    82.8611  -999.2500  -999.2500
   48.9000    82.8648  -999.2500  -999.2500
   49.0000    82.9270  -999.2500  -999.2500
   49.1000    83.1746  -999.2500  -999.2500
   49.2000    83.1782  -999.2500  -999.2500
   49.3000    83.3740  -999.2500  -999.2500
   49.4000    83.6240  -999.2500  -999.2500
   49.5000    84.0336  -999.2500  -999.2500
   49.6000    84.7759  -999.2500  -999.2500
   49.7000    85.6174  -999.2500  -999.2500
   49.8000    86.6879  -999.2500  -999.2500
   49.9000    88.2375  -999.2500  -999.2500
   50.0000    91.0785     0.9864  1986.0952
   50.1000    95.5205     0.9830  1986.0448
   50.2000    99.9626     0.9795  1986.0170
   50.3000   104.4046     0.9688  1985.9893
   50.4000   108.8467     0.9618  1985.9587
   50.5000   113.1498     0.9563  1985.9337
   50.6000   116.5050     0.9509  1985.9060
   50.7000   118.2195     0.9451  1990.8937
   50.8000   119.8793     0.9327  1990.2234
   50.9000   121.2597     0.9327  1944.6240
   51.0000   122.4488     0.9294  1383.6117
   51.1000   123.4760     0.9241  2543.9355
   51.2000   124.6645     0.9197    11.3888
   51.3000   125.7192     0.9197     3.6915
   51.4000   126.7084     0.9148     3.2872
   51.5000   127.6279     0.9170     3.1383
   51.6000   128.3569     0.9223     3.0363
   51.7000   128.9372     0.9304     2.8985
   51.8000   129.3484     0.9465     2.7651
   51.9000   129.5468     0.9659     2.6612
   52.0000   129.7348     1.0322     2.5804
   52.1000   130.1938     1.2036     2.5272
   52.2000   130.4619     1.4497     2.5694
   52.3000   130.4642     1.7334     2.6584
   52.4000   130.4666     2.1450     2.7504
   52.5000   130.4689     2.7251     2.8454
   52.6000   130.4714     3.3335     2.9444
   52.7000   130.4738     4.0023     3.5667
   52.8000   130.4763     4.7732     4.0105
   52.9000   130.4787     5.6145     4.1428
   53.0000   130.4811     6.5654     4.2118
   53.1000   130.4835     7.8619     4.2671
   53.2000   130.4860     9.2766     4.2670
   53.3000   130.4886    10.7442     4.2669
   53.4000   130.7090    12.3338     4.2861
   53.5000   130.7958    14.5966     4.3601
   53.6000   130.9047    17.5665     4.5756
   53.7000   131.1538    22.3457     4.7244
   53.8000   131.4082    28.1242     4.9693
   53.9000   132.1348    34.6574     5.2304
   54.0000   132.8775    42.5890     5.5137
   54.1000   133.6200    62.6327     5.9275
   54.2000   134.3624    68.5050     6.0640
   54.3000   135.0872    70.2869     6.1756
   54.4000   135.6591    66.7258     6.3223
   54.5000   135.6611    52.4459     6.4919
