~VERSION INFORMATION
 VERS.                2.0:   CWLS LOG ASCII STANDARD - VERSION 2.0
 WRAP.                 NO:   ONE LINE PER DEPTH STEP
~WELL INFORMATION
#MNEM.UNIT      DATA TYPE    INFORMATION
#----------   ------------   ------------------------------
 STRT.F           45.5000:   START DEPTH
 STOP.F          740.0000:   STOP DEPTH
 STEP.F            0.5000:   STEP LENGTH
 NULL.          -999.2500:   NO VALUE
 COMP. FENIX & SCISSON INC:   COMPANY
 WELL.       NPR 3 #22-14:   WELL
 FLD .             TEAPOT:   FIELD
 LOC .      S14 T38N R78W:   LOCATION
 CNTY.            NATRONA:   COUNTY
 STAT.            WYOMING:   STATE
 CTRY. UNITED STATES OF AMERICA:   COUNTRY
 SRVC.           BIRDWELL:   SERVICE COMPANY
 DATE.        23-DEC-1978:   LOGDATE
 API .       490251075800:   API NUMBER
~CURVE INFORMATION
#MNEM.UNIT       API CODE    CURVE DESCRIPTION
#----------   ------------   ------------------------------
 DEPT.F                  :   
 SPR .MV     05 010 01 00:   SPONTANEOUS POTENTIAL FROM RES.
 SN  .OHMM   05 040 16 00:   SHORT NORMAL 16"
 IL  .OHMM   05 120 00 00:   INDUCTION LOG
 CALD.IN     45 280 60 00:   CALIPER
 GRD .GAPI   45 310 01 00:   GAMMA RAY FROM DENSITY LOG
 RHOB.G/C3   45 350 01 00:   BULK DENSITY
 DPHI.DEC    45 890 12 00:   DENSITY POROSITY SANDSTONE
 CORR.G/C3   45 356 01 00:   DENSITY CORRECTION
~PARAMETER INFORMATION
#MNEM.UNIT          VALUE    DESCRIPTION
#----------   ------------   ------------------------------
 PD  .                 GL:   PERMANENT DATUM
 EPD .F              5212:   ELEVATION PERMANENT DATUM
 LMF .                 KB:   LOG MEASURED FROM
 DAPD.F                 4:   FEET ABOVE PERMANENT DATUM
 DMF .                 KB:   DRILLING MEASURED FROM
 EKB .F              5216:   KELLING BUSHING
 EGL .F              5212:   GROUND LEVEL
 DATE.           12-23-78:   RUN DATE
 RUN .                  1:   RUN NUMBER
 DD  .F               735:   DEPTH DRILLER
 DL  .F               740:   DEPTH LOGGER
 BLI .F               733:   BOTTOM LOG INTERVAL
 TLI .F                50:   TOP LOG INTERVAL
 CS  .IN            8.625:   CASING SIZE
 CBD .F                40:   CASING BOTTOM DRILLER
 CBL .F                40:   CASING BOTTOM LOGGER
 BS  .IN            7.875:   BIT SIZE
 BSD .F               735:   BIT SIZE AT DEPTH
 DFT .                KCL:   DRILLING FLUID TYPE
 DFD .                8.7:   DRILLING FLUID DENSITY
 DFV .                 35:   DRILLING FLUID VISCOSITY
 DFPH.               10.5:   DRILLING FLUID PH
 DFL .               11.6:   DRILLING FLUID LOSS
 MSS .           FLOWLINE:   MUD SAMPLE SOURCE
 RMS .OHMM             .5:   RESISTIVITY MUD SAMPLE
 MST .F                60:   MUD SAMPLE TEMPERATURE
 RMF .OHMM             .5:   RESISTIVITY MUD FILTRATE SAMPLE
 MFST.F                60:   MUD FILTRATE SAMPLE TEMPERATURE
 RMC .OHMM             .7:   RESISTIVITY MUD CAKE
 MCST.F                60:   MUD CAKE SAMPLE TEMPERATURE
 MFSS.           MEASURED:   MUD FILTRATE SAMPLE SOURCE
 MCSS.           MEASURED:   MUD CAKE SAMPLE SOURCE
 RMB .OHMM           .518:   RESISTIVITY MUD AT BHT
 BHT .F                58:   BOTTOM HOLE TEMPERATURE
 TCS .HRS               5:   TIME CURCULATED STOPPED
 MRT .F                58:   MAXIMUM RECORDED TEMPERATURE
 LUN .               2958:   LOGGING UNIT NUMBER
 LUL .             CASPER:   LOGGING UNIT LOCATION
 ENGI.         B. ROLLINS:   RECORDING ENGINEER
 WITN.              IMMEL:   WITNESSED BY
 CLNT.            A2DTECH:   CLIENT CODE
 ORIG.           5" PRINT:   ORIGIN OF DATA
 UWI .       490251075800:   UNIQUE WELL ID
 DICO. A2D Technologies, Inc.:   DIGITIZING COMPANY
~OTHER INFORMATION
~A   DEPT      SPR         SN         IL       CALD         GRD      RHOB       DPHI       CORR   
# ...
  167.0000  -999.2500     8.7070     9.2150     7.9070    99.0790     2.4740     0.1320     0.0000
  167.5000  -999.2500     8.6000     9.1450     7.9060   100.3680     2.4690     0.1350    -0.0010
  168.0000  -999.2500     8.4930     9.0740     7.9040   101.6780     2.4640     0.1390    -0.0020
  168.5000  -999.2500     8.3870     9.0330     7.9020   102.5610     2.4600     0.1420    -0.0030
  169.0000  -999.2500     8.3330     8.9940     7.9000   103.4080     2.4570     0.1430    -0.0040
  169.5000  -999.2500     8.3280     8.9540     7.8990   104.7470     2.4550     0.1420     0.0000
  170.0000  -999.2500     8.3160     8.9150     7.8970   104.1100     2.4560     0.1410     0.0040
  170.5000  -999.2500     8.3040     8.8880     7.8950   103.3340     2.4570     0.1400     0.0090
  171.0000  -999.2500     8.2920     8.9700     7.8930   102.5600     2.4560     0.1380     0.0130
  171.5000  -999.2500     8.2800     8.9700     7.8910   101.4700     2.4550     0.1330     0.0160
  172.0000  -999.2500     8.2680     8.9700     7.8900   100.1290     2.4630     0.1280     0.0160
  172.5000  -999.2500     8.2560     8.9700     7.8920    98.7860     2.4710     0.1280     0.0160
  173.0000  -999.2500     8.2440     8.9700     7.8940    97.4570     2.4770     0.1300     0.0150
  173.5000  -999.2500     8.2320     8.9700     7.8970    97.0370     2.4750     0.1310     0.0150
  174.0000  -999.2500     8.2200     8.9700     7.8990    96.6550     2.4720     0.1320     0.0150
  174.5000  -999.2500     8.2080     8.9700     7.9010    96.3440     2.4700     0.1320     0.0150
  175.0000  -999.2500     8.1960     8.9700     7.9030    96.5780     2.4690     0.1330     0.0150
  175.5000  -999.2500     8.1840     8.9700     7.9060    97.5090     2.4690     0.1330     0.0150
  176.0000  -999.2500     8.1720     8.9700     7.9080    98.3910     2.4690     0.1310     0.0140
  176.5000  -999.2500     8.1600     8.9700     7.9100    98.5400     2.4680     0.1290     0.0140
  177.0000  -999.2500     8.1490     8.9700     7.9130    98.5130     2.4730     0.1270     0.0140
  177.5000  -999.2500     8.1370     8.9700     7.9150    98.2960     2.4790     0.1240     0.0120
  178.0000  -999.2500     8.1250     8.9700     7.9180    96.9820     2.4840     0.1220     0.0100
  178.5000  -999.2500     8.1070     8.9690     7.9200    95.5540     2.4870     0.1200     0.0080
  179.0000  -999.2500     8.1390     8.9680     7.9230    94.8550     2.4880     0.1220     0.0070
  179.5000  -999.2500     8.2030     8.9650     7.9260    97.0120     2.4890     0.1240     0.0050
  180.0000  -999.2500     8.2680     9.1730     7.9280    99.1910     2.4880     0.1270     0.0030
  180.5000  -999.2500     8.3320     9.3570     7.9310    99.8220     2.4840     0.1290     0.0020
  181.0000  -999.2500     8.3970     9.5410     7.9340    98.0300     2.4790     0.1280     0.0020
  181.5000  -999.2500     8.4610     9.7440     7.9360    95.3980     2.4750     0.1280     0.0010
  182.0000  -999.2500     8.5260     9.7300     7.9390    93.8120     2.4750     0.1250     0.0010
  182.5000  -999.2500     8.5900     9.7150     7.9410    93.4620     2.4790     0.1220     0.0010
  183.0000  -999.2500     8.6550     9.6990     7.9440    96.0180     2.4830     0.1180     0.0000
  183.5000  -999.2500     8.7260     9.6840     7.9470    99.2190     2.4880     0.1180     0.0000
  184.0000  -999.2500     8.7780     9.6690     7.9490   100.5720     2.4900     0.1200     0.0040
  184.5000  -999.2500     8.8360     9.6550     7.9580    98.7400     2.4900     0.1230     0.0080
  185.0000  -999.2500     8.8880     9.7830     7.9690    98.3670     2.4860     0.1250     0.0110
  185.5000  -999.2500     8.8880     9.9670     7.9800    98.2790     2.4820     0.1260     0.0120
  186.0000  -999.2500     8.8620    10.1500     7.9910    98.0290     2.4790     0.1240     0.0120
  186.5000  -999.2500     8.8110    10.3340     8.0030    96.8800     2.4820     0.1220     0.0120
  187.0000  -999.2500     8.7600    10.5170     8.0140    95.8880     2.4850     0.1190     0.0110
  187.5000  -999.2500     8.7080    10.6830     8.0250    94.2250     2.4880     0.1210     0.0110
  188.0000  -999.2500     8.6570    10.3950     8.0080    93.4170     2.4870     0.1220     0.0110
  188.5000  -999.2500     8.6060    10.1330     7.9670    93.4160     2.4850     0.1200     0.0100
  189.0000  -999.2500     8.5550     9.8710     7.9810    93.4200     2.4850     0.1180     0.0100
  189.5000  -999.2500     8.5040     9.6100     8.0360    93.0760     2.4910     0.1150     0.0100
  190.0000  -999.2500     8.4880     9.4790     8.0460    92.6540     2.4970     0.1150     0.0090
  190.5000  -999.2500     8.5000     9.4790     7.9770    92.2250     2.4910     0.1190     0.0090
  191.0000  -999.2500     8.5170     9.4790     7.9580    93.5540     2.4840     0.1230     0.0090
  191.5000  -999.2500     8.5340     9.4790     8.0030    95.8050     2.4800     0.1250     0.0080
  192.0000  -999.2500     8.5510     9.4790     8.0250    95.9020     2.4840     0.1200     0.0080
  192.5000  -999.2500     8.5680     9.4790     8.0120    95.5470     2.4880     0.1180     0.0080
  193.0000  -999.2500     8.5850     9.4790     8.0000    95.3810     2.4920     0.1220     0.0070
  193.5000  -999.2500     8.6020     9.4790     7.9870    95.3300     2.4850     0.1260     0.0070
  194.0000  -999.2500     8.6180     9.4790     7.9750    95.2700     2.4790     0.1300     0.0070
  194.5000  -999.2500     8.6350     9.4790     7.9620    95.1790     2.4710     0.1320     0.0070
  195.0000  -999.2500     8.6520     9.4790     7.9500    96.5210     2.4710     0.1290     0.0060
  195.5000  -999.2500     8.6690     9.4790     7.9500    98.0470     2.4740     0.1260     0.0060
  196.0000  -999.2500     8.6860     9.4790     7.9500    99.5520     2.4760     0.1250     0.0060
  196.5000  -999.2500     8.7030     9.4790     7.9500   100.7880     2.4770     0.1260     0.0070
  197.0000  -999.2500     8.7200     9.4790     7.9500   102.2180     2.4760     0.1270     0.0070
  197.5000  -999.2500     8.7370     9.4790     7.9500   103.4180     2.4760     0.1270     0.0070
  198.0000  -999.2500     8.7540     9.4790     7.9500   102.1830     2.4750     0.1260     0.0080
  198.5000  -999.2500     8.7710     9.4790     7.9500   100.2920     2.4760     0.1220     0.0080
  199.0000  -999.2500     8.7880     9.4790     7.9500    99.6010     2.4800     0.1190     0.0060
  199.5000  -999.2500     8.8050     9.4790     7.9500    98.9790     2.4860     0.1150     0.0050
  200.0000  -999.2500     8.8210     9.4790     7.9500    98.3610     2.4910     0.1140     0.0040
  200.5000  -999.2500     8.8380     9.4790     7.9500    97.7390     2.4970     0.1160     0.0030
  201.0000  -999.2500     8.8550     9.4790     7.9500    97.3360     2.4940     0.1170     0.0020
  201.5000  -999.2500     8.8720     9.4790     7.9500    97.3030     2.4900     0.1150     0.0060
  202.0000  -999.2500     8.8880     9.3670     7.9500    99.1600     2.4920     0.1130     0.0090
  202.5000  -999.2500     8.7300     9.2410     7.9500   100.9880     2.4980     0.1170     0.0130
  203.0000  -999.2500     8.5850     9.1140     7.9500   102.5280     2.4930     0.1220     0.0170
  203.5000  -999.2500     8.4400     8.9880     7.9500   102.8080     2.4870     0.1200     0.0170
  204.0000  -999.2500     8.3330     8.8620     7.9500   101.0740     2.4810     0.1160     0.0160
  204.5000  -999.2500     8.3330     8.7360     7.9500    98.7270     2.4880     0.1110     0.0140
  205.0000  -999.2500     8.3270     8.5670     7.9500    96.8560     2.4950     0.1140     0.0120
  205.5000  -999.2500     8.3220     8.5720     7.9500    94.8940     2.4970     0.1180     0.0100
  206.0000  -999.2500     8.3160     8.5810     7.9520    92.9010     2.4930     0.1270     0.0090
  206.5000  -999.2500     8.3100     8.5890     7.9590    92.6960     2.4840     0.1250     0.0030
  207.0000  -999.2500     8.3040     8.5970     7.9660    93.9140     2.4760     0.1230    -0.0070
