~VERSION INFORMATION
 VERS.                2.0:   CWLS LOG ASCII STANDARD - VERSION 2.0
 WRAP.                 NO:   ONE LINE PER DEPTH STEP
~WELL INFORMATION
#MNEM.UNIT      DATA TYPE    INFORMATION
#----------   ------------   ------------------------------
 STRT.F            0.0000:   START DEPTH
 STOP.F         4535.0000:   STOP DEPTH
 STEP.F            0.5000:   STEP LENGTH
 NULL.          -999.2500:   NO VALUE
 COMP. LAWRENCE - ALLISON & ASSOCIATES:   COMPANY
 WELL.    NPR ##3 56-X-15:   WELL
 FLD .   TEAPOT NAVAL RES:   FIELD
 LOC .      S15 T38N R78W:   LOCATION
 CNTY.            NATRONA:   COUNTY
 STAT.            WYOMING:   STATE
 CTRY. UNITED STATES OF AMERICA:   COUNTRY
 SRVC.      Dresser Atlas:   SERVICE COMPANY
 DATE.        03-MAY-1984:   LOGDATE
 API .       490251095900:   API NUMBER
~CURVE INFORMATION
#MNEM.UNIT       API CODE    CURVE DESCRIPTION
#----------   ------------   ------------------------------
 DEPT.F                  :   
 CORR.G/C3   45 356 01 00:   DENSITY CORRECTION
 DEN .G/C3   45 350 01 00:   COMPENSATED BULK DENSTIY
 PORD.DEC    45 890 12 00:   POROSITY DENSITY SANDSTONE
 CNC .DEC    42 890 03 00:   NEUTRON POROSITY SANDSTONE
 GRR .GAPI   07 310 01 00:   GAMMA RAY
 CALR.IN     07 280 01 00:   CALIPER FROM RESISTIVITY
 SPR .MV     07 010 01 00:   SPONTANEOUS POTENTIAL
 RILD.OHMM   07 120 46 00:   INDUCTION LOG DEEP RESISTIVITY
 RILM.OHMM   07 120 44 00:   INDUCTION LOG MEDIUM RESISTIVITY
 RFOC.OHMM   07 220 04 00:   RESISTIVITY FOCUSED LOG
 AC  .US/F   60 520 00 00:   ACCOUSTIC
~PARAMETER INFORMATION
#MNEM.UNIT          VALUE    DESCRIPTION
#----------   ------------   ------------------------------
 PD  .                 GL:   PERMANENT DATUM
 EPD .F              5326:   ELEVATION PERMANENT DATUM
 LMF .                 KB:   LOG MEASURED FROM
 DAPD.F                12:   FEET ABOVE PERMANENT DATUM
 DMF .                 KB:   DRILLING MEASURED FROM
 EKB .F              5338:   KELLING BUSHING
 EDF .F              5337:   DRILLING FLOOR
 EGL .F              5326:   GROUND LEVEL
 DATE.        03-MAY-1984:   RUN DATE
 RUN .                  1:   RUN NUMBER
 DD  .F              4547:   DEPTH DRILLER
 DL  .F              4539:   DEPTH LOGGER
 BLI .F              4536:   BOTTOM LOG INTERVAL
 CS  .IN            8.625:   CASING SIZE
 CBD .F              1027:   CASING BOTTOM DRILLER
 CBL .F              1021:   CASING BOTTOM LOGGER
 BS  .IN            7.875:   BIT SIZE
 BSD .F              4547:   BIT SIZE AT DEPTH
 DFT .            KCL GEL:   DRILLING FLUID TYPE
 DFD .                9.1:   DRILLING FLUID DENSITY
 DFV .                 44:   DRILLING FLUID VISCOSITY
 DFPH.                  8:   DRILLING FLUID PH
 DFL .               14.5:   DRILLING FLUID LOSS
 MSS .           MUD TANK:   MUD SAMPLE SOURCE
 RMS .OHMM           0.56:   RESISTIVITY MUD SAMPLE
 MST .F                73:   MUD SAMPLE TEMPERATURE
 RMF .OHMM           0.42:   RESISTIVITY MUD FILTRATE SAMPLE
 MFST.F                73:   MUD FILTRATE SAMPLE TEMPERATURE
 RMC .OHMM           0.71:   RESISTIVITY MUD CAKE
 MCST.F                73:   MUD CAKE SAMPLE TEMPERATURE
 MFSS.               MEAS:   MUD FILTRATE SAMPLE SOURCE
 MCSS.               CALC:   MUD CAKE SAMPLE SOURCE
 RMB .OHMM           0.29:   RESISTIVITY MUD AT BHT
 BHT .F               141:   BOTTOM HOLE TEMPERATURE
 TCS .HRS             3.5:   TIME CURCULATED STOPPED
 MRT .F               125:   MAXIMUM RECORDED TEMPERATURE
 LUN .               6302:   LOGGING UNIT NUMBER
 LUL .               CODY:   LOGGING UNIT LOCATION
 ENGI.              GETTY:   RECORDING ENGINEER
 WITN.           JENNINGS:   WITNESSED BY
 CLNT.            A2DTECH:   CLIENT CODE
 ORIG.           5" PRINT:   ORIGIN OF DATA
 UWI .       490251095900:   UNIQUE WELL ID
 DICO. A2D Technologies, Inc.:   DIGITIZING COMPANY
~OTHER INFORMATION
~A    DEPT    CORR        DEN       PORD        CNC        GRR       CALR        SPR       RILD       RILM       RFOC         AC   
# ...
 2653.5000  -999.2500  -999.2500  -999.2500  -999.2500   119.3985     8.1763   -22.5991     5.2131     5.3443     5.2231  -999.2500
 2654.0000  -999.2500  -999.2500  -999.2500  -999.2500   120.9023     8.1602   -22.9059     5.3199     5.5314     5.0424  -999.2500
 2654.5000  -999.2500  -999.2500  -999.2500  -999.2500   116.9925     8.1290   -23.3630     5.4668     5.8052     5.9586  -999.2500
 2655.0000  -999.2500  -999.2500  -999.2500  -999.2500   112.1805     8.1129   -23.9704     5.6177     6.1350     6.7062  -999.2500
 2655.5000  -999.2500  -999.2500  -999.2500  -999.2500   108.5714     8.0818   -24.4275     5.8535     6.3059     7.2382  -999.2500
 2656.0000  -999.2500  -999.2500  -999.2500  -999.2500   109.7744     8.0657   -24.7342     6.1418     6.3477     7.5973  -999.2500
 2656.5000  -999.2500  -999.2500  -999.2500  -999.2500   113.3835     8.0495   -25.0409     6.5344     6.4343     7.6474  -999.2500
 2657.0000  -999.2500  -999.2500  -999.2500  -999.2500   115.7895     8.0485   -25.1973     6.7616     6.6595     7.5382  -999.2500
 2657.5000  -999.2500  -999.2500  -999.2500  -999.2500   115.7842     8.0474   -25.3536     7.0454     6.9892     7.3789  -999.2500
 2658.0000  -999.2500  -999.2500  -999.2500  -999.2500   113.6606     8.0464   -25.5100     7.2904     7.2338     7.3759  -999.2500
 2658.5000  -999.2500  -999.2500  -999.2500  -999.2500   112.4812     8.0303   -25.5159     7.3382     7.3837     7.6880  -999.2500
 2659.0000  -999.2500  -999.2500  -999.2500  -999.2500   114.9392     8.0292   -25.5219     7.3331     7.3300     8.1260  -999.2500
 2659.5000  -999.2500  -999.2500  -999.2500  -999.2500   117.3594     8.0282   -25.5279     7.2784     7.2767     8.5291  -999.2500
 2660.0000  -999.2500  -999.2500  -999.2500  -999.2500   118.4962     8.0422   -25.5338     7.2240     7.2238     8.7060  -999.2500
 2660.5000  -999.2500  -999.2500  -999.2500  -999.2500   115.0477     8.0562   -25.5398     7.2200     7.1713     8.2875  -999.2500
 2661.0000  -999.2500  -999.2500  -999.2500  -999.2500   112.4268     8.0702   -25.5459     7.2160     7.1688     7.8343  -999.2500
 2661.5000  -999.2500  -999.2500  -999.2500  -999.2500   111.8797     8.0843   -25.4014     7.2121     7.1663     7.4058  -999.2500
 2662.0000  -999.2500  -999.2500  -999.2500  -999.2500   110.0752     8.1131   -25.4075     7.2593     7.2716     7.5593  -999.2500
 2662.5000  -999.2500  -999.2500  -999.2500  -999.2500   106.7669     8.1271   -25.4135     7.4071     7.4232     7.8245  -999.2500
 2663.0000  -999.2500  -999.2500  -999.2500  -999.2500   104.9624     8.1260   -25.2689     7.4547     7.5683     8.0426  -999.2500
 2663.5000  -999.2500  -999.2500  -999.2500  -999.2500   105.5639     8.1250   -24.9741     7.4505     7.5650     8.1536  -999.2500
 2664.0000  -999.2500  -999.2500  -999.2500  -999.2500   107.3684     8.1239   -24.8297     7.3437     7.4580     8.3211  -999.2500
 2664.5000  -999.2500  -999.2500  -999.2500  -999.2500   109.1729     8.1229   -24.6853     7.2384     7.4038     8.4376  -999.2500
 2665.0000  -999.2500  -999.2500  -999.2500  -999.2500   110.6767     8.1372   -24.6927     7.0361     7.2485     8.5495  -999.2500
 2665.5000  -999.2500  -999.2500  -999.2500  -999.2500   108.2707     8.1512   -24.5468     6.9836     7.0473     8.6058  -999.2500
 2666.0000  -999.2500  -999.2500  -999.2500  -999.2500    96.8421     8.1800   -24.2535     6.9282     6.8517     8.4775  -999.2500
 2666.5000  -999.2500  -999.2500  -999.2500  -999.2500    95.0376     8.1943   -23.9587     6.8319     6.7079     8.0072  -999.2500
 2667.0000  -999.2500  -999.2500  -999.2500  -999.2500    99.8496     8.2083   -23.6625     6.7809     6.7524     7.5153  -999.2500
 2667.5000  -999.2500  -999.2500  -999.2500  -999.2500   104.9624     8.2223   -23.3692     6.7302     6.7501     7.0536  -999.2500
 2668.0000  -999.2500  -999.2500  -999.2500  -999.2500   107.6692     8.2363   -23.0744     6.6792     6.7477     6.6733  -999.2500
 2668.5000  -999.2500  -999.2500  -999.2500  -999.2500   108.5714     8.2503   -22.9300     6.6755     6.6523     6.7317  -999.2500
 2669.0000  -999.2500  -999.2500  -999.2500  -999.2500   108.2707     8.2490   -22.7841     6.6256     6.5582     7.1246  -999.2500
 2669.5000  -999.2500  -999.2500  -999.2500  -999.2500   107.9699     8.2480   -22.4893     6.4854     6.4206     7.5846  -999.2500
 2670.0000  -999.2500  -999.2500  -999.2500  -999.2500   106.7669     8.2770   -22.3449     6.4370     6.3739     8.1072  -999.2500
 2670.5000  -999.2500  -999.2500  -999.2500  -999.2500   105.2632     8.2913   -22.0501     6.3008     6.2402     8.0475  -999.2500
 2671.0000  -999.2500  -999.2500  -999.2500  -999.2500   105.5639     8.3053   -21.9057     6.0823     6.0670     7.6074  -999.2500
 2671.5000  -999.2500  -999.2500  -999.2500  -999.2500   106.7669     8.3191   -21.9131     5.8715     5.9397     6.9448  -999.2500
 2672.0000  -999.2500  -999.2500  -999.2500  -999.2500   108.5714     8.3030   -21.9191     5.7075     5.8965     6.3844  -999.2500
 2672.5000  -999.2500  -999.2500  -999.2500  -999.2500   108.5714     8.2869   -21.9251     5.5867     5.8945     6.2933  -999.2500
 2673.0000  -999.2500  -999.2500  -999.2500  -999.2500   106.1654     8.2557   -22.0814     5.5066     5.8925     6.2035  -999.2500
 2673.5000  -999.2500  -999.2500  -999.2500  -999.2500   105.2632     8.2396   -22.2377     5.5035     5.9729     5.9883  -999.2500
 2674.0000  -999.2500  -999.2500  -999.2500  -999.2500   107.6692     8.2385   -22.2437     5.5775     6.0130     5.7004  -999.2500
 2674.5000  -999.2500  -999.2500  -999.2500  -999.2500   105.8647     8.2375   -22.4000     5.6524     6.0529     6.1526  -999.2500
 2675.0000  -999.2500  -999.2500  -999.2500  -999.2500    97.4436     8.2364   -22.4060     5.7291     6.0924     6.8764  -999.2500
 2675.5000  -999.2500  -999.2500  -999.2500  -999.2500    97.7444     8.2203   -22.4120     5.8465     6.0903     7.2682  -999.2500
 2676.0000  -999.2500  -999.2500  -999.2500  -999.2500   104.9624     8.2193   -22.4278     5.9250     6.1735     7.3680  -999.2500
 2676.5000  -999.2500  -999.2500  -999.2500  -999.2500   110.9774     8.2182   -22.5893     6.0456     6.2144     7.3129  -999.2500
 2677.0000  -999.2500  -999.2500  -999.2500  -999.2500   113.0827     8.2021   -22.9013     6.1276     6.2122     7.1087  -999.2500
 2677.5000  -999.2500  -999.2500  -999.2500  -999.2500   113.0975     8.2011   -23.1880     6.2523     6.2970     6.9102  -999.2500
 2678.0000  -999.2500  -999.2500  -999.2500  -999.2500   109.4737     8.2000   -23.4959     6.3805     6.3830     6.7642  -999.2500
 2678.5000  -999.2500  -999.2500  -999.2500  -999.2500   109.1718     8.2141   -23.8026     6.4215     6.4253     6.7151  -999.2500
 2679.0000  -999.2500  -999.2500  -999.2500  -999.2500   109.7803     8.2127   -23.8086     6.5077     6.5131     6.9985  -999.2500
 2679.5000  -999.2500  -999.2500  -999.2500  -999.2500   109.7484     8.2270   -23.8146     6.5494     6.6479     7.3457  -999.2500
 2680.0000  -999.2500  -999.2500  -999.2500  -999.2500   106.7268     8.2257   -23.8205     6.6374     6.7386     7.7642  -999.2500
 2680.5000  -999.2500  -999.2500  -999.2500  -999.2500   105.8647     8.2247   -23.6746     6.6799     6.7833     8.0928  -999.2500
 2681.0000  -999.2500  -999.2500  -999.2500  -999.2500   108.6727     8.2387   -23.5302     6.7228     6.8283     8.3192  -999.2500
 2681.5000  -999.2500  -999.2500  -999.2500  -999.2500   111.6617     8.2376   -23.3858     6.7659     6.8735     8.1426  -999.2500
 2682.0000  -999.2500  -999.2500  -999.2500  -999.2500   112.4812     8.2366   -23.3933     6.8568     6.8711     7.6438  -999.2500
 2682.5000  -999.2500  -999.2500  -999.2500  -999.2500   113.1381     8.2506   -23.2474     6.9008     6.9167     7.5875  -999.2500
 2683.0000  -999.2500  -999.2500  -999.2500  -999.2500   115.7895     8.2495   -23.2548     6.9451     7.0111     7.6375  -999.2500
 2683.5000  -999.2500  -999.2500  -999.2500  -999.2500   117.2932     8.2638   -23.4112     6.9403     7.0086     7.9053  -999.2500
