~VERSION INFORMATION
 VERS.                2.0:   CWLS LOG ASCII STANDARD - VERSION 2.0
 WRAP.                 NO:   ONE LINE PER DEPTH STEP
~WELL INFORMATION
#MNEM.UNIT      DATA TYPE    INFORMATION
#----------   ------------   ------------------------------
 STRT.F           27.0000:   START DEPTH
 STOP.F          992.0000:   STOP DEPTH
 STEP.F            0.5000:   STEP LENGTH
 NULL.          -999.2500:   NO VALUE
 COMP. FENIX & SCISSON INC:   COMPANY
 WELL. NPR 3  77- S -27 #77-27:   WELL
 FLD .             TEAPOT:   FIELD
 LOC .      S27 T39N R78W:   LOCATION
 CNTY.            NATRONA:   COUNTY
 STAT.            WYOMING:   STATE
 CTRY. UNITED STATES OF AMERICA:   COUNTRY
 SRVC.            Unknown:   SERVICE COMPANY
 DATE.        09-SEP-1978:   LOGDATE
 API .       490251069700:   API NUMBER
~CURVE INFORMATION
#MNEM.UNIT       API CODE    CURVE DESCRIPTION
#----------   ------------   ------------------------------
 DEPT.F                  :   
 SPR .MV     05 010 01 00:   SPONTANEOUS POTENTIAL FROM RES.
 SN  .OHMM   05 040 16 00:   SHORT NORMAL 16"
 ILD .OHMM   05 120 46 00:   INDUCTION LOG DEEP
 CALD.IN     45 280 60 00:   CALIPER
 GRD .GAPI   45 310 01 00:   GAMMA RAY FROM DENSITY LOG
 RHOB.G/C3   45 350 01 00:   BULK DENSITY
 CORR.G/C3   45 356 01 00:   DENSITY CORRECTION
 DPHI.DEC    45 890 12 00:   DENSITY POROSITY SANDSTONE
~PARAMETER INFORMATION
#MNEM.UNIT          VALUE    DESCRIPTION
#----------   ------------   ------------------------------
 PD  .                 GL:   PERMANENT DATUM
 EPD .F              5069:   ELEVATION PERMANENT DATUM
 LMF .                 KB:   LOG MEASURED FROM
 DAPD.F                 4:   FEET ABOVE PERMANENT DATUM
 DMF .                 KB:   DRILLING MEASURED FROM
 EKB .F              5073:   KELLING BUSHING
 EGL .F              5069:   GROUND LEVEL
 DATE.           9-9-1978:   RUN DATE
 RUN .                  1:   RUN NUMBER
 DD  .F               990:   DEPTH DRILLER
 DL  .F               998:   DEPTH LOGGER
 BLI .F               992:   BOTTOM LOG INTERVAL
 TLI .F                50:   TOP LOG INTERVAL
 CS  .IN            8.625:   CASING SIZE
 CBD .F                40:   CASING BOTTOM DRILLER
 BS  .IN            7.875:   BIT SIZE
 BSD .F               990:   BIT SIZE AT DEPTH
 DFT .                KCL:   DRILLING FLUID TYPE
 DFD .                8.7:   DRILLING FLUID DENSITY
 DFV .                 34:   DRILLING FLUID VISCOSITY
 DFPH.                  9:   DRILLING FLUID PH
 DFL .                  8:   DRILLING FLUID LOSS
 MSS .          FLOW LINE:   MUD SAMPLE SOURCE
 RMS .OHMM             .4:   RESISTIVITY MUD SAMPLE
 MST .F                79:   MUD SAMPLE TEMPERATURE
 RMF .OHMM            .12:   RESISTIVITY MUD FILTRATE SAMPLE
 MFST.F                84:   MUD FILTRATE SAMPLE TEMPERATURE
 RMC .OHMM            .34:   RESISTIVITY MUD CAKE
 MCST.F                84:   MUD CAKE SAMPLE TEMPERATURE
 MFSS.               MEAS:   MUD FILTRATE SAMPLE SOURCE
 MCSS.               MEAS:   MUD CAKE SAMPLE SOURCE
 TCS .HRS               3:   TIME CURCULATED STOPPED
 LUN .               2958:   LOGGING UNIT NUMBER
 LUL .               CASP:   LOGGING UNIT LOCATION
 ENGI.             MILLER:   RECORDING ENGINEER
 WITN.              AMEND:   WITNESSED BY
 CLNT.            A2DTECH:   CLIENT CODE
 ORIG.           5" PRINT:   ORIGIN OF DATA
 UWI .       490251069700:   UNIQUE WELL ID
 DICO. A2D Technologies, Inc.:   DIGITIZING COMPANY
~OTHER INFORMATION
~A   DEPT      SPR         SN        ILD       CALD        GRD       RHOB       CORR       DPHI   
# ...
  270.0000   -72.2671     5.9234     6.4577     7.8726   127.9013     2.4460    -0.0025     0.1374
  270.5000   -72.3874     5.9315     6.4953     7.8755   128.3276     2.4460    -0.0024     0.1372
  271.0000   -72.9390     5.9396     6.5331     7.8687   130.9307     2.4482    -0.0021     0.1313
  271.5000   -73.4695     5.9476     6.5711     7.8618   132.4790     2.4558    -0.0019     0.1264
  272.0000   -73.8650     5.9563     6.5922     7.8548   131.2189     2.4641    -0.0016     0.1246
  272.5000   -73.8618     5.9570     6.4904     7.8478   128.1223     2.4700    -0.0014     0.1228
  273.0000   -74.0971     5.9024     6.4006     7.8409   125.0108     2.4721    -0.0012     0.1209
  273.5000   -74.5983     5.8113     6.3121     7.8340   123.5969     2.4743    -0.0009     0.1191
  274.0000   -75.0939     5.6779     6.2263     7.8270   124.1612     2.4768    -0.0007     0.1207
  274.5000   -75.4657     5.5477     6.0896     7.8201   125.8109     2.4763    -0.0004     0.1263
  275.0000   -75.5065     5.4204     5.9117     7.8131   126.2470     2.4706    -0.0002     0.1318
  275.5000   -75.5514     5.2960     5.7368     7.8062   126.2167     2.4591     0.0001     0.1360
  276.0000   -75.5958     5.1745     5.5675     7.7992   126.4748     2.4482     0.0003     0.1375
  276.5000   -75.6460     5.0558     5.4033     7.7923   127.7861     2.4451     0.0006     0.1366
  277.0000   -75.9224     4.9398     5.2438     7.7853   127.9899     2.4456     0.0009     0.1364
  277.5000   -76.2268     4.8265     5.0891     7.7783   128.0842     2.4460     0.0011     0.1379
  278.0000   -76.5312     4.7157     4.9390     7.7758   128.9606     2.4448     0.0013     0.1420
  278.5000   -76.8313     4.6076     4.7933     7.7837   127.5700     2.4408     0.0013     0.1513
  279.0000   -77.0375     4.5018     4.6518     7.7921   126.0574     2.4266     0.0008     0.1605
  279.5000   -77.0217     4.3986     4.5146     7.8004   124.5423     2.4118     0.0002     0.1697
  280.0000   -77.0106     4.2976     4.3816     7.8088   123.0800     2.3970    -0.0003     0.1788
  280.5000   -76.9987     4.1979     4.2749     7.8171   123.1836     2.3823    -0.0009     0.1819
  281.0000   -76.9869     4.1979     4.2751     7.8255   125.6913     2.3698    -0.0014     0.1744
  281.5000   -76.9752     4.1979     4.2759     7.8340   129.2498     2.3713    -0.0020     0.1646
  282.0000   -76.9634     4.1979     4.2759     7.8350   132.7809     2.3965    -0.0024     0.1548
  282.5000   -76.9517     4.1979     4.3289     7.8341   135.3468     2.4149    -0.0010     0.1451
  283.0000   -76.9400     4.2674     4.4583     7.8332   134.3849     2.4333     0.0005     0.1353
  283.5000   -76.9282     4.4357     4.5924     7.8324   132.0353     2.4521     0.0014     0.1280
  284.0000   -76.9165     4.6029     4.7304     7.8315   129.6805     2.4609     0.0010     0.1282
  284.5000   -76.9047     4.6885     4.8651     7.8306   127.3479     2.4620     0.0006     0.1287
  285.0000   -76.8930     4.6731     4.8644     7.8297   125.6602     2.4586     0.0003     0.1293
  285.5000   -76.8812     4.6497     4.8645     7.8288   126.1413     2.4548    -0.0001     0.1299
  286.0000   -76.8691     4.6264     4.8646     7.8280   126.0541     2.4551    -0.0005     0.1304
  286.5000   -76.8572     4.6033     4.8639     7.8271   125.7420     2.4564    -0.0008     0.1310
  287.0000   -76.8495     4.5802     4.9114     7.8262   125.4248     2.4577    -0.0012     0.1315
  287.5000   -77.0623     4.5574     4.9557     7.8253   125.0986     2.4584    -0.0016     0.1321
  288.0000   -77.6365     4.5345     5.0004     7.8245   125.0286     2.4569    -0.0019     0.1344
  288.5000   -78.2109     4.4774     5.0469     7.8236   125.0275     2.4520    -0.0023     0.1380
  289.0000   -78.4183     4.3554     5.0909     7.8227   125.1563     2.4447    -0.0026     0.1416
  289.5000   -78.4094     4.2759     5.0007     7.8218   126.0789     2.4374    -0.0030     0.1452
  290.0000   -78.3964     4.1594     4.8644     7.8210   127.0125     2.4345    -0.0034     0.1503
  290.5000   -78.3832     4.0835     4.4032     7.8201   126.6003     2.4317    -0.0037     0.1582
  291.0000   -78.3704     3.9722     3.9772     7.8192   124.0896     2.4211    -0.0041     0.1717
  291.5000   -78.3577     3.7586     3.5923     7.8183   122.8503     2.4009    -0.0045     0.1963
  292.0000   -78.3448     3.4640     3.2448     7.8174   122.9368     2.3767    -0.0039     0.2209
  292.5000   -78.3321     3.1829     2.9313     7.8160   123.7934     2.3312     0.0008     0.2454
  293.0000   -78.3193     2.9245     2.6990     7.8141   124.6470     2.2858     0.0054     0.2634
  293.5000   -78.3065     2.8251     2.6955     7.8753   125.1982     2.2353     0.0093     0.2476
  294.0000   -78.2937     2.8477     2.7229     8.1628   124.4133     2.2592     0.0065     0.2258
  294.5000   -78.2809     2.9049     2.7481     8.4760   123.1155     2.2988     0.0038     0.2041
  295.0000   -78.2681     2.9633     2.7735     8.7254   122.0641     2.3384     0.0014     0.1823
  295.5000   -78.2552     3.0411     2.8549     7.7624   122.4852     2.3778     0.0020     0.1605
  296.0000   -78.2422     3.3244     3.1061     7.7386   124.0576     2.4201     0.0031     0.1491
  296.5000   -78.2319     3.6253     3.5519     7.7398   124.0575     2.4269     0.0041     0.1485
  297.0000   -78.2571     3.9345     4.0616     7.7447   122.8387     2.4277     0.0052     0.1479
  297.5000   -78.2823     4.0446     4.6445     7.7481   121.6102     2.4285     0.0058     0.1473
  298.0000   -78.3073     4.0613     4.7318     7.7514   120.8324     2.4293     0.0064     0.1463
  298.5000   -78.3323     4.0795     4.6175     7.7548   120.6035     2.4307     0.0070     0.1433
  299.0000   -78.3572     4.0975     4.4521     7.7582   120.6105     2.4362     0.0076     0.1394
  299.5000   -78.3820     4.1157     4.2927     7.7616   121.0162     2.4417     0.0082     0.1364
  300.0000   -78.4069     4.1213     4.2367     7.7650   122.3668     2.4473     0.0088     0.1367
  300.5000   -78.4454     4.1213     4.2649     7.7684   123.8192     2.4497     0.0095     0.1397
  301.0000   -78.5799     4.0519     4.2838     7.7718   123.8413     2.4432     0.0083     0.1428
  301.5000   -78.7163     3.9567     4.3028     7.7751   123.7991     2.4369     0.0071     0.1459
  302.0000   -78.8523     3.8636     4.3155     7.7785   122.9466     2.4303     0.0058     0.1489
  302.5000   -78.9882     3.7727     4.2443     7.7819   122.1632     2.4291     0.0045     0.1520
  303.0000   -79.1242     3.6840     4.0375     7.7853   121.3778     2.4288     0.0032     0.1550
  303.5000   -79.2607     3.5974     3.8409     7.7887   120.6517     2.4191     0.0019     0.1662
  304.0000   -79.4005     3.5127     3.6535     7.7921   120.6808     2.4000     0.0006     0.1808
  304.5000   -79.3618     3.4303     3.4758     7.7955   122.4889     2.3815    -0.0003     0.1954
  305.0000   -79.2848     3.3647     3.3062     7.7988   125.7185     2.3630     0.0025     0.2035
  305.5000   -79.2070     3.3631     3.2436     7.8022   127.7949     2.3438     0.0080     0.2004
  306.0000   -79.1295     3.4280     3.2787     7.8056   128.0226     2.3391     0.0170     0.1955
  306.5000   -79.0521     3.4263     3.3645     7.8090   126.5325     2.3411     0.0205     0.1702
  307.0000   -78.9746     3.5596     3.4526     7.8124   124.9497     2.3748     0.0170     0.1420
  307.5000   -78.8971     3.5536     3.5895     7.8156   124.7816     2.4103     0.0135     0.1272
  308.0000   -78.8275     3.8637     3.5869     7.8156   124.6358     2.4449     0.0101     0.1285
  308.5000   -78.8265     4.0658     3.9718     7.8156   124.8993     2.4646     0.0066     0.1329
  309.0000   -78.8251     4.2789     4.3718     7.8156   128.0573     2.4584     0.0034     0.1374
  309.5000   -78.9178     4.4562     4.8136     7.8156   131.4796     2.4492     0.0039     0.1418
  310.0000   -79.0430     4.5189     4.8939     7.8156   130.3975     2.4394     0.0044     0.1428
