~VERSION INFORMATION
 VERS.                2.0:   CWLS LOG ASCII STANDARD - VERSION 2.0
 WRAP.                 NO:   ONE LINE PER DEPTH STEP
~WELL INFORMATION
#MNEM.UNIT      DATA TYPE    INFORMATION
#----------   ------------   ------------------------------
 STRT.F           44.0000:   START DEPTH
 STOP.F          462.0000:   STOP DEPTH
 STEP.F            0.5000:   STEP LENGTH
 NULL.          -999.2500:   NO VALUE
 COMP. FENIX & SCISSON INC:   COMPANY
 WELL.    35-SX-3F0 #55-3:   WELL
 FLD .             TEAPOT:   FIELD
 LOC .       S3 T38N R78W:   LOCATION
 CNTY.            NATRONA:   COUNTY
 STAT.            WYOMING:   STATE
 CTRY. UNITED STATES OF AMERICA:   COUNTRY
 SRVC.              Welex:   SERVICE COMPANY
 DATE.        11-JUL-1980:   LOGDATE
 API .       490251083300:   API NUMBER
~CURVE INFORMATION
#MNEM.UNIT       API CODE    CURVE DESCRIPTION
#----------   ------------   ------------------------------
 DEPT.F                  :   
 GRD .GAPI   45 310 01 00:   GAMMA RAY FROM DENSITY LOG
 CALD.IN     45 280 60 00:   CALIPER
 RHOB.G/C3   45 350 01 00:   BULK DENSITY
 CORR.G/C3   45 356 01 00:   DENSITY CORRECTION
 DPHI.DEC    45 890 12 00:   DENSITY POROSITY SANDSTONE
~PARAMETER INFORMATION
#MNEM.UNIT          VALUE    DESCRIPTION
#----------   ------------   ------------------------------
 PD  .                 GL:   PERMANENT DATUM
 EPD .F              5171:   ELEVATION PERMANENT DATUM
 LMF .                 KB:   LOG MEASURED FROM
 DAPD.F                 5:   FEET ABOVE PERMANENT DATUM
 DMF .                 KB:   DRILLING MEASURED FROM
 EKB .F              5176:   KELLING BUSHING
 EGL .F              5171:   GROUND LEVEL
 DATE.            7-11-80:   RUN DATE
 RUN .                  1:   RUN NUMBER
 DD  .F               470:   DEPTH DRILLER
 DL  .F               470:   DEPTH LOGGER
 BLI .F               462:   BOTTOM LOG INTERVAL
 TLI .F                48:   TOP LOG INTERVAL
 CS  .IN                7:   CASING SIZE
 CBD .F                48:   CASING BOTTOM DRILLER
 BS  .IN             6.25:   BIT SIZE
 BSD .F               470:   BIT SIZE AT DEPTH
 DFT .        AIR DRILLED:   DRILLING FLUID TYPE
 BHT .F                75:   BOTTOM HOLE TEMPERATURE
 TCS .HRS               2:   TIME CURCULATED STOPPED
 MRT .F                75:   MAXIMUM RECORDED TEMPERATURE
 ENGI.           PFRIMMER:   RECORDING ENGINEER
 WITN.              AMEND:   WITNESSED BY
 CLNT.            A2DTECH:   CLIENT CODE
 ORIG.           5" PRINT:   ORIGIN OF DATA
 UWI .       490251083300:   UNIQUE WELL ID
 DICO. A2D Technologies, Inc.:   DIGITIZING COMPANY
~OTHER INFORMATION
~A   DEPT       GRD        CALD     RHOB       CORR       DPHI   
# ...
  105.0000    97.0098     6.8816     2.5267     0.0479     0.0946
  105.5000    96.6275     6.8630     2.5338     0.0540     0.0910
  106.0000    96.4806     6.8446     2.5400     0.0592     0.0879
  106.5000    95.2860     6.8263     2.5464     0.0597     0.0849
  107.0000    94.0077     6.8080     2.5529     0.0603     0.0815
  107.5000    92.7315     6.7899     2.5567     0.0609     0.0797
  108.0000    91.4050     6.7715     2.5601     0.0615     0.0792
  108.5000    91.1359     6.7782     2.5687     0.0621     0.0761
  109.0000    91.5471     6.8068     2.5786     0.0627     0.0736
  109.5000    92.2496     6.8356     2.5726     0.0653     0.0732
  110.0000    92.9538     6.8624     2.5804     0.0705     0.0629
  110.5000    93.6193     6.8476     2.5927     0.0757     0.0532
  111.0000    91.4095     6.8257     2.6032     0.0809     0.0483
  111.5000    88.7941     6.8024     2.6026     0.0862     0.0502
  112.0000    88.5160     6.8237     2.5888     0.0907     0.0573
  112.5000    89.7406     6.8224     2.5729     0.0841     0.0704
  113.0000    90.9540     6.8227     2.5572     0.0774     0.0770
  113.5000    92.1615     6.8227     2.5452     0.0707     0.0805
  114.0000    93.3554     6.8227     2.5402     0.0640     0.0814
  114.5000    94.0400     6.8239     2.5407     0.0630     0.0876
  115.0000    93.6506     6.8251     2.5445     0.0630     0.0847
  115.5000    93.2820     6.8264     2.5483     0.0630     0.0824
  116.0000    94.7676     6.8276     2.5414     0.0601     0.0872
  116.5000    96.8205     6.8288     2.5314     0.0549     0.0936
  117.0000    97.2040     6.8300     2.5220     0.0497     0.0971
  117.5000    96.9682     6.8313     2.5185     0.0443     0.0988
  118.0000    95.8656     6.8325     2.5174     0.0418     0.0998
  118.5000    93.9859     6.8337     2.5179     0.0401     0.1003
  119.0000    93.0309     6.8350     2.5155     0.0384     0.1007
  119.5000    92.7220     6.8362     2.5128     0.0367     0.1017
  120.0000    92.1217     6.8374     2.5102     0.0350     0.1036
  120.5000    90.1403     6.8387     2.5076     0.0333     0.1054
  121.0000    90.4371     6.8399     2.5050     0.0316     0.1073
  121.5000    91.0556     6.8411     2.5029     0.0299     0.1089
  122.0000    90.4578     6.8424     2.5032     0.0282     0.1095
  122.5000    90.0036     6.8426     2.5048     0.0294     0.1072
  123.0000    90.6668     6.8426     2.5129     0.0399     0.1018
  123.5000    91.3179     6.8426     2.5217     0.0500     0.0963
  124.0000    91.3000     6.8426     2.5280     0.0600     0.0920
  124.5000    90.2245     6.8426     2.5335     0.0701     0.0894
  125.0000    89.1395     6.8412     2.5390     0.0805     0.0867
  125.5000    90.0147     6.8398     2.5444     0.0841     0.0840
  126.0000    92.2411     6.8383     2.5500     0.0856     0.0813
  126.5000    94.4234     6.8369     2.5517     0.0867     0.0808
  127.0000    96.2389     6.8354     2.5485     0.0782     0.0826
  127.5000    97.1925     6.8340     2.5405     0.0695     0.0868
  128.0000    98.1783     6.8325     2.5325     0.0609     0.0909
  128.5000    99.4722     6.8310     2.5322     0.0559     0.0917
  129.0000   101.2373     6.8296     2.5379     0.0588     0.0878
  129.5000   100.3985     6.8281     2.5376     0.0616     0.0882
  130.0000    99.0996     6.8267     2.5320     0.0644     0.0893
  130.5000    97.7923     6.8252     2.5310     0.0672     0.0898
  131.0000    98.4622     6.8238     2.5333     0.0664     0.0906
  131.5000    97.4321     6.8235     2.5324     0.0590     0.0888
  132.0000    95.5738     6.8270     2.5233     0.0516     0.0943
  132.5000    96.1521     6.8303     2.5143     0.0448     0.0989
  133.0000    97.7099     6.8337     2.5050     0.0410     0.1033
  133.5000    99.2739     6.8370     2.4995     0.0374     0.1077
  134.0000   100.8240     6.8403     2.4946     0.0337     0.1112
  134.5000   100.9743     6.8411     2.4975     0.0307     0.1113
  135.0000    99.4661     6.8355     2.4999     0.0295     0.1114
  135.5000    97.9506     6.8301     2.4978     0.0284     0.1115
  136.0000    97.7538     6.8246     2.4959     0.0270     0.1116
  136.5000    99.1977     6.8192     2.5028     0.0336     0.1070
  137.0000   100.5067     6.8138     2.5141     0.0419     0.1012
  137.5000   100.1832     6.8087     2.5255     0.0502     0.0953
  138.0000    99.9356     6.7981     2.5368     0.0585     0.0892
  138.5000   100.9685     6.7851     2.5481     0.0670     0.0846
  139.0000   102.0694     6.7867     2.5531     0.0746     0.0804
  139.5000   103.1627     6.7891     2.5483     0.0668     0.0822
  140.0000   104.0974     6.7914     2.5436     0.0586     0.0852
  140.5000   103.8315     6.7937     2.5389     0.0484     0.0898
  141.0000   103.5909     6.7959     2.5303     0.0340     0.0978
  141.5000   103.1368     6.7981     2.5146     0.0197     0.1059
  142.0000   102.5818     6.8004     2.5001     0.0090     0.1091
  142.5000   102.0989     6.8027     2.4990     0.0103     0.1096
  143.0000   104.3570     6.8010     2.5011     0.0124     0.1084
  143.5000   107.1023     6.7991     2.5009     0.0168     0.1091
  144.0000   108.6625     6.7972     2.4980     0.0212     0.1106
  144.5000   105.6611     6.7953     2.4978     0.0256     0.1121
  145.0000   103.3743     6.7934     2.4997     0.0314     0.1069
  145.5000   102.9147     6.7914     2.5150     0.0379     0.1011
  146.0000   102.5293     6.7895     2.5303     0.0444     0.0952
  146.5000   102.7682     6.7876     2.5286     0.0438     0.0936
  147.0000   102.5861     6.7857     2.5230     0.0387     0.0963
  147.5000   101.9071     6.7838     2.5181     0.0332     0.0988
  148.0000    99.8148     6.7861     2.5198     0.0362     0.1002
  148.5000    99.5406     6.7922     2.5140     0.0407     0.1012
  149.0000   100.8581     6.7982     2.5090     0.0453     0.1014
  149.5000   100.8568     6.8043     2.5122     0.0498     0.1015
  150.0000   102.6261     6.8104     2.5155     0.0501     0.1049
  150.5000   104.1836     6.8165     2.5088     0.0377     0.1098
  151.0000   103.1856     6.8225     2.4934     0.0257     0.1147
  151.5000   102.9608     6.8228     2.4856     0.0202     0.1195
  152.0000   101.9351     6.8227     2.4781     0.0188     0.1244
  152.5000    99.7317     6.8227     2.4703     0.0172     0.1264
  153.0000    99.5010     6.8227     2.4731     0.0222     0.1248
  153.5000   100.0877     6.8227     2.4777     0.0293     0.1217
  154.0000   101.8579     6.8227     2.4819     0.0348     0.1192
  154.5000   102.0571     6.8227     2.4804     0.0328     0.1222
  155.0000   101.3814     6.8227     2.4746     0.0309     0.1258
  155.5000   100.6584     6.8227     2.4684     0.0290     0.1296
  156.0000   100.9973     6.8227     2.4622     0.0272     0.1311
  156.5000   102.9642     6.8227     2.4636     0.0252     0.1332
  157.0000   104.5462     6.8227     2.4664     0.0271     0.1290
  157.5000   104.4892     6.8227     2.4692     0.0297     0.1283
  158.0000   103.6909     6.8227     2.4752     0.0323     0.1233
  158.5000   101.2296     6.8227     2.4884     0.0391     0.1150
  159.0000    99.9334     6.8227     2.5016     0.0473     0.1067
  159.5000   100.2344     6.8227     2.5146     0.0549     0.1001
  160.0000    98.7391     6.8227     2.5231     0.0564     0.0988
  160.5000    97.9138     6.8227     2.5181     0.0577     0.1002
  161.0000    98.9309     6.8227     2.5136     0.0589     0.1020
  161.5000    99.8627     6.8227     2.5090     0.0590     0.1042
  162.0000    99.6052     6.8217     2.5044     0.0591     0.1064
  162.5000   100.4913     6.8200     2.5062     0.0622     0.1071
  163.0000   102.0261     6.8183     2.5110     0.0688     0.1038
  163.5000   103.5930     6.8166     2.5080     0.0727     0.1051
  164.0000   103.5313     6.8149     2.4999     0.0703     0.1082
  164.5000   102.1329     6.8132     2.4985     0.0680     0.1087
  165.0000   102.8046     6.8115     2.5017     0.0657     0.1092
  165.5000   104.2680     6.8099     2.4948     0.0634     0.1124
