~VERSION INFORMATION
 VERS.                2.0:   CWLS LOG ASCII STANDARD - VERSION 2.0
 WRAP.                 NO:   ONE LINE PER DEPTH STEP
~WELL INFORMATION
#MNEM.UNIT      DATA TYPE    INFORMATION
#----------   ------------   ------------------------------
 STRT.F            8.0000:   START DEPTH
 STOP.F          598.0000:   STOP DEPTH
 STEP.F            0.5000:   STEP LENGTH
 NULL.          -999.2500:   NO VALUE
 COMP. FENIX & SCISSON INC:   COMPANY
 WELL.    16-SX-11 #16-11:   WELL
 FLD .             TEAPOT:   FIELD
 LOC .      S11 T38N R78W:   LOCATION
 CNTY.            NATRONA:   COUNTY
 STAT.            WYOMING:   STATE
 CTRY. UNITED STATES OF AMERICA:   COUNTRY
 SRVC.            Unknown:   SERVICE COMPANY
 DATE.        13-DEC-1978:   LOGDATE
 API .       490251078400:   API NUMBER
~CURVE INFORMATION
#MNEM.UNIT       API CODE    CURVE DESCRIPTION
#----------   ------------   ------------------------------
 DEPT.F                  :   
 RHOB.G/C3   45 350 01 00:   BULK DENSITY
 CORR.G/C3   45 356 01 00:   DENSITY CORRECTION
 SN  .OHMM   05 040 16 00:   SHORT NORMAL 16"
 ILD .OHMM   05 120 46 00:   INDUCTION LOG DEEP
 SPR .MV     05 010 01 00:   SPONTANEOUS POTENTIAL FROM RES.
 DPHI.DEC    45 890 12 00:   DENSITY POROSITY SANDSTONE
 CALD.IN     45 280 60 00:   CALIPER
 GRD .GAPI   45 310 01 00:   GAMMA RAY FROM DENSITY LOG
~PARAMETER INFORMATION
#MNEM.UNIT          VALUE    DESCRIPTION
#----------   ------------   ------------------------------
 PD  .                 GL:   PERMANENT DATUM
 EPD .F              5209:   ELEVATION PERMANENT DATUM
 LMF .                 KB:   LOG MEASURED FROM
 DAPD.F                 4:   FEET ABOVE PERMANENT DATUM
 DMF .                 KB:   DRILLING MEASURED FROM
 EKB .F              5213:   KELLING BUSHING
 EGL .F              5209:   GROUND LEVEL
 DATE.           12-13-78:   RUN DATE
 RUN .                  1:   RUN NUMBER
 DD  .F               590:   DEPTH DRILLER
 DL  .F               598:   DEPTH LOGGER
 BLI .F               591:   BOTTOM LOG INTERVAL
 TLI .F                40:   TOP LOG INTERVAL
 CS  .IN            8.625:   CASING SIZE
 CBD .F                40:   CASING BOTTOM DRILLER
 CBL .F                25:   CASING BOTTOM LOGGER
 BS  .IN            7.875:   BIT SIZE
 BSD .F               590:   BIT SIZE AT DEPTH
 DFT .                KCL:   DRILLING FLUID TYPE
 DFD .                8.8:   DRILLING FLUID DENSITY
 DFV .                 37:   DRILLING FLUID VISCOSITY
 DFPH.                8.9:   DRILLING FLUID PH
 MSS .           FLOWLINE:   MUD SAMPLE SOURCE
 RMS .OHMM             .3:   RESISTIVITY MUD SAMPLE
 MST .F                56:   MUD SAMPLE TEMPERATURE
 RMF .OHMM            .26:   RESISTIVITY MUD FILTRATE SAMPLE
 MFST.F                66:   MUD FILTRATE SAMPLE TEMPERATURE
 RMC .OHMM            .24:   RESISTIVITY MUD CAKE
 MCST.F                66:   MUD CAKE SAMPLE TEMPERATURE
 MFSS.           MEASURED:   MUD FILTRATE SAMPLE SOURCE
 MCSS.           MEASURED:   MUD CAKE SAMPLE SOURCE
 RMB .OHMM            .29:   RESISTIVITY MUD AT BHT
 BHT .F                58:   BOTTOM HOLE TEMPERATURE
 TCS .HRS               3:   TIME CURCULATED STOPPED
 MRT .F                58:   MAXIMUM RECORDED TEMPERATURE
 LUN .               2958:   LOGGING UNIT NUMBER
 LUL .             CASPER:   LOGGING UNIT LOCATION
 ENGI.            ROLLINS:   RECORDING ENGINEER
 WITN.         RICHARDSON:   WITNESSED BY
 CLNT.            A2DTECH:   CLIENT CODE
 ORIG.       2", 5" PRINT:   ORIGIN OF DATA
 UWI .       490251078400:   UNIQUE WELL ID
 DICO. A2D Technologies, Inc.:   DIGITIZING COMPANY
~OTHER INFORMATION
~A    DEPT    RHOB       CORR         SN        ILD        SPR       DPHI       CALD         GRD  
# ...
  494.0000     2.4460     0.0210    12.2873    13.8802   -33.8192     0.1451     7.7065    83.3432
  494.5000     2.4394     0.0183    12.7452    15.5092   -32.6734     0.1483     7.7040    81.2188
  495.0000     2.4333     0.0157    13.5169    17.1317   -31.8300     0.1522     7.7159    82.5662
  495.5000     2.4300     0.0131    14.3383    19.0662   -30.9854     0.1556     7.7340    84.5752
  496.0000     2.4235     0.0104    15.2096    21.2190   -30.1439     0.1576     7.7522    85.2729
  496.5000     2.4051     0.0081    16.1338    23.6149   -29.3018     0.1650     7.7704    86.9516
  497.0000     2.3829     0.0101    17.1144    26.2814   -28.4590     0.1788     7.7887    86.9901
  497.5000     2.3476     0.0124    18.1549    29.2489   -27.6206     0.1975     7.8069    86.7315
  498.0000     2.3112     0.0219    19.2575    32.0160   -26.9949     0.2187     7.8235    86.1147
  498.5000     2.2753     0.0313    20.1978    32.4992   -26.9949     0.2438     7.8238    78.5800
  499.0000     2.2538     0.0379    20.5771    31.9657   -26.9703     0.2689     7.8237    72.3649
  499.5000     2.2487     0.0417    20.8498    30.8934   -26.9454     0.2721     7.8237    68.2880
  500.0000     2.2591     0.0454    20.8498    29.8571   -26.9201     0.2565     7.8237    64.5477
  500.5000     2.3067     0.0481    20.7265    29.1063   -26.8948     0.2391     7.8237    62.1182
  501.0000     2.3525     0.0481    20.3279    28.6172   -26.8695     0.2189     7.8237    65.6014
  501.5000     2.4000     0.0481    19.9077    28.1363   -26.8443     0.1962     7.8237    70.0124
  502.0000     2.4493     0.0442    19.5241    27.6634   -26.8188     0.1446     7.8237    71.3949
  502.5000     2.4516     0.0408    19.1174    27.1620   -26.8204     0.1226     7.8237    69.9974
  503.0000     2.4167     0.0381    18.7192    26.4482   -26.8442     0.1530     7.8237    68.1524
  503.5000     2.3642     0.0287    18.3293    25.7531   -26.8683     0.1779     7.8237    67.1731
  504.0000     2.3101     0.0241    17.9476    25.0763   -26.8924     0.2028     7.8237    67.5562
  504.5000     2.3073     0.0240    17.5738    24.4172   -26.9165     0.2277     7.8237    71.3695
  505.0000     2.3130     0.0240    17.4737    23.7755   -26.9406     0.2343     7.8237    71.8649
  505.5000     2.3229     0.0249    17.4297    23.4600   -26.9658     0.2303     7.8237    73.4625
  506.0000     2.3328     0.0310    17.3858    23.3690   -26.9921     0.2239     7.8237    76.5357
  506.5000     2.3428     0.0360    17.3421    23.2784   -26.9545     0.2156     7.8237    78.0545
  507.0000     2.3440     0.0349    17.2985    23.1882   -26.9623     0.2107     7.8237    80.6434
  507.5000     2.3418     0.0339    17.2550    23.0983   -27.1339     0.2084     7.8237    83.1993
  508.0000     2.3375     0.0329    17.2115    23.0088   -27.6180     0.2092     7.8237    82.3484
  508.5000     2.3326     0.0317    17.1698    22.9196   -28.2662     0.2138     7.8238    81.0080
  509.0000     2.3317     0.0294    16.9240    22.8307   -28.9184     0.2156     7.8184    80.1517
  509.5000     2.3279     0.0259    16.6879    22.7422   -29.1082     0.2163     7.8113    79.7616
  510.0000     2.3240     0.0204    16.4558    22.6541   -29.2164     0.2183     7.8041    77.7166
  510.5000     2.3206     0.0159    16.2431    22.5663   -29.3234     0.2216     7.7970    78.5298
  511.0000     2.3201     0.0160    16.2797    22.4788   -29.4312     0.2248     7.7898    79.5871
  511.5000     2.3198     0.0160    16.3219    22.3917   -29.5391     0.2264     7.7827    78.2544
  512.0000     2.3207     0.0160    16.3642    22.3049   -29.6471     0.2261     7.7755    77.2503
  512.5000     2.3220     0.0160    16.3940    22.1287   -29.7550     0.2242     7.7685    77.7467
  513.0000     2.3235     0.0153    16.1364    21.7453   -29.8630     0.2223     7.7634    75.6304
  513.5000     2.3247     0.0144    15.9406    21.3685   -29.9709     0.2208     7.7620    74.1431
  514.0000     2.3231     0.0136    15.7472    20.9983   -30.0789     0.2212     7.7605    76.1894
  514.5000     2.3214     0.0127    15.5562    20.6345   -30.1868     0.2261     7.7591    79.4600
  515.0000     2.3214     0.0130    15.3674    20.2770   -30.2948     0.2256     7.7576    80.4531
  515.5000     2.3265     0.0178    15.1810    19.9257   -30.4028     0.2212     7.7562    81.0515
  516.0000     2.3371     0.0225    14.9968    19.5805   -30.5115     0.2169     7.7547    82.3720
  516.5000     2.3469     0.0248    14.8148    19.3390   -30.6172     0.2128     7.7533    84.6526
  517.0000     2.3485     0.0266    14.6351    19.1740   -30.6186     0.2039     7.7519    84.9784
  517.5000     2.3496     0.0384    14.4576    19.0075   -30.6647     0.1955     7.7504    82.9201
  518.0000     2.3543     0.0420    14.2822    18.3990   -31.1430     0.1932     7.7490    80.8484
  518.5000     2.3594     0.0411    14.1089    17.7956   -31.5655     0.1919     7.7475    79.5389
  519.0000     2.3631     0.0368    13.9377    17.2966   -31.9848     0.1912     7.7461    82.2813
  519.5000     2.3565     0.0326    13.7685    17.1068   -32.3760     0.1924     7.7446    82.2835
  520.0000     2.3490     0.0284    13.6016    16.7000   -32.2200     0.1938     7.7425    78.4219
  520.5000     2.3470     0.0325    13.4365    16.7211   -32.2177     0.1952     7.7397    77.2102
  521.0000     2.3534     0.0376    13.3427    16.7550   -32.5671     0.1954     7.7369    77.7170
  521.5000     2.3601     0.0422    13.2899    16.7890   -33.0429     0.1937     7.7342    76.7234
  522.0000     2.3573     0.0421    13.2373    16.8231   -33.0795     0.1824     7.7314    76.0204
  522.5000     2.3551     0.0409    13.1849    16.8572   -33.1307     0.1827     7.7287    79.8774
  523.0000     2.3632     0.0385    13.1327    16.8914   -33.1788     0.1837     7.7259    82.5604
  523.5000     2.3712     0.0361    13.0807    16.9256   -33.2270     0.1962     7.7231    82.5929
  524.0000     2.3680     0.0307    13.0289    16.9600   -33.2752     0.2005     7.7204    84.2615
  524.5000     2.3580     0.0374    12.9774    16.9963   -33.3233     0.2020     7.7176    86.8837
  525.0000     2.3560     0.0438    12.9260    17.0104   -33.3721     0.1990     7.7148    86.9113
  525.5000     2.3604     0.0478    12.8748    16.7264   -33.4175     0.1922     7.7121    85.9163
  526.0000     2.3741     0.0467    12.8238    16.5371   -33.6618     0.1824     7.7093    85.7259
  526.5000     2.3780     0.0457    12.7731    16.3507   -33.8052     0.1800     7.7067    86.4271
  527.0000     2.3755     0.0447    12.7225    16.1664   -33.9574     0.1800     7.7036    90.6206
  527.5000     2.3721     0.0447    12.6721    15.9841   -34.1104     0.1824     7.7070    94.3289
  528.0000     2.3686     0.0466    12.6220    15.8040   -34.2632     0.1859     7.5322    92.6360
  528.5000     2.3689     0.0481    12.5720    15.6258   -34.4159     0.1896     7.4537    90.0764
  529.0000     2.3744     0.0482    12.5222    15.4497   -34.5687     0.1890     7.6371    89.1146
  529.5000     2.3800     0.0478    12.4727    15.2755   -34.7215     0.1887     7.6847    96.1178
  530.0000     2.3829     0.0391    12.4223    15.1033   -34.8742     0.1884     7.6702   100.7634
  530.5000     2.3806     0.0304    12.3309    14.9331   -35.0271     0.1882     7.2336    96.7432
  531.0000     2.3798     0.0305    12.2382    14.7647   -35.1790     0.1880     6.4938    91.8827
  531.5000     2.3872     0.0311    12.1463    14.5982   -35.3988     0.1858     6.4192    92.3534
  532.0000     2.3974     0.0317    12.0551    14.4337   -35.6605     0.1836     6.3464    95.4125
  532.5000     2.3997     0.0320    11.9646    14.2403   -35.9230     0.1814     6.1985    94.2887
  533.0000     2.4001     0.0377    11.8747    14.0426   -36.1856     0.1792     5.9548    92.3411
  533.5000     2.3992     0.0467    11.7855    13.8476   -36.4463     0.1773     5.9138    92.4779
  534.0000     2.3969     0.0456    11.6970    13.6554   -36.6576     0.1760     5.9161    96.8756
