~VERSION INFORMATION
 VERS.                2.0:   CWLS LOG ASCII STANDARD - VERSION 2.0
 WRAP.                 NO:   ONE LINE PER DEPTH STEP
~WELL INFORMATION
#MNEM.UNIT      DATA TYPE    INFORMATION
#----------   ------------   ------------------------------
 STRT.F            0.0000:   START DEPTH
 STOP.F          550.0000:   STOP DEPTH
 STEP.F            0.1000:   STEP LENGTH
 NULL.          -999.2500:   NO VALUE
 COMP.       F D SERV INC:   COMPANY
 WELL. NAVAL PETROLEUM RESERVE 3 SX-3 #77-4-3:   WELL
 FLD .          N.P.R. #3:   FIELD
 LOC .       S3 T38N R78W:   LOCATION
 CNTY.            NATRONA:   COUNTY
 STAT.            WYOMING:   STATE
 CTRY. UNITED STATES OF AMERICA:   COUNTRY
 SRVC.      Western Atlas:   SERVICE COMPANY
 DATE.        28-OCT-1992:   LOGDATE
 API .       490252255100:   API NUMBER
~CURVE INFORMATION
#MNEM.UNIT       API CODE    CURVE DESCRIPTION
#----------   ------------   ------------------------------
 DEPT.F                  :   
 GRR .GAPI   07 310 01 00:   GAMMA RAY FROM RESISTIVITY
 RILD.OHMM   07 120 46 00:   DEEP INDUCTION RESISTIVITY
 RILM.OHMM   07 120 44 00:   INDUCTION LOG MEDIUM RESISTIVITY
~PARAMETER INFORMATION
#MNEM.UNIT          VALUE    DESCRIPTION
#----------   ------------   ------------------------------
 PD  .                 GL:   PERMANENT DATUM
 EPD .F              5160:   ELEVATION PERMANENT DATUM
 LMF .                 KB:   LOG MEASURED FROM
 DAPD.F                10:   FEET ABOVE PERMANENT DATUM
 DMF .                 KB:   DRILLING MEASURED FROM
 EKB .F              5170:   KELLING BUSHING
 EDF .F              5169:   DRILLING FLOOR
 EGL .F              5160:   GROUND LEVEL
 DATE.        28-OCT-1992:   RUN DATE
 RUN .                  1:   RUN NUMBER
 DD  .F               555:   DEPTH DRILLER
 DL  .F               558:   DEPTH LOGGER
 BLI .F               550:   BOTTOM LOG INTERVAL
 CS  .IN            8.625:   CASING SIZE
 CBD .F                54:   CASING BOTTOM DRILLER
 CBL .F                54:   CASING BOTTOM LOGGER
 BS  .IN            7.875:   BIT SIZE
 BSD .F               555:   BIT SIZE AT DEPTH
 DFT .           AIR FOAM:   DRILLING FLUID TYPE
 TCS .HRS               1:   TIME CURCULATED STOPPED
 MRT .F                65:   MAXIMUM RECORDED TEMPERATURE
 LUN .            HL-6274:   LOGGING UNIT NUMBER
 LUL .             CASPER:   LOGGING UNIT LOCATION
 ENGI.             RAUTIO:   RECORDING ENGINEER
 WITN.     BRUCE ANDERSON:   WITNESSED BY
 CLNT.            A2DTECH:   CLIENT CODE
 ORIG.           5" PRINT:   ORIGIN OF DATA
 UWI .       490252255100:   UNIQUE WELL ID
 DICO. A2D Technologies, Inc.:   DIGITIZING COMPANY
~OTHER INFORMATION
~A    DEPT      GRR      RILD       RILM   
# ...
  218.4000   130.2969     7.5707     7.3461
  218.5000   130.5458     7.6075     7.3482
  218.6000   130.7948     7.6073     7.3972
  218.7000   131.0437     7.6071     7.3971
  218.8000   131.2679     7.6069     7.4249
  218.9000   131.2650     7.6309     7.4485
  219.0000   131.4884     7.6596     7.4484
  219.1000   131.7374     7.6594     7.4504
  219.2000   131.8622     7.6592     7.5003
  219.3000   131.8598     7.6590     7.5002
  219.4000   131.8574     7.6588     7.5001
  219.5000   131.8547     7.6585     7.5000
  219.6000   131.8526     7.6730     7.4999
  219.7000   131.8501     7.7117     7.5016
  219.8000   131.7261     7.6579     7.5520
  219.9000   131.4014     7.6577     7.5519
  220.0000   130.9164     7.6575     7.5518
  220.1000   130.6317     7.6804     7.5710
  220.2000   130.1881     7.7106     7.6149
  220.3000   129.5130     7.7104     7.6574
  220.4000   128.6373     7.7101     7.6573
  220.5000   127.4238     7.7099     7.6572
  220.6000   125.6974     7.7097     7.6854
  220.7000   124.2728     7.7321     7.7105
  220.8000   123.8341     7.7632     7.7103
  220.9000   123.4965     7.7630     7.7102
  221.0000   123.3595     7.7627     7.7101
  221.1000   123.4232     7.7625     7.7100
  221.2000   123.6721     7.7623     7.7099
  221.3000   123.9562     7.7842     7.7291
  221.4000   124.3860     7.8162     7.7636
  221.5000   124.8862     7.8159     7.7635
  221.6000   125.6153     7.8157     7.7633
  221.7000   126.7456     7.8155     7.7632
  221.8000   128.2642     7.8153     7.7914
  221.9000   130.2860     7.8367     7.8173
  222.0000   131.3516     7.8695     7.8273
  222.1000   132.4432     7.8693     7.8716
  222.2000   133.4461     7.8690     7.8715
  222.3000   134.3878     7.9085     7.8714
  222.4000   135.1291     7.9236     7.8713
  222.5000   135.7096     7.9234     7.8712
  222.6000   135.9186     7.9232     7.8811
  222.7000   135.8469     7.9230     7.9260
  222.8000   135.5931     7.9227     7.9258
  222.9000   135.1629     7.9225     7.9258
  223.0000   134.1712     7.9223     7.9256
  223.1000   133.5803     7.9221     7.9447
  223.2000   133.1609     7.9219     7.9808
  223.3000   132.6558     7.9216     7.9807
  223.4000   132.2578     7.9214     7.9805
  223.5000   131.9476     7.9212     7.9805
  223.6000   131.4538     7.9502     8.0087
  223.7000   131.4509     7.9761     8.0360
  223.8000   131.2427     7.9759     8.0457
  223.9000   130.8335     7.9769     8.0919
  224.0000   130.4330     8.0312     8.0918
  224.1000   130.1253     8.0310     8.0917
  224.2000   129.6169     8.0597     8.0916
  224.3000   128.7174     8.0867     8.0725
  224.4000   127.9001     8.0865     8.0352
  224.5000   127.0453     8.0862     8.0351
  224.6000   126.3911     8.0860     8.0350
  224.7000   125.9376     8.0858     8.0724
  224.8000   125.6838     8.0856     8.0909
  224.9000   125.3796     8.0853     8.0908
  225.0000   125.1762     8.0945     8.0813
  225.1000   125.0731     8.1414     8.0344
  225.2000   125.0707     8.1412     8.0343
  225.3000   125.0191     8.1410     8.0342
  225.4000   124.7637     8.1407     8.0341
  225.5000   124.5116     8.1405     8.0525
  225.6000   124.4568     8.1403     8.0900
  225.7000   124.3061     8.1401     8.0899
  225.8000   124.1498     8.1398     8.0898
  225.9000   124.1474     8.1396     8.0896
  226.0000   124.1450     8.1123     8.0895
  226.1000   123.8953     8.0826     8.0894
  226.2000   123.8381     8.0824     8.0804
  226.3000   123.8356     8.0822     8.0331
  226.4000   123.8332     8.0820     8.0330
  226.5000   123.7865     8.0817     8.0329
  226.6000   123.5262     8.0553     8.0327
  226.7000   123.2790     8.0252     8.0326
  226.8000   123.0252     8.0250     8.0325
  226.9000   122.9148     8.0247     8.0324
  227.0000   122.8197     8.0245     7.9866
  227.1000   122.5659     7.9895     7.9765
  227.2000   122.3032     7.9684     7.9763
  227.3000   122.3009     7.9681     7.9586
  227.4000   122.4902     7.9679     7.9208
  227.5000   122.7392     7.9677     7.9207
  227.6000   123.0784     7.9242     7.9206
  227.7000   123.5786     7.9119     7.8848
  227.8000   124.1014     7.9117     7.8654
  227.9000   124.0991     7.8964     7.8482
  228.0000   124.0967     7.8563     7.8027
  228.1000   123.9557     7.8561     7.7563
  228.2000   123.7897     7.8139     7.7125
  228.3000   123.7503     7.8011     7.6678
  228.4000   123.4826     7.8009     7.6234
  228.5000   123.2427     7.7865     7.5956
  228.6000   122.9889     7.7412     7.5880
  228.7000   122.8713     7.6923     7.5427
  228.8000   123.0397     7.6517     7.5426
  228.9000   123.5399     7.6073     7.5089
  229.0000   124.0723     7.5632     7.4900
  229.1000   124.3053     7.5193     7.4740
  229.2000   124.7388     7.4799     7.4307
  229.3000   125.3728     7.4797     7.3862
  229.4000   126.1245     7.4408     7.3449
  229.5000   126.8762     7.4273     7.3347
  229.6000   127.6832     7.4061     7.3107
  229.7000   127.9138     7.3754     7.2801
  229.8000   128.3448     7.3715     7.2703
  229.9000   128.5825     7.3237     7.2605
  230.0000   128.6606     7.3235     7.2507
  230.1000   128.8801     7.2946     7.2409
  230.2000   128.8771     7.2723     7.2260
  230.3000   128.8749     7.2606     7.1823
  230.4000   128.8725     7.2214     7.1425
  230.5000   128.8701     7.2212     7.1323
  230.6000   128.8677     7.1848     7.1093
  230.7000   128.8927     7.1432     7.0826
  230.8000   129.1647     7.1017     7.0762
  230.9000   129.1625     7.0605     7.0333
  231.0000   129.6919     7.0195     7.0332
  231.1000   130.5699     6.9728     7.0026
  231.2000   131.4518     6.9042     6.9842
  231.3000   132.0527     6.8245     6.9700
  231.4000   132.7734     6.7631     6.9356
  231.5000   133.7039     6.7050     6.9355
  231.6000   133.9792     6.5892     6.9354
  231.7000   133.9771     6.4573     6.9053
  231.8000   133.9746     6.3640     6.8223
  231.9000   133.9722     6.2772     6.6783
  232.0000   133.9698     6.1893     6.4715
  232.1000   133.9456     6.0904     6.1608
  232.2000   133.6626     6.0191     5.9953
  232.3000   133.6604     5.8972     5.8490
  232.4000   133.4864     5.8134     5.7326
  232.5000   133.1118     5.6929     5.6336
  232.6000   132.7468     5.5360     5.5319
  232.7000   132.7444     5.3594     5.3971
  232.8000   132.7417     5.2366     5.2245
  232.9000   132.9595     5.1293     5.0461
  233.0000   133.2085     5.0109     4.8736
  233.1000   133.4574     4.8678     4.7337
  233.2000   133.7063     4.7505     4.6519
  233.3000   133.9553     4.6631     4.5663
  233.4000   134.2377     4.5558     4.5171
  233.5000   134.4532     4.4774     4.4462
  233.6000   134.8688     4.4205     4.3695
  233.7000   135.3692     4.3399     4.2941
  233.8000   135.7390     4.2403     4.2137
  233.9000   135.7366     4.1429     4.0846
  234.0000   135.7338     4.0462     3.9765
  234.1000   135.7317     3.9777     3.8791
  234.2000   135.4006     3.9091     3.8247
  234.3000   134.8955     3.8545     3.8025
  234.4000   134.1390     3.8182     3.7805
  234.5000   132.6526     3.7960     3.7569
  234.6000   131.4897     3.7733     3.7368
  234.7000   131.0623     3.7521     3.7308
  234.8000   130.5571     3.7469     3.7307
  234.9000   129.9408     3.7346     3.7306
  235.0000   129.0635     3.7129     3.7306
  235.1000   127.8043     3.6947     3.7305
  235.2000   126.3392     3.6946     3.7305
  235.3000   124.6550     3.6742     3.7460
  235.4000   123.1202     3.6688     3.7564
  235.5000   121.8610     3.6687     3.7564
  235.6000   120.7178     3.6686     3.7589
  235.7000   119.9831     3.6685     3.7825
  235.8000   119.9802     3.6684     3.8026
  235.9000   120.1861     3.6683     3.8247
  236.0000   120.4350     3.6839     3.8583
  236.1000   120.8967     3.7052     3.9033
  236.2000   121.7595     3.7266     3.9539
  236.3000   123.0043     3.7481     4.0549
  236.4000   123.8932     3.7714     4.1416
  236.5000   124.7129     3.7916     4.2921
