~VERSION INFORMATION
 VERS.                2.0:   CWLS LOG ASCII STANDARD - VERSION 2.0
 WRAP.                 NO:   ONE LINE PER DEPTH STEP
~WELL INFORMATION
#MNEM.UNIT      DATA TYPE    INFORMATION
#----------   ------------   ------------------------------
 STRT.F           34.0000:   START DEPTH
 STOP.F          616.0000:   STOP DEPTH
 STEP.F            0.5000:   STEP LENGTH
 NULL.          -999.2500:   NO VALUE
 COMP. FENIX & SCISSON INC:   COMPANY
 WELL. NAVAL PETROLEUM RESERVE 3 S-10 #86-10:   WELL
 FLD .             TEAPOT:   FIELD
 LOC .      S10 T38N R78W:   LOCATION
 CNTY.            NATRONA:   COUNTY
 STAT.            WYOMING:   STATE
 CTRY. UNITED STATES OF AMERICA:   COUNTRY
 SRVC.              Welex:   SERVICE COMPANY
 DATE.        12-APR-1977:   LOGDATE
 API .       490251033800:   API NUMBER
~CURVE INFORMATION
#MNEM.UNIT       API CODE    CURVE DESCRIPTION
#----------   ------------   ------------------------------
 DEPT.F                  :   
 CALD.IN     45 280 60 00:   CALIPER FROM DENSITY LOG
 GRD .GAPI   45 310 01 00:   GAMMA RAY FROM DENSITY LOG
 CORR.G/C3   45 356 01 00:   DENSITY CORRECTION
 DPHI.DEC    45 890 12 00:   DENSITY POROSITY SANDSTONE
 RHOB.G/C3   45 350 01 00:   BULK DENSITY
 SPR .MV     07 010 01 00:   SPONTANEOUS POTENTIAL
 ILD .OHMM   07 120 46 00:   INDUCTION LOG DEEP
 ILM .OHMM   07 120 44 00:   INDUCTION LOG MEDIUM
 SGRD.OHMM   07 221 05 00:   SHALLOW SHORT GUARD RESISTIVITY
~PARAMETER INFORMATION
#MNEM.UNIT          VALUE    DESCRIPTION
#----------   ------------   ------------------------------
 PD  .                 GL:   PERMANENT DATUM
 EPD .F              5240:   ELEVATION PERMANENT DATUM
 LMF .                 KB:   LOG MEASURED FROM
 DAPD.F                 5:   FEET ABOVE PERMANENT DATUM
 DMF .                 KB:   DRILLING MEASURED FROM
 EKB .F              5245:   KELLING BUSHING
 EGL .F              5240:   GROUND LEVEL
 DATE.        12-APR-1977:   RUN DATE
 RUN .                  1:   RUN NUMBER
 DD  .F               625:   DEPTH DRILLER
 DL  .F               617:   DEPTH LOGGER
 BLI .F               615:   BOTTOM LOG INTERVAL
 TLI .F                35:   TOP LOG INTERVAL
 CS  .IN            8.625:   CASING SIZE
 BS  .IN            7.875:   BIT SIZE
 BSD .F               625:   BIT SIZE AT DEPTH
 DFT .           KCL- GEL:   DRILLING FLUID TYPE
 DFD .                8.8:   DRILLING FLUID DENSITY
 BHT .F                68:   BOTTOM HOLE TEMPERATURE
 TCS .HRS            0100:   TIME CURCULATED STOPPED
 MRT .F                68:   MAXIMUM RECORDED TEMPERATURE
 ENGI.        E. CALLAHAN:   RECORDING ENGINEER
 WITN.            R. LYON:   WITNESSED BY
 CLNT.            A2DTECH:   CLIENT CODE
 ORIG.           5" PRINT:   ORIGIN OF DATA
 UWI .       490251033800:   UNIQUE WELL ID
 DICO. A2D Technologies, Inc.:   DIGITIZING COMPANY
~OTHER INFORMATION
~A   DEPT     CALD        GRD       CORR       DPHI         RHOB      SPR        ILD        ILM       SGRD   
# ...
  435.5000     7.9877    87.4898     0.0276     0.1539     2.3956   -64.1784    14.2151    18.2465    22.6101
  436.0000     7.9889    86.9081     0.0233     0.1545     2.3934   -64.1799    14.0159    18.6198    22.4450
  436.5000     7.9900    86.7715     0.0189     0.1561     2.3897   -64.0313    14.0120    18.6120    22.6196
  437.0000     7.9910    86.6350     0.0130     0.1581     2.3845   -64.0332    14.0081    18.2218    22.7391
  437.5000     7.9920    86.3501     0.0102     0.1604     2.3831   -64.1844    14.0042    17.9636    22.2371
  438.0000     7.9931    86.0652     0.0088     0.1601     2.3854   -64.1859    14.0003    17.7092    21.7965
  438.5000     7.9941    85.6281     0.0104     0.1592     2.3884   -64.1871    13.8999    17.5797    21.4883
  439.0000     7.9951    84.8961     0.0121     0.1604     2.3855   -64.3384    13.8961    17.3306    21.4793
  439.5000     7.9962    84.3126     0.0122     0.1603     2.3825   -64.4895    13.7831    17.2039    21.3225
  440.0000     7.9972    84.1838     0.0153     0.1574     2.3941   -64.6407    13.5092    17.5577    21.9316
  440.5000     7.9982    84.1958     0.0185     0.1514     2.4082   -64.6422    13.3141    17.6742    21.5639
  441.0000     7.9993    84.5183     0.0201     0.1473     2.4098   -64.4811    13.0372    17.3018    20.2729
  441.5000     8.0003    85.1415     0.0217     0.1455     2.4130   -64.3458    12.7711    16.7060    19.8649
  442.0000     8.0012    87.0445     0.0219     0.1425     2.4167   -64.1976    12.5053    15.9088    19.8569
  442.5000     8.0024    89.4757     0.0190     0.1412     2.4174   -64.0469    12.4113    15.7925    20.0000
  443.0000     8.0034    89.0642     0.0191     0.1445     2.4113   -63.6018    12.3266    16.0061    20.1167
  443.5000     8.0044    87.5074     0.0163     0.1481     2.4062   -63.1542    12.3232    16.1123    20.2479
  444.0000     8.0055    86.4530     0.0149     0.1492     2.4047   -62.5569    12.3198    15.8824    20.2393
  444.5000     8.0065    85.1256     0.0135     0.1516     2.4010   -61.8099    12.3164    15.0201    20.0915
  445.0000     8.0075    84.0083     0.0152     0.1504     2.4004   -61.0629    12.3130    14.9118    20.0831
  445.5000     8.0086    84.0201     0.0183     0.1476     2.4073   -59.8668    12.3950    15.8625    20.2142
  446.0000     8.0096    84.0320     0.0214     0.1452     2.4126   -59.4191    12.3916    15.1056    20.3460
  446.5000     8.0107    83.8954     0.0246     0.1413     2.4134   -59.8698    12.4762    15.5234    20.6208
  447.0000     8.0117    83.9072     0.0292     0.1380     2.4209   -60.6198    12.6445    15.9545    20.6121
  447.5000     8.0127    83.9191     0.0324     0.1337     2.4376   -61.2201    12.5523    15.2972    20.4569
  448.0000     8.0138    83.9309     0.0355     0.1258     2.4533   -61.2216    12.3767    14.7704    20.0295
  448.5000     8.0148    83.9427     0.0371     0.1187     2.4578   -61.2232    12.1202    14.4607    18.9447
  449.0000     8.0158    83.8033     0.0373     0.1178     2.4579   -61.0750    12.0328    14.4547    18.0412
  449.5000     8.0169    83.5183     0.0389     0.1192     2.4572   -61.0765    11.7828    14.3489    17.5450
  450.0000     8.0237    83.9665     0.0375     0.1198     2.4672   -61.2275    11.6983    14.2440    17.4169
  450.5000     8.0484    87.4336     0.0343     0.1183     2.4626   -62.1257    11.0660    14.3385    17.8979
  451.0000     8.0641    91.1072     0.0310     0.1159     2.4611   -62.5749    10.9874    13.6529    18.2655
  451.5000     8.0798    90.6665     0.0272     0.1194     2.4626   -62.8743    10.9072    13.4595    18.5173
  452.0000     8.0807    92.1546     0.0213     0.1242     2.4619   -63.3234    10.7572    13.1773    17.3879
  452.5000     8.0816    94.2362     0.0198     0.1305     2.4430   -63.4731    10.7550    12.9009    17.0239
  453.0000     8.0825    95.4276     0.0184     0.1326     2.4343   -63.6228    10.7528    12.8066    17.0168
  453.5000     8.0834    95.5804     0.0185     0.1343     2.4328   -63.9222    10.7505    13.1608    17.0097
  454.0000     8.0843    95.7321     0.0186     0.1352     2.4276   -63.9222    10.8981    13.6188    17.0027
  454.5000     8.0852    94.9958     0.0188     0.1343     2.4299   -63.9222    10.9715    13.3332    16.9661
  455.0000     8.0861    94.2585     0.0204     0.1325     2.4345   -63.9222    10.9691    13.2371    17.1999
  455.5000     8.0870    93.2243     0.0218     0.1301     2.4383   -63.7725    11.0431    13.6977    17.4350
  456.0000     8.0730    92.4869     0.0219     0.1285     2.4405   -63.6228    11.1947    13.5023    17.7971
  456.5000     8.0442    91.8979     0.0220     0.1282     2.4389   -63.3234    11.2701    13.6849    18.2928
  457.0000     8.0154    91.7529     0.0221     0.1261     2.4414   -62.7246    11.2676    13.9863    18.8023
  457.5000     7.9867    91.6101     0.0221     0.1240     2.4490   -61.9760    11.3436    14.0590    18.2852
  458.0000     8.0024    91.4650     0.0207     0.1222     2.4511   -62.1257    11.3412    13.6690    17.6597
  458.5000     8.0181    91.3211     0.0208     0.1218     2.4414   -62.5749    11.3255    13.6788    18.2777
  459.0000     8.0190    91.3266     0.0209     0.1227     2.4519   -63.3234    11.2583    13.9592    19.3140
  459.5000     8.0348    91.3311     0.0194     0.1224     2.4414   -64.2216    11.0247    13.8287    18.1441
  460.0000     8.0208    91.7806     0.0195     0.1212     2.4408   -64.8503    10.7955    13.5521    17.4026
  460.5000     8.0217    92.2302     0.0196     0.1217     2.4463   -65.2984    10.5715    13.5465    17.0415
  461.0000     8.0075    92.5314     0.0212     0.1235     2.4483   -65.7186    10.2808    13.3442    16.8038
  461.5000     7.9790    92.5358     0.0227     0.1259     2.4425   -65.8683    10.0675    12.9844    16.8003
  462.0000     7.9648    92.5403     0.0243     0.1268     2.4327   -65.8683     9.9271    12.9790    16.6810
  462.5000     7.9659    92.2480     0.0277     0.1271     2.4411   -65.8683     9.8566    12.8215    16.6776
  463.0000     7.9668    91.5106     0.0337     0.1267     2.4409   -65.8444     9.9235    12.4689    16.3315
  463.5000     7.9677    90.6248     0.0411     0.1252     2.4395   -65.7186     9.9903    12.9052    15.9927
  464.0000     7.9535    89.4423     0.0474     0.1234     2.4434   -65.4192    10.1269    12.8135    16.6672
  464.5000     7.9396    88.4082     0.0532     0.1231     2.4464   -65.2695    10.3372    12.6348    17.1323
  465.0000     7.9108    87.2257     0.0578     0.1234     2.4471   -65.1198    10.6251    12.8972    17.4872
  465.5000     7.9119    85.1530     0.0609     0.1245     2.4449   -64.8204    10.9211    13.3484    17.7281
  466.0000     7.9128    81.1515     0.0625     0.1272     2.4390   -64.6707    11.4607    14.1053    18.0953
  466.5000     7.9137    77.8918     0.0595     0.1395     2.4285   -64.6537    12.1946    15.2177    18.3437
  467.0000     7.9146    76.1158     0.0506     0.1555     2.3870   -64.4970    13.2478    17.9633    21.0621
  467.5000     7.9303    74.0431     0.0432     0.1718     2.3476   -64.0719    14.6937    19.3800    40.6361
  468.0000     7.9016    71.9704     0.0357     0.1907     2.3132   -63.9222    16.0735    22.2520    44.1476
  468.5000     7.8577    71.0847     0.0343     0.2135     2.2997   -63.6099    17.8278    24.8521    38.7006
  469.0000     7.8143    70.1989     0.0344     0.2116     2.3050   -63.4611    19.5019    26.6272    41.1768
  469.5000     7.8004    69.9066     0.0360     0.2059     2.3126   -63.0240    21.1861    27.3690    40.6024
  470.0000     7.8013    69.4659     0.0360     0.2020     2.3141   -62.8743    22.2329    25.7110    40.0381
  470.5000     7.8022    69.3220     0.0361     0.2008     2.3134   -62.7246    22.8534    25.6846    45.3374
  471.0000     7.8031    69.3265     0.0377     0.2008     2.3187   -62.7246    23.0073    25.8981    48.9130
  471.5000     7.8186    69.6276     0.0393     0.1966     2.3315   -62.8812    22.6852    24.4801    47.5678
