~VERSION INFORMATION
 VERS.                2.0:   CWLS LOG ASCII STANDARD - VERSION 2.0
 WRAP.                 NO:   ONE LINE PER DEPTH STEP
~WELL INFORMATION
#MNEM.UNIT      DATA TYPE    INFORMATION
#----------   ------------   ------------------------------
 STRT.F           20.0000:   START DEPTH
 STOP.F          599.0000:   STOP DEPTH
 STEP.F            0.5000:   STEP LENGTH
 NULL.          -999.2500:   NO VALUE
 COMP. FENIX & SCISSON INC:   COMPANY
 WELL.    47 SX 34 #47-34:   WELL
 FLD .             TEAPOT:   FIELD
 LOC .      S34 T39N R78W:   LOCATION
 CNTY.            NATRONA:   COUNTY
 STAT.            WYOMING:   STATE
 CTRY. UNITED STATES OF AMERICA:   COUNTRY
 SRVC.       Schlumberger:   SERVICE COMPANY
 DATE.        24-JAN-1979:   LOGDATE
 API .       490251077000:   API NUMBER
~CURVE INFORMATION
#MNEM.UNIT       API CODE    CURVE DESCRIPTION
#----------   ------------   ------------------------------
 DEPT.F                  :   
 SN  .OHMM   05 040 16 00:   SHORT NORMAL 16"
 ILD .OHMM   05 120 46 00:   INDUCTION LOG DEEP
 SPR .MV     05 010 01 00:   SPONTANEOUS POTENTIAL FROM RES.
 CALD.IN     45 280 60 00:   CALIPER
 GRD .GAPI   45 310 01 00:   GAMMA RAY FROM DENSITY LOG
 DPHI.DEC    45 890 12 00:   DENSITY POROSITY SANDSTONE
 CORR.G/C3   45 356 01 00:   DENSITY CORRECTION
 RHOB.G/C3   45 350 01 00:   BULK DENSITY
~PARAMETER INFORMATION
#MNEM.UNIT          VALUE    DESCRIPTION
#----------   ------------   ------------------------------
 PD  .                 GL:   PERMANENT DATUM
 EPD .F              5132:   ELEVATION PERMANENT DATUM
 LMF .                 KB:   LOG MEASURED FROM
 DAPD.F                 4:   FEET ABOVE PERMANENT DATUM
 DMF .                 KB:   DRILLING MEASURED FROM
 EKB .F              5136:   KELLING BUSHING
 EGL .F              5132:   GROUND LEVEL
 DATE.            1-24-79:   RUN DATE
 RUN .                  1:   RUN NUMBER
 DD  .F               600:   DEPTH DRILLER
 DL  .F               600:   DEPTH LOGGER
 BLI .F               594:   BOTTOM LOG INTERVAL
 TLI .F                28:   TOP LOG INTERVAL
 CS  .IN            8.625:   CASING SIZE
 CBD .F                40:   CASING BOTTOM DRILLER
 BS  .IN            7.875:   BIT SIZE
 BSD .F               600:   BIT SIZE AT DEPTH
 DFT .                KCL:   DRILLING FLUID TYPE
 DFD .                8.8:   DRILLING FLUID DENSITY
 DFV .                 60:   DRILLING FLUID VISCOSITY
 DFPH.                9.5:   DRILLING FLUID PH
 DFL .               10.8:   DRILLING FLUID LOSS
 MSS .           FLOWLINE:   MUD SAMPLE SOURCE
 RMS .OHMM            .22:   RESISTIVITY MUD SAMPLE
 MST .F                60:   MUD SAMPLE TEMPERATURE
 RMF .OHMM             .2:   RESISTIVITY MUD FILTRATE SAMPLE
 MFST.F                61:   MUD FILTRATE SAMPLE TEMPERATURE
 RMC .OHMM             .3:   RESISTIVITY MUD CAKE
 MCST.F                61:   MUD CAKE SAMPLE TEMPERATURE
 MFSS.           MEASURED:   MUD FILTRATE SAMPLE SOURCE
 MCSS.           MEASURED:   MUD CAKE SAMPLE SOURCE
 RMB .OHMM            .23:   RESISTIVITY MUD AT BHT
 BHT .F                58:   BOTTOM HOLE TEMPERATURE
 TCS .HRS               4:   TIME CURCULATED STOPPED
 MRT .F                58:   MAXIMUM RECORDED TEMPERATURE
 LUN .               3029:   LOGGING UNIT NUMBER
 LUL .             CASPER:   LOGGING UNIT LOCATION
 ENGI.         B. ROLLINS:   RECORDING ENGINEER
 WITN.         RICHARDSON:   WITNESSED BY
 CLNT.            A2DTECH:   CLIENT CODE
 ORIG.           5" PRINT:   ORIGIN OF DATA
 UWI .       490251077000:   UNIQUE WELL ID
 DICO. A2D Technologies, Inc.:   DIGITIZING COMPANY
~OTHER INFORMATION
~A   DEPT       SN        ILD        SPR         CALD       GRD        DPHI       CORR       RHOB 
# ...
  222.5000     7.1920     8.9821   -22.3896     8.2751   108.8641     0.1078     0.0147     2.5025
  223.0000     7.2023     8.9821   -23.6182     8.2816   110.8742     0.1065     0.0192     2.5036
  223.5000     7.2023     8.9326   -24.8233     8.2882   112.9154     0.1062     0.0221     2.4989
  224.0000     7.2019     8.7698   -25.7476     8.2947   113.2888     0.1106     0.0177     2.4931
  224.5000     7.2031     8.6099   -25.2499     8.3012   109.6519     0.1155     0.0123     2.4873
  225.0000     7.1532     8.4529   -24.3265     8.3077   108.1727     0.1166     0.0081     2.4817
  225.5000     7.1158     8.3447   -24.3465     8.3143   112.9043     0.1148     0.0165     2.4816
  226.0000     7.0785     8.3153   -24.6912     8.3208   116.3377     0.1134     0.0199     2.4862
  226.5000     7.0414     8.2736   -24.2834     8.3232   116.6136     0.1129     0.0204     2.4908
  227.0000     7.0046     8.2321   -23.8155     8.3176   116.9038     0.1129     0.0228     2.4954
  227.5000     6.9667     8.1908   -23.3468     8.3032   117.2026     0.1146     0.0248     2.4911
  228.0000     6.8983     8.1496   -22.8795     8.2889   117.4894     0.1186     0.0268     2.4839
  228.5000     6.7544     8.1087   -22.4127     8.2747   117.9788     0.1226     0.0288     2.4768
  229.0000     6.6134     8.0680   -21.9335     8.2664   120.5375     0.1230     0.0308     2.4725
  229.5000     6.4749     8.0275   -21.8063     8.2839   116.7643     0.1230     0.0328     2.4725
  230.0000     6.3413     7.9872   -21.7345     8.3021   111.8816     0.1218     0.0340     2.4727
  230.5000     6.2722     7.9472   -21.8588     8.2458   108.5154     0.1202     0.0339     2.4773
  231.0000     6.2729     7.9073   -21.9834     8.1751   107.4885     0.1119     0.0340     2.4897
  231.5000     6.2728     7.8676   -22.1068     8.1711   110.7539     0.1034     0.0249     2.5033
  232.0000     6.2726     7.8242   -22.2301     8.1826   112.9697     0.1022     0.0110     2.5162
  232.5000     6.4093     7.8732   -22.3534     8.1945   114.1540     0.1022     0.0038     2.5168
  233.0000     6.5155     7.9281   -22.4767     8.2038   110.5004     0.1054     0.0244     2.5069
  233.5000     6.6234     7.9833   -22.6000     8.2036   114.6245     0.1138     0.0342     2.4950
  234.0000     6.7331     8.0389   -22.7233     8.2036   112.1600     0.1198     0.0298     2.4830
  234.5000     6.8447     8.0950   -22.8466     8.2038   108.2679     0.1230     0.0254     2.4717
  235.0000     6.9421     8.1514   -22.9699     8.2145   104.2828     0.1185     0.0298     2.4758
  235.5000     6.9421     8.2082   -23.0931     8.2396   103.1380     0.1135     0.0388     2.4882
  236.0000     7.0062     8.2654   -23.2164     8.2646   104.1646     0.1099     0.0478     2.5005
  236.5000     7.0062     8.3230   -23.3398     8.2896   104.9070     0.1094     0.0568     2.5126
  237.0000     7.0062     8.3810   -23.4700     8.3147   101.1251     0.1089     0.0580     2.5179
  237.5000     7.0062     8.4218   -23.5082     8.3398   100.7042     0.1083     0.0492     2.5073
  238.0000     7.0063     8.4218   -23.2150     8.3428   107.6482     0.1078     0.0477     2.4989
  238.5000     7.0064     8.4299   -22.8955     8.3150   109.4743     0.1115     0.0439     2.4905
  239.0000     7.0067     8.4372   -22.5784     8.2516   109.7942     0.1150     0.0413     2.4825
  239.5000     6.9819     8.4445   -22.2680     8.2646   110.2324     0.1184     0.0388     2.4783
  240.0000     6.9597     8.4518   -22.6035     8.2676   113.2763     0.1217     0.0365     2.4703
  240.5000     6.9377     8.4592   -23.6104     8.1957   116.2633     0.1250     0.0280     2.4656
  241.0000     6.9156     8.4665   -24.6574     8.1552   114.8714     0.1271     0.0189     2.4662
  241.5000     6.8936     8.4739   -24.0364     8.2130   113.2781     0.1251     0.0138     2.4678
  242.0000     6.8785     8.4813   -23.1015     8.2154   114.3497     0.1227     0.0193     2.4745
  242.5000     6.9375     8.4885   -22.1733     8.1867   115.8138     0.1230     0.0254     2.4755
  243.0000     6.9833     8.4981   -21.4747     8.2606   114.6083     0.1230     0.0315     2.4740
  243.5000     7.0293     8.4969   -22.1637     8.2716   113.3940     0.1229     0.0375     2.4725
  244.0000     7.0757     8.6476   -23.0702     8.2642   112.9780     0.1200     0.0439     2.4721
  244.5000     7.1223     8.7476   -23.9137     8.2781   115.6632     0.1105     0.0502     2.4895
  245.0000     7.1693     8.8488   -23.3398     8.2918   112.9757     0.1027     0.0558     2.5089
  245.5000     7.2165     8.9512   -22.2000     8.3054   108.7949     0.1000     0.0538     2.5281
  246.0000     7.2641     9.0547   -21.1122     8.3192   104.5004     0.1010     0.0449     2.5311
  246.5000     7.3119     9.1594   -20.9509     8.3237   105.7714     0.1138     0.0364     2.5132
  247.0000     7.3596     9.2654   -23.6496     8.2992   107.6472     0.1245     0.0328     2.4757
  247.5000     7.4393     9.3726   -25.7366     8.2650   108.7221     0.1204     0.0346     2.4716
  248.0000     7.6037     9.4810   -25.8955     8.2303   109.7094     0.1174     0.0345     2.4813
  248.5000     7.6958     9.5907   -25.8872     8.1956   106.0054     0.1162     0.0286     2.4973
  249.0000     7.7880     9.7016   -25.4682     8.1612   103.7205     0.1152     0.0228     2.4967
  249.5000     7.8812     9.8138   -25.1341     8.1534   103.1473     0.1141     0.0182     2.4826
  250.0000     7.9757     9.9317   -24.7263     8.1935   104.7689     0.1130     0.0209     2.4876
  250.5000     8.0713    10.1018   -24.2741     8.2341   107.3426     0.1113     0.0248     2.4933
  251.0000     8.1680    10.2748   -23.5469     8.2231   108.4470     0.1094     0.0372     2.4987
  251.5000     8.2659    10.4508   -22.8433     8.1949   103.3140     0.1074     0.0369     2.5006
  252.0000     8.3649    10.6298   -22.2940     8.1653   107.1001     0.1092     0.0356     2.4966
  252.5000     8.4652    10.8119   -21.4176     8.1634   111.7409     0.1112     0.0342     2.4921
  253.0000     8.5666    10.9971   -20.5827     8.1636   107.4524     0.1132     0.0384     2.4906
  253.5000     8.6575    11.1854   -19.7058     8.1637   102.7491     0.1146     0.0445     2.4938
  254.0000     8.6575    11.3770   -19.8419     8.1637   100.9034     0.1147     0.0507     2.4921
  254.5000     8.6575    11.5718   -20.3070     8.1637    97.8021     0.1149     0.0509     2.4830
  255.0000     8.6608    11.7700   -20.7842     8.1637    95.5285     0.1150     0.0456     2.4805
  255.5000     8.6710    11.9469   -21.2602     8.1637    94.5493     0.1199     0.0491     2.4805
  256.0000     8.6813    11.7973   -21.2852     8.1636    94.6137     0.1203     0.0530     2.4806
  256.5000     8.6916    11.6373   -20.7218     8.1635    95.5943     0.1206     0.0514     2.4768
  257.0000     8.7018    11.4794   -20.1917     8.1650    92.8096     0.1253     0.0479     2.4714
  257.5000     8.7121    11.3237   -19.6646     8.1878    92.4843     0.1295     0.0445     2.4637
  258.0000     8.7224    11.0990   -19.3745     8.2025    99.0857     0.1325     0.0444     2.4559
  258.5000     8.7367    11.1057   -20.8597     8.1763   103.9968     0.1269     0.0549     2.4646
  259.0000     8.7054    11.1182   -21.9185     8.1502   106.3880     0.1234     0.0599     2.4769
  259.5000     8.6448    11.1307   -21.3904     8.1494    99.7221     0.1218     0.0564     2.4701
  260.0000     8.5848    11.1432   -20.2015     8.1725    95.5610     0.1277     0.0527     2.4625
  260.5000     8.5253    11.1558   -18.9792     8.1947    95.4164     0.1251     0.0500     2.4675
  261.0000     8.4661    11.1683   -19.4638     8.2179    97.9752     0.1218     0.0506     2.4748
  261.5000     8.4074    11.1808   -20.5114     8.2236   100.4198     0.1289     0.0511     2.4666
  262.0000     8.3491    11.1933   -21.6317     8.2231   102.8345     0.1275     0.0515     2.4603
  262.5000     8.2913    11.2018   -21.6382     8.2136   103.7693     0.1258     0.0505     2.4727
