~VERSION INFORMATION
 VERS.                2.0:   CWLS LOG ASCII STANDARD - VERSION 2.0
 WRAP.                 NO:   ONE LINE PER DEPTH STEP
~WELL INFORMATION
#MNEM.UNIT      DATA TYPE    INFORMATION
#----------   ------------   ------------------------------
 STRT.F            0.0000:   START DEPTH
 STOP.F         4113.0000:   STOP DEPTH
 STEP.F            0.5000:   STEP LENGTH
 NULL.          -999.2500:   NO VALUE
 COMP. LAWRENCE/ALLISON INC:   COMPANY
 WELL.  NPR # #3 76 -MX-3:   WELL
 FLD .             TEAPOT:   FIELD
 LOC .       S3 T38N R78W:   LOCATION
 CNTY.            NATRONA:   COUNTY
 STAT.            WYOMING:   STATE
 CTRY. UNITED STATES OF AMERICA:   COUNTRY
 SRVC.      Dresser Atlas:   SERVICE COMPANY
 DATE.        04-SEP-1983:   LOGDATE
 API .       490251094300:   API NUMBER
~CURVE INFORMATION
#MNEM.UNIT       API CODE    CURVE DESCRIPTION
#----------   ------------   ------------------------------
 DEPT.F                  :   
 GRR .GAPI   07 310 01 00:   GAMMA RAY
 SPR .MV     07 010 01 00:   SPONTANEOUS POTENTIAL
 RILD.OHMM   07 120 46 00:   INDUCTION LOG DEEP RESISTIVITY
 RILM.OHMM   07 120 44 00:   INDUCTION LOG MEDIUM RESISTIVITY
 RFOC.OHMM   07 220 04 00:   RESISTIVITY FOCUSED LOG
 CNCF.DEC    42 890 03 00:   NEUTRON POROSITY SANDSTONE
 PORD.DEC    45 890 12 00:   POROSITY DENSITY SANDSTONE
 CALD.IN     45 280 60 00:   CALIPER FROM DENSITY LOG
 CORR.G/C3   45 356 01 00:   DENSITY CORRECTION
 DEN .G/C3   45 350 01 00:   COMPENSATED BULK DENSTIY
 AC  .US/F   60 520 00 00:   ACCOUSTIC
~PARAMETER INFORMATION
#MNEM.UNIT          VALUE    DESCRIPTION
#----------   ------------   ------------------------------
 PD  .                 GL:   PERMANENT DATUM
 EPD .F              5147:   ELEVATION PERMANENT DATUM
 LMF .                 KB:   LOG MEASURED FROM
 DAPD.F                10:   FEET ABOVE PERMANENT DATUM
 DMF .                 KB:   DRILLING MEASURED FROM
 EKB .F              5157:   KELLING BUSHING
 EGL .F              5147:   GROUND LEVEL
 DATE.        04-SEP-1983:   RUN DATE
 RUN .                  1:   RUN NUMBER
 DD  .F              4119:   DEPTH DRILLER
 DL  .F              4115:   DEPTH LOGGER
 BLI .F              4112:   BOTTOM LOG INTERVAL
 CS  .IN            9.625:   CASING SIZE
 CBD .F               491:   CASING BOTTOM DRILLER
 CBL .F               494:   CASING BOTTOM LOGGER
 BS  .IN             8.75:   BIT SIZE
 BSD .F              4119:   BIT SIZE AT DEPTH
 DFT .            KCL GEL:   DRILLING FLUID TYPE
 DFD .                8.9:   DRILLING FLUID DENSITY
 DFV .                 46:   DRILLING FLUID VISCOSITY
 DFPH.                9.0:   DRILLING FLUID PH
 DFL .               13.6:   DRILLING FLUID LOSS
 MSS .           MUD TANK:   MUD SAMPLE SOURCE
 RMS .OHMM           .315:   RESISTIVITY MUD SAMPLE
 MST .F                92:   MUD SAMPLE TEMPERATURE
 RMF .OHMM            .25:   RESISTIVITY MUD FILTRATE SAMPLE
 MFST.F                84:   MUD FILTRATE SAMPLE TEMPERATURE
 RMC .OHMM             .4:   RESISTIVITY MUD CAKE
 MCST.F                92:   MUD CAKE SAMPLE TEMPERATURE
 MFSS.               MEAS:   MUD FILTRATE SAMPLE SOURCE
 MCSS.               CALC:   MUD CAKE SAMPLE SOURCE
 RMB .OHMM            .22:   RESISTIVITY MUD AT BHT
 BHT .F               132:   BOTTOM HOLE TEMPERATURE
 TCS .HRS               4:   TIME CURCULATED STOPPED
 MRT .F               132:   MAXIMUM RECORDED TEMPERATURE
 LUN .               6274:   LOGGING UNIT NUMBER
 LUL .              GLTE.:   LOGGING UNIT LOCATION
 ENGI.             RAUTIO:   RECORDING ENGINEER
 WITN.             STRONG:   WITNESSED BY
 CLNT.            A2DTECH:   CLIENT CODE
 ORIG.        2" 5" PRINT:   ORIGIN OF DATA
 UWI .       490251094300:   UNIQUE WELL ID
 DICO. A2D Technologies, Inc.:   DIGITIZING COMPANY
~OTHER INFORMATION
~A    DEPT     GRR        SPR       RILD       RILM       RFOC       CNCF       PORD       CALD       CORR        DEN         AC   
# ...
 2409.5000   125.9076   -45.9091     6.1265     6.1959     6.2661     0.2535     0.0690     9.5460     0.0605     2.5306    85.3643
 2410.0000   127.7641   -45.7680     6.0343     6.1020     5.9523     0.2562     0.0754     9.5459     0.0470     2.5217    85.1424
 2410.5000   127.0467   -45.6281     5.9435     6.0095     5.8625     0.2626     0.0799     9.5457     0.0304     2.5165    85.6021
 2411.0000   125.1226   -45.6440     5.8964     5.8759     5.9007     0.2716     0.0806     9.5456     0.0244     2.5158    86.0604
 2411.5000   122.9654   -45.6600     5.8921     5.8711     6.0258     0.2702     0.0803     9.5454     0.0229     2.5173    86.5189
 2412.0000   121.3896   -45.6760     5.8455     5.8664     6.1981     0.2639     0.0782     9.5452     0.0245     2.5226    86.6767
 2412.5000   120.4219   -45.6920     5.8412     5.8194     6.3755     0.2600     0.0714     9.5451     0.0320     2.5318    86.4562
 2413.0000   119.4543   -45.7080     5.7533     5.6900     6.6534     0.2592     0.0639     9.5450     0.0441     2.5414    85.7079
 2413.5000   119.1198   -45.7239     5.6259     5.5233     6.9435     0.2610     0.0610     9.5448     0.0531     2.5489    85.0349
 2414.0000   123.4658   -45.7367     5.5014     5.4005     7.0409     0.2625     0.0598     9.5447     0.0531     2.5512    84.2804
 2414.5000   128.7580   -45.7523     5.3409     5.2423     6.8289     0.2629     0.0611     9.5445     0.0516     2.5407    83.6136
 2415.0000   136.8670   -45.7680     5.2172     5.1563     6.3440     0.2704     0.0653     9.5443     0.0501     2.5332    84.6012
 2415.5000   140.5942   -45.7839     5.1036     5.0438     5.8612     0.2798     0.0721     9.5442     0.0487     2.5248    84.8332
 2416.0000   143.0694   -45.7999     4.9949     5.0085     5.2943     0.2894     0.0780     9.5290     0.0472     2.5144    86.1964
 2416.5000   136.7810   -45.8158     5.2506     5.0782     4.8857     0.2901     0.0841     9.5138     0.0423     2.5114    89.2942
 2417.0000   126.4237   -45.8318     5.5180     5.2983     4.7428     0.2809     0.0853     9.5287     0.0096     2.5159    89.6016
 2417.5000   118.5703   -45.8478     5.7997     5.6092     4.7394     0.2628     0.0821     9.5285     0.0065     2.5302    88.1006
 2418.0000   107.9878   -45.8638     6.0084     5.8956     5.5530     0.2415     0.0737     9.5284     0.0201     2.5431    85.4668
 2418.5000   103.7610   -45.8798     6.2247     6.1520     7.1999     0.2199     0.0653     9.5283     0.0292     2.5476    82.3806
 2419.0000   103.7833   -46.0525     6.3118     6.3733     7.9616     0.2169     0.0627     9.5281     0.0292     2.5461    79.3698
 2419.5000   105.9432   -46.2252     6.3989     6.4157     7.7850     0.2185     0.0615     9.5430     0.0325     2.5423    78.9985
 2420.0000   109.9834   -46.3979     6.4860     6.4092     7.3951     0.2236     0.0628     9.5579     0.0473     2.5386    79.9107
 2420.5000   112.4586   -46.4107     6.5755     6.5458     6.9741     0.2297     0.0649     9.5577     0.0594     2.5364    81.5001
 2421.0000   112.7501   -46.5831     6.6195     6.6357     6.8701     0.2330     0.0671     9.5576     0.0579     2.5363    82.1846
 2421.5000   109.2714   -46.7555     6.6134     6.6290     7.1683     0.2333     0.0680     9.5574     0.0488     2.5394    82.1904
 2422.0000   106.7388   -46.9281     6.4670     6.5286     7.2688     0.2340     0.0668     9.5724     0.0489     2.5582    81.7437
 2422.5000   110.1530   -46.9440     6.3239     6.3834     7.1578     0.2343     0.0644     9.5722     0.0566     2.5597    81.3724
 2423.0000   112.9413   -46.9600     6.1394     6.1964     6.9486     0.2340     0.0546     9.5744     0.0549     2.5492    81.6813
 2423.5000   116.0425   -46.9760     6.0470     6.0518     6.7876     0.2323     0.0559     9.5869     0.0519     2.5417    82.5166
 2424.0000   115.0748   -46.9920     5.9991     5.9679     6.5442     0.2305     0.0619     9.6018     0.0534     2.5447    83.2011
 2424.5000   113.1682   -47.1647     5.9516     5.9631     6.2616     0.2306     0.0659     9.6016     0.0595     2.5515    83.2809
 2425.0000   114.0857   -47.1807     5.9482     5.9584     6.3532     0.2321     0.0623     9.6015     0.0565     2.5514    82.7602
 2425.5000   114.9960   -47.3534     5.9440     5.9536     6.7269     0.2336     0.0581     9.6014     0.0324     2.5335    82.1626
 2426.0000   114.9671   -47.3694     6.0260     5.9488     6.8696     0.2403     0.0604     9.6012     0.0113     2.5313    82.7732
 2426.5000   114.9387   -47.5421     6.0660     5.9873     6.5728     0.2613     0.0712     9.6010     0.0219     2.5313    84.2118
 2427.0000   113.3450   -47.5549     6.1935     6.0706     6.2436     0.2629     0.0733     9.6009     0.0370     2.5350    85.1980
 2427.5000   109.8735   -47.5705     6.3245     6.1987     6.1505     0.2551     0.0679     9.5857     0.0415     2.5433    85.5054
 2428.0000   104.2110   -47.5862     6.5050     6.3741     6.5583     0.2368     0.0635     9.5856     0.0415     2.5495    85.1916
 2428.5000    99.1745   -47.4451     6.6906     6.5559     7.0453     0.2241     0.0620     9.5854     0.0370     2.5524    83.7085
 2429.0000    97.2679   -47.4613     6.8816     6.7428     7.5138     0.2177     0.0603     9.5852     0.0325     2.5524    81.6026
 2429.5000    97.8652   -47.4772     6.9766     6.8850     7.7849     0.2129     0.0579     9.6002     0.0310     2.5524    78.5918
 2430.0000   101.2794   -47.4932     7.0232     6.9797     7.9499     0.2132     0.0589     9.5849     0.0295     2.5517    76.0335
 2430.5000   105.9456   -47.5092     6.9664     7.0261     7.8299     0.2196     0.0613     9.5848     0.0294     2.5495    76.0392
 2431.0000   107.4819   -47.5252     6.9112     7.0190     7.4918     0.2286     0.0614     9.5847     0.0311     2.5480    77.6896
 2431.5000   105.2623   -47.5412     6.8565     6.9628     7.1166     0.2301     0.0611     9.5695     0.0371     2.5465    81.2559
 2432.0000   103.2450   -47.5572     6.8515     6.9082     7.0092     0.2302     0.0614     9.5693     0.0461     2.5442    83.9766
 2432.5000   102.0814   -47.5731     6.7972     6.8530     6.9546     0.2382     0.0639     9.5842     0.0552     2.5427    84.3594
 2433.0000   104.9278   -47.5891     6.7923     6.7982     6.9497     0.2519     0.0655     9.5840     0.0582     2.5420    84.6668
 2433.5000   110.4756   -47.6019     6.7873     6.7439     7.0505     0.2555     0.0664     9.5839     0.0387     2.5435    84.8989
 2434.0000   110.5064   -47.6175     6.7823     6.7384     7.3022     0.2505     0.0664     9.5838     0.0236     2.5450    83.5486
 2434.5000   109.1663   -47.6332     6.7774     6.7264     7.5634     0.2319     0.0632     9.5836     0.0236     2.5481    82.8002
 2435.0000   111.3285   -47.6490     6.7247     6.7278     7.7238     0.2277     0.0614     9.5985     0.0327     2.5503    82.5029
 2435.5000   114.4297   -47.6650     6.7199     6.7221     7.5524     0.2304     0.0609     9.5833     0.0372     2.5504    82.8872
 2436.0000   116.2790   -47.6810     6.6635     6.7654     7.0711     0.2404     0.0606     9.5831     0.0357     2.5496    83.1946
 2436.5000   117.1965   -47.6970     6.5192     6.6629     6.7169     0.2397     0.0616     9.5830     0.0312     2.5474    83.0286
 2437.0000   114.6567   -47.5522     6.3749     6.4212     6.8593     0.2248     0.0628     9.5829     0.0217     2.5458    82.3026
 2437.5000   111.4982   -47.5722     6.2338     6.2784     7.0047     0.2186     0.0643     9.5827     0.0102     2.5421    81.4789
 2438.0000   108.0266   -47.5882     6.0958     6.1387     7.1531     0.2174     0.0647     9.5825     0.0057     2.5339    81.0321
 2438.5000   105.4940   -47.6042     6.0041     6.0457     7.0452     0.2282     0.0722     9.5824    -0.0003     2.5294    80.7361
 2439.0000   106.6690   -47.6201     5.9565     6.0408     6.6441     0.2322     0.0750     9.5822    -0.0033     2.5286    81.8792
 2439.5000   112.5013   -47.4754     5.9953     6.0359     6.3572     0.2346     0.0741     9.5821     0.0149     2.5332    82.9363
