~VERSION INFORMATION
 VERS.                2.0:   CWLS LOG ASCII STANDARD - VERSION 2.0
 WRAP.                 NO:   ONE LINE PER DEPTH STEP
~WELL INFORMATION
#MNEM.UNIT      DATA TYPE    INFORMATION
#----------   ------------   ------------------------------
 STRT.F            0.0000:   START DEPTH
 STOP.F          652.0000:   STOP DEPTH
 STEP.F            0.5000:   STEP LENGTH
 NULL.          -999.2500:   NO VALUE
 COMP.   FLUOR DANIEL INC:   COMPANY
 WELL.   68-1 X 34 #68-34:   WELL
 FLD .             TEAPOT:   FIELD
 LOC .      S34 T39N R78W:   LOCATION
 CNTY.            NATRONA:   COUNTY
 STAT.            WYOMING:   STATE
 CTRY. UNITED STATES OF AMERICA:   COUNTRY
 SRVC.      Western Atlas:   SERVICE COMPANY
 DATE.        08-APR-1995:   LOGDATE
 API .       490252269900:   API NUMBER
~CURVE INFORMATION
#MNEM.UNIT       API CODE    CURVE DESCRIPTION
#----------   ------------   ------------------------------
 DEPT.F                  :   
 GRR .GAPI   07 310 01 00:   GAMMA RAY
 RILD.OHMM   07 120 46 00:   INDUCTION LOG DEEP RESISTIVITY
 RILM.OHMM   07 120 44 00:   RESITIVITY LONG MEDIUM
~PARAMETER INFORMATION
#MNEM.UNIT          VALUE    DESCRIPTION
#----------   ------------   ------------------------------
 PD  .                 GL:   PERMANENT DATUM
 EPD .F              5106:   ELEVATION PERMANENT DATUM
 LMF .                 KB:   LOG MEASURED FROM
 DAPD.F                10:   FEET ABOVE PERMANENT DATUM
 DMF .                 KB:   DRILLING MEASURED FROM
 EKB .F              5116:   KELLING BUSHING
 EDF .F              5115:   DRILLING FLOOR
 EGL .F              5106:   GROUND LEVEL
 DATE.        08-APR-1995:   RUN DATE
 RUN .                  1:   RUN NUMBER
 DD  .F               660:   DEPTH DRILLER
 DL  .F               660:   DEPTH LOGGER
 BLI .F               652:   BOTTOM LOG INTERVAL
 TLI .F                54:   TOP LOG INTERVAL
 CS  .IN            9.625:   CASING SIZE
 CBD .F                53:   CASING BOTTOM DRILLER
 CBL .F                54:   CASING BOTTOM LOGGER
 BS  .IN             8.75:   BIT SIZE
 BSD .F               660:   BIT SIZE AT DEPTH
 DFT .                AIR:   DRILLING FLUID TYPE
 MRT .F                90:   MAXIMUM RECORDED TEMPERATURE
 LUN .            HL 6530:   LOGGING UNIT NUMBER
 LUL .             CASPER:   LOGGING UNIT LOCATION
 ENGI.      PAT RASMUSSEN:   RECORDING ENGINEER
 WITN.        GARY STRONG:   WITNESSED BY
 CLNT.            A2DTECH:   CLIENT CODE
 ORIG.           5" PRINT:   ORIGIN OF DATA
 UWI .       490252269900:   UNIQUE WELL ID
 DICO. A2D Technologies, Inc.:   DIGITIZING COMPANY
~OTHER INFORMATION
~A    DEPT      GRR      RILD       RILM   
# ...
  364.0000   129.5158     2.6133     2.6315
  364.5000   127.7443     2.5602     2.6139
  365.0000   124.1522     2.5256     2.6512
  365.5000   115.1466     2.5617     2.7465
  366.0000   116.1222     2.6527     2.8627
  366.5000   120.8990     2.7986     3.0266
  367.0000   122.4197     3.0697     3.2670
  367.5000   125.1433     3.3135     3.7121
  368.0000   130.1494     3.9136     4.2529
  368.5000   133.9032     4.4346     4.8860
  369.0000   136.0255     4.8537     5.3848
  369.5000   139.0499     5.7327     5.7495
  370.0000   139.9733     6.1881     6.2746
  370.5000   142.3963     6.4082     6.4974
  371.0000   143.3154     6.4993     6.5442
  371.5000   142.4301     6.5461     6.6377
  372.0000   138.8423     6.5934     6.6394
  372.5000   136.4532     6.5955     6.6411
  373.0000   131.6581     6.5513     6.5515
  373.5000   126.2615     6.4186     6.5084
  374.0000   127.7864     6.2449     6.3322
  374.5000   134.4199     5.8290     5.9101
  375.0000   141.9556     5.4404     5.4780
  375.5000   141.2843     4.8374     5.0080
  376.0000   134.1741     4.5145     4.5151
  376.5000   134.4918     4.3326     4.3026
  377.0000   136.3133     4.1287     4.2740
  377.5000   143.2517     4.1010     4.3051
  378.0000   142.9679     4.1595     4.3663
  378.5000   140.2781     4.2482     4.4901
  379.0000   135.1822     4.3687     4.7196
  379.5000   137.0079     4.5238     5.0540
  380.0000   140.9346     4.7542     5.3064
  380.5000   142.7560     5.1273     5.5714
  381.0000   144.8782     5.6508     5.8142
  381.5000   146.7039     5.9742     6.0998
  382.0000   146.7208     6.2334     6.4045
  382.5000   146.4328     6.5863     6.7243
  383.0000   146.4541     6.8201     6.9635
  383.5000   145.2721     6.9171     7.1610
  384.0000   142.5822     7.0154     7.2627
  384.5000   137.1857     7.0176     7.1647
  385.0000   135.3981     7.0195     7.0684
  385.5000   136.6223     7.0213     6.9730
  386.0000   140.5490     6.9265     6.9263
  386.5000   143.8742     6.8335     6.8807
  387.0000   144.4968     6.7412     6.7414
  387.5000   144.2130     6.6502     6.6045
  388.0000   140.6209     6.3817     6.5154
  388.5000   137.9311     6.2089     6.2510
  389.0000   137.6472     6.1673     6.0826
  389.5000   137.9692     6.1267     5.9184
  390.0000   139.1891     5.4480     5.6398
  390.5000   141.3113     5.0849     5.2552
  391.0000   146.4452     4.8121     4.8456
  391.5000   148.5674     4.6818     4.7142
  392.0000   151.5919     4.7159     4.7485
  392.5000   153.7143     4.7829     4.8865
  393.0000   153.4345     4.8509     5.0919
  393.5000   152.5492     4.9540     5.2727
  394.0000   148.0548     5.1302     5.5745
  394.5000   146.5680     5.3123     5.9404
  395.0000   144.1831     5.5776     6.2313
  395.5000   143.8951     5.8591     6.4525
  396.0000   146.6230     6.4100     6.6355
  396.5000   152.3585     6.6836     6.8241
  397.0000   154.1757     6.8257     6.9692
  397.5000   152.9938     6.9252     7.0194
  398.0000   150.9053     7.0216     7.0213
  398.5000   151.8289     7.0722     7.0235
  399.0000   152.1466     7.0740     7.0742
  399.5000   152.7650     7.0270     7.0760
  400.0000   154.5865     7.0293     7.0779
  400.5000   153.3665     6.9826     7.0802
  401.0000   150.3122     6.9844     7.0820
  401.5000   145.2280     6.9381     7.0460
  402.0000   143.1378     6.8939     7.0055
  402.5000   142.8441     6.8486     6.8943
  403.0000   143.1506     6.8035     6.8480
  403.5000   144.6533     6.8536     6.8979
  404.0000   147.3536     6.8559     6.9481
  404.5000   150.6647     6.8587     6.9499
  405.0000   150.3603     6.8609     7.0000
  405.5000   149.7672     6.7682     7.0018
  406.0000   150.0723     6.7243     6.9073
  406.5000   150.0779     6.5887     6.6284
  407.0000   150.0850     6.5002     6.4934
  407.5000   150.0907     6.3247     6.3180
  408.0000   150.0963     5.3210     5.5180
  408.5000   150.4014     5.0314     5.0649
  409.0000   151.9521     5.0028     5.0665
  409.5000   155.8034     4.9699     5.1385
  410.0000   158.5037     4.9719     5.2140
  410.5000   156.1141     4.9736     5.4722
  411.0000   152.2276     4.9756     5.6274
  411.5000   149.5400     5.0118     5.6289
  412.0000   149.5457     5.0135     5.5915
  412.5000   149.5514     4.9461     5.3286
  413.0000   150.1558     4.8750     4.9391
  413.5000   150.1258     4.4924     4.4529
  414.0000   147.7734     4.3107     4.3928
  414.5000   145.3838     4.4644     4.4556
  415.0000   142.9943     4.5596     4.5503
  415.5000   141.1956     4.5931     4.7118
  416.0000   141.8094     4.7237     5.1215
  416.5000   143.3121     4.9599     5.3509
  417.0000   143.6172     5.1721     5.6854
  417.5000   141.2276     5.6009     6.0108
  418.0000   134.6479     6.0277     6.2675
  418.5000   132.5578     6.2421     6.4493
  419.0000   133.7610     6.3312     6.4921
  419.5000   135.5631     6.2896     6.4486
  420.0000   136.4870     6.2487     6.3181
  420.5000   137.6717     6.0381     6.1455
  421.0000   138.5755     5.7942     5.7775
  421.5000   140.3776     5.4459     5.5056
  422.0000   144.8743     4.7435     5.0679
  422.5000   150.2706     4.6798     4.3831
  423.0000   152.6715     4.6486     4.4457
  423.5000   153.2759     4.6828     4.6355
  424.0000   150.5870     4.7497     4.8334
  424.5000   148.1657     4.8514     5.0748
  425.0000   146.1087     4.9893     5.2554
  425.5000   144.0186     5.2027     5.5948
  426.0000   142.5273     5.4629     5.9561
  426.5000   141.9341     5.8570     6.5642
  427.0000   142.2406     6.7293     6.9400
  427.5000   142.8451     7.2142     7.2368
  428.0000   142.2519     7.3680     7.3396
  428.5000   139.2636     7.4250     7.3926
  429.0000   136.5746     7.4763     7.3945
  429.5000   136.8811     7.4788     7.3969
  430.0000   136.2880     7.4812     7.4503
  430.5000   133.0002     7.4837     7.5040
  431.0000   129.6646     7.4867     7.5060
  431.5000   127.9218     7.4892     7.6660
  432.0000   129.4258     7.5961     7.7213
  432.5000   130.9285     7.6514     7.7770
  433.0000   130.9461     7.5973     7.7790
  433.5000   128.8455     7.3965     7.6746
  434.0000   126.4559     7.3989     7.4668
  434.5000   125.2626     7.4013     7.4688
  435.0000   126.4673     7.4038     7.5227
  435.5000   129.2795     7.5101     7.5247
  436.0000   134.5638     7.6173     7.5794
  436.5000   136.3659     7.6728     7.7405
  437.0000   135.7728     7.6753     8.0710
  437.5000   133.9820     7.6779     8.3576
  438.0000   127.7017     7.4711     8.1879
  438.5000   123.2163     7.1694     7.9118
  439.0000   121.1262     6.6457     7.4874
  439.5000   120.8323     5.5142     6.4181
  440.0000   125.2695     5.3653     4.8766
  440.5000   145.9949     5.3675     4.9118
  441.0000   160.0724     5.4441     5.0162
  441.5000   161.2743     5.5219     5.2667
  442.0000   150.9342     5.6044     5.9267
  442.5000   131.0490     5.7206     6.5318
  443.0000   124.1684     6.0068     7.1986
  443.5000   121.1800     6.6205     8.2131
  444.0000   120.5868     7.7125     9.0522
  444.5000   121.7916     9.0479     9.3736
  445.0000   126.8871     9.2408     9.5061
  445.5000   133.4796     9.1793     9.1856
  446.0000   131.9882     9.1196     9.1881
  446.5000   125.6108     9.1228     9.2549
  447.0000   121.5219     9.1265     9.3864
  447.5000   121.2268     9.3211     9.6526
  448.0000   122.1321     9.8553    10.0760
  448.5000   122.4371    10.6389    11.1701
  449.0000   120.9472    11.5655    11.8095
  449.5000   113.7673    12.1439    12.7476
  450.0000   103.3700    13.2005    13.5709
  450.5000    93.1198    14.5492    14.9326
  451.0000    84.4442    15.6960    17.0707
  451.5000    79.3600    16.9747    18.9467
  452.0000    75.4734    18.4363    19.6219
  452.5000    71.5368    19.0933    19.6296
  453.0000    67.7002    19.3690    19.7756
  453.5000    71.3000    19.3765    19.7833
  454.0000    79.6888    19.5188    20.0670
  454.5000    85.4212    19.8039    20.2144
