~VERSION INFORMATION
 VERS.                2.0:   CWLS LOG ASCII STANDARD - VERSION 2.0
 WRAP.                 NO:   ONE LINE PER DEPTH STEP
~WELL INFORMATION
#MNEM.UNIT      DATA TYPE    INFORMATION
#----------   ------------   ------------------------------
 STRT.F            0.0000:   START DEPTH
 STOP.F          635.0000:   STOP DEPTH
 STEP.F            0.1000:   STEP LENGTH
 NULL.          -999.2500:   NO VALUE
 COMP.   FLUOR DANIEL INC:   COMPANY
 WELL. NAVAL PETROLEUM RESERVE 3 SX-3 #72-7-3:   WELL
 FLD .             TEAPOT:   FIELD
 LOC .       S3 T38N R78W:   LOCATION
 CNTY.            NATRONA:   COUNTY
 STAT.            WYOMING:   STATE
 CTRY. UNITED STATES OF AMERICA:   COUNTRY
 SRVC.      Western Atlas:   SERVICE COMPANY
 DATE.        11-JAN-1995:   LOGDATE
 API .       490252264900:   API NUMBER
~CURVE INFORMATION
#MNEM.UNIT       API CODE    CURVE DESCRIPTION
#----------   ------------   ------------------------------
 DEPT.F                  :   
 GRR .GAPI   07 310 01 00:   GAMMA RAY
 RILD.OHMM   07 120 46 00:   INDUCTION LOG DEEP RESISTIVITY
 RILM.OHMM   07 120 44 00:   RESITIVITY LONG MEDIUM
~PARAMETER INFORMATION
#MNEM.UNIT          VALUE    DESCRIPTION
#----------   ------------   ------------------------------
 PD  .                 GL:   PERMANENT DATUM
 EPD .F              5144:   ELEVATION PERMANENT DATUM
 LMF .                 KB:   LOG MEASURED FROM
 DAPD.F                10:   FEET ABOVE PERMANENT DATUM
 DMF .                 KB:   DRILLING MEASURED FROM
 EKB .F              5154:   KELLING BUSHING
 EDF .F              5153:   DRILLING FLOOR
 EGL .F              5144:   GROUND LEVEL
 DATE.        11-JAN-1995:   RUN DATE
 RUN .                  1:   RUN NUMBER
 DD  .F               641:   DEPTH DRILLER
 DL  .F               642:   DEPTH LOGGER
 BLI .F               635:   BOTTOM LOG INTERVAL
 CS  .IN            9.625:   CASING SIZE
 CBD .F                97:   CASING BOTTOM DRILLER
 CBL .F                97:   CASING BOTTOM LOGGER
 BS  .IN             8.75:   BIT SIZE
 BSD .F               641:   BIT SIZE AT DEPTH
 DFT .                AIR:   DRILLING FLUID TYPE
 MRT .F                89:   MAXIMUM RECORDED TEMPERATURE
 LUN .            HL 6530:   LOGGING UNIT NUMBER
 LUL .             CASPER:   LOGGING UNIT LOCATION
 ENGI.      PAT RASMUSSEN:   RECORDING ENGINEER
 WITN.        STEVE HARDY:   WITNESSED BY
 CLNT.            A2DTECH:   CLIENT CODE
 ORIG.           5" PRINT:   ORIGIN OF DATA
 UWI .       490252264900:   UNIQUE WELL ID
 DICO. A2D Technologies, Inc.:   DIGITIZING COMPANY
~OTHER INFORMATION
~A    DEPT      GRR      RILD       RILM   
# ...
  473.2000    74.2332    12.5931    12.6823
  473.3000    74.2381    12.5159    12.6834
  473.4000    74.2429    12.5165    12.6841
  473.5000    74.2477    12.4593    12.6850
  473.6000    74.2526    12.4315    12.6503
  473.7000    74.2574    12.4322    12.5990
  473.8000    74.2627    12.4126    12.5999
  473.9000    74.5005    12.3476    12.6008
  474.0000    74.7634    12.3484    12.6017
  474.1000    75.1714    12.3490    12.6025
  474.2000    75.6922    12.2937    12.6034
  474.3000    76.2700    12.2651    12.6043
  474.4000    77.0360    12.2658    12.6052
  474.5000    77.6199    12.2665    12.5996
  474.6000    78.0778    12.2672    12.5198
  474.7000    78.4160    12.2679    12.5206
  474.8000    78.8174    12.2685    12.5215
  474.9000    79.4327    12.2692    12.5224
  475.0000    80.1612    12.2699    12.5232
  475.1000    80.6758    12.2706    12.5241
  475.2000    80.9771    12.2712    12.5250
  475.3000    80.9813    12.2719    12.5260
  475.4000    80.9861    12.2727    12.5267
  475.5000    80.7272    12.2733    12.5276
  475.6000    80.3037    12.2740    12.5285
  475.7000    80.0068    12.2746    12.5293
  475.8000    79.4949    12.2753    12.5173
  475.9000    78.5942    12.2760    12.4445
  476.0000    78.3847    12.2767    12.4455
  476.1000    77.9621    12.2774    12.3855
  476.2000    77.5763    12.2780    12.3610
  476.3000    77.4042    12.2787    12.3619
  476.4000    77.4091    12.2794    12.3627
  476.5000    77.4140    12.2801    12.3636
  476.6000    77.4197    12.2808    12.3645
  476.7000    77.4236    12.2815    12.3653
  476.8000    77.4284    12.2822    12.3090
  476.9000    77.4332    12.2828    12.2815
  477.0000    77.5126    12.2835    12.2824
  477.1000    77.8059    12.2842    12.2832
  477.2000    78.3543    12.2849    12.2841
  477.3000    78.1146    12.2709    12.2850
  477.4000    77.8615    12.2013    12.2195
  477.5000    77.4522    12.2021    12.2017
  477.6000    76.9411    12.2027    12.2026
  477.7000    76.4977    12.1533    12.2034
  477.8000    76.2207    12.1198    12.2043
  477.9000    75.6693    12.1205    12.2016
  478.0000    75.4360    12.1211    12.1217
  478.1000    74.9892    12.1218    12.1224
  478.2000    74.4781    12.1226    12.0732
  478.3000    73.8617    12.1231    12.0403
  478.4000    73.2149    12.1238    12.0412
  478.5000    72.9447    12.0879    12.0420
  478.6000    72.3800    12.0414    12.0428
  478.7000    71.9223    12.0298    11.9606
  478.8000    71.5980    11.9596    11.9026
  478.9000    71.3448    11.9604    11.8794
  479.0000    71.2891    11.9609    11.8802
  479.1000    71.6065    11.8679    11.8593
  479.2000    72.1063    11.7976    11.7902
  479.3000    72.1118    11.7529    11.7191
  479.4000    72.3404    11.6364    11.6533
  479.5000    72.6032    11.6371    11.5855
  479.6000    72.8660    11.5575    11.5600
  479.7000    73.0369    11.5021    11.5608
  479.8000    73.0896    11.4788    11.5433
  479.9000    73.3486    11.4795    11.4760
  480.0000    73.3542    11.4590    11.4040
  480.1000    73.5761    11.3919    11.4047
  480.2000    73.6653    11.3234    11.3553
  480.3000    73.6701    11.3241    11.3275
  480.4000    73.7603    11.2708    11.3015
  480.5000    73.9819    11.2048    11.2507
  480.6000    73.9868    11.1700    11.2515
  480.7000    73.9924    11.1510    11.2524
  480.8000    73.9964    11.0857    11.2531
  480.9000    74.1682    11.0181    11.2071
  481.0000    74.4311    11.0187    11.1418
  481.1000    74.6151    10.9679    11.1004
  481.2000    74.6199    10.9438    11.0891
  481.3000    74.6250    10.9152    11.0245
  481.4000    74.6296    10.8513    10.9499
  481.5000    74.6344    10.7949    10.9505
  481.6000    74.6393    10.7956    10.9513
  481.7000    74.6441    10.7359    10.9204
  481.8000    74.5769    10.7222    10.8771
  481.9000    74.3511    10.6844    10.8687
  482.0000    74.3568    10.6218    10.8034
  482.1000    74.1194    10.5763    10.8041
  482.2000    74.0640    10.5708    10.7543
  482.3000    74.0689    10.5045    10.7310
  482.4000    73.9642    10.4474    10.7034
  482.5000    73.7764    10.4331    10.6583
  482.6000    73.7599    10.4336    10.6590
  482.7000    73.4844    10.4342    10.6598
  482.8000    73.4888    10.4192    10.6023
  482.9000    73.6848    10.3633    10.5875
  483.0000    73.8006    10.3639    10.5522
  483.1000    73.8054    10.3085    10.5158
  483.2000    73.8103    10.2934    10.5022
  483.3000    73.8299    10.2940    10.4410
  483.4000    74.1226    10.2698    10.3732
  483.5000    74.1269    10.2097    10.3738
  483.6000    74.3162    10.1540    10.3746
  483.7000    74.5790    10.1546    10.3753
  483.8000    74.7456    10.1551    10.3538
  483.9000    74.8026    10.1557    10.3049
  484.0000    75.0735    10.1226    10.3057
  484.1000    75.6671    10.0867    10.3065
  484.2000    76.1153    10.0872    10.2560
  484.3000    76.4582    10.0846    10.2366
  484.4000    76.8547    10.0187    10.2373
  484.5000    77.2860    10.0192    10.2380
  484.6000    77.6398    10.0198    10.2387
  484.7000    78.4173    10.0203    10.2395
  484.8000    79.0244    10.0209    10.1815
  484.9000    79.4590    10.0091    10.1701
  485.0000    79.9798     9.9528    10.1333
  485.1000    80.2465     9.9534    10.1012
  485.2000    80.3344     9.9539    10.1019
  485.3000    80.5972     9.9132    10.1026
  485.4000    80.8654     9.8862    10.1034
  485.5000    81.1731     9.8868    10.0486
  485.6000    81.3857     9.8873    10.0349
  485.7000    81.8130     9.8879    10.0011
  485.8000    82.2135     9.8885     9.9669
  485.9000    82.4763     9.8890     9.9676
  486.0000    82.7714     9.8895     9.9683
  486.1000    83.3162     9.8901     9.9691
  486.2000    83.8132     9.8906     9.9697
  486.3000    84.1320     9.8912     9.9704
  486.4000    84.3948     9.8917     9.9710
  486.5000    84.5438     9.8924     9.9717
  486.6000    84.5486     9.8928     9.9724
  486.7000    84.5279     9.8934     9.9731
  486.8000    84.2565     9.8939     9.9739
  486.9000    84.2610     9.8945     9.9745
  487.0000    84.0705     9.8950     9.9752
  487.1000    83.9686     9.8956     9.9759
  487.2000    83.9734     9.8962     9.9766
  487.3000    83.7258     9.8967     9.9773
  487.4000    82.7366     9.8972     9.9780
  487.5000    82.1757     9.8978     9.9788
  487.6000    81.7144     9.8983     9.9794
  487.7000    81.2033     9.8989     9.9800
  487.8000    80.6921     9.8994     9.9807
  487.9000    80.1809     9.9001     9.9814
  488.0000    79.6697     9.9005     9.9821
  488.1000    79.1585     9.9011     9.9829
  488.2000    78.5843     9.9016     9.9835
  488.3000    78.1360     9.9022     9.9842
  488.4000    77.8070     9.9027     9.9849
  488.5000    77.6918     9.9033     9.9856
  488.6000    77.6028     9.9038     9.9863
  488.7000    77.3497     9.9044     9.9870
  488.8000    77.1020     9.9049     9.9877
  488.9000    77.1077     9.9324     9.9884
  489.0000    76.8923     9.9749    10.0317
  489.1000    76.6391     9.9754    10.0593
  489.2000    76.3859     9.9760    10.0822
  489.3000    76.2199     9.9765    10.1307
  489.4000    76.1816     9.9771    10.1314
  489.5000    75.9275     9.9777    10.1322
  489.6000    75.6311     9.9782    10.1328
  489.7000    75.6350     9.9788    10.1335
  489.8000    75.4711     9.9793    10.1342
  489.9000    75.2179     9.9799    10.1349
  490.0000    74.9648     9.9804    10.1356
  490.1000    74.7474     9.9810    10.1363
  490.2000    74.7530     9.9815    10.1371
  490.3000    75.0081     9.9821    10.1377
  490.4000    75.0647     9.9826    10.1384
  490.5000    75.0695     9.9832    10.1391
  490.6000    75.1923     9.9838    10.1398
  490.7000    75.4552     9.9843    10.1405
  490.8000    75.7180     9.9848    10.1413
  490.9000    75.9954     9.9854    10.1419
  491.0000    76.2437     9.9860    10.1426
  491.1000    76.7061     9.9865    10.1433
  491.2000    76.9160     9.9826    10.1190
  491.3000    77.1436     9.9187    10.0746
