~VERSION INFORMATION
 VERS.                2.0:   CWLS LOG ASCII STANDARD - VERSION 2.0
 WRAP.                 NO:   ONE LINE PER DEPTH STEP
~WELL INFORMATION
#MNEM.UNIT      DATA TYPE    INFORMATION
#----------   ------------   ------------------------------
 STRT.F           30.0000:   START DEPTH
 STOP.F          597.0000:   STOP DEPTH
 STEP.F            0.5000:   STEP LENGTH
 NULL.          -999.2500:   NO VALUE
 COMP. FENIX & SCISSON-U.S. NAVY:   COMPANY
 WELL.    NPR #3 #15-S-11:   WELL
 FLD .             TEAPOT:   FIELD
 LOC .      S11 T38N R78W:   LOCATION
 CNTY.            NATRONA:   COUNTY
 STAT.            WYOMING:   STATE
 CTRY. UNITED STATES OF AMERICA:   COUNTRY
 SRVC.       Schlumberger:   SERVICE COMPANY
 DATE.        22-FEB-1977:   LOGDATE
 API .       490251028000:   API NUMBER
~CURVE INFORMATION
#MNEM.UNIT       API CODE    CURVE DESCRIPTION
#----------   ------------   ------------------------------
 DEPT.F                  :   
 SPR .MV     07 010 01 00:   SPONTANEOUS POTENTIAL
 ILD .OHMM   07 120 46 00:   INDUCTION LOG DEEP RES
 ILM .OHMM   07 120 44 00:   INDUCTION LOG MEDIUM RES
 LL8 .OHMM   07 220 08 00:   LATEROLOG-8 RES
 CALD.IN     45 280 60 00:   CALIPER FROM DENSITY LOG
 GRD .GAPI   45 310 01 00:   GAMMA RAY FROM DENSITY LOG
 CORR.G/C3   45 356 01 00:   DENSITY CORRECTION
 RHOB.G/C3   45 350 01 00:   BULK DENSITY
 DPHI.DEC    45 890 12 00:   DENSITY POROSITY SANDSTONE
~PARAMETER INFORMATION
#MNEM.UNIT          VALUE    DESCRIPTION
#----------   ------------   ------------------------------
 PD  .                 GL:   PERMANENT DATUM
 EPD .F              5188:   ELEVATION PERMANENT DATUM
 LMF .                 KB:   LOG MEASURED FROM
 DAPD.F                 5:   FEET ABOVE PERMANENT DATUM
 DMF .                 KB:   DRILLING MEASURED FROM
 EKB .F              5193:   KELLING BUSHING
 EGL .F              5188:   GROUND LEVEL
 DATE.         22FEB-1977:   RUN DATE
 RUN .                  1:   RUN NUMBER
 DD  .F               598:   DEPTH DRILLER
 DL  .F               598:   DEPTH LOGGER
 BLI .F               597:   BOTTOM LOG INTERVAL
 TLI .F                35:   TOP LOG INTERVAL
 CS  .IN            8.625:   CASING SIZE
 CBD .F                42:   CASING BOTTOM DRILLER
 CBL .F                45:   CASING BOTTOM LOGGER
 BS  .IN            7.875:   BIT SIZE
 BSD .F               598:   BIT SIZE AT DEPTH
 DFT .                KCL:   DRILLING FLUID TYPE
 DFD .                8.7:   DRILLING FLUID DENSITY
 DFV .                 31:   DRILLING FLUID VISCOSITY
 DFPH.                  8:   DRILLING FLUID PH
 DFL .                7.2:   DRILLING FLUID LOSS
 MSS .           MUD TANK:   MUD SAMPLE SOURCE
 RMS .OHMM           .526:   RESISTIVITY MUD SAMPLE
 MST .F                70:   MUD SAMPLE TEMPERATURE
 RMF .OHMM           .515:   RESISTIVITY MUD FILTRATE SAMPLE
 MFST.F                71:   MUD FILTRATE SAMPLE TEMPERATURE
 RMC .OHMM            .77:   RESISTIVITY MUD CAKE
 MCST.F                70:   MUD CAKE SAMPLE TEMPERATURE
 MFSS.               MEAS:   MUD FILTRATE SAMPLE SOURCE
 MCSS.               CALC:   MUD CAKE SAMPLE SOURCE
 RMB .OHMM            .67:   RESISTIVITY MUD AT BHT
 BHT .F                55:   BOTTOM HOLE TEMPERATURE
 TCS .HRS            0600:   TIME CURCULATED STOPPED
 MRT .F                55:   MAXIMUM RECORDED TEMPERATURE
 LUN .               5642:   LOGGING UNIT NUMBER
 LUL .               CSPR:   LOGGING UNIT LOCATION
 ENGI.                FIX:   RECORDING ENGINEER
 WITN.         STUEBINGER:   WITNESSED BY
 CLNT.            A2DTECH:   CLIENT CODE
 ORIG.           5" PRINT:   ORIGIN OF DATA
 UWI .       490251028000:   UNIQUE WELL ID
 DICO. A2D Technologies, Inc.:   DIGITIZING COMPANY
~OTHER INFORMATION
~A   DEPT      SPR        ILD        ILM        LL8       CALD         GRD      CORR       RHOB       DPHI   
# ...
  285.5000   -27.6251     8.2593     8.9124     9.8837     8.2012   121.5541     0.0059     2.4299     0.1352
  286.0000   -27.1666     8.1474     8.8520     9.8184     8.2021   125.1693     0.0038     2.4441     0.1309
  286.5000   -27.1606     8.0926     8.7321     9.7543     8.2030   126.0735     0.0030     2.4418     0.1246
  287.0000   -27.7579     7.9827     8.7335     9.6233     8.2039   123.7381     0.0023     2.4351     0.1348
  287.5000   -27.9042     7.9286     8.7954     9.2994     8.2048   119.4570     0.0023     2.4366     0.1285
  288.0000   -28.1999     7.9301     8.7968     8.9864     8.2057   119.5374     0.0015     2.4358     0.1288
  288.5000   -27.8907     7.9314     8.8592     8.7441     8.2066   121.4684    -0.0008     2.4305     0.1333
  289.0000   -27.2814     7.9326     8.8606     8.9915     8.2075   118.2466    -0.0045     2.4177     0.1384
  289.5000   -26.9737     7.9889     8.9235     9.5706     8.2084   116.2084     0.0000     2.4200     0.1432
  290.0000   -26.8169     8.0456     9.0491     9.8414     8.2093   117.2688     0.0135     2.4477     0.1360
  290.5000   -26.9632     8.1026     9.1133     9.8442     8.2101   117.8750     0.0195     2.4387     0.1284
  291.0000   -27.4097     8.1039     9.1148     9.6444     8.1961   117.4320     0.0098     2.4369     0.1200
  291.5000   -27.7054     8.1052     9.1162     9.5808     8.1970   118.7927     0.0068     2.4350     0.1302
  292.0000   -27.6979     8.1065     9.0548     9.3877     8.1979   120.9004     0.0045     2.4064     0.1356
  292.5000   -27.6919     8.0515     8.9314     9.2609     8.1988   118.2070     0.0023     2.4342     0.1278
  293.0000   -27.3842     7.9975     8.9332     9.1998     8.1997   116.8631     0.0015     2.4379     0.1266
  293.5000   -27.0765     7.9436     8.9966     9.6587     8.1856   114.6183     0.0015     2.4266     0.1356
  294.0000   -27.0705     7.8902     9.1233     9.8630     8.2015   111.4726     0.0023     2.4446     0.1275
  294.5000   -26.9137     7.7830     9.0618     9.5317     8.2051   112.9816     0.0030     2.4326     0.1311
  295.0000   -26.9077     7.7306     8.8160     9.2747     8.2184   113.2875     0.0023     2.4273     0.1350
  295.5000   -26.7509     7.6785     8.5177     9.0865     8.2193   112.5442     0.0008     2.4371     0.1371
  296.0000   -26.5940     7.5742     8.2295     8.9650     8.2202   114.6556     0.0015     2.4326     0.1290
  296.5000   -26.5880     7.4714     8.0063     8.9675     8.2211   115.4138     0.0135     2.4235     0.1275
  297.0000   -26.4312     7.3699     7.9524     9.0316     8.2220   114.3703     0.0075     2.4243     0.1419
  297.5000   -26.4252     7.3203     7.8988     8.9720     8.2077   112.7261     0.0008     2.4212     0.1377
  298.0000   -26.4192     7.3214     7.9548     8.7912     8.2088   113.9347    -0.0075     2.4040     0.1428
  298.5000   -26.4132     7.2220     7.9561     8.6128     8.2097   116.4947    -0.0143     2.3964     0.1521
  299.0000   -26.4072     7.1239     7.8480     8.3805     8.2106   116.0518    -0.0083     2.4032     0.1548
  299.5000   -26.5520     7.0272     7.7414     8.2680     8.2115   113.2064     0.0000     2.4272     0.1422
  300.0000   -27.1493     6.8365     7.5837     8.1315     8.2122   110.2511     0.0068     2.4084     0.1370
  300.5000   -26.9772     6.4788     7.3264     7.9787     8.2115   109.4623    -0.0022     2.4197     0.1479
  301.0000   -26.8051     6.1987     7.0291     7.8258     8.2108   114.1292     0.0030     2.4197     0.1440
  301.5000   -26.6872     6.0313     6.4644     7.3083     8.2101   117.1397     0.0083     2.4115     0.1403
  302.0000   -26.8358     5.7084     6.1187     6.3684     8.2094   121.3514     0.0105     2.3793     0.1578
  302.5000   -26.6812     5.4781     5.8317     5.9872     8.2088   118.6562    -0.0045     2.3733     0.1683
  303.0000   -26.6782     5.3672     5.6747     5.8266     8.2081   119.7148     0.0008     2.4003     0.1593
  303.5000   -26.5243     5.4435     5.5983     5.7883     8.2074   119.8829     0.0046     2.4244     0.1400
  304.0000   -26.3705     5.5978     5.7979     7.2733     8.2068   118.2284     0.0143     2.4469     0.1297
  304.5000   -26.3674     5.8772     6.1724     8.0704     8.2061   117.4852     0.0241     2.4582     0.1192
  305.0000   -26.2142     6.1704     6.5711     8.1860     8.2064   114.4897     0.0264     2.4823     0.1120
  305.5000   -26.0604     6.5686     6.8520     8.1895     8.1922   111.0437     0.0128     2.4575     0.1101
  306.0000   -25.7296     6.8016     7.1448     8.2497     8.1933   112.3422     0.0144     2.4538     0.1159
  306.5000   -25.4510     6.9463     7.3478     8.2532     8.1942   115.1129     0.0159     2.4576     0.1174
  307.0000   -25.1242     6.9965     7.4529     8.1990     8.2100   116.9429     0.0106     2.4396     0.1207
  307.5000   -24.8416     6.9498     7.4556     8.2034     8.2109   113.3261     0.0091     2.4231     0.1273
  308.0000   -24.6697     6.9524     7.4583     8.2068     8.1969   112.1324     0.0106     2.4367     0.1336
  308.5000   -24.5339     6.8584     7.3579     8.2103     8.1826   110.4883     0.0091     2.4405     0.1285
  309.0000   -24.5309     6.7201     7.1604     8.1564     8.1685   109.8678     0.0099     2.4187     0.1245
  309.5000   -24.5279     6.5841     7.0160     8.1037     8.1697   111.5544     0.0137     2.4240     0.1333
  310.0000   -24.5249     6.4508     6.8271     7.9959     8.1855   114.5649     0.0182     2.4255     0.1429
  310.5000   -24.5219     6.3202     6.5975     7.7287     8.1864   113.8217     0.0219     2.4245     0.1369
  311.0000   -24.5189     6.1923     6.4198     7.3165     8.2022   111.7271     0.0182     2.4045     0.1441
  311.5000   -24.5159     6.0251     6.2039     7.2184     8.2181   109.4805     0.0107     2.3976     0.1498
  312.0000   -24.3620     5.8625     6.0787     7.2723     8.2339   114.5950     0.0047     2.3698     0.1522
  312.5000   -24.2081     5.6259     5.9151     7.3257     8.2348   115.8019     0.0002     2.3574     0.1814
  313.0000   -24.0543     5.4363     5.7161     7.2283     8.2357   109.2047     0.0272     2.3619     0.1790
  313.5000   -22.9955     5.2531     5.6008     6.0015     8.2516   101.5546     0.0558     2.3468     0.1829
  314.0000   -22.0875     5.1464     5.3752     5.3024     8.2824   100.0587     0.0798     2.3143     0.1940
  314.5000   -21.1794     5.0422     5.2667     5.1246     8.3132    99.3174     0.0971     2.3000     0.2097
  315.0000   -20.8748     5.1855     5.3420     5.0560     8.3439    97.5231     0.1083     2.2929     0.2190
  315.5000   -21.0226     5.4068     5.8466     5.7280     8.3747    99.0321     0.0858     2.2939     0.2200
  316.0000   -21.3212     5.6766     6.4432     6.4888     8.4055   104.5952     0.0453     2.3275     0.1997
  316.5000   -21.9215     5.9188     6.9070     7.0037     8.3317   107.4556     0.0258     2.3771     0.1717
  317.0000   -22.3710     6.2142     7.0544     7.4559     8.2429   114.5202     0.0138     2.4201     0.1401
  317.5000   -23.1221     6.4346     7.0569     7.8284     8.2286   121.3078     0.0085     2.4550     0.1259
  318.0000   -23.8732     6.6171     7.0595     8.1629     8.2297   130.9016     0.0145     2.4613     0.1168
  318.5000   -24.4735     6.7577     7.0621     8.2230     8.2306   132.7109     0.0160     2.4492     0.1204
  319.0000   -24.9229     6.8066     7.1136     8.1698     8.2315   128.0638     0.0093     2.4410     0.1250
  319.5000   -25.3724     6.8086     7.1162     8.1733     8.2173   124.7680     0.0071     2.4311     0.1286
  320.0000   -25.6712     6.8106     7.0211     8.1196     8.2184   123.5724     0.0048     2.4169     0.1325
  320.5000   -26.1205     6.8126     6.9746     8.0671     8.2193   126.8852     0.0041     2.4226     0.1330
  321.0000   -26.2691     6.8146     6.9290     7.9599     8.2351   130.7966     0.0116     2.4563     0.1210
  321.5000   -26.4169     6.8166     6.8838     7.9085     8.2360   134.7080     0.0131     2.4530     0.1197
