~VERSION INFORMATION
 VERS.                2.0:   CWLS LOG ASCII STANDARD - VERSION 2.0
 WRAP.                 NO:   ONE LINE PER DEPTH STEP
~WELL INFORMATION
#MNEM.UNIT      DATA TYPE    INFORMATION
#----------   ------------   ------------------------------
 STRT.F            4.0000:   START DEPTH
 STOP.F          468.5000:   STOP DEPTH
 STEP.F            0.1000:   STEP LENGTH
 NULL.          -999.2500:   NO VALUE
 COMP. BROWN JOHN E&C INC:   COMPANY
 WELL.  SX-10 #1-14-SX-10:   WELL
 FLD .        N.P.R. No.3:   FIELD
 LOC .      S10 T38N R78W:   LOCATION
 CNTY.            NATRONA:   COUNTY
 STAT.            WYOMING:   STATE
 CTRY. UNITED STATES OF AMERICA:   COUNTRY
 SRVC.     Atlas Wireline:   SERVICE COMPANY
 DATE.        21-SEP-1991:   LOGDATE
 API .       490251125800:   API NUMBER
~CURVE INFORMATION
#MNEM.UNIT       API CODE    CURVE DESCRIPTION
#----------   ------------   ------------------------------
 DEPT.F                  :   
 GRR .GAPI   07 310 01 00:   GAMMA RAY FROM RES. LOG.
 ILD .OHMM   07 120 46 00:   INDUCTION LOG DEEP
 RILM.OHMM   07 120 44 00:   INDUCTION LOG MEDIUM RESISTIVITY
~PARAMETER INFORMATION
#MNEM.UNIT          VALUE    DESCRIPTION
#----------   ------------   ------------------------------
 PD  .                 GL:   PERMANENT DATUM
 EPD .F              5183:   ELEVATION PERMANENT DATUM
 LMF .                 KB:   LOG MEASURED FROM
 DAPD.F                10:   FEET ABOVE PERMANENT DATUM
 DMF .                 KB:   DRILLING MEASURED FROM
 EKB .F              5193:   KELLING BUSHING
 EGL .F              5183:   GROUND LEVEL
 DATE.            9-21-91:   RUN DATE
 RUN .                  1:   RUN NUMBER
 DD  .F               480:   DEPTH DRILLER
 DL  .F               478:   DEPTH LOGGER
 BLI .F               470:   BOTTOM LOG INTERVAL
 CS  .IN                7:   CASING SIZE
 CBD .F                90:   CASING BOTTOM DRILLER
 CBL .F                90:   CASING BOTTOM LOGGER
 BS  .IN             6.25:   BIT SIZE
 BSD .F               480:   BIT SIZE AT DEPTH
 DFT .                AIR:   DRILLING FLUID TYPE
 TCS .HRS               1:   TIME CURCULATED STOPPED
 MRT .F                80:   MAXIMUM RECORDED TEMPERATURE
 LUN .            HL-6307:   LOGGING UNIT NUMBER
 LUL .             CASPER:   LOGGING UNIT LOCATION
 ENGI.             RAUTIO:   RECORDING ENGINEER
 WITN.             STRONG:   WITNESSED BY
 CLNT.            A2DTECH:   CLIENT CODE
 ORIG.        2" 5" PRINT:   ORIGIN OF DATA
 UWI .       490251125800:   UNIQUE WELL ID
 DICO. A2D Technologies, Inc.:   DIGITIZING COMPANY
~OTHER INFORMATION
~A    DEPT       GRR      ILD       RILM   
# ...
  258.8000    85.6870    28.3910    30.6634
  258.9000    86.2757    28.3574    30.6521
  259.0000    86.8645    28.3238    30.6408
  259.1000    87.7432    28.2925    30.6295
  259.2000    88.6219    28.2613    30.6182
  259.3000    89.5006    28.2300    30.6069
  259.4000    90.3793    28.1988    30.5956
  259.5000    91.2579    28.1675    30.5843
  259.6000    91.3892    28.1364    30.5730
  259.7000    91.5204    28.1053    30.5618
  259.8000    91.6516    28.0742    30.5505
  259.9000    91.7828    28.0432    30.5392
  260.0000    91.9141    28.0121    30.5280
  260.1000    91.2259    27.9897    30.5167
  260.2000    90.5377    27.9673    30.5054
  260.3000    89.8496    27.9449    30.4941
  260.4000    89.1614    27.9225    30.4828
  260.5000    88.4732    27.9001    30.4716
  260.6000    87.8569    27.8814    30.4597
  260.7000    87.2405    27.8627    30.4478
  260.8000    86.6241    27.8440    30.4360
  260.9000    86.0077    27.8253    30.4241
  261.0000    85.3914    27.8065    30.4122
  261.1000    85.0805    27.7879    30.4275
  261.2000    84.7696    27.7692    30.4428
  261.3000    84.4587    27.7506    30.4581
  261.4000    84.1478    27.7320    30.4733
  261.5000    83.8369    27.7133    30.4886
  261.6000    83.5353    27.6947    30.5055
  261.7000    83.2337    27.6761    30.5224
  261.8000    82.9321    27.6575    30.5393
  261.9000    82.6305    27.6389    30.5562
  262.0000    82.3289    27.6204    30.5731
  262.1000    82.4198    27.6018    30.5901
  262.2000    82.5107    27.5833    30.6070
  262.3000    82.6016    27.5648    30.6239
  262.4000    82.6925    27.5463    30.6409
  262.5000    82.7834    27.5277    30.6578
  262.6000    83.1262    27.5122    30.7041
  262.7000    83.4690    27.4966    30.7504
  262.8000    83.8119    27.4811    30.7966
  262.9000    84.1547    27.4656    30.8429
  263.0000    84.4975    27.4500    30.8892
  263.1000    84.8992    27.5409    30.9991
  263.2000    85.3010    27.6318    31.1090
  263.3000    85.7028    27.7228    31.2190
  263.4000    86.1046    27.8137    31.3289
  263.5000    86.5064    27.9046    31.4388
  263.6000    86.9181    28.0009    31.5507
  263.7000    87.3299    28.0971    31.6625
  263.8000    87.7417    28.1934    31.7744
  263.9000    88.1534    28.2896    31.8863
  264.0000    88.5652    28.3859    31.9982
  264.1000    88.9755    28.4838    32.1120
  264.2000    89.3858    28.5818    32.2259
  264.3000    89.7961    28.6797    32.3398
  264.4000    90.2064    28.7776    32.4536
  264.5000    90.6167    28.8755    32.5675
  264.6000    90.7957    28.9751    32.6834
  264.7000    90.9747    29.0748    32.7993
  264.8000    91.1537    29.1744    32.9152
  264.9000    91.3327    29.2740    33.0311
  265.0000    91.5117    29.3736    33.1469
  265.1000    91.2431    29.4749    33.2649
  265.2000    90.9744    29.5763    33.3829
  265.3000    90.7058    29.6776    33.5008
  265.4000    90.4372    29.7789    33.6188
  265.5000    90.1685    29.8803    33.7367
  265.6000    89.3264    29.9833    33.8544
  265.7000    88.4843    30.0864    33.9720
  265.8000    87.6422    30.1895    34.0897
  265.9000    86.8000    30.2926    34.2073
  266.0000    85.9579    30.3957    34.3250
  266.1000    85.7477    30.4772    34.3118
  266.2000    85.5375    30.5587    34.2987
  266.3000    85.3273    30.6403    34.2855
  266.4000    85.1171    30.7218    34.2724
  266.5000    84.9069    30.8034    34.2592
  266.6000    85.7906    30.8543    34.2463
  266.7000    86.6743    30.9052    34.2334
  266.8000    87.5581    30.9561    34.2206
  266.9000    88.4418    31.0070    34.2077
  267.0000    89.3256    31.0579    34.1948
  267.1000    89.7463    31.1093    34.1820
  267.2000    90.1670    31.1606    34.1691
  267.3000    90.5877    31.2119    34.1563
  267.4000    91.0084    31.2633    34.1434
  267.5000    91.4292    31.3146    34.1306
  267.6000    91.3836    31.3664    34.1167
  267.7000    91.3380    31.4181    34.1029
  267.8000    91.2924    31.4699    34.0891
  267.9000    91.2467    31.5216    34.0753
  268.0000    91.2011    31.5734    34.0615
  268.1000    91.8541    31.6256    34.0504
  268.2000    92.5070    31.6778    34.0393
  268.3000    93.1599    31.7299    34.0282
  268.4000    93.8128    31.7821    34.0171
  268.5000    94.4658    31.8343    34.0060
  268.6000    95.1970    31.8869    34.1875
  268.7000    95.9283    31.9396    34.3690
  268.8000    96.6596    31.9922    34.5505
  268.9000    97.3909    32.0448    34.7320
  269.0000    98.1222    32.0974    34.9136
  269.1000    98.3514    32.1505    35.0897
  269.2000    98.5806    32.2035    35.2657
  269.3000    98.8098    32.2566    35.4418
  269.4000    99.0390    32.3096    35.6179
  269.5000    99.2682    32.3627    35.7940
  269.6000    99.0966    32.4428    35.9734
  269.7000    98.9251    32.5229    36.1528
  269.8000    98.7535    32.6031    36.3323
  269.9000    98.5820    32.6832    36.5117
  270.0000    98.4105    32.7633    36.6911
  270.1000    97.9212    32.7356    36.8180
  270.2000    97.4320    32.7079    36.9450
  270.3000    96.9427    32.6801    37.0720
  270.4000    96.4535    32.6524    37.1990
  270.5000    95.9642    32.6247    37.3259
  270.6000    95.4564    32.5701    37.3259
  270.7000    94.9485    32.5155    37.3259
  270.8000    94.4406    32.4610    37.3259
  270.9000    93.9327    32.4064    37.3259
  271.0000    93.4249    32.3518    37.3259
  271.1000    93.1412    32.2977    37.2290
  271.2000    92.8575    32.2436    37.1321
  271.3000    92.5738    32.1895    37.0352
  271.4000    92.2901    32.1354    36.9383
  271.5000    92.0064    32.0813    36.8414
  271.6000    92.0027    32.0276    36.6602
  271.7000    91.9990    31.9740    36.4791
  271.8000    91.9952    31.9203    36.2979
  271.9000    91.9915    31.8666    36.1167
  272.0000    91.9878    31.8130    35.9355
  272.1000    92.4228    31.7598    35.7588
  272.2000    92.8577    31.7066    35.5820
  272.3000    93.2926    31.6534    35.4053
  272.4000    93.7275    31.6001    35.2285
  272.5000    94.1624    31.5469    35.0518
  272.6000    94.6658    31.4921    34.8794
  272.7000    95.1692    31.4372    34.7070
  272.8000    95.6726    31.3824    34.5346
  272.9000    96.1760    31.3276    34.3623
  273.0000    96.6794    31.2727    34.1899
  273.1000    96.9882    31.1496    34.0217
  273.2000    97.2969    31.0266    33.8536
  273.3000    97.6057    30.9035    33.6854
  273.4000    97.9144    30.7804    33.5173
  273.5000    98.2232    30.6574    33.3491
  273.6000    98.3030    30.5318    33.1851
  273.7000    98.3827    30.4062    33.0211
  273.8000    98.4625    30.2806    32.8571
  273.9000    98.5423    30.1550    32.6931
  274.0000    98.6221    30.0295    32.5290
  274.1000    98.6650    29.9065    32.3691
  274.2000    98.7080    29.7835    32.2091
  274.3000    98.7510    29.6605    32.0491
  274.4000    98.7940    29.5375    31.8891
  274.5000    98.8369    29.4145    31.7291
  274.6000    98.8828    29.2940    31.6964
  274.7000    98.9286    29.1735    31.6636
  274.8000    98.9745    29.0530    31.6308
  274.9000    99.0203    28.9325    31.5981
  275.0000    99.0662    28.8120    31.5653
  275.1000    99.1834    28.6952    31.5666
  275.2000    99.3006    28.5783    31.5680
  275.3000    99.4178    28.4615    31.5693
  275.4000    99.5351    28.3446    31.5707
  275.5000    99.6523    28.2277    31.5720
  275.6000    99.7673    28.0518    31.5733
  275.7000    99.8823    27.8758    31.5745
  275.8000    99.9973    27.6999    31.5758
  275.9000   100.1123    27.5239    31.5770
  276.0000   100.2273    27.3479    31.5783
  276.1000   100.2344    27.1791    31.3888
  276.2000   100.2415    27.0103    31.1994
  276.3000   100.2485    26.8415    31.0100
  276.4000   100.2556    26.6726    30.8205
  276.5000   100.2627    26.5038    30.6311
  276.6000   100.2617    26.3402    30.3380
  276.7000   100.2607    26.1766    30.0449
  276.8000   100.2597    26.0130    29.7518
  276.9000   100.2586    25.8493    29.4587
