~VERSION INFORMATION
 VERS.                2.0:   CWLS LOG ASCII STANDARD - VERSION 2.0
 WRAP.                 NO:   ONE LINE PER DEPTH STEP
~WELL INFORMATION
#MNEM.UNIT      DATA TYPE    INFORMATION
#----------   ------------   ------------------------------
 STRT.F            0.0000:   START DEPTH
 STOP.F          561.0000:   STOP DEPTH
 STEP.F            0.1000:   STEP LENGTH
 NULL.          -999.2500:   NO VALUE
 COMP.       F D SERV INC:   COMPANY
 WELL.  83-1 sx 10 #83-10:   WELL
 FLD .             TEAPOT:   FIELD
 LOC .      S10 T38N R78W:   LOCATION
 CNTY.            NATRONA:   COUNTY
 STAT.            WYOMING:   STATE
 CTRY. UNITED STATES OF AMERICA:   COUNTRY
 SRVC.     Atlas Wireline:   SERVICE COMPANY
 DATE.        10-DEC-1992:   LOGDATE
 API .       490252258000:   API NUMBER
~CURVE INFORMATION
#MNEM.UNIT       API CODE    CURVE DESCRIPTION
#----------   ------------   ------------------------------
 DEPT.F                  :   
 GRR .GAPI   07 310 01 00:   GAMMA RAY
 RILD.OHMM   07 120 46 00:   INDUCTION LOG DEEP RESISTIVITY
 RILM.OHMM   07 120 44 00:   INDUCTION LOG MEDIUM RESISTIVITY
~PARAMETER INFORMATION
#MNEM.UNIT          VALUE    DESCRIPTION
#----------   ------------   ------------------------------
 PD  .                 GL:   PERMANENT DATUM
 EPD .F              5170:   ELEVATION PERMANENT DATUM
 LMF .                 KB:   LOG MEASURED FROM
 DAPD.F                10:   FEET ABOVE PERMANENT DATUM
 DMF .                 KB:   DRILLING MEASURED FROM
 EKB .F              5180:   KELLING BUSHING
 EDF .F              5179:   DRILLING FLOOR
 EGL .F              5170:   GROUND LEVEL
 DATE.        10-DEC-1992:   RUN DATE
 RUN .                  1:   RUN NUMBER
 DD  .F               567:   DEPTH DRILLER
 DL  .F               569:   DEPTH LOGGER
 BLI .F               560:   BOTTOM LOG INTERVAL
 TLI .F                97:   TOP LOG INTERVAL
 CS  .IN            8.625:   CASING SIZE
 CBD .F                97:   CASING BOTTOM DRILLER
 CBL .F                97:   CASING BOTTOM LOGGER
 BS  .IN            7.875:   BIT SIZE
 BSD .F               567:   BIT SIZE AT DEPTH
 DFT .           AIR FOAM:   DRILLING FLUID TYPE
 MRT .F                65:   MAXIMUM RECORDED TEMPERATURE
 LUN .           HL- 6274:   LOGGING UNIT NUMBER
 LUL .             CASPER:   LOGGING UNIT LOCATION
 ENGI.       P. RASMUSSEN:   RECORDING ENGINEER
 WITN.          G. STRONG:   WITNESSED BY
 CLNT.            A2DTECH:   CLIENT CODE
 ORIG.           5" PRINT:   ORIGIN OF DATA
 UWI .       490252258000:   UNIQUE WELL ID
 DICO. A2D Technologies, Inc.:   DIGITIZING COMPANY
~OTHER INFORMATION
~A    DEPT      GRR      RILD       RILM   
# ...
  400.4000    96.8611    18.3304    18.0251
  400.5000    96.0227    18.3309    18.0261
  400.6000    94.7867    18.3314    18.0271
  400.7000    93.6745    18.4183    18.0281
  400.8000    92.3137    18.4609    18.0291
  400.9000    90.4510    18.4614    18.0301
  401.0000    89.7056    18.4619    18.0311
  401.1000    89.1371    18.4490    18.0321
  401.2000    88.9372    18.3345    18.0331
  401.3000    89.0495    18.3350    18.0341
  401.4000    89.3735    18.3355    18.0353
  401.5000    89.9283    18.3360    18.0361
  401.6000    91.0666    18.3365    18.0371
  401.7000    92.4527    18.3048    17.9918
  401.8000    93.6295    18.2099    17.9143
  401.9000    94.3830    18.2105    17.9153
  402.0000    94.8063    18.1062    17.9164
  402.1000    95.0177    18.0847    17.8240
  402.2000    94.7144    18.0852    17.7942
  402.3000    94.4136    18.0353    17.7407
  402.4000    94.2018    17.9604    17.6730
  402.5000    93.9454    17.9463    17.6577
  402.6000    93.6891    17.8364    17.5527
  402.7000    93.3577    17.8370    17.5536
  402.8000    92.8729    17.7517    17.4732
  402.9000    92.5998    17.6462    17.4340
  403.0000    92.6009    17.5412    17.3916
  403.1000    92.6021    16.8844    17.2907
  403.2000    92.6033    16.7909    17.1903
  403.3000    92.6046    16.6928    17.0784
  403.4000    92.6628    16.6529    16.9916
  403.5000    92.9216    16.6137    16.8931
  403.6000    93.2153    16.5165    16.7951
  403.7000    94.7761    16.4198    16.6977
  403.8000    95.8726    16.3115    16.6008
  403.9000    96.3846    16.3123    16.5009
  404.0000    96.5584    16.2466    16.4089
  404.1000    96.5596    16.1516    16.2396
  404.2000    96.5609    16.0571    16.1069
  404.3000    96.5621    15.9631    16.0135
  404.4000    96.5633    15.8674    15.9206
  404.5000    96.5645    15.7770    15.8282
  404.6000    96.5657    15.6847    15.7240
  404.7000    96.5669    15.5930    15.6452
  404.8000    96.5471    15.5018    15.4313
  404.9000    96.2660    15.4111    15.2066
  405.0000    96.0344    15.3280    15.0575
  405.1000    95.7781    15.3290    14.9702
  405.2000    95.5217    15.3298    14.8790
  405.3000    95.1705    15.2655    14.8797
  405.4000    94.7056    15.2248    14.9478
  405.5000    94.4492    15.2257    14.9851
  405.6000    94.1501    15.2265    14.9860
  405.7000    93.9365    15.2274    14.9868
  405.8000    93.8489    15.2284    14.9876
  405.9000    93.9729    15.2291    14.9886
  406.0000    94.3854    15.2299    15.0645
  406.1000    95.1284    15.2308    15.0946
  406.2000    95.6747    15.2316    15.0525
  406.3000    96.1611    15.2325    14.9918
  406.4000    96.2841    15.2334    14.9926
  406.5000    96.2853    15.2342    14.9935
  406.6000    96.2865    15.2350    14.9943
  406.7000    96.2877    15.2359    14.9290
  406.8000    96.2889    15.2367    14.8922
  406.9000    96.2903    15.2376    14.8930
  407.0000    96.2914    15.2384    14.8938
  407.1000    96.2926    15.2394    14.8946
  407.2000    96.2938    15.2401    14.8956
  407.3000    96.2950    15.1805    14.8963
  407.4000    96.3371    15.1358    14.8971
  407.5000    96.6009    15.1366    14.8567
  407.6000    96.6024    15.1375    14.7957
  407.7000    96.8100    15.1384    14.7965
  407.8000    97.2294    15.1392    14.7974
  407.9000    97.9752    15.1400    14.7981
  408.0000    99.0065    15.1409    14.7989
  408.1000    99.9923    15.1417    14.7998
  408.2000   100.5549    15.1426    14.8006
  408.3000   101.4938    15.1434    14.7847
  408.4000   102.1482    15.1443    14.6998
  408.5000   102.6645    15.1451    14.7007
  408.6000   103.1809    15.1459    14.7014
  408.7000   103.6465    15.1468    14.7022
  408.8000   103.9005    15.1476    14.7030
  408.9000   103.9019    15.1485    14.7039
  409.0000   103.9029    15.1493    14.7047
  409.1000   104.0747    15.1503    14.7056
  409.2000   104.2088    15.0790    14.7063
  409.3000   104.2100    15.0464    14.7071
  409.4000   104.1784    15.0076    14.7079
  409.5000   103.9090    14.9198    14.7088
  409.6000   103.9102    14.8402    14.7096
  409.7000   103.9114    14.8411    14.7104
  409.8000   103.9126    14.7623    14.6095
  409.9000   103.9138    14.6760    14.6102
  410.0000   103.9150    14.6377    14.6110
  410.1000   103.9162    14.6065    14.5735
  410.2000   103.9176    14.5373    14.4890
  410.3000   103.9187    14.5383    14.4118
  410.4000   103.7394    14.5392    14.4127
  410.5000   103.6176    14.5399    14.3376
  410.6000   103.6188    14.5407    14.3145
  410.7000   103.6200    14.5008    14.2706
  410.8000   103.6213    14.4411    14.2170
  410.9000   103.3192    14.4420    14.2178
  411.0000   103.3202    14.4428    14.2186
  411.1000   103.1589    14.4436    14.1211
  411.2000   102.9026    14.3798    14.1217
  411.3000   102.6462    14.3447    14.0714
  411.4000   102.3899    14.3116    14.0255
  411.5000   102.1124    14.2464    14.0056
  411.6000   101.6410    14.2438    13.9243
  411.7000   101.3174    14.1490    13.8344
  411.8000   100.9166    14.1497    13.8351
  411.9000   100.2057    14.1505    13.7789
  412.0000    99.0188    14.1092    13.7408
  412.1000    97.2504    14.0536    13.7145
  412.2000    96.6581    14.0544    13.6471
  412.3000    96.2225    14.0552    13.6480
  412.4000    96.0534    13.9758    13.5712
  412.5000    96.1811    13.9589    13.5550
  412.6000    96.3593    13.9597    13.5078
  412.7000    96.3952    13.9252    13.4627
  412.8000    96.6653    13.8641    13.4446
  412.9000    97.4051    13.8649    13.3666
  413.0000    98.3793    13.8657    13.2793
  413.1000    99.2564    13.8664    13.2799
  413.2000    99.9219    13.8672    13.2270
  413.3000   100.4382    13.8245    13.1895
  413.4000   100.9546    13.7722    13.1902
  413.5000   101.5297    13.7589    13.1909
  413.6000   101.7591    13.6779    13.1917
  413.7000   101.8355    13.6788    13.1924
  413.8000   101.8367    13.6137    13.1332
  413.9000   101.7475    13.5850    13.1025
  414.0000   101.4911    13.5492    13.1033
  414.1000   101.2334    13.4920    13.1040
  414.2000   100.6278    13.4850    13.1047
  414.3000   100.2085    13.3997    13.1056
  414.4000    99.6946    13.4004    13.1062
  414.5000    99.0624    13.4011    13.1069
  414.6000    98.2909    13.3576    13.0697
  414.7000    97.5723    13.3093    13.0176
  414.8000    97.2966    13.2943    13.0184
  414.9000    97.0596    13.2182    13.0191
  415.0000    96.9954    13.2191    13.0198
  415.1000    96.9967    13.1539    13.0205
  415.2000    97.0982    13.0770    12.9770
  415.3000    97.4114    13.0378    12.9318
  415.4000    97.9618    13.0151    12.9326
  415.5000    99.7331    12.9484    12.9333
  415.6000   101.0551    12.9493    12.9341
  415.7000   102.4275    12.9500    12.9347
  415.8000   103.3315    12.9507    12.9354
  415.9000   103.8478    12.9514    12.8996
  416.0000   104.3641    12.9521    12.8473
  416.1000   104.8996    12.9529    12.8480
  416.2000   105.6449    12.9536    12.8488
  416.3000   106.2167    12.9544    12.8495
  416.4000   106.4206    12.9550    12.7937
  416.5000   106.5321    12.9558    12.7619
  416.6000   106.7266    12.9959    12.7627
  416.7000   106.7093    13.0480    12.7634
  416.8000   106.4256    13.0487    12.7641
  416.9000   106.1966    13.0495    12.7649
  417.0000   105.9403    13.0502    12.7655
  417.1000   105.5457    13.0509    12.7662
  417.2000   105.1241    13.0516    12.7669
  417.3000   104.8213    13.0524    12.7892
  417.4000   104.3067    13.0531    12.8573
  417.5000   102.7923    13.0538    12.8581
  417.6000   101.9454    13.0546    12.8588
  417.7000   101.2485    13.0553    12.8595
  417.8000   100.6144    13.0560    12.9023
  417.9000    99.9913    13.0987    12.9505
  418.0000    99.7255    13.1772    12.9657
  418.1000    99.3833    13.2562    13.0423
  418.2000    99.0411    13.3356    13.0431
  418.3000    98.6989    13.4297    13.1070
  418.4000    98.4061    13.4303    13.1354
  418.5000    98.1497    13.4825    13.1715
