~VERSION INFORMATION
 VERS.                2.0:   CWLS LOG ASCII STANDARD - VERSION 2.0
 WRAP.                 NO:   ONE LINE PER DEPTH STEP
~WELL INFORMATION
#MNEM.UNIT      DATA TYPE    INFORMATION
#----------   ------------   ------------------------------
 STRT.F          974.5000:   START DEPTH
 STOP.F         2805.0000:   STOP DEPTH
 STEP.F            0.5000:   STEP LENGTH
 NULL.          -999.2500:   NO VALUE
 COMP.   FLUOR DANIEL INC:   COMPANY
 WELL. NAVAL PETROLEUM RESERVE 3 SHX- #38-14:   WELL
 FLD .             TEAPOT:   FIELD
 LOC .      S14 T38N R78W:   LOCATION
 CNTY.            NATRONA:   COUNTY
 STAT.            WYOMING:   STATE
 CTRY. UNITED STATES OF AMERICA:   COUNTRY
 SRVC.            Unknown:   SERVICE COMPANY
 DATE.        20-AUG-1995:   LOGDATE
 API .       490252273400:   API NUMBER
~CURVE INFORMATION
#MNEM.UNIT       API CODE    CURVE DESCRIPTION
#----------   ------------   ------------------------------
 DEPT.F                  :   
 ROP .MIN/FT 91 810 01 00:   RAT OF DRILLING PENETRATION
 TGAS.UNITS  91 830 01 00:   TOTAL GAS FROM HOTWIRE
~PARAMETER INFORMATION
#MNEM.UNIT          VALUE    DESCRIPTION
#----------   ------------   ------------------------------
 EKB .F              5264:   KELLING BUSHING
 EGL .F              5254:   GROUND LEVEL
 DATE.            8-20-95:   RUN DATE
 DD  .F              2805:   DEPTH DRILLER
 CBD .F               980:   CASING BOTTOM DRILLER
 ENGI.              TOWER:   RECORDING ENGINEER
 WITN.               HUSK:   WITNESSED BY
 CLNT.            A2DTECH:   CLIENT CODE
 ORIG.           5" PRINT:   ORIGIN OF DATA
 UWI .       490252273400:   UNIQUE WELL ID
 DICO. A2D Technologies, Inc.:   DIGITIZING COMPANY
~OTHER INFORMATION
~A   DEPT      ROP         TGAS 
# ...
 1582.0000     0.5484    10.2874
 1582.5000     0.5482    10.5159
 1583.0000     0.5372    10.7444
 1583.5000     0.5371    10.7550
 1584.0000     0.5515    10.9835
 1584.5000     0.6455    11.2138
 1585.0000     0.6454    11.2243
 1585.5000     0.6452    11.2349
 1586.0000     0.6560    11.2455
 1586.5000     0.6558    11.2561
 1587.0000     0.6774    11.2684
 1587.5000     0.6882    11.2790
 1588.0000     0.6772    11.2896
 1588.5000     0.6770    11.5181
 1589.0000     0.6878    12.1824
 1589.5000     0.6441    13.0647
 1590.0000     0.5462    14.1666
 1590.5000     0.5461    14.6130
 1591.0000     0.5459    15.2773
 1591.5000     0.5349    15.7237
 1592.0000     0.5457    16.1702
 1592.5000     0.5455    16.8363
 1593.0000     0.5454    17.0648
 1593.5000     0.5452    17.0753
 1594.0000     0.5560    17.3038
 1594.5000     0.5558    17.5323
 1595.0000     0.5557    17.5429
 1595.5000     0.5447    17.5552
 1596.0000     0.5446    17.7837
 1596.5000     0.5444    18.0122
 1597.0000     0.5443    17.8031
 1597.5000     0.5333    17.1617
 1598.0000     0.5331    16.7347
 1598.5000     0.5439    15.8771
 1599.0000     0.5437    15.4484
 1599.5000     0.5436    14.8069
 1600.0000     0.5435    14.5996
 1600.5000     0.5657    14.4457
 1601.0000     0.5769    14.2763
 1601.5000     0.5773    14.1068
 1602.0000     0.5777    13.9374
 1602.5000     0.5673    13.7722
 1603.0000     0.5677    13.5628
 1603.5000     0.5681    13.3534
 1604.0000     0.5686    13.5799
 1604.5000     0.5690    13.3705
 1605.0000     0.5694    13.1611
 1605.5000     0.5698    12.7366
 1606.0000     0.5592    12.3079
 1606.5000     0.5597    12.0971
 1607.0000     0.5601    12.1085
 1607.5000     0.5605    11.6812
 1608.0000     0.5609    11.6897
 1608.5000     0.5504    11.4789
 1609.0000     0.5617    11.2695
 1609.5000     0.5621    10.8422
 1610.0000     0.5516    10.8536
 1610.5000     0.5520    10.6442
 1611.0000     0.5416    10.6527
 1611.5000     0.5421    10.6613
 1612.0000     0.5315    10.6698
 1612.5000     0.5320    10.6783
 1613.0000     0.5324    10.4689
 1613.5000     0.5328    10.4789
 1614.0000     0.6636    10.4874
 1614.5000     0.6640    10.4960
 1615.0000     0.6644    10.5045
 1615.5000     0.6648    10.5130
 1616.0000     0.6761    10.5215
 1616.5000     0.6765    10.5315
 1617.0000     0.6769    10.5400
 1617.5000     0.6773    10.5486
 1618.0000     0.6777    10.5571
 1618.5000     0.6781    10.3463
 1619.0000     0.6895    10.1369
 1619.5000     0.7008    10.1469
 1620.0000     0.7012    10.1554
 1620.5000     0.7016    10.1653
 1621.0000     0.7128    10.1739
 1621.5000     0.7132    10.1824
 1622.0000     0.7028    10.1909
 1622.5000     0.4965    10.1995
 1623.0000     0.5079    10.2080
 1623.5000     0.5083    10.2165
 1624.0000     0.5196    10.0057
 1624.5000     0.5200    10.0171
 1625.0000     0.5204    10.0256
 1625.5000     0.5208    10.2521
 1626.0000     0.5197     9.8234
 1626.5000     0.5107     9.8333
 1627.0000     0.5003     9.4060
 1627.5000     0.5007     9.4145
 1628.0000     0.5011     9.4245
 1628.5000     0.4906     9.4330
 1629.0000     0.4802     9.4416
 1629.5000     0.4806     9.4501
 1630.0000     0.4700     9.4586
 1630.5000     0.4705     9.4672
 1631.0000     0.4709     9.4757
 1631.5000     0.4713     9.4842
 1632.0000     0.4717     9.4942
 1632.5000     0.4721     9.5027
 1633.0000     0.4726     9.5112
 1633.5000     0.4730     9.5198
 1634.0000     0.5929     9.5283
 1634.5000     0.5608     9.5368
 1635.0000     0.5612     9.5454
 1635.5000     0.5725     9.5539
 1636.0000     0.5946     9.5638
 1636.5000     0.5950     9.5724
 1637.0000     0.5737     9.5809
 1637.5000     0.5197     9.5894
 1638.0000     0.5093     9.5980
 1638.5000     0.5097     9.8244
 1639.0000     0.5209     9.8330
 1639.5000     0.5322     9.6221
 1640.0000     0.5435     9.6320
 1640.5000     0.5322     9.6407
 1641.0000     0.5317     9.6494
 1641.5000     0.5313     9.6581
 1642.0000     0.5309     9.6668
 1642.5000     0.5415     9.6755
 1643.0000     0.5410     9.6843
 1643.5000     0.5406     9.6930
 1644.0000     0.5512     9.7017
 1644.5000     0.5507     9.7104
 1645.0000     0.5503     9.7191
 1645.5000     0.5499     9.7278
 1646.0000     0.5495     9.7380
 1646.5000     0.5490     9.7466
 1647.0000     0.5486     9.5343
 1647.5000     0.5482     9.3264
 1648.0000     0.5478     9.1170
 1648.5000     0.5474     9.3449
 1649.0000     0.5470     9.3534
 1649.5000     0.5466     9.3634
 1650.0000     0.5571     9.3719
 1650.5000     0.5567     9.3952
 1651.0000     0.5563     9.4278
 1651.5000     0.5558     9.4603
 1652.0000     0.5663     9.4929
 1652.5000     0.5658     9.5254
 1653.0000     0.5764     9.5580
 1653.5000     0.5759     9.5905
 1654.0000     0.5755     9.6230
 1654.5000     0.5751     9.6556
 1655.0000     0.5856     9.6881
 1655.5000     0.5852     9.7207
 1656.0000     0.5848     9.7532
 1656.5000     0.5844     9.7858
 1657.0000     0.5839     9.8183
 1657.5000     0.5835     9.8509
 1658.0000     0.5831     9.8834
 1658.5000     0.5827     9.9159
 1659.0000     0.5823     9.9485
 1659.5000     0.5819     9.9810
 1660.0000     0.5815    10.0136
 1660.5000     0.5811    10.0242
 1661.0000     0.5698    10.0242
 1661.5000     0.5694    10.0242
 1662.0000     0.5581    10.0242
 1662.5000     0.5577    10.0242
 1663.0000     0.5464    10.0242
 1663.5000     0.5460    10.0242
 1664.0000     0.5456    10.0242
 1664.5000     0.6757     9.8063
 1665.0000     0.6644     9.8063
 1665.5000     0.6639     9.8063
 1666.0000     0.6635     9.8063
 1666.5000     0.6631     9.8063
 1667.0000     0.6627     9.8063
 1667.5000     0.6623     9.8063
 1668.0000     0.6619     9.8063
 1668.5000     0.6615     9.8061
 1669.0000     0.6611     9.7967
 1669.5000     0.6607     9.7874
 1670.0000     0.7908     9.7780
 1670.5000     0.7923     9.7686
 1671.0000     0.8008     9.7593
 1671.5000     0.8003     9.7499
 1672.0000     0.6586     9.7405
 1672.5000     0.6582     9.7312
 1673.0000     0.6578     9.7218
 1673.5000     0.6574     9.7124
 1674.0000     0.6571     9.7031
 1674.5000     0.6567     9.6937
 1675.0000     0.6563     9.6843
 1675.5000     0.6558     9.6750
 1676.0000     0.6554     9.6656
 1676.5000     0.6550     9.6562
 1677.0000     0.6546     9.6469
 1677.5000     0.6542     9.6375
 1678.0000     0.6538     9.6281
 1678.5000     0.6534     9.6188
 1679.0000     0.6530     9.6094
 1679.5000     0.6635     9.6000
 1680.0000     0.6522     9.5907
 1680.5000     0.6522     9.5884
 1681.0000     0.6522     9.5988
 1681.5000     0.6522     9.6083
 1682.0000     0.6522     9.6177
 1682.5000     0.6522     9.6272
 1683.0000     0.6522     9.6367
 1683.5000     0.6522     9.6461
 1684.0000     0.6522     9.6556
 1684.5000     0.6522     9.6651
 1685.0000     0.6522     9.6745
 1685.5000     0.6522     9.6840
 1686.0000     0.6522     9.6935
 1686.5000     0.6522     9.7029
 1687.0000     0.6522     9.7124
 1687.5000     0.6522     9.7219
 1688.0000     0.6522     9.7313
 1688.5000     0.6522     9.7408
 1689.0000     0.6522     9.7503
 1689.5000     0.6522     9.7597
 1690.0000     0.6413     9.7692
 1690.5000     0.6413     9.7787
 1691.0000     0.6304     9.7881
 1691.5000     0.6304     9.7976
 1692.0000     0.6304     9.8063
 1692.5000     0.6304     9.7898
 1693.0000     0.6304     9.7618
 1693.5000     0.6304     9.7338
 1694.0000     0.6196     9.7059
 1694.5000     0.6196     9.6779
 1695.0000     0.6087     9.6500
 1695.5000     0.6087     9.6220
 1696.0000     0.6087     9.5941
 1696.5000     0.6087     9.5661
 1697.0000     0.6087     9.5382
 1697.5000     0.6087     9.5102
 1698.0000     0.7717     9.4823
 1698.5000     0.7717     9.4543
 1699.0000     0.7826     9.4264
 1699.5000     0.7826     9.3984
 1700.0000     0.7573     9.3705
 1700.5000     0.6196     9.3870
 1701.0000     0.6304     9.4035
 1701.5000     0.6413     9.4201
 1702.0000     0.6522     9.4366
 1702.5000     0.6522     9.4531
 1703.0000     0.6522     9.4696
