~VERSION INFORMATION
 VERS.                2.0:   CWLS LOG ASCII STANDARD - VERSION 2.0
 WRAP.                 NO:   ONE LINE PER DEPTH STEP
~WELL INFORMATION
#MNEM.UNIT      DATA TYPE    INFORMATION
#----------   ------------   ------------------------------
 STRT.F           39.5000:   START DEPTH
 STOP.F          591.0000:   STOP DEPTH
 STEP.F            0.5000:   STEP LENGTH
 NULL.          -999.2500:   NO VALUE
 COMP. FENIX & SCISSON INC:   COMPANY
 WELL.      26 SX 3 #26-3:   WELL
 FLD .             TEAPOT:   FIELD
 LOC .       S3 T38N R78W:   LOCATION
 CNTY.            NATRONA:   COUNTY
 STAT.            WYOMING:   STATE
 CTRY. UNITED STATES OF AMERICA:   COUNTRY
 SRVC.           BIRDWELL:   SERVICE COMPANY
 DATE.        01-OCT-1978:   LOGDATE
 API .       490251071500:   API NUMBER
~CURVE INFORMATION
#MNEM.UNIT       API CODE    CURVE DESCRIPTION
#----------   ------------   ------------------------------
 DEPT.F                  :   
 SPR .MV     05 010 01 00:   SPONTANEOUS POTENTIAL FROM RES.
 SN  .OHMM   05 040 16 00:   SHORT NORMAL 16"
 ILD .OHMM   05 120 46 00:   INDUCTION LOG DEEP
 RHOB.G/C3   45 350 01 00:   BULK DENSITY
 CORR.G/C3   45 356 01 00:   DENSITY CORRECTION
 DPHI.DEC    45 890 12 00:   DENSITY POROSITY SANDSTONE
 GRD .GAPI   45 310 01 00:   GAMMA RAY FROM DENSITY LOG
 CALD.IN     45 280 60 00:   CALIPER
~PARAMETER INFORMATION
#MNEM.UNIT          VALUE    DESCRIPTION
#----------   ------------   ------------------------------
 PD  .                 GL:   PERMANENT DATUM
 EPD .F              5225:   ELEVATION PERMANENT DATUM
 LMF .                 KB:   LOG MEASURED FROM
 DAPD.F                 4:   FEET ABOVE PERMANENT DATUM
 DMF .                 KB:   DRILLING MEASURED FROM
 EKB .F              5229:   KELLING BUSHING
 EGL .F              5225:   GROUND LEVEL
 DATE.            10-1-78:   RUN DATE
 RUN .                  1:   RUN NUMBER
 DD  .F               600:   DEPTH DRILLER
 DL  .F               597:   DEPTH LOGGER
 BLI .F               591:   BOTTOM LOG INTERVAL
 TLI .F                60:   TOP LOG INTERVAL
 CS  .IN            8.625:   CASING SIZE
 CBD .F                40:   CASING BOTTOM DRILLER
 BS  .IN            7.875:   BIT SIZE
 BSD .F               600:   BIT SIZE AT DEPTH
 DFT .                KCL:   DRILLING FLUID TYPE
 DFD .                8.7:   DRILLING FLUID DENSITY
 DFV .                 34:   DRILLING FLUID VISCOSITY
 DFPH.                  9:   DRILLING FLUID PH
 DFL .                 10:   DRILLING FLUID LOSS
 MSS .            MUD PIT:   MUD SAMPLE SOURCE
 RMS .OHMM            .24:   RESISTIVITY MUD SAMPLE
 MST .F                65:   MUD SAMPLE TEMPERATURE
 RMF .OHMM            .45:   RESISTIVITY MUD FILTRATE SAMPLE
 MFST.F                65:   MUD FILTRATE SAMPLE TEMPERATURE
 RMC .OHMM             .4:   RESISTIVITY MUD CAKE
 MCST.F                65:   MUD CAKE SAMPLE TEMPERATURE
 MFSS.               MEAS:   MUD FILTRATE SAMPLE SOURCE
 TCS .HRS               3:   TIME CURCULATED STOPPED
 LUN .               2958:   LOGGING UNIT NUMBER
 LUL .               CASP:   LOGGING UNIT LOCATION
 ENGI.             MILLER:   RECORDING ENGINEER
 WITN.           DINSMORE:   WITNESSED BY
 CLNT.            A2DTECH:   CLIENT CODE
 ORIG.       2", 5" PRINT:   ORIGIN OF DATA
 UWI .       490251071500:   UNIQUE WELL ID
 DICO. A2D Technologies, Inc.:   DIGITIZING COMPANY
~OTHER INFORMATION
~A   DEPT      SPR         SN        ILD       RHOB       CORR       DPHI        GRD         CALD 
# ...
   80.0000   -17.6390     7.1101     8.1251     2.5076     0.0125     0.1041   162.9828     7.7770
   80.5000   -16.9424     6.7677     8.1614     2.5003     0.0154     0.1146   163.2591     7.7730
   81.0000   -16.6167     7.4325     8.1979     2.4899     0.0184     0.1166   162.0356     7.7689
   81.5000   -16.5216     7.8388     8.2346     2.4872     0.0215     0.1164   159.2094     7.7648
   82.0000   -16.4318     7.5442     8.2714     2.4843     0.0248     0.1145   155.8015     7.7608
   82.5000   -16.3412     7.2836     8.3084     2.4850     0.0268     0.1090   154.7243     7.7567
   83.0000   -16.1957     7.2955     8.3455     2.4909     0.0259     0.1060   155.0781     7.7526
   83.5000   -15.7815     7.3112     8.3828     2.4967     0.0252     0.1040   158.7586     7.7486
   84.0000   -15.3702     7.3268     8.4203     2.5026     0.0224     0.1037   163.2804     7.7445
   84.5000   -14.9524     7.3426     8.4953     2.5058     0.0206     0.1073   161.9587     7.7489
   85.0000   -14.7866     7.3583     8.5990     2.5015     0.0199     0.1109   159.8609     7.7609
   85.5000   -14.6780     7.3742     8.7039     2.4939     0.0191     0.1143   157.0350     7.7729
   86.0000   -14.5711     7.3900     8.8101     2.4863     0.0184     0.1131   155.5621     7.7849
   86.5000   -14.4636     7.4058     8.9177     2.4869     0.0177     0.1080   155.9062     7.7971
   87.0000   -14.3559     7.4446     9.0265     2.4915     0.0170     0.1106   159.6495     7.7963
   87.5000   -14.2483     7.5793     9.1373     2.4945     0.0162     0.1138   161.2800     7.7869
   88.0000   -14.1414     7.7164     9.2473     2.4920     0.0155     0.1220   162.2949     7.7774
   88.5000   -14.0525     7.8559     9.1964     2.4810     0.0187     0.1330   163.2912     7.7677
   89.0000   -14.0007     7.9299     9.1441     2.4663     0.0393     0.1379   164.6521     7.7532
   89.5000   -13.9482     7.9757     9.0929     2.4515     0.0745     0.1295   167.1216     7.7316
   90.0000   -13.8958     8.1278     9.0419     2.4465     0.1054     0.1034   172.1411     7.7105
   90.5000   -13.8434     8.3072     8.9912     2.4851     0.1130     0.0801   175.5043     7.6715
   91.0000   -13.7910     8.4906     8.9408     2.5141     0.0875     0.0837   175.9423     7.6252
   91.5000   -13.7387     8.6720     8.8907     2.5405     0.0594     0.0902   174.4713     7.5778
   92.0000   -13.6863     8.6720     8.8334     2.5353     0.0316     0.0996   169.8874     7.5633
   92.5000   -13.6339     8.5425     8.9630     2.5202     0.0132     0.1098   164.6297     7.5615
   93.0000   -13.5816     8.3908     9.1200     2.5043     0.0151     0.1202   163.3675     7.5600
   93.5000   -13.5296     8.2426     9.2807     2.4881     0.0165     0.1208   164.4961     7.5584
   94.0000   -13.4732     8.1332     9.4440     2.4744     0.0181     0.1183   165.2401     7.5568
   94.5000   -13.2970     8.4215     9.6103     2.4767     0.0188     0.1136   164.3787     7.5552
   95.0000   -13.1073     8.6597     9.7795     2.4892     0.0184     0.1110   159.8217     7.5535
   95.5000   -12.9172     8.9053     9.9510     2.4916     0.0179     0.1090   158.4203     7.5519
   96.0000   -12.7202     9.1578    10.0993     2.4951     0.0175     0.1035   161.0506     7.5503
   96.5000   -12.6707     9.4176    10.2156     2.5030     0.0170     0.0939   163.4911     7.5486
   97.0000   -12.6638     9.7715    10.3340     2.5123     0.0166     0.0826   164.3406     7.5470
   97.5000   -12.6583     9.7250    10.4538     2.5246     0.0161     0.0823   163.3609     7.5460
   98.0000   -12.6524     9.6533    10.6130     2.5353     0.0157     0.0853   158.3848     7.5794
   98.5000   -12.6464     9.5826    10.5452     2.5320     0.0153     0.0921   154.1028     7.6587
   99.0000   -12.6404     9.5135    10.4433     2.5212     0.0168     0.1003   151.7707     7.7377
   99.5000   -12.6344     9.2916    10.3434     2.5103     0.0208     0.1121   151.3730     7.7855
  100.0000   -12.6284     9.0571    10.2447     2.4995     0.0248     0.1162   152.1539     7.8201
  100.5000   -12.6224     8.8286    10.1469     2.4892     0.0247     0.1169   155.6137     7.8270
  101.0000   -12.6164     8.6746    10.1371     2.4852     0.0242     0.1150   158.7777     7.8322
  101.5000   -12.6104     8.7066    10.1371     2.4854     0.0238     0.1127   159.7903     7.8376
  102.0000   -12.6044     8.7333    10.1371     2.4858     0.0234     0.1098   156.5968     7.8430
  102.5000   -12.5984     8.7493    10.1371     2.4909     0.0221     0.1058   154.1794     7.8484
  103.0000   -12.5925     8.5616    10.1371     2.4971     0.0170     0.1034   153.6129     7.8539
  103.5000   -12.5865     8.4180    10.1371     2.5009     0.0119     0.1103   154.3590     7.8594
  104.0000   -12.5805     8.2768    10.1371     2.4942     0.0097     0.1154   155.8626     7.8590
  104.5000   -12.5745     8.2093    10.1371     2.4878     0.0114     0.1171   159.4580     7.8554
  105.0000   -12.5685     8.2404    10.1371     2.4822     0.0128     0.1142   162.9661     7.8517
  105.5000   -12.5625     8.2627    10.1371     2.4857     0.0202     0.1114   164.6347     7.8480
  106.0000   -12.5565     8.2851    10.1372     2.4892     0.0284     0.1087   161.5007     7.8443
  106.5000   -12.5505     8.3075    10.1374     2.4927     0.0367     0.1060   160.7563     7.8407
  107.0000   -12.5445     8.3299    10.1374     2.4980     0.0409     0.1025   163.4490     7.8370
  107.5000   -12.5385     8.3525    10.1399     2.5069     0.0391     0.0978   164.2407     7.8333
  108.0000   -12.5325     8.3750     9.9128     2.5145     0.0357     0.0972   162.7159     7.8296
  108.5000   -12.5266     8.3977     9.6209     2.5183     0.0322     0.1031   159.7365     7.8259
  109.0000   -12.5206     8.4204     9.2870     2.5091     0.0293     0.1122   159.3983     7.8222
  109.5000   -12.5146     8.4341     8.9970     2.4962     0.0350     0.1179   159.9785     7.8185
  110.0000   -12.5086     7.8065     9.0104     2.4832     0.0410     0.1162   162.6310     7.8148
  110.5000   -12.5026     7.5264     9.0242     2.4789     0.0459     0.1110   162.5461     7.8111
  111.0000   -12.4966     8.0255     9.0379     2.4933     0.0321     0.1057   158.9732     7.8074
  111.5000   -12.4906     7.7716     9.0512     2.5039     0.0246     0.1008   157.2731     7.8037
  112.0000   -12.4846     7.5865     9.0647     2.5071     0.0234     0.0996   157.1690     7.8000
  112.5000   -12.4787     8.1820     9.0781     2.5072     0.0223     0.0993   156.5557     7.7964
  113.0000   -12.4750     8.4223     9.3514     2.5075     0.0213     0.0998   155.4012     7.7927
  113.5000   -12.4751     8.2277     9.6632     2.5077     0.0195     0.1013   155.8674     7.7889
  114.0000   -12.4750     8.1457    10.0445     2.5078     0.0163     0.1074   158.3946     7.7853
  114.5000   -12.4750     8.6488     9.9841     2.5053     0.0149     0.1138   162.1314     7.7833
  115.0000   -12.4750     8.4655     9.8986     2.4911     0.0135     0.1144   162.1553     7.7919
  115.5000   -12.4750     8.1539     9.8137     2.4878     0.0121     0.1146   162.4969     7.8003
  116.0000   -12.4750     8.4032     9.6739     2.4864     0.0115     0.1168   164.5382     7.8087
  116.5000   -12.4750     8.9051     9.4815     2.4838     0.0223     0.1174   166.9229     7.8171
  117.0000   -12.4750     8.8147     9.2930     2.4809     0.0330     0.1146   170.4114     7.8255
  117.5000   -12.4750     8.7252     9.1082     2.4879     0.0436     0.1082   175.3942     7.8339
  118.0000   -12.4750     8.6367     8.9273     2.5010     0.0541     0.1003   178.0026     7.8411
  118.5000   -12.4750     8.4363     8.7495     2.5131     0.0609     0.0922   178.9537     7.8314
  119.0000   -12.4750     8.1321     8.5534     2.5180     0.0594     0.0920   180.8391     7.8217
  119.5000   -12.4750     7.8388     8.1695     2.5205     0.0450     0.0955   181.4866     7.8121
  120.0000   -12.4750     7.5561     7.8029     2.5185     0.0273     0.1008   182.1994     7.8025
