~VERSION INFORMATION
 VERS.                2.0:   CWLS LOG ASCII STANDARD - VERSION 2.0
 WRAP.                 NO:   ONE LINE PER DEPTH STEP
~WELL INFORMATION
#MNEM.UNIT      DATA TYPE    INFORMATION
#----------   ------------   ------------------------------
 STRT.F           29.0000:   START DEPTH
 STOP.F          539.0000:   STOP DEPTH
 STEP.F            0.1000:   STEP LENGTH
 NULL.          -999.2500:   NO VALUE
 COMP. LAWRENCE/ALLISON INC:   COMPANY
 WELL. NPR 3 81-11 STX #10-10:   WELL
 FLD .             TEAPOT:   FIELD
 LOC .      S10 T38N R78W:   LOCATION
 CNTY.            NATRONA:   COUNTY
 STAT.            WYOMING:   STATE
 CTRY. UNITED STATES OF AMERICA:   COUNTRY
 SRVC.           Gearhart:   SERVICE COMPANY
 DATE.        01-JUN-1987:   LOGDATE
 API .       490251113000:   API NUMBER
~CURVE INFORMATION
#MNEM.UNIT       API CODE    CURVE DESCRIPTION
#----------   ------------   ------------------------------
 DEPT.F                  :   
 GRR .GAPI   07 310 01 00:   GAMMA RAY FROM RES. LOG.
 ILD .OHMM   07 120 46 00:   INDUCTION LOG DEEP RESISTIVITY
 RILM.OHMM   07 120 44 00:   INDUCTION LOG MEDIUM RESISTIVITY
~PARAMETER INFORMATION
#MNEM.UNIT          VALUE    DESCRIPTION
#----------   ------------   ------------------------------
 PD  .                 GL:   PERMANENT DATUM
 EPD .F              5156:   ELEVATION PERMANENT DATUM
 LMF .                 KB:   LOG MEASURED FROM
 DAPD.F                 8:   FEET ABOVE PERMANENT DATUM
 DMF .                 KB:   DRILLING MEASURED FROM
 EKB .F              5164:   KELLING BUSHING
 EDF .F              5162:   DRILLING FLOOR
 EGL .F              5156:   GROUND LEVEL
 DATE.             6-1-87:   RUN DATE
 RUN .                  1:   RUN NUMBER
 DD  .F               550:   DEPTH DRILLER
 DL  .F               546:   DEPTH LOGGER
 BLI .F               540:   BOTTOM LOG INTERVAL
 TLI .F                30:   TOP LOG INTERVAL
 CS  .IN            8.625:   CASING SIZE
 CBD .F                50:   CASING BOTTOM DRILLER
 CBL .F                49:   CASING BOTTOM LOGGER
 BS  .IN            7.875:   BIT SIZE
 BSD .F               550:   BIT SIZE AT DEPTH
 DFT .                AIR:   DRILLING FLUID TYPE
 TLAB.HRS            0634:   TIME LOGGER AT BOTTOM
 MRT .F                80:   MAXIMUM RECORDED TEMPERATURE
 LUN .               7597:   LOGGING UNIT NUMBER
 LUL .           GILLETTE:   LOGGING UNIT LOCATION
 ENGI. WEATHERMON/JOHNSTON:   RECORDING ENGINEER
 WITN.             STRONG:   WITNESSED BY
 CLNT.            A2DTECH:   CLIENT CODE
 ORIG.       2", 5" PRINT:   ORIGIN OF DATA
 UWI .       490251113000:   UNIQUE WELL ID
 DICO. A2D Technologies, Inc.:   DIGITIZING COMPANY
~OTHER INFORMATION
~A   DEPT       GRR       ILD       RILM   
# ...
  465.8000   100.2887    11.1996    11.6494
  465.9000   100.2442    11.1325    11.6263
  466.0000   100.1996    11.0653    11.6031
  466.1000   100.1595    11.0007    11.5458
  466.2000   100.1194    10.9362    11.4884
  466.3000   100.0793    10.8716    11.4311
  466.4000   100.0391    10.8071    11.3738
  466.5000    99.9990    10.7425    11.3165
  466.6000   100.1195    10.6798    11.2564
  466.7000   100.2399    10.6172    11.1963
  466.8000   100.3604    10.5545    11.1363
  466.9000   100.4809    10.4918    11.0762
  467.0000   100.6013    10.4291    11.0161
  467.1000   100.8784    10.3553    10.9576
  467.2000   101.1555    10.2815    10.8991
  467.3000   101.4325    10.2077    10.8406
  467.4000   101.7096    10.1339    10.7821
  467.5000   101.9866    10.0602    10.7236
  467.6000   102.4599     9.9857    10.6668
  467.7000   102.9331     9.9113    10.6100
  467.8000   103.4063     9.8369    10.5532
  467.9000   103.8796     9.7625    10.4964
  468.0000   104.3528     9.6881    10.4396
  468.1000   104.8264     9.6165    10.3835
  468.2000   105.3000     9.5448    10.3273
  468.3000   105.7736     9.4732    10.2712
  468.4000   106.2472     9.4015    10.2151
  468.5000   106.7208     9.3299    10.1589
  468.6000   107.1161     9.2426    10.0893
  468.7000   107.5114     9.1553    10.0196
  468.8000   107.9067     9.0681     9.9499
  468.9000   108.3020     8.9808     9.8803
  469.0000   108.6973     8.8935     9.8106
  469.1000   108.6791     8.7715     9.7360
  469.2000   108.6609     8.6495     9.6614
  469.3000   108.6427     8.5275     9.5869
  469.4000   108.6244     8.4055     9.5123
  469.5000   108.6062     8.2835     9.4377
  469.6000   108.5153     8.1699     9.2799
  469.7000   108.4243     8.0563     9.1222
  469.8000   108.3333     7.9426     8.9644
  469.9000   108.2424     7.8290     8.8067
  470.0000   108.1514     7.7154     8.6489
  470.1000   108.4376     7.6142     8.4797
  470.2000   108.7239     7.5130     8.3105
  470.3000   109.0101     7.4118     8.1413
  470.4000   109.2963     7.3106     7.9721
  470.5000   109.5825     7.2094     7.8028
  470.6000   110.1427     7.1214     7.6502
  470.7000   110.7029     7.0334     7.4975
  470.8000   111.2631     6.9454     7.3449
  470.9000   111.8233     6.8574     7.1922
  471.0000   112.3835     6.7694     7.0395
  471.1000   112.9371     6.7120     6.8959
  471.2000   113.4907     6.6546     6.7522
  471.3000   114.0442     6.5972     6.6085
  471.4000   114.5978     6.5398     6.4648
  471.5000   115.1513     6.4824     6.3212
  471.6000   116.2636     6.4702     6.1894
  471.7000   117.3759     6.4581     6.0576
  471.8000   118.4882     6.4460     5.9258
  471.9000   119.6005     6.4339     5.7939
  472.0000   120.7128     6.4218     5.6621
  472.1000   122.1562     6.4667     5.6042
  472.2000   123.5996     6.5116     5.5463
  472.3000   125.0431     6.5565     5.4884
  472.4000   126.4865     6.6014     5.4305
  472.5000   127.9299     6.6463     5.3726
  472.6000   129.3568     6.6767     5.4184
  472.7000   130.7836     6.7071     5.4643
  472.8000   132.2104     6.7375     5.5101
  472.9000   133.6372     6.7679     5.5559
  473.0000   135.0640     6.7983     5.6018
  473.1000   133.1754     6.8362     5.6895
  473.2000   131.2867     6.8742     5.7771
  473.3000   129.3980     6.9121     5.8648
  473.4000   127.5093     6.9501     5.9525
  473.5000   125.6207     6.9880     6.0402
  473.6000   123.2299     7.0716     6.1440
  473.7000   120.8390     7.1552     6.2478
  473.8000   118.4482     7.2387     6.3516
  473.9000   116.0574     7.3223     6.4554
  474.0000   113.6666     7.4059     6.5592
  474.1000   112.6527     7.5160     6.7157
  474.2000   111.6389     7.6261     6.8722
  474.3000   110.6250     7.7362     7.0287
  474.4000   109.6111     7.8463     7.1852
  474.5000   108.5973     7.9564     7.3417
  474.6000   107.9294     8.0747     7.5080
  474.7000   107.2615     8.1930     7.6744
  474.8000   106.5936     8.3113     7.8407
  474.9000   105.9257     8.4295     8.0071
  475.0000   105.2578     8.5478     8.1734
  475.1000   105.3270     8.6749     8.2845
  475.2000   105.3961     8.8020     8.3956
  475.3000   105.4652     8.9291     8.5067
  475.4000   105.5343     9.0561     8.6178
  475.5000   105.6034     9.1832     8.7289
  475.6000   105.9182     9.3247     8.8478
  475.7000   106.2329     9.4661     8.9667
  475.8000   106.5477     9.6076     9.0857
  475.9000   106.8625     9.7491     9.2046
  476.0000   107.1773     9.8905     9.3236
  476.1000   107.4839     9.9852     9.4290
  476.2000   107.7906    10.0799     9.5344
  476.3000   108.0973    10.1746     9.6399
  476.4000   108.4040    10.2693     9.7453
  476.5000   108.7107    10.3639     9.8507
  476.6000   108.9229    10.4363     9.9288
  476.7000   109.1351    10.5086    10.0070
  476.8000   109.3473    10.5809    10.0851
  476.9000   109.5595    10.6532    10.1632
  477.0000   109.7717    10.7256    10.2413
  477.1000   109.3095    10.7931    10.2993
  477.2000   108.8474    10.8607    10.3572
  477.3000   108.3853    10.9282    10.4152
  477.4000   107.9232    10.9958    10.4731
  477.5000   107.4611    11.0633    10.5311
  477.6000   106.9539    11.1169    10.5855
  477.7000   106.4468    11.1706    10.6399
  477.8000   105.9396    11.2242    10.6943
  477.9000   105.4325    11.2779    10.7487
  478.0000   104.9253    11.3315    10.8031
  478.1000   104.4408    11.3796    10.8589
  478.2000   103.9563    11.4276    10.9147
  478.3000   103.4718    11.4757    10.9705
  478.4000   102.9874    11.5238    11.0263
  478.5000   102.5029    11.5719    11.0821
  478.6000   102.4931    11.6208    11.1393
  478.7000   102.4833    11.6697    11.1966
  478.8000   102.4735    11.7187    11.2538
  478.9000   102.4637    11.7676    11.3110
  479.0000   102.4539    11.8165    11.3683
  479.1000   102.5985    11.8665    11.4270
  479.2000   102.7431    11.9164    11.4857
  479.3000   102.8878    11.9664    11.5444
  479.4000   103.0324    12.0164    11.6032
  479.5000   103.1770    12.0663    11.6619
  479.6000   103.0239    12.1173    11.7221
  479.7000   102.8708    12.1684    11.7823
  479.8000   102.7177    12.2194    11.8426
  479.9000   102.5646    12.2704    11.9028
  480.0000   102.4115    12.3214    11.9630
  480.1000   102.1716    12.3735    12.0248
  480.2000   101.9318    12.4256    12.0866
  480.3000   101.6919    12.4777    12.1484
  480.4000   101.4521    12.5299    12.2102
  480.5000   101.2122    12.5820    12.2720
  480.6000   101.0524    12.6352    12.3354
  480.7000   100.8925    12.6885    12.3988
  480.8000   100.7327    12.7417    12.4622
  480.9000   100.5729    12.7950    12.5256
  481.0000   100.4130    12.8482    12.5889
  481.1000   100.6573    12.9025    12.6144
  481.2000   100.9016    12.9567    12.6399
  481.3000   101.1459    13.0110    12.6654
  481.4000   101.3901    13.0652    12.6909
  481.5000   101.6344    13.1195    12.7163
  481.6000   102.2980    13.1669    12.7429
  481.7000   102.9617    13.2144    12.7694
  481.8000   103.6253    13.2618    12.7959
  481.9000   104.2890    13.3092    12.8225
  482.0000   104.9526    13.3567    12.8490
  482.1000   105.6184    13.3727    12.8764
  482.2000   106.2842    13.3887    12.9037
  482.3000   106.9501    13.4047    12.9311
  482.4000   107.6159    13.4208    12.9584
  482.5000   108.2817    13.4368    12.9857
  482.6000   108.4994    13.4581    13.0112
  482.7000   108.7170    13.4795    13.0366
  482.8000   108.9347    13.5008    13.0620
  482.9000   109.1524    13.5221    13.0875
  483.0000   109.3701    13.5435    13.1129
  483.1000   109.2920    13.5650    13.1391
  483.2000   109.2140    13.5865    13.1653
  483.3000   109.1359    13.6080    13.1915
  483.4000   109.0579    13.6295    13.2177
  483.5000   108.9798    13.6510    13.2438
  483.6000   108.8890    13.6727    13.2703
  483.7000   108.7983    13.6944    13.2968
  483.8000   108.7075    13.7161    13.3232
  483.9000   108.6167    13.7377    13.3497
