~VERSION INFORMATION
 VERS.                2.0:   CWLS LOG ASCII STANDARD - VERSION 2.0
 WRAP.                 NO:   ONE LINE PER DEPTH STEP
~WELL INFORMATION
#MNEM.UNIT      DATA TYPE    INFORMATION
#----------   ------------   ------------------------------
 STRT.F            3.5000:   START DEPTH
 STOP.F          523.0000:   STOP DEPTH
 STEP.F            0.5000:   STEP LENGTH
 NULL.          -999.2500:   NO VALUE
 COMP.       F D SERV INC:   COMPANY
 WELL.    88-8 SX 3 #88-3:   WELL
 FLD .             TEAPOT:   FIELD
 LOC .       S3 T38N R78W:   LOCATION
 CNTY.            NATRONA:   COUNTY
 STAT.            WYOMING:   STATE
 CTRY. UNITED STATES OF AMERICA:   COUNTRY
 SRVC.      Western Atlas:   SERVICE COMPANY
 DATE.        28-NOV-1992:   LOGDATE
 API .       490252256200:   API NUMBER
~CURVE INFORMATION
#MNEM.UNIT       API CODE    CURVE DESCRIPTION
#----------   ------------   ------------------------------
 DEPT.F                  :   
 GRR .GAPI   07 310 01 00:   GAMMA RAY
 RILD.OHMM   07 120 46 00:   INDUCTION LOG DEEP RESISTIVITY
 RILM.OHMM   07 120 44 00:   RESITIVITY LONG MEDIUM
 C13 .IN     45 280 13 00:   CALIPER X
 PORZ.DEC    45 890 12 00:   DENSITY POROSITY SANDSTONE
 NPHI.DEC    42 890 03 00:   NEUTRON POROSITY SANDSTONE
 ZCOR.G/C3   45 356 01 00:   DENSITY CORRECTION
 ZDEN.G/C3   45 350 01 00:   BULK DENSITY
~PARAMETER INFORMATION
#MNEM.UNIT          VALUE    DESCRIPTION
#----------   ------------   ------------------------------
 PD  .                 GL:   PERMANENT DATUM
 EPD .F              5126:   ELEVATION PERMANENT DATUM
 LMF .                 KB:   LOG MEASURED FROM
 DAPD.F                10:   FEET ABOVE PERMANENT DATUM
 DMF .                 KB:   DRILLING MEASURED FROM
 EKB .F              5136:   KELLING BUSHING
 EDF .F              5135:   DRILLING FLOOR
 EGL .F              5126:   GROUND LEVEL
 DATE.        28-NOV-1992:   RUN DATE
 RUN .                  1:   RUN NUMBER
 DD  .F               525:   DEPTH DRILLER
 DL  .F               525:   DEPTH LOGGER
 BLI .F               516:   BOTTOM LOG INTERVAL
 TLI .F                76:   TOP LOG INTERVAL
 CS  .IN            8.625:   CASING SIZE
 CBD .F                95:   CASING BOTTOM DRILLER
 CBL .F                76:   CASING BOTTOM LOGGER
 BS  .IN            7.875:   BIT SIZE
 BSD .F               525:   BIT SIZE AT DEPTH
 DFT .           AIR FOAM:   DRILLING FLUID TYPE
 MRT .F                70:   MAXIMUM RECORDED TEMPERATURE
 LUN .            HL-6274:   LOGGING UNIT NUMBER
 LUL .             CASPER:   LOGGING UNIT LOCATION
 ENGI.             RAUTIO:   RECORDING ENGINEER
 WITN.           ED REISH:   WITNESSED BY
 CLNT.            A2DTECH:   CLIENT CODE
 ORIG.           5" PRINT:   ORIGIN OF DATA
 UWI .       490252256200:   UNIQUE WELL ID
 DICO. A2D Technologies, Inc.:   DIGITIZING COMPANY
~OTHER INFORMATION
~A    DEPT     GRR       RILD       RILM        C13       PORZ       NPHI       ZCOR       ZDEN   
# ...
  246.5000   139.7382     6.2755     6.8370     8.2902     0.1239     0.3283     0.0202     2.4463
  247.0000   137.6326     5.8966     6.1624     8.3051     0.1263     0.3340     0.0262     2.4424
  247.5000   136.4306     5.4267     5.5544     8.3200     0.1308     0.3380     0.0322     2.4373
  248.0000   137.6390     4.9581     5.0064     8.3199     0.1375     0.3445     0.0322     2.4298
  248.5000   138.2443     4.4094     4.5125     8.3197     0.1471     0.3560     0.0277     2.4095
  249.0000   140.3555     3.7347     3.6407     8.3196     0.1646     0.3635     0.0202     2.3809
  249.5000   142.5211     3.3433     3.2815     8.3345     0.1811     0.3730     0.0232     2.3509
  250.0000   144.8800     2.9722     3.0619     8.3343     0.2163     0.3816     0.0307     2.2855
  250.5000   145.1833     2.7735     2.8969     8.3493     0.2449     0.3825     0.0457     2.2479
  251.0000   141.2712     2.6424     2.6844     8.3340     0.2583     0.3750     0.0592     2.2201
  251.5000   131.2008     2.6060     2.6659     8.3489     0.2600     0.3482     0.0862     2.2186
  252.0000   125.0125     2.6241     2.7598     8.3488     0.2428     0.3376     0.1027     2.2567
  252.5000   128.6298     2.6792     2.9373     8.3185     0.2139     0.3425     0.0757     2.3103
  253.0000   133.4520     2.7735     3.0682     8.2882     0.1820     0.3467     0.0727     2.3539
  253.5000   138.8986     3.1632     3.4684     8.2564     0.1652     0.3388     0.0772     2.3764
  254.0000   140.6866     3.7812     3.9017     8.2277     0.1465     0.3311     0.0546     2.4230
  254.5000   138.8829     4.1866     4.3288     8.2125     0.1191     0.3232     0.0367     2.4568
  255.0000   137.3797     4.7253     4.9514     8.2123     0.1035     0.3235     0.0307     2.4793
  255.5000   136.4789     5.1701     5.3654     8.2140     0.1023     0.3256     0.0337     2.4756
  256.0000   140.0969     5.5790     5.5930     8.2271     0.1044     0.3286     0.0367     2.4733
  256.5000   144.6178     5.9389     5.8708     8.2420     0.1062     0.3315     0.0367     2.4718
  257.0000   147.3315     6.1893     6.0827     8.2268     0.1071     0.3347     0.0367     2.4711
  257.5000   149.1416     6.3630     6.2918     8.2267     0.1077     0.3350     0.0397     2.4711
  258.0000   151.2536     6.4071     6.4685     8.2114     0.1083     0.3341     0.0473     2.4726
  258.5000   153.3648     6.2322     6.4685     8.2264     0.1071     0.3329     0.0577     2.4748
  259.0000   154.2713     5.7755     6.2007     8.2262     0.1059     0.3311     0.0577     2.4801
  259.5000   154.2741     5.5024     5.7901     8.2261     0.1017     0.3302     0.0502     2.4838
  260.0000   155.4825     5.0991     5.4027     8.2259     0.1002     0.3320     0.0441     2.4696
  260.5000   156.8707     4.9257     5.0064     8.2257     0.1080     0.3416     0.0397     2.4230
  261.0000   162.4160     4.7451     4.6979     8.2256     0.1345     0.3532     0.0517     2.3914
  261.5000   166.6358     4.5019     4.5125     8.2254     0.1580     0.3588     0.0742     2.3817
  262.0000   167.2610     4.4094     4.4504     8.2247     0.1637     0.3570     0.0802     2.3802
  262.5000   161.8229     4.3790     4.4197     8.2228     0.1540     0.3461     0.0742     2.4012
  263.0000   155.5004     4.3790     4.4197     8.2210     0.1402     0.3413     0.0682     2.4155
  263.5000   152.4912     4.4094     4.3892     8.2191     0.1375     0.3383     0.0712     2.4215
  264.0000   150.3856     4.6283     4.5822     8.2172     0.1342     0.3272     0.0787     2.4230
  264.5000   151.0512     4.8917     4.9719     8.2153     0.1309     0.3227     0.0817     2.4275
  265.0000   153.1029     5.1701     5.1470     8.2134     0.1227     0.3257     0.0817     2.4343
  265.5000   155.5154     5.5024     5.2916     8.2115     0.1149     0.3314     0.0712     2.4418
  266.0000   158.8315     5.7356     5.5565     8.2097     0.1078     0.3275     0.0592     2.4523
  266.5000   160.3404     5.9788     5.9527     8.2089     0.1011     0.3251     0.0517     2.4681
  267.0000   157.3318     6.2755     6.2918     8.1937     0.0971     0.3251     0.0472     2.4801
  267.5000   154.3226     6.5870     6.6043     8.2086     0.0956     0.3248     0.0427     2.4891
  268.0000   152.8188     6.8662     6.8845     8.2084     0.0947     0.3251     0.0412     2.4921
  268.5000   154.0271     7.1079     7.1766     8.2083     0.0938     0.3260     0.0382     2.4929
  269.0000   156.1391     7.3582     7.4294     8.2083     0.0932     0.3290     0.0352     2.4951
  269.5000   157.0456     7.6225     7.5330     8.2086     0.0935     0.3308     0.0277     2.4951
  270.0000   157.3489     7.7770     7.6381     8.2088     0.0944     0.3317     0.0247     2.4951
  270.5000   154.3404     7.8310     7.7446     8.2091     0.0965     0.3329     0.0217     2.4944
  271.0000   152.8372     7.7770     7.6912     8.2094     0.0995     0.3335     0.0232     2.4921
  271.5000   155.5517     7.7234     7.5854     8.2096     0.1011     0.3350     0.0307     2.4891
  272.0000   152.5424     7.6701     7.5047     8.2099     0.1029     0.3351     0.0322     2.4853
  272.5000   150.4369     7.4607     7.4286     8.2102     0.1047     0.3338     0.0322     2.4815
  273.0000   150.4398     7.2570     7.1270     8.2104     0.1074     0.3320     0.0307     2.4763
  273.5000   153.4553     7.0102     7.0290     8.2107     0.1110     0.3311     0.0277     2.4741
  274.0000   157.6750     6.8662     6.7898     8.2110     0.1134     0.3311     0.0232     2.4696
  274.5000   156.1718     6.5870     6.5587     8.2112     0.1137     0.3324     0.0202     2.4627
  275.0000   151.6566     6.3630     6.3355     8.2115     0.1140     0.3363     0.0187     2.4606
  275.5000   149.5510     5.8966     5.9527     8.2117     0.1143     0.3420     0.0187     2.4621
  276.0000   154.3739     5.4823     5.4780     8.2120     0.1173     0.3495     0.0187     2.4621
  276.5000   159.7984     5.0290     5.0412     8.2123     0.1318     0.3570     0.0187     2.4514
  277.0000   160.7049     4.9599     4.9719     8.2125     0.1499     0.3628     0.0202     2.4170
  277.5000   161.3108     4.9257     4.9035     8.2128     0.1540     0.3549     0.0217     2.3974
  278.0000   162.2173     4.9966     5.0064     8.2131     0.1516     0.3426     0.0217     2.3937
  278.5000   161.0153     5.3152     5.3365     8.2133     0.1327     0.3215     0.0277     2.4122
  279.0000   158.9097     5.6568     5.7901     8.2136     0.1158     0.3122     0.0338     2.4425
  279.5000   157.0452     6.0621     6.1624     8.2139     0.1083     0.3107     0.0442     2.4621
  280.0000   153.1933     6.4071     6.4151     8.2141     0.1110     0.3110     0.0472     2.4696
  280.5000   155.9069     6.7718     6.6530     8.2144     0.1137     0.3122     0.0457     2.4604
  281.0000   159.2230     7.0102     6.9323     8.2146     0.1128     0.3185     0.0472     2.4613
  281.5000   162.2480     7.2570     7.2264     8.2149     0.1088     0.3201     0.0487     2.4688
  282.0000   164.3499     7.4093     7.3781     8.2152     0.1044     0.3195     0.0487     2.4756
  282.5000   165.8588     7.5647     7.5330     8.2154     0.1026     0.3137     0.0487     2.4803
  283.0000   166.7653     7.5647     7.5854     8.2157     0.1047     0.3107     0.0487     2.4771
  283.5000   166.7681     7.5647     7.6381     8.2160     0.1056     0.3095     0.0487     2.4741
  284.0000   166.1692     7.6172     7.6381     8.2162     0.1059     0.3105     0.0517     2.4741
  284.5000   163.4612     7.6701     7.6912     8.2165     0.0986     0.3150     0.0532     2.4804
  285.0000   160.4520     7.6701     7.6912     8.2168     0.0932     0.3186     0.0547     2.4906
  285.5000   156.5392     7.6701     7.6912     8.2170     0.0914     0.3210     0.0577     2.4981
  286.0000   153.4899     7.6701     7.7254     8.2173     0.0911     0.3219     0.0577     2.4981
  286.5000   154.7384     7.6701     7.7446     8.2175     0.0914     0.3247     0.0547     2.4981
