~VERSION INFORMATION
 VERS.                2.0:   CWLS LOG ASCII STANDARD - VERSION 2.0
 WRAP.                 NO:   ONE LINE PER DEPTH STEP
~WELL INFORMATION
#MNEM.UNIT      DATA TYPE    INFORMATION
#----------   ------------   ------------------------------
 STRT.F           40.0000:   START DEPTH
 STOP.F          821.0000:   STOP DEPTH
 STEP.F            0.5000:   STEP LENGTH
 NULL.          -999.2500:   NO VALUE
 COMP. FENIX & SCISSON INC:   COMPANY
 WELL. NPR 3 -68 SX #68-27:   WELL
 FLD .             TEAPOT:   FIELD
 LOC .      S27 T39N R78W:   LOCATION
 CNTY.            NATRONA:   COUNTY
 STAT.            WYOMING:   STATE
 CTRY. UNITED STATES OF AMERICA:   COUNTRY
 SRVC.           BIRDWELL:   SERVICE COMPANY
 DATE.        11-SEP-1978:   LOGDATE
 API .       490251069500:   API NUMBER
~CURVE INFORMATION
#MNEM.UNIT       API CODE    CURVE DESCRIPTION
#----------   ------------   ------------------------------
 DEPT.F                  :   
 SPR .MV     05 010 01 00:   SPONTANEOUS POTENTIAL FROM RES.
 SN  .OHMM   05 040 16 00:   SHORT NORMAL 16"
 ILD .OHMM   05 120 46 00:   INDUCTION LOG DEEP
 GRD .GAPI   45 310 01 00:   GAMMA RAY FROM DENSITY LOG
 CALD.IN     45 280 60 00:   CALIPER
 RHOB.G/C3   45 350 01 00:   BULK DENSITY
 CORR.G/C3   45 356 01 00:   DENSITY CORRECTION
 DPHI.DEC    45 890 12 00:   DENSITY POROSITY SANDSTONE
~PARAMETER INFORMATION
#MNEM.UNIT          VALUE    DESCRIPTION
#----------   ------------   ------------------------------
 PD  .                 GL:   PERMANENT DATUM
 EPD .F              5032:   ELEVATION PERMANENT DATUM
 LMF .                 GL:   LOG MEASURED FROM
 DAPD.F                 4:   FEET ABOVE PERMANENT DATUM
 DMF .                 GL:   DRILLING MEASURED FROM
 EKB .F              5036:   KELLING BUSHING
 EGL .F              5032:   GROUND LEVEL
 DATE.            9-11-78:   RUN DATE
 RUN .                  1:   RUN NUMBER
 DD  .F               820:   DEPTH DRILLER
 DL  .F               822:   DEPTH LOGGER
 BLI .F               818:   BOTTOM LOG INTERVAL
 TLI .F                40:   TOP LOG INTERVAL
 CS  .IN            8.625:   CASING SIZE
 CBD .F                40:   CASING BOTTOM DRILLER
 CBL .F                40:   CASING BOTTOM LOGGER
 BS  .IN            7.875:   BIT SIZE
 BSD .F               820:   BIT SIZE AT DEPTH
 DFT .                KCL:   DRILLING FLUID TYPE
 DFD .                8.6:   DRILLING FLUID DENSITY
 DFV .                 34:   DRILLING FLUID VISCOSITY
 DFPH.                  9:   DRILLING FLUID PH
 DFL .                  8:   DRILLING FLUID LOSS
 MSS .           FLOWLINE:   MUD SAMPLE SOURCE
 RMS .OHMM            .24:   RESISTIVITY MUD SAMPLE
 MST .F                62:   MUD SAMPLE TEMPERATURE
 RMF .OHMM            .18:   RESISTIVITY MUD FILTRATE SAMPLE
 MFST.F                64:   MUD FILTRATE SAMPLE TEMPERATURE
 RMC .OHMM             .3:   RESISTIVITY MUD CAKE
 MCST.F                66:   MUD CAKE SAMPLE TEMPERATURE
 MFSS.               MEAS:   MUD FILTRATE SAMPLE SOURCE
 MCSS.               MEAS:   MUD CAKE SAMPLE SOURCE
 RMB .OHMM            .22:   RESISTIVITY MUD AT BHT
 BHT .F                68:   BOTTOM HOLE TEMPERATURE
 TCS .HRS               1:   TIME CURCULATED STOPPED
 MRT .F                68:   MAXIMUM RECORDED TEMPERATURE
 LUN .               3006:   LOGGING UNIT NUMBER
 LUL .               CASP:   LOGGING UNIT LOCATION
 ENGI.            POINTER:   RECORDING ENGINEER
 WITN.              AMEND:   WITNESSED BY
 CLNT.            A2DTECH:   CLIENT CODE
 ORIG.           5" PRINT:   ORIGIN OF DATA
 UWI .       490251069500:   UNIQUE WELL ID
 DICO. A2D Technologies, Inc.:   DIGITIZING COMPANY
~OTHER INFORMATION
~A   DEPT       SPR        SN        ILD         GRD        CALD     RHOB       CORR       DPHI   
# ...
  526.0000   -41.5832     8.2095     7.4265    97.1645     8.1903     2.5063     0.0058     0.1140
  526.5000   -41.5833     8.1953     7.3810    98.8281     8.1697     2.5070     0.0056     0.1136
  527.0000   -41.5847     8.0805     7.3361   102.5143     8.1383     2.5036     0.0054     0.1144
  527.5000   -41.5951     7.9437     7.1945    99.0215     8.1066     2.4919     0.0082     0.1160
  528.0000   -41.1257     7.8092     7.0159   107.7992     8.0870     2.4806     0.0115     0.1177
  528.5000   -40.5626     7.6770     6.8415   112.3134     8.0809     2.4701     0.0148     0.1292
  529.0000   -39.9911     7.5471     6.6711   112.1953     8.0748     2.4697     0.0181     0.1376
  529.5000   -39.7509     7.4437     6.5081   116.4145     8.0686     2.4800     0.0213     0.1380
  530.0000   -39.6694     7.3754     6.5083   126.2439     8.0625     2.4913     0.0246     0.1306
  530.5000   -39.5925     7.3052     6.5699   132.2345     8.0563     2.5031     0.0279     0.1224
  531.0000   -39.5155     7.2625     6.6135   102.0765     8.0502     2.5111     0.0294     0.1161
  531.5000   -39.4384     7.4103     6.6573    92.2127     8.0441     2.5182     0.0295     0.1130
  532.0000   -39.3719     7.3987     6.7013    94.7783     8.0379     2.5240     0.0295     0.1099
  532.5000   -39.3453     7.8048     6.7455    91.3593     8.0318     2.5269     0.0295     0.1072
  533.0000   -39.3183     8.0865     6.9523   109.3747     8.0257     2.5280     0.0295     0.1047
  533.5000   -39.2912     8.3784     7.2803   127.5306     8.0195     2.5289     0.0295     0.1033
  534.0000   -39.2640     8.6808     7.6238   134.5381     8.0129     2.5299     0.0295     0.1041
  534.5000   -39.2369     8.9821     7.9834   121.6327     7.9826     2.5295     0.0297     0.1048
  535.0000   -39.2098     8.9950     8.0763   102.8400     7.9224     2.5289     0.0313     0.1055
  535.5000   -39.1826     9.0103     8.1160    89.3533     7.8625     2.5264     0.0329     0.1062
  536.0000   -39.1555     9.0257     8.1560    89.5632     7.8025     2.5240     0.0352     0.1057
  536.5000   -39.1284     9.0412     8.1960    91.5542     7.7484     2.5243     0.0380     0.1044
  537.0000   -39.1012     9.0566     8.2363    93.6036     7.7491     2.5246     0.0407     0.1031
  537.5000   -39.0741     9.0721     8.2767    94.3064     7.7807     2.5250     0.0435     0.1018
  538.0000   -39.0469     9.0876     8.3174    93.6145     7.8221     2.5232     0.0463     0.1004
  538.5000   -39.0198     9.1031     8.3583    93.3517     7.8637     2.5211     0.0491     0.0996
  539.0000   -38.9914     9.1187     8.3996    99.4590     7.9052     2.5190     0.0495     0.1010
  539.5000   -38.9692     9.1343     8.4218    98.4488     7.9287     2.5159     0.0494     0.1023
  540.0000   -39.2924     9.1483     8.4219    97.3810     7.8792     2.5117     0.0469     0.1054
  540.5000   -39.6473     9.1409     8.4220   134.6817     7.8284     2.5078     0.0416     0.1099
  541.0000   -40.0458     9.1332     8.4224   134.7539     7.7890     2.5080     0.0364     0.1148
  541.5000   -40.1519     9.1255     8.4231   114.4000     7.7947     2.5167     0.0312     0.1156
  542.0000   -40.2712     9.1178     8.3209    96.8123     7.8006     2.5277     0.0259     0.1067
  542.5000   -40.3799     9.1102     8.2418    90.3639     7.8067     2.5457     0.0215     0.0931
  543.0000   -40.3942     9.1026     8.1636    90.9012     7.8314     2.5682     0.0225     0.0794
  543.5000   -40.4059     9.0949     8.0861    94.4250     7.8303     2.5780     0.0236     0.0708
  544.0000   -40.4179     9.0873     8.0086   113.1989     7.8301     2.5563     0.0306     0.0744
  544.5000   -40.4300     9.0797     7.9341   109.7686     7.8423     2.5378     0.0381     0.0828
  545.0000   -40.4421     9.0721     7.8011   105.0481     7.8801     2.5192     0.0452     0.0913
  545.5000   -40.4542     9.0651     7.6725   100.1251     7.9174     2.5102     0.0428     0.0996
  546.0000   -40.4663     8.8286     7.5457    92.4915     7.9552     2.5082     0.0401     0.1038
  546.5000   -40.4784     8.6130     7.4209    87.0334     7.9708     2.5061     0.0375     0.1074
  547.0000   -40.4905     8.4036     7.2982    88.3615     7.9314     2.5041     0.0380     0.1111
  547.5000   -40.5025     8.1996     7.1775    91.9852     7.8834     2.5002     0.0386     0.1147
  548.0000   -40.5146     8.0004     7.0588    95.2884     7.8350     2.4936     0.0391     0.1172
  548.5000   -40.5267     7.8242     6.9421   134.7760     7.7899     2.4804     0.0387     0.1234
  549.0000   -40.5388     7.4667     6.8273   129.9377     7.8174     2.4625     0.0352     0.1288
  549.5000   -40.5509     7.0510     6.6912   120.9860     7.8499     2.4460     0.0334     0.1364
  550.0000   -40.5633     6.6584     6.3071   114.1457     7.8823     2.4095     0.0347     0.1459
  550.5000   -40.5751     6.2876     5.9764   119.1882     7.9145     2.3713     0.0360     0.1641
  551.0000   -40.5814     5.9376     5.6631   125.3717     7.9468     2.3370     0.0374     0.1859
  551.5000   -40.3305     5.6069     5.0620   120.5543     7.9791     2.3085     0.0374     0.2078
  552.0000   -39.8289     5.0756     4.2781   112.2547     8.0113     2.2801     0.0363     0.2296
  552.5000   -39.3525     4.5171     3.6155   103.6107     8.0436     2.2509     0.0353     0.2515
  553.0000   -39.0759     4.0200     3.2734   101.4345     8.0761     2.2437     0.0343     0.2714
  553.5000   -38.8059     3.5777     3.0345   105.1628     8.1085     2.3029     0.0332     0.2718
  554.0000   -38.7766     3.2947     2.8949   118.5718     8.1134     2.3476     0.0322     0.2510
  554.5000   -38.8065     3.2645     2.8966   122.1041     8.1173     2.3961     0.0312     0.2062
  555.0000   -38.8659     3.2645     2.8699   111.6570     8.1215     2.4338     0.0302     0.1726
  555.5000   -38.9247     3.3251     2.8965   101.6161     8.1257     2.4516     0.0291     0.1534
  556.0000   -38.9717     3.5139     3.0051    95.9039     8.1299     2.4737     0.0281     0.1332
  556.5000   -39.2844     3.7116     3.2050    95.7531     8.1191     2.5048     0.0271     0.1196
  557.0000   -39.7180     4.0631     3.6890    96.5536     8.1003     2.5267     0.0260     0.1063
  557.5000   -40.1548     4.7213     4.2865    97.5816     8.0815     2.5252     0.0250     0.0999
  558.0000   -40.5913     5.4859     4.9807    98.7066     8.0626     2.5085     0.0240     0.1013
  558.5000   -40.9800     6.3745     5.7875   108.3214     8.0436     2.5085     0.0229     0.1037
  559.0000   -40.9839     7.0732     6.2084   135.4258     8.0248     2.5103     0.0220     0.1060
  559.5000   -40.9823     7.2570     6.5018   134.4535     8.0110     2.5110     0.0191     0.1083
  560.0000   -40.9820     7.4472     6.6331   127.3158     8.0187     2.5096     0.0184     0.1107
  560.5000   -40.9820     7.6373     6.6314   122.0762     8.0259     2.5077     0.0176     0.1103
  561.0000   -40.9820     7.7539     6.6299   122.7805     8.0331     2.5094     0.0168     0.1088
  561.5000   -40.9820     7.7762     6.6299   118.8418     8.0403     2.5134     0.0160     0.1076
  562.0000   -40.9820     7.7933     6.6299   115.1265     8.0473     2.5175     0.0152     0.1088
  562.5000   -40.9820     7.8105     6.6299   119.8001     8.0379     2.5200     0.0144     0.1117
  563.0000   -40.9820     7.8241     6.6299   111.0744     8.0107     2.5165     0.0136     0.1147
  563.5000   -40.9820     7.7616     6.6300    92.7120     7.9846     2.4973     0.0128     0.1176
  564.0000   -40.9820     7.6993     6.6318    94.6742     7.9717     2.4783     0.0120     0.1200
  564.5000   -40.9823     7.6379     6.6342    96.8935     7.9735     2.4594     0.0124     0.1288
  565.0000   -40.9826     7.5765     6.4871    97.7573     7.9760     2.4404     0.0148     0.1412
  565.5000   -40.9610     7.5414     6.3042    97.6503     7.9785     2.4229     0.0171     0.1536
  566.0000   -40.7624     7.2215     6.1238    97.9079     7.9810     2.4322     0.0194     0.1624
