~VERSION INFORMATION
 VERS.                2.0:   CWLS LOG ASCII STANDARD - VERSION 2.0
 WRAP.                 NO:   ONE LINE PER DEPTH STEP
~WELL INFORMATION
#MNEM.UNIT      DATA TYPE    INFORMATION
#----------   ------------   ------------------------------
 STRT.F           34.0000:   START DEPTH
 STOP.F          616.0000:   STOP DEPTH
 STEP.F            0.5000:   STEP LENGTH
 NULL.          -999.2500:   NO VALUE
 COMP. FENIX & SCISSON INC:   COMPANY
 WELL. NAVAL PETROLEUM RESERVE 3 S-10 #86-10:   WELL
 FLD .             TEAPOT:   FIELD
 LOC .      S10 T38N R78W:   LOCATION
 CNTY.            NATRONA:   COUNTY
 STAT.            WYOMING:   STATE
 CTRY. UNITED STATES OF AMERICA:   COUNTRY
 SRVC.              Welex:   SERVICE COMPANY
 DATE.        12-APR-1977:   LOGDATE
 API .       490251033800:   API NUMBER
~CURVE INFORMATION
#MNEM.UNIT       API CODE    CURVE DESCRIPTION
#----------   ------------   ------------------------------
 DEPT.F                  :   
 CALD.IN     45 280 60 00:   CALIPER FROM DENSITY LOG
 GRD .GAPI   45 310 01 00:   GAMMA RAY FROM DENSITY LOG
 CORR.G/C3   45 356 01 00:   DENSITY CORRECTION
 DPHI.DEC    45 890 12 00:   DENSITY POROSITY SANDSTONE
 RHOB.G/C3   45 350 01 00:   BULK DENSITY
 SPR .MV     07 010 01 00:   SPONTANEOUS POTENTIAL
 ILD .OHMM   07 120 46 00:   INDUCTION LOG DEEP
 ILM .OHMM   07 120 44 00:   INDUCTION LOG MEDIUM
 SGRD.OHMM   07 221 05 00:   SHALLOW SHORT GUARD RESISTIVITY
~PARAMETER INFORMATION
#MNEM.UNIT          VALUE    DESCRIPTION
#----------   ------------   ------------------------------
 PD  .                 GL:   PERMANENT DATUM
 EPD .F              5240:   ELEVATION PERMANENT DATUM
 LMF .                 KB:   LOG MEASURED FROM
 DAPD.F                 5:   FEET ABOVE PERMANENT DATUM
 DMF .                 KB:   DRILLING MEASURED FROM
 EKB .F              5245:   KELLING BUSHING
 EGL .F              5240:   GROUND LEVEL
 DATE.        12-APR-1977:   RUN DATE
 RUN .                  1:   RUN NUMBER
 DD  .F               625:   DEPTH DRILLER
 DL  .F               617:   DEPTH LOGGER
 BLI .F               615:   BOTTOM LOG INTERVAL
 TLI .F                35:   TOP LOG INTERVAL
 CS  .IN            8.625:   CASING SIZE
 BS  .IN            7.875:   BIT SIZE
 BSD .F               625:   BIT SIZE AT DEPTH
 DFT .           KCL- GEL:   DRILLING FLUID TYPE
 DFD .                8.8:   DRILLING FLUID DENSITY
 BHT .F                68:   BOTTOM HOLE TEMPERATURE
 TCS .HRS            0100:   TIME CURCULATED STOPPED
 MRT .F                68:   MAXIMUM RECORDED TEMPERATURE
 ENGI.        E. CALLAHAN:   RECORDING ENGINEER
 WITN.            R. LYON:   WITNESSED BY
 CLNT.            A2DTECH:   CLIENT CODE
 ORIG.           5" PRINT:   ORIGIN OF DATA
 UWI .       490251033800:   UNIQUE WELL ID
 DICO. A2D Technologies, Inc.:   DIGITIZING COMPANY
~OTHER INFORMATION
~A   DEPT     CALD        GRD       CORR       DPHI         RHOB      SPR        ILD        ILM       SGRD   
# ...
  545.0000     8.0030   111.2523     0.0318     0.0751     2.5259   -55.0898     7.1769     9.2778    12.8590
  545.5000     8.0045   112.7484     0.0289     0.0744     2.5230   -54.9401     7.5833     9.2107    13.2165
  546.0000     8.0059   113.3512     0.0276     0.0795     2.5207   -54.4910     7.9026    10.0788    13.3786
  546.5000     8.0074   111.5864     0.0247     0.0771     2.5290   -54.3413     8.1221    10.3534    13.2794
  547.0000     8.0089   111.2990     0.0248     0.0744     2.5321   -54.0419     8.2331    10.2784    13.1822
  547.5000     8.0104   114.5787     0.0234     0.0728     2.5351   -53.8922     8.4040    10.2040    13.2684
  548.0000     8.0119   111.6238     0.0235     0.0713     2.5366   -53.7425     8.6969    10.8551    13.5415
  548.5000     8.0134   109.1140     0.0237     0.0737     2.5269   -53.5928     9.0631    11.0036    13.7262
  549.0000     8.0148   108.0879     0.0253     0.0767     2.5277   -53.2934     9.3149    10.6986    14.0073
  549.5000     8.0015   107.8005     0.0269     0.0745     2.5315   -53.2934     9.5737    10.2600    14.3951
  550.0000     8.0030   110.1900     0.0285     0.0720     2.5382   -53.2934     9.6382    10.4081    14.8965
  550.5000     8.0049   107.8286     0.0294     0.0697     2.5350   -52.9940     9.5666    11.3729    14.9227
  551.0000     8.0218   108.1378     0.0304     0.0738     2.5308   -52.6946     9.6300    12.0144    15.1977
  551.5000     8.0084   109.7823     0.0315     0.0753     2.5257   -52.6946     9.8278    12.6045    15.7269
  552.0000     8.0108   107.2107     0.0321     0.0792     2.5175   -52.6946     9.8919    12.2544    16.1622
  552.5000     8.0276   102.2374     0.0292     0.0887     2.5085   -52.6946    10.0256    12.2484    15.9330
  553.0000     8.0295   105.1683     0.0293     0.0923     2.5041   -52.5449    10.0909    12.8500    15.7071
  553.5000     8.0315   106.8617     0.0265     0.0932     2.5034   -52.5449    10.1567    12.4931    16.0303
  554.0000     8.0334   105.9840     0.0221     0.0916     2.5042   -52.5449    10.1525    12.1461    16.5885
  554.5000     8.0353   106.8866     0.0222     0.0892     2.5050   -52.2455    10.2897    12.2259    16.9299
  555.0000     8.0373   108.5312     0.0254     0.0898     2.5065   -52.2455    10.2853    12.7364    16.6898
  555.5000     8.0392   105.8730     0.0285     0.0879     2.5073   -52.2455    10.3535    12.5552    16.3395
  556.0000     8.0411   103.8083     0.0287     0.0861     2.5044   -52.2455    10.3480    12.5504    15.8861
  556.5000     8.0430   105.6012     0.0273     0.0942     2.4924   -52.2455    10.4166    12.7582    16.3258
  557.0000     8.0450   108.4327     0.0244     0.1007     2.4850   -52.2455    10.5562    13.5399    17.0118
  557.5000     8.0316   110.6706     0.0185     0.1043     2.4776   -52.2455    10.5518    13.2394    17.7266
  558.0000     8.0043   109.6445     0.0157     0.1052     2.4768   -52.2455    10.6217    12.8776    17.7206
  558.5000     7.9761   107.8766     0.0128     0.1027     2.4822   -52.2594    10.6161    12.8714    17.5909
  559.0000     7.9043   106.4054     0.0129     0.1006     2.4875   -52.5449    10.6116    13.2262    17.4622
  559.5000     7.7875   105.2309     0.0131     0.0991     2.4898   -52.5449    10.6072    13.0380    17.1971
  560.0000     7.7296   104.9435     0.0117     0.0999     2.4829   -52.6946    10.6027    12.4154    16.2794
  560.5000     7.7019   105.7009     0.0119     0.1023     2.4839   -52.6946    10.5252    12.6696    15.8277
  561.0000     7.7043   107.3455     0.0120     0.1029     2.4869   -52.8443    10.5208    12.4894    15.8210
  561.5000     7.7359   106.9097     0.0136     0.1022     2.4859   -53.1437    10.3727    12.3117    15.8144
  562.0000     7.7972   106.7738     0.0138     0.1007     2.4802   -52.8443    10.2969    13.3711    16.5935
  562.5000     7.8436   108.2731     0.0139     0.0989     2.4829   -52.6946    10.2926    13.4590    17.1713
  563.0000     7.8752   110.5111     0.0155     0.0973     2.4872   -52.6946    10.2174    12.3790    16.3513
  563.5000     7.8920   111.2623     0.0172     0.0964     2.4911   -52.5449    10.1427    12.2044    16.0081
  564.0000     7.8791   107.8654     0.0188     0.0952     2.4956   -52.3952     9.9991    13.1616    16.0014
  564.5000     7.8810   108.7681     0.0204     0.0939     2.4986   -52.2455     9.9949    12.9743    16.4442
  565.0000     7.8676   111.1544     0.0221     0.0927     2.5010   -52.0958     9.7854    12.1010    16.3238
  565.5000     7.8849   113.5408     0.0252     0.0903     2.5055   -51.9461     9.7138    11.8465    15.6523
  566.0000     7.8868   115.0369     0.0269     0.0878     2.5094   -51.9461     9.5103    11.3592    15.7545
  566.5000     7.9332   115.7912     0.0330     0.0854     2.5146   -51.6467     9.3753    11.0437    15.9677
  567.0000     7.9797   116.3056     0.0361     0.0827     2.5192   -51.6188     9.2429    11.1921    15.2052
  567.5000     8.0261   117.1736     0.0408     0.0785     2.5238   -51.4970     9.1120    11.4227    14.3790
  568.0000     8.0726   118.2196     0.0439     0.0757     2.5281   -51.1857     8.9210    11.1041    14.2749
  568.5000     8.0597   119.2805     0.0456     0.0760     2.5250   -50.8982     8.7947    11.0997    14.4684
  569.0000     8.0314   119.5598     0.0427     0.0816     2.5146   -50.7485     8.6702    10.8554    14.4621
  569.5000     8.0185   118.5238     0.0413     0.0843     2.5140   -50.2994     8.4885    10.5569    14.4561
  570.0000     8.0209   117.2107     0.0430     0.0831     2.5178   -50.2994     8.4264    10.1957    14.2512
  570.5000     8.0229   117.8166     0.0461     0.0792     2.5232   -50.1497     8.3648     9.8488    13.9521
  571.0000     8.0248   119.1644     0.0492     0.0767     2.5285   -50.1497     8.2463     9.9123    14.0434
  571.5000     8.0267   119.7849     0.0494     0.0743     2.5307   -50.1497     8.1867    10.1153    13.9404
  572.0000     8.0286   118.4475     0.0465     0.0743     2.5315   -50.1497     8.1834    10.1807    13.3669
  572.5000     8.0306   117.8665     0.0436     0.0757     2.5285   -50.1497     8.1235    10.1756    13.0864
  573.0000     8.0325   118.7692     0.0393     0.0790     2.5227   -49.8503     8.0086    10.1005    13.0809
  573.5000     8.0196   119.9686     0.0334     0.0859     2.5145   -49.7006     8.0052     9.9568    12.8954
  574.0000     8.0215   119.2392     0.0275     0.0952     2.5033   -48.5030     7.9467     9.6135    13.0712
  574.5000     8.0235   118.5098     0.0231     0.0967     2.4973   -47.3054     7.9433     9.6755    13.4316
  575.0000     8.0101   118.3708     0.0188     0.0969     2.4944   -46.2575     7.9400    10.1507    13.6148
  575.5000     7.9972   119.7217     0.0174     0.0964     2.4944   -45.5090     7.8819     9.9373    13.5136
  576.0000     7.9842   120.1793     0.0160     0.0949     2.4960   -46.8563     7.8786     9.5947    13.4146
  576.5000     7.9713   119.5983     0.0147     0.0925     2.4983   -47.7545     7.7671     9.2638    13.5961
  577.0000     7.9738   119.3109     0.0178     0.0894     2.5036   -47.4371     7.7638     9.0691    12.5929
  577.5000     7.9757   119.9200     0.0255     0.0857     2.5104   -46.6867     7.7070     9.0021    10.3674
  578.0000     7.9623   120.3744     0.0331     0.0810     2.5179   -45.8044     7.6507     8.9977    10.4519
  578.5000     7.9647   118.9063     0.0317     0.0786     2.5187   -45.7963     7.5423     8.9933    12.9319
  579.0000     7.9666   119.5123     0.0349     0.0816     2.5165   -48.6527     7.4872     9.0524    12.4774
  579.5000     7.9834   118.3378     0.0395     0.0797     2.5233   -49.5509     7.3303     9.2378    12.1396
  580.0000     7.9852   119.8339     0.0457     0.0767     2.5279   -49.2515     7.2766     9.1685    11.9675
  580.5000     7.9871   117.4725     0.0488     0.0749     2.5264   -48.6527     7.2234     8.8524    11.9625
  581.0000     8.0042   118.6719     0.0444     0.0801     2.5190   -47.7545     7.1212     8.5480    11.8749
