~VERSION INFORMATION
 VERS.                2.0:   CWLS LOG ASCII STANDARD - VERSION 2.0
 WRAP.                 NO:   ONE LINE PER DEPTH STEP
~WELL INFORMATION
#MNEM.UNIT      DATA TYPE    INFORMATION
#----------   ------------   ------------------------------
 STRT.F          974.5000:   START DEPTH
 STOP.F         2805.0000:   STOP DEPTH
 STEP.F            0.5000:   STEP LENGTH
 NULL.          -999.2500:   NO VALUE
 COMP.   FLUOR DANIEL INC:   COMPANY
 WELL. NAVAL PETROLEUM RESERVE 3 SHX- #38-14:   WELL
 FLD .             TEAPOT:   FIELD
 LOC .      S14 T38N R78W:   LOCATION
 CNTY.            NATRONA:   COUNTY
 STAT.            WYOMING:   STATE
 CTRY. UNITED STATES OF AMERICA:   COUNTRY
 SRVC.            Unknown:   SERVICE COMPANY
 DATE.        20-AUG-1995:   LOGDATE
 API .       490252273400:   API NUMBER
~CURVE INFORMATION
#MNEM.UNIT       API CODE    CURVE DESCRIPTION
#----------   ------------   ------------------------------
 DEPT.F                  :   
 ROP .MIN/FT 91 810 01 00:   RAT OF DRILLING PENETRATION
 TGAS.UNITS  91 830 01 00:   TOTAL GAS FROM HOTWIRE
~PARAMETER INFORMATION
#MNEM.UNIT          VALUE    DESCRIPTION
#----------   ------------   ------------------------------
 EKB .F              5264:   KELLING BUSHING
 EGL .F              5254:   GROUND LEVEL
 DATE.            8-20-95:   RUN DATE
 DD  .F              2805:   DEPTH DRILLER
 CBD .F               980:   CASING BOTTOM DRILLER
 ENGI.              TOWER:   RECORDING ENGINEER
 WITN.               HUSK:   WITNESSED BY
 CLNT.            A2DTECH:   CLIENT CODE
 ORIG.           5" PRINT:   ORIGIN OF DATA
 UWI .       490252273400:   UNIQUE WELL ID
 DICO. A2D Technologies, Inc.:   DIGITIZING COMPANY
~OTHER INFORMATION
~A   DEPT      ROP         TGAS 
# ...
 1460.5000     0.5135    10.5584
 1461.0000     0.5134    10.5650
 1461.5000     0.5025    10.5717
 1462.0000     0.5024    10.5783
 1462.5000     0.5133    10.5850
 1463.0000     0.5132    10.5916
 1463.5000     0.5022    10.5983
 1464.0000     0.5022    10.6049
 1464.5000     0.5021    10.6116
 1465.0000     0.5020    10.6182
 1465.5000     0.5128    10.6249
 1466.0000     0.5128    10.6315
 1466.5000     0.5127    10.6382
 1467.0000     0.5126    10.6448
 1467.5000     0.5126    10.6515
 1468.0000     0.5125    10.6581
 1468.5000     0.5016    10.6648
 1469.0000     0.5015    10.6714
 1469.5000     0.5014    10.6781
 1470.0000     0.5122    10.6847
 1470.5000     0.5122    10.6914
 1471.0000     0.5012    10.6980
 1471.5000     0.5011    10.7047
 1472.0000     0.5120    10.7113
 1472.5000     0.5010    10.7180
 1473.0000     0.5009    10.7246
 1473.5000     0.5009    10.7313
 1474.0000     0.5008    10.7379
 1474.5000     0.5007    10.7446
 1475.0000     0.5007    10.7512
 1475.5000     0.5115    10.7579
 1476.0000     0.5114    10.7645
 1476.5000     0.5113    10.7712
 1477.0000     0.5113    10.7778
 1477.5000     0.5221    10.7845
 1478.0000     0.5220    10.7911
 1478.5000     0.6415    10.7978
 1479.0000     0.6414    10.8044
 1479.5000     0.6305    10.8111
 1480.0000     0.6304    10.8236
 1480.5000     0.6195    10.8412
 1481.0000     0.6194    10.8589
 1481.5000     0.6194    10.8765
 1482.0000     0.6193    10.8941
 1482.5000     0.6192    10.9117
 1483.0000     0.6300    10.9293
 1483.5000     0.6408    10.9469
 1484.0000     0.6408    10.9645
 1484.5000     0.6407    10.9821
 1485.0000     0.6406    10.9997
 1485.5000     0.6405    11.0173
 1486.0000     0.5168    11.0349
 1486.5000     0.5164    11.0525
 1487.0000     0.5269    11.0702
 1487.5000     0.5265    11.0878
 1488.0000     0.5261    11.1054
 1488.5000     0.5257    11.1230
 1489.0000     0.5361    11.1406
 1489.5000     0.5357    11.1582
 1490.0000     0.5353    11.1724
 1490.5000     0.5458    11.1791
 1491.0000     0.5454    11.1857
 1491.5000     0.5450    11.1924
 1492.0000     0.5337    11.1990
 1492.5000     0.5333    11.2057
 1493.0000     0.5329    11.2123
 1493.5000     0.5324    11.2190
 1494.0000     0.5430    11.2256
 1494.5000     0.5425    11.2323
 1495.0000     0.5421    11.2389
 1495.5000     0.5417    11.2456
 1496.0000     0.5413    11.2522
 1496.5000     0.5409    11.2589
 1497.0000     0.5514    11.2655
 1497.5000     0.5618    11.2722
 1498.0000     0.5505    11.2788
 1498.5000     0.5501    11.2855
 1499.0000     0.5497    11.2921
 1499.5000     0.5493    11.2988
 1500.0000     0.5380    11.3043
 1500.5000     0.5376    11.2980
 1501.0000     0.5372    11.2926
 1501.5000     0.5368    11.2871
 1502.0000     0.5255    11.2817
 1502.5000     0.5251    11.2763
 1503.0000     0.5247    11.2708
 1503.5000     0.5243    11.2654
 1504.0000     0.5130    11.2600
 1504.5000     0.5126    11.2545
 1505.0000     0.5122    11.2491
 1505.5000     0.5118    11.2437
 1506.0000     0.5005    11.2382
 1506.5000     0.5001    11.2328
 1507.0000     0.4996    11.2274
 1507.5000     0.5101    11.2219
 1508.0000     0.5097    11.2165
 1508.5000     0.5203    11.2111
 1509.0000     0.5198    11.2056
 1509.5000     0.5194    11.2002
 1510.0000     0.5190    11.1947
 1510.5000     0.5186    11.1893
 1511.0000     0.5291    11.1839
 1511.5000     0.5178    11.1784
 1512.0000     0.5283    11.1730
 1512.5000     0.5278    11.1676
 1513.0000     0.5274    11.1621
 1513.5000     0.5270    11.1567
 1514.0000     0.5376    11.1513
 1514.5000     0.5371    11.1458
 1515.0000     0.5367    11.1404
 1515.5000     0.5474    11.1350
 1516.0000     0.5576    11.1295
 1516.5000     0.5571    11.1241
 1517.0000     0.5567    11.1187
 1517.5000     0.5563    11.1132
 1518.0000     0.5669    11.1078
 1518.5000     0.5664    11.1024
 1519.0000     0.5660    11.0969
 1519.5000     0.5656    11.0915
 1520.0000     0.5652    11.0860
 1520.5000     0.5538    11.0870
 1521.0000     0.5533    11.0925
 1521.5000     0.5527    11.0981
 1522.0000     0.5521    11.1037
 1522.5000     0.5515    11.1093
 1523.0000     0.5510    11.1148
 1523.5000     0.5505    11.1204
 1524.0000     0.5500    11.1260
 1524.5000     0.5494    11.1315
 1525.0000     0.5489    11.1371
 1525.5000     0.5484    11.1427
 1526.0000     0.5586    11.1483
 1526.5000     0.5581    11.1538
 1527.0000     0.5575    11.1594
 1527.5000     0.5570    11.1650
 1528.0000     0.4799    11.1706
 1528.5000     0.3820    11.1761
 1529.0000     0.3814    11.1817
 1529.5000     0.3809    11.1873
 1530.0000     0.3804    11.1929
 1530.5000     0.3909    11.1984
 1531.0000     0.3902    11.2040
 1531.5000     0.3897    11.2096
 1532.0000     0.3891    11.2151
 1532.5000     0.3885    11.2207
 1533.0000     0.3990    11.2263
 1533.5000     0.3983    11.2319
 1534.0000     0.3869    11.2374
 1534.5000     0.3864    11.2430
 1535.0000     0.3859    11.2486
 1535.5000     0.3745    11.2542
 1536.0000     0.3739    11.2597
 1536.5000     0.3733    11.2653
 1537.0000     0.3727    11.2709
 1537.5000     0.3722    11.2765
 1538.0000     0.3608    11.2820
 1538.5000     0.3603    11.2876
 1539.0000     0.3707    11.2932
 1539.5000     0.3810    11.2988
 1540.0000     0.3913    11.3054
 1540.5000     0.3907    11.2964
 1541.0000     0.3901    11.2851
 1541.5000     0.3896    11.2739
 1542.0000     0.3891    11.2627
 1542.5000     0.3886    11.2514
 1543.0000     0.3880    11.2402
 1543.5000     0.3875    11.2289
 1544.0000     0.3869    11.2177
 1544.5000     0.3863    11.2065
 1545.0000     0.3858    11.1952
 1545.5000     0.3744    11.1840
 1546.0000     0.3739    11.1727
 1546.5000     0.3625    11.1615
 1547.0000     0.3620    11.1503
 1547.5000     0.3614    11.1390
 1548.0000     0.5131    11.1278
 1548.5000     0.5015    11.1165
 1549.0000     0.4902    11.1053
 1549.5000     0.4896    11.0941
 1550.0000     0.4891    11.0821
 1550.5000     0.4995    11.0621
 1551.0000     0.4989    11.0421
 1551.5000     0.4984    11.0222
 1552.0000     0.4869    11.0022
 1552.5000     0.4863    10.9822
 1553.0000     0.4967    10.9622
 1553.5000     0.4962    10.9422
 1554.0000     0.4956    10.9223
 1554.5000     0.4951    10.9023
 1555.0000     0.4946    10.8823
 1555.5000     0.4940    10.8623
 1556.0000     0.4934    10.8423
 1556.5000     0.5039    10.8223
 1557.0000     0.5032    10.8024
 1557.5000     0.5027    10.7824
 1558.0000     0.3282    10.7624
 1558.5000     0.3277    10.7424
 1559.0000     0.3272    10.7224
 1559.5000     0.3375    10.7024
 1560.0000     0.3479    10.6796
 1560.5000     0.4129    10.6901
 1561.0000     0.4019    10.7007
 1561.5000     0.4018    10.7113
 1562.0000     0.4016    10.9415
 1562.5000     0.4015    11.1700
 1563.0000     0.4014    10.9627
 1563.5000     0.4012    10.7536
 1564.0000     0.3902    10.7659
 1564.5000     0.3901    10.7765
 1565.0000     0.4008    10.7889
 1565.5000     0.4115    10.7994
 1566.0000     0.4223    11.0279
 1566.5000     0.4221    11.0385
 1567.0000     0.4111    11.0491
 1567.5000     0.4001    11.0614
 1568.0000     0.5304    11.0720
 1568.5000     0.5194    10.8629
 1569.0000     0.5193    10.8753
 1569.5000     0.5191    10.8858
 1570.0000     0.5190    10.8964
 1570.5000     0.5189    10.6908
 1571.0000     0.5296    10.9193
 1571.5000     0.5307    10.9299
 1572.0000     0.5511    10.9405
 1572.5000     0.5509    10.9511
 1573.0000     0.5508    10.9634
 1573.5000     0.5616    10.9740
 1574.0000     0.5614    10.9846
 1574.5000     0.5613    10.9951
 1575.0000     0.5611    11.0057
 1575.5000     0.5610    11.0163
 1576.0000     0.5608    11.0286
 1576.5000     0.5607    11.0392
 1577.0000     0.5606    10.8284
 1577.5000     0.5714    10.8425
 1578.0000     0.5712    10.8530
 1578.5000     0.5711    10.8636
 1579.0000     0.5709    10.8760
 1579.5000     0.5708    10.8865
 1580.0000     0.5598    10.6774
 1580.5000     0.5596    10.2539
 1581.0000     0.5486    10.2645
 1581.5000     0.5485    10.2769
