~VERSION INFORMATION
 VERS.                2.0:   CWLS LOG ASCII STANDARD - VERSION 2.0
 WRAP.                 NO:   ONE LINE PER DEPTH STEP
~WELL INFORMATION
#MNEM.UNIT      DATA TYPE    INFORMATION
#----------   ------------   ------------------------------
 STRT.F            0.0000:   START DEPTH
 STOP.F          404.0000:   STOP DEPTH
 STEP.F            0.1000:   STEP LENGTH
 NULL.          -999.2500:   NO VALUE
 COMP.   FLUOR DANIEL INC:   COMPANY
 WELL.   62-1 X 10 #62-10:   WELL
 FLD .             TEAPOT:   FIELD
 LOC .      S10 T38N R78W:   LOCATION
 CNTY.            NATRONA:   COUNTY
 STAT.            WYOMING:   STATE
 CTRY. UNITED STATES OF AMERICA:   COUNTRY
 SRVC.      Western Atlas:   SERVICE COMPANY
 DATE.        29-MAR-1995:   LOGDATE
 API .       490252270300:   API NUMBER
~CURVE INFORMATION
#MNEM.UNIT       API CODE    CURVE DESCRIPTION
#----------   ------------   ------------------------------
 DEPT.F                  :   
 GRR .GAPI   07 310 01 00:   GAMMA RAY
 RILD.OHMM   07 120 46 00:   INDUCTION LOG DEEP RESISTIVITY
 RILM.OHMM   07 120 44 00:   RESITIVITY LONG MEDIUM
~PARAMETER INFORMATION
#MNEM.UNIT          VALUE    DESCRIPTION
#----------   ------------   ------------------------------
 PD  .                 GL:   PERMANENT DATUM
 EPD .F              5160:   ELEVATION PERMANENT DATUM
 LMF .                 KB:   LOG MEASURED FROM
 DAPD.F                10:   FEET ABOVE PERMANENT DATUM
 DMF .                 KB:   DRILLING MEASURED FROM
 EKB .F              5170:   KELLING BUSHING
 EDF .F              5169:   DRILLING FLOOR
 EGL .F              5160:   GROUND LEVEL
 DATE.        29-MAR-1995:   RUN DATE
 RUN .                  1:   RUN NUMBER
 DD  .F               455:   DEPTH DRILLER
 DL  .F               416:   DEPTH LOGGER
 BLI .F               408:   BOTTOM LOG INTERVAL
 TLI .F                95:   TOP LOG INTERVAL
 CS  .IN            9.625:   CASING SIZE
 CBD .F                95:   CASING BOTTOM DRILLER
 CBL .F                95:   CASING BOTTOM LOGGER
 BS  .IN             8.75:   BIT SIZE
 BSD .F               455:   BIT SIZE AT DEPTH
 DFT .                AIR:   DRILLING FLUID TYPE
 MRT .F               204:   MAXIMUM RECORDED TEMPERATURE
 LUN .            HL 6530:   LOGGING UNIT NUMBER
 LUL .             CASPER:   LOGGING UNIT LOCATION
 ENGI.        VERN RAUTIO:   RECORDING ENGINEER
 WITN.        GARY STRONG:   WITNESSED BY
 CLNT.            A2DTECH:   CLIENT CODE
 ORIG.           5" PRINT:   ORIGIN OF DATA
 UWI .       490252270300:   UNIQUE WELL ID
 DICO. A2D Technologies, Inc.:   DIGITIZING COMPANY
~OTHER INFORMATION
~A    DEPT      GRR      RILD       RILM   
# ...
  182.0000   138.2443     3.3438     3.3778
  182.1000   138.1965     3.3833     3.4176
  182.2000   137.9435     3.4128     3.4503
  182.3000   137.6449     3.4329     3.4706
  182.4000   137.4375     3.4560     3.4910
  182.5000   137.3454     3.4984     3.5151
  182.6000   137.1198     3.5181     3.5322
  182.7000   136.7445     3.5388     3.5529
  182.8000   136.7457     3.5596     3.5738
  182.9000   136.7471     3.5806     3.6006
  183.0000   136.9734     3.6063     3.6411
  183.1000   137.0510     3.6488     3.6646
  183.2000   137.1825     3.6983     3.6646
  183.3000   137.3551     3.7168     3.6957
  183.4000   137.3916     3.7386     3.7275
  183.5000   137.6592     3.7713     3.7495
  183.6000   137.6603     3.8091     3.7752
  183.7000   137.8562     3.8315     3.8205
  183.8000   137.9644     3.8557     3.8426
  183.9000   137.9656     3.8767     3.8652
  184.0000   137.9145     3.8995     3.8739
  184.1000   137.6663     3.9224     3.8837
  184.2000   137.6678     3.9542     3.9065
  184.3000   137.4572     3.9963     3.9295
  184.4000   137.3683     4.0198     3.9554
  184.5000   137.2529     4.0478     3.9758
  184.6000   136.9307     4.0672     3.9829
  184.7000   136.4453     4.1065     3.9949
  184.8000   136.1666     4.1439     4.0107
  184.9000   135.9392     4.1682     4.0107
  185.0000   135.5053     4.1947     4.0107
  185.1000   135.1316     4.2494     4.0107
  185.2000   134.7925     4.2494     4.0107
  185.3000   134.3240     4.2672     4.0107
  185.4000   134.0622     4.2790     4.0107
  185.5000   133.5727     4.2790     4.0107
  185.6000   133.0655     4.2829     4.0107
  185.7000   132.7087     4.3089     4.0107
  185.8000   132.4557     4.3089     4.0107
  185.9000   132.1472     4.3089     3.9949
  186.0000   131.6481     4.2938     3.9829
  186.1000   131.3558     4.2790     3.9829
  186.2000   131.3569     4.2790     3.9801
  186.3000   131.3581     4.2779     3.9554
  186.4000   131.3593     4.2494     3.9337
  186.5000   131.4329     4.2494     3.9107
  186.6000   131.6634     4.2326     3.8879
  186.7000   131.6647     4.2200     3.8739
  186.8000   131.8975     4.2125     3.8693
  186.9000   132.3371     4.1878     3.8462
  187.0000   132.9835     4.1618     3.7940
  187.1000   133.6579     4.1390     3.7755
  187.2000   134.2093     4.0968     3.7678
  187.3000   134.9901     4.0491     3.7473
  187.4000   135.4883     4.0108     3.7097
  187.5000   135.9980     3.9827     3.6880
  187.6000   136.6612     3.9365     3.6646
  187.7000   137.3189     3.9096     3.6450
  187.8000   137.9459     3.9096     3.6083
  187.9000   138.9639     3.8949     3.5776
  188.0000   140.1269     3.8721     3.5492
  188.1000   140.7819     3.8495     3.5078
  188.2000   141.2046     3.8270     3.4667
  188.3000   141.4600     3.8025     3.4427
  188.4000   141.7154     3.8025     3.4102
  188.5000   141.9427     3.7865     3.3828
  188.6000   141.9440     3.7527     3.3630
  188.7000   141.2404     3.7240     3.3434
  188.8000   140.6665     3.7205     3.3238
  188.9000   140.2993     3.6983     3.3023
  189.0000   140.0463     3.6983     3.2851
  189.1000   139.8381     3.6811     3.2659
  189.2000   139.8395     3.6466     3.2468
  189.3000   139.5393     3.6130     3.2278
  189.4000   139.3360     3.5819     3.2119
  189.5000   139.0830     3.5205     3.2119
  189.6000   138.8300     3.4742     3.1936
  189.7000   138.5770     3.4389     3.1750
  189.8000   138.3240     3.4125     3.1676
  189.9000   138.0382     3.3926     3.1598
  190.0000   137.5968     3.3790     3.1413
  190.1000   137.2634     3.3738     3.1230
  190.2000   137.0104     3.3323     3.1023
  190.3000   136.6786     3.3139     3.1023
  190.4000   136.2027     3.3093     3.0899
  190.5000   135.9337     3.2871     3.0718
  190.6000   135.4586     3.2562     3.0482
  190.7000   135.1421     3.2371     3.0174
  190.8000   135.0323     3.2182     3.0174
  190.9000   135.1292     3.1963     2.9840
  191.0000   135.4811     3.1652     2.9625
  191.1000   136.2433     3.1402     2.9451
  191.2000   136.5456     3.1049     2.9212
  191.3000   137.1692     3.0458     2.8907
  191.4000   137.6129     2.9751     2.8733
  191.5000   137.9809     2.9001     2.8347
  191.6000   138.4905     2.8540     2.7929
  191.7000   138.9824     2.8043     2.7442
  191.8000   139.2677     2.7554     2.6964
  191.9000   139.7177     2.7074     2.6539
  192.0000   139.8733     2.6575     2.6196
  192.1000   139.8745     2.5951     2.5544
  192.2000   139.9578     2.5240     2.5132
  192.3000   140.1786     2.4887     2.4588
  192.4000   140.1799     2.4365     2.3864
  192.5000   140.4223     2.3860     2.2892
  192.6000   140.6777     2.3444     2.1759
  192.7000   140.9331     2.3043     2.0881
  192.8000   141.0896     2.2742     1.9896
  192.9000   141.0908     2.2626     1.9517
  193.0000   141.0960     2.2493     1.9207
  193.1000   141.3951     2.2295     1.8983
  193.2000   141.3961     2.2035     1.8792
  193.3000   141.3973     2.1796     1.8691
  193.4000   141.3985     2.1663     1.8691
  193.5000   141.3997     2.1542     1.8791
  193.6000   141.3381     2.1320     1.8901
  193.7000   140.4973     2.1144     1.9012
  193.8000   139.1325     2.1020     1.9164
  193.9000   137.7887     2.0897     1.9390
  194.0000   136.7843     2.0779     1.9622
  194.1000   136.1935     2.0779     1.9896
  194.2000   135.9405     2.0779     2.0084
  194.3000   135.6779     2.0779     2.0321
  194.4000   135.9236     2.0837     2.0614
  194.5000   136.1790     2.0924     2.0948
  194.6000   136.4344     2.0937     2.1195
  194.7000   136.8941     2.1070     2.1475
  194.8000   137.7126     2.1184     2.1698
  194.9000   138.7161     2.1216     2.2045
  195.0000   139.3064     2.1216     2.2368
  195.1000   139.9493     2.1262     2.2631
  195.2000   140.3801     2.1387     2.2878
  195.3000   140.7546     2.1513     2.3018
  195.4000   141.1926     2.1663     2.3279
  195.5000   141.4238     2.1663     2.3447
  195.6000   141.4252     2.1743     2.3585
  195.7000   141.4263     2.1814     2.3781
  195.8000   141.4275     2.1847     2.4029
  195.9000   141.4287     2.1976     2.4170
  196.0000   141.4299     2.2119     2.4332
  196.1000   141.3900     2.2235     2.4579
  196.2000   141.1306     2.2366     2.4770
  196.3000   141.1318     2.2497     2.4916
  196.4000   141.1330     2.2630     2.5062
  196.5000   141.1342     2.2783     2.5228
  196.6000   141.2408     2.3061     2.5544
  196.7000   141.5542     2.3192     2.5544
  196.8000   142.0533     2.3543     2.5657
  196.9000   142.3459     2.3877     2.5808
  197.0000   142.7813     2.4159     2.5960
  197.1000   143.1212     2.4411     2.6112
  197.2000   143.2543     2.4566     2.6263
  197.3000   143.2555     2.5065     2.6263
  197.4000   143.2294     2.5318     2.6263
  197.5000   142.9563     2.5617     2.6363
  197.6000   142.9575     2.5994     2.6446
  197.7000   142.7720     2.6408     2.6490
  197.8000   142.5191     2.6737     2.6646
  197.9000   142.2661     2.7244     2.6815
  198.0000   142.0131     2.7544     2.6815
  198.1000   141.7569     2.7869     2.6931
  198.2000   141.4566     2.8104     2.7002
  198.3000   141.2541     2.8332     2.7060
  198.4000   140.6890     2.8634     2.7190
  198.5000   140.0362     2.8803     2.7190
  198.6000   139.5291     2.9203     2.7380
  198.7000   139.0355     2.9203     2.7380
  198.8000   138.7489     2.9203     2.7481
  198.9000   138.5295     2.9203     2.7570
  199.0000   138.2765     2.9158     2.7570
  199.1000   138.1490     2.9001     2.7570
  199.2000   138.2283     2.9001     2.7570
  199.3000   138.4836     2.9001     2.7570
  199.4000   138.7560     2.9001     2.7570
  199.5000   138.9945     2.8912     2.7570
  199.6000   139.2499     2.8801     2.7570
  199.7000   139.6476     2.8801     2.7570
  199.8000   140.1573     2.8801     2.7570
  199.9000   140.6669     2.8801     2.7570
  200.0000   141.1765     2.8801     2.7625
  200.1000   142.0829     2.9000     2.7694
