~VERSION INFORMATION
 VERS.                2.0:   CWLS LOG ASCII STANDARD - VERSION 2.0
 WRAP.                 NO:   ONE LINE PER DEPTH STEP
~WELL INFORMATION
#MNEM.UNIT      DATA TYPE    INFORMATION
#----------   ------------   ------------------------------
 STRT.F            0.0000:   START DEPTH
 STOP.F         1008.0000:   STOP DEPTH
 STEP.F            0.5000:   STEP LENGTH
 NULL.          -999.2500:   NO VALUE
 COMP. LAWRENCE/ALLISON INC:   COMPANY
 WELL. NPR 3 #51-61-SX-14:   WELL
 FLD .             TEAPOT:   FIELD
 LOC .      S14 T38N R78W:   LOCATION
 CNTY.            NATRONA:   COUNTY
 STAT.            WYOMING:   STATE
 CTRY. UNITED STATES OF AMERICA:   COUNTRY
 SRVC.      Dresser Atlas:   SERVICE COMPANY
 DATE.        05-FEB-1986:   LOGDATE
 API .       490251106600:   API NUMBER
~CURVE INFORMATION
#MNEM.UNIT       API CODE    CURVE DESCRIPTION
#----------   ------------   ------------------------------
 DEPT.F                  :   
 GRR .GAPI   07 310 01 00:   GAMMA RAY FROM RES. LOG.
 RILD.OHMM   10 120 46 00:   INDUCTION LOG DEEP RESISTIVITY
 RILM.OHMM   07 120 44 00:   INDUCTION LOG MEDIUM RESISTIVITY
 CALD.IN     45 280 60 00:   CALIPER
 DEN .G/C3   45 350 01 00:   COMPENSATED BULK DENSTIY
 CORR.G/C3   45 356 01 00:   DENSITY CORRECTION
 PORD.DEC    45 890 10 00:   POROSITY DENSITY LIMESTONE
~PARAMETER INFORMATION
#MNEM.UNIT          VALUE    DESCRIPTION
#----------   ------------   ------------------------------
 PD  .                 GL:   PERMANENT DATUM
 EPD .F              5225:   ELEVATION PERMANENT DATUM
 LMF .                 GL:   LOG MEASURED FROM
 DMF .                 GL:   DRILLING MEASURED FROM
 EGL .F              5225:   GROUND LEVEL
 DATE.             2-5-86:   RUN DATE
 RUN .                  1:   RUN NUMBER
 DD  .F              1010:   DEPTH DRILLER
 DL  .F              1008:   DEPTH LOGGER
 BLI .F              1008:   BOTTOM LOG INTERVAL
 CS  .IN            8.625:   CASING SIZE
 CBD .F                86:   CASING BOTTOM DRILLER
 CBL .F                84:   CASING BOTTOM LOGGER
 BS  .IN             6.25:   BIT SIZE
 BSD .F              1010:   BIT SIZE AT DEPTH
 DFT .                AIR:   DRILLING FLUID TYPE
 LUN .            HL 6264:   LOGGING UNIT NUMBER
 LUL .           GILLETTE:   LOGGING UNIT LOCATION
 ENGI.           FAHLSING:   RECORDING ENGINEER
 WITN.              FIVAS:   WITNESSED BY
 CLNT.            A2DTECH:   CLIENT CODE
 ORIG.       2", 5" PRINT:   ORIGIN OF DATA
 UWI .       490251106600:   UNIQUE WELL ID
 DICO. A2D Technologies, Inc.:   DIGITIZING COMPANY
~OTHER INFORMATION
~A    DEPT      GRR      RILD       RILM       CALD        DEN       CORR       PORD   
# ...
  227.5000   114.4640     6.9549     6.5671     6.4264     2.4191     0.0915     0.1552
  228.0000   115.1471     6.8528     6.4583     6.4174     2.4218     0.0912     0.1546
  228.5000   115.7775     6.7523     6.3513     6.4082     2.4196     0.1099     0.1541
  229.0000   116.3926     6.6533     6.2738     6.3987     2.4140     0.1111     0.1583
  229.5000   114.5593     6.5557     6.2738     6.3936     2.4085     0.1029     0.1609
  230.0000   112.4651     6.4494     6.2738     6.4845     2.4107     0.0943     0.1620
  230.5000   110.3812     6.6092     6.2729     6.4302     2.4198     0.0978     0.1554
  231.0000   108.7648     6.7534     6.4182     6.4902     2.4288     0.1009     0.1487
  231.5000   108.3552     6.9007     6.5692     6.5452     2.4303     0.0984     0.1486
  232.0000   109.6495     7.0512     6.7234     6.4978     2.4269     0.0946     0.1509
  232.5000   115.4844     7.2050     6.8811     6.4759     2.4228     0.0878     0.1526
  233.0000   121.4060     7.3622     7.0425     6.4909     2.4251     0.0811     0.1508
  233.5000   119.3731     7.5228     7.2077     6.5002     2.4292     0.0744     0.1489
  234.0000   117.2712     7.6869     7.3768     6.4647     2.4328     0.0676     0.1478
  234.5000   118.3219     7.8546     7.5498     6.4565     2.4311     0.0611     0.1482
  235.0000   122.1085     8.0259     7.7270     6.4669     2.4294     0.0759     0.1492
  235.5000   122.9374     8.2010     7.9084     6.4777     2.4241     0.0928     0.1521
  236.0000   120.9668     8.3799     8.0949     6.4885     2.4179     0.0930     0.1556
  236.5000   115.4865     8.5782     8.1925     6.4994     2.4118     0.0847     0.1591
  237.0000   111.1339     8.4157     8.0482     6.5097     2.4100     0.0762     0.1595
  237.5000   108.7690     8.2418     7.8530     6.5167     2.4120     0.0746     0.1587
  238.0000   109.3158     8.0715     7.6626     6.5278     2.4141     0.0778     0.1580
  238.5000   112.3234     7.9047     7.4768     6.5068     2.4159     0.0874     0.1573
  239.0000   115.2814     7.7413     7.2955     6.4740     2.4150     0.0863     0.1573
  239.5000   116.0592     7.5814     7.1185     6.4407     2.4077     0.0743     0.1621
  240.0000   114.4366     7.4247     6.9459     6.4112     2.4004     0.0628     0.1674
  240.5000   112.9191     7.2712     6.7775     6.4294     2.3930     0.0607     0.1726
  241.0000   114.5024     7.1323     6.6324     6.4482     2.3874     0.0759     0.1737
  241.5000   116.2497     7.0933     6.6560     6.4669     2.3936     0.0978     0.1695
  242.0000   117.9875     7.0545     6.6797     6.4855     2.4056     0.1202     0.1619
  242.5000   118.7629     7.0158     6.7035     6.5043     2.4203     0.1264     0.1543
  243.0000   118.6679     6.9775     6.7274     6.5155     2.4327     0.1238     0.1472
  243.5000   118.5612     6.9392     6.7531     6.5235     2.4395     0.1001     0.1428
  244.0000   118.3650     6.9031     6.5956     6.5315     2.4422     0.0745     0.1418
  244.5000   116.2314     6.7873     6.4684     6.5395     2.4440     0.0485     0.1407
  245.0000   117.2656     6.6529     6.3436     6.5478     2.4457     0.0473     0.1396
  245.5000   119.5438     6.5210     6.2213     6.5390     2.4475     0.0825     0.1384
  246.0000   121.8587     6.3918     6.1014     6.5236     2.4446     0.0815     0.1408
  246.5000   123.3888     6.2164     5.9837     6.5079     2.4384     0.0753     0.1434
  247.0000   121.8075     6.2200     5.8286     6.4920     2.4344     0.0740     0.1460
  247.5000   122.3812     6.2260     5.8540     6.4963     2.4317     0.0921     0.1487
  248.0000   123.1713     6.2320     5.8931     6.5041     2.4273     0.1079     0.1513
  248.5000   120.7064     6.2379     5.9325     6.5089     2.4249     0.0878     0.1511
  249.0000   120.5376     6.2439     5.9722     6.4519     2.4318     0.0885     0.1471
  249.5000   122.0038     6.2499     6.0122     6.4345     2.4365     0.0940     0.1466
  250.0000   120.4957     6.2559     6.0524     6.4435     2.4339     0.0981     0.1481
  250.5000   117.6809     6.2620     6.1030     6.4531     2.4313     0.0622     0.1489
  251.0000   117.3608     6.2680     6.0514     6.4626     2.4378     0.0670     0.1452
  251.5000   118.9181     6.2739     5.9832     6.4698     2.4470     0.0826     0.1404
  252.0000   120.5398     6.2152     5.9158     6.4826     2.4548     0.0981     0.1356
  252.5000   123.3332     6.1577     5.8491     6.5032     2.4537     0.1144     0.1352
  253.0000   126.1038     6.1009     5.7832     6.5307     2.4433     0.1102     0.1408
  253.5000   125.9335     6.0446     5.7180     6.4944     2.4299     0.0981     0.1485
  254.0000   123.3112     5.9888     5.6536     6.4648     2.4165     0.0861     0.1562
  254.5000   120.6438     5.9369     5.6180     6.4426     2.4087     0.0735     0.1617
  255.0000   117.9613     5.9369     5.6541     6.5070     2.4176     0.0754     0.1566
  255.5000   115.2644     5.9369     5.6832     6.5081     2.4260     0.0821     0.1526
  256.0000   117.7421     5.9369     5.7124     6.5051     2.4339     0.0890     0.1486
  256.5000   121.0320     5.9368     5.7417     6.5024     2.4327     0.0957     0.1474
  257.0000   124.1193     5.9368     5.7752     6.4998     2.4291     0.0987     0.1495
  257.5000   126.1225     5.9370     5.6804     6.4972     2.4280     0.1016     0.1493
  258.0000   128.1085     5.8660     5.5727     6.4945     2.4314     0.1051     0.1472
  258.5000   125.9718     5.7677     5.4671     6.4920     2.4360     0.1027     0.1452
  259.0000   121.8256     5.6712     5.3634     6.4949     2.4408     0.0979     0.1431
  259.5000   118.4007     5.5762     5.2618     6.5188     2.4420     0.0955     0.1416
  260.0000   118.2737     5.4828     5.1620     6.5271     2.4419     0.1022     0.1413
  260.5000   121.6457     5.3910     5.0641     6.5222     2.4380     0.0954     0.1453
  261.0000   123.5031     5.3007     4.9682     6.5170     2.4282     0.0880     0.1514
  261.5000   123.1008     5.2121     4.8733     6.5113     2.4185     0.0802     0.1576
  262.0000   123.1484     5.1256     4.8026     6.4930     2.4112     0.0875     0.1602
  262.5000   126.0442     5.0272     4.7583     6.4574     2.4077     0.1000     0.1614
  263.0000   127.6474     4.9390     4.7789     6.4401     2.4072     0.0942     0.1633
  263.5000   124.0948     4.9541     4.7932     6.4271     2.4068     0.0781     0.1633
  264.0000   120.0971     4.9958     4.8116     6.4134     2.4062     0.0617     0.1633
  264.5000   120.8052     5.0378     4.8450     6.4444     2.4099     0.0676     0.1603
  265.0000   122.5053     5.0801     4.8788     6.4928     2.4169     0.0814     0.1570
  265.5000   122.0884     5.1228     4.9127     6.5414     2.4216     0.0765     0.1546
  266.0000   117.6986     5.1659     4.9469     6.5584     2.4232     0.0670     0.1531
  266.5000   113.3454     5.2094     4.9813     6.5304     2.4281     0.0809     0.1499
  267.0000   110.7849     5.2532     5.0160     6.5030     2.4359     0.1046     0.1451
  267.5000   113.2026     5.3200     5.0509     6.5040     2.4395     0.1080     0.1428
  268.0000   116.4123     5.3989     5.0860     6.5046     2.4406     0.0967     0.1421
  268.5000   115.6315     5.4650     5.1214     6.4383     2.4446     0.0853     0.1401
  269.0000   111.1460     5.4863     5.1571     6.4403     2.4489     0.1025     0.1373
  269.5000   108.5220     5.5084     5.1929     6.4526     2.4460     0.1220     0.1382
  270.0000   110.2913     5.5305     5.2291     6.4650     2.4354     0.1371     0.1436
  270.5000   111.2078     5.5526     5.2676     6.4829     2.4249     0.1262     0.1489
  271.0000   108.7976     5.5667     5.2348     6.5044     2.4184     0.1111     0.1542
  271.5000   107.6278     5.4976     5.1914     6.5260     2.4152     0.1008     0.1569
  272.0000   111.1170     5.4394     5.1484     6.5476     2.4202     0.0989     0.1538
  272.5000   118.2702     5.3819     5.1053     6.5694     2.4283     0.1086     0.1499
