~VERSION INFORMATION
 VERS.                2.0:   CWLS LOG ASCII STANDARD - VERSION 2.0
 WRAP.                 NO:   ONE LINE PER DEPTH STEP
~WELL INFORMATION
#MNEM.UNIT      DATA TYPE    INFORMATION
#----------   ------------   ------------------------------
 STRT.F            4.0000:   START DEPTH
 STOP.F          614.0000:   STOP DEPTH
 STEP.F            0.1000:   STEP LENGTH
 NULL.          -999.2500:   NO VALUE
 COMP.   FLUOR DANIEL INC:   COMPANY
 WELL.     63-4 X 3 #63-3:   WELL
 FLD .          N.P.R. #3:   FIELD
 LOC .       S3 T38N R78W:   LOCATION
 CNTY.            NATRONA:   COUNTY
 STAT.            WYOMING:   STATE
 CTRY. UNITED STATES OF AMERICA:   COUNTRY
 SRVC.      Western Atlas:   SERVICE COMPANY
 DATE.        01-JUN-1995:   LOGDATE
 API .       490252271300:   API NUMBER
~CURVE INFORMATION
#MNEM.UNIT       API CODE    CURVE DESCRIPTION
#----------   ------------   ------------------------------
 DEPT.F                  :   
 GRR .GAPI   07 310 01 00:   GAMMA RAY
 RILD.OHMM   07 120 46 00:   INDUCTION LOG DEEP RESISTIVITY
 RILM.OHMM   07 120 44 00:   INDUCTION LOG MEDIUM RESISTIVITY
~PARAMETER INFORMATION
#MNEM.UNIT          VALUE    DESCRIPTION
#----------   ------------   ------------------------------
 PD  .                 GL:   PERMANENT DATUM
 EPD .F              5173:   ELEVATION PERMANENT DATUM
 LMF .                 KB:   LOG MEASURED FROM
 DAPD.F                10:   FEET ABOVE PERMANENT DATUM
 DMF .                 KB:   DRILLING MEASURED FROM
 EKB .F              5183:   KELLING BUSHING
 EDF .F              5182:   DRILLING FLOOR
 EGL .F              5173:   GROUND LEVEL
 DATE.        01-JUN-1995:   RUN DATE
 RUN .                  1:   RUN NUMBER
 DD  .F               626:   DEPTH DRILLER
 DL  .F               622:   DEPTH LOGGER
 BLI .F               614:   BOTTOM LOG INTERVAL
 TLI .F                95:   TOP LOG INTERVAL
 CS  .IN            9.625:   CASING SIZE
 CBD .F                95:   CASING BOTTOM DRILLER
 CBL .F                95:   CASING BOTTOM LOGGER
 BS  .IN             8.75:   BIT SIZE
 BSD .F               626:   BIT SIZE AT DEPTH
 DFT .                AIR:   DRILLING FLUID TYPE
 MRT .F               147:   MAXIMUM RECORDED TEMPERATURE
 LUN .            HL 6530:   LOGGING UNIT NUMBER
 LUL .             CASPER:   LOGGING UNIT LOCATION
 ENGI.        VERN RAUTIO:   RECORDING ENGINEER
 WITN.        STEVE HARDY:   WITNESSED BY
 CLNT.            A2DTECH:   CLIENT CODE
 ORIG.           5" PRINT:   ORIGIN OF DATA
 UWI .       490252271300:   UNIQUE WELL ID
 DICO. A2D Technologies, Inc.:   DIGITIZING COMPANY
~OTHER INFORMATION
~A    DEPT       GRR     RILD       RILM   
# ...
   95.0000    96.1991 10056.1104 10096.8594
   95.1000    98.7474 10038.6768 10096.8594
   95.2000   101.0784 10021.2441 10096.8594
   95.3000   103.4408 10003.8105 10096.8594
   95.4000   105.9057  9986.3779 10096.8594
   95.5000   108.7622  9968.9443 10096.8594
   95.6000   110.9188  9951.5117  9460.0479
   95.7000   112.3793  9934.0781  7826.5112
   95.8000   113.5662  4842.5669  5175.4033
   95.9000   114.3457    12.2028  3007.0977
   96.0000   115.2097     4.4197     9.7450
   96.1000   115.6732     3.6587     5.7600
   96.2000   116.1931     3.0903     4.3174
   96.3000   116.5655     2.8896     3.1968
   96.4000   116.7204     2.6852     2.7629
   96.5000   116.7210     2.3797     2.7479
   96.6000   116.7216     2.0905     2.8055
   96.7000   116.7222     1.9999     2.8058
   96.8000   117.2006     1.9870     2.7905
   96.9000   117.5236     1.9767     2.7868
   97.0000   117.7838     1.9652     2.8360
   97.1000   117.9312     1.9721     2.9652
   97.2000   117.8610     2.0423     3.1446
   97.3000   117.5445     2.2228     3.2754
   97.4000   116.7264     2.5164     3.4073
   97.5000   116.2343     2.7351     3.4975
   97.6000   115.5114     3.0271     3.6328
   97.7000   114.7331     3.3733     3.7979
   97.8000   113.9547     3.8239     3.9895
   97.9000   113.2547     4.3399     4.2488
   98.0000   112.6999     4.6330     4.7188
   98.1000   111.9041     5.0390     5.4573
   98.2000   111.6031     5.6095     5.8755
   98.3000   111.6036     6.2297     6.2445
   98.4000   111.6042     6.8393     6.5835
   98.5000   111.6048     7.7511     6.9567
   98.6000   111.6054     9.1210     7.2860
   98.7000   111.6497    10.0201     7.6104
   98.8000   111.9083    11.1200     7.8690
   98.9000   111.9090    11.6692     8.1901
   99.0000   112.3479    12.1447     8.5351
   99.1000   112.8678    12.2450     8.9390
   99.2000   113.5228    11.2711     9.4659
   99.3000   114.2091     8.4389    10.1743
   99.4000   114.7801     7.8614    11.3743
   99.5000   115.5505     7.4186    11.0280
   99.6000   116.1364     7.1018    10.7344
   99.7000   116.5903     6.8561    10.4535
   99.8000   116.7409     6.6602    10.1924
   99.9000   116.4411     6.5371    10.0147
  100.0000   116.7421     6.3852     9.8399
  100.1000   116.7414     6.2975     9.7728
  100.2000   116.7409     6.2077     9.7262
  100.3000   116.7403     6.1451     9.6699
  100.4000   116.7397     6.1094     9.6138
  100.5000   116.7391     6.0641     9.5746
  100.6000   116.7385     5.9967     9.5753
  100.7000   116.7378     5.9588     9.5760
  100.8000   116.9786     5.9272     9.7373
  100.9000   117.2344     5.8675     9.9565
  101.0000   117.4902     5.8179    10.2302
  101.1000   117.7460     5.7966    10.5624
  101.2000   118.1225     5.7904    10.9263
  101.3000   118.8610     5.7570    11.2484
  101.4000   119.1468     5.7573    11.5488
  101.5000   119.8250     5.7575    11.6702
  101.6000   120.0507     5.7796    11.8092
  101.7000   119.9143     5.7980    11.8384
  101.8000   119.5668     5.8276    11.6976
  101.9000   119.0986     5.9313    11.3691
  102.0000   118.8416     6.0454    10.7810
  102.1000   117.9359     6.1784    10.0610
  102.2000   117.5131     6.3536     9.6363
  102.3000   116.9997     6.5434     9.2779
  102.4000   116.4863     6.7234     9.0341
  102.5000   115.9728     6.8916     8.8245
  102.6000   115.4896     7.0962     8.6313
  102.7000   115.2175     7.2935     8.5250
  102.8000   114.7342     7.4022     8.4785
  102.9000   114.4169     7.7132     8.4294
  103.0000   114.1599     8.1796     8.3517
  103.1000   114.0084     8.6167     8.2745
  103.2000   114.0078     8.8159     8.2265
  103.3000   114.0223     8.9841     8.1760
  103.4000   114.3082     9.0337     8.0698
  103.5000   114.7602     9.0873     8.0703
  103.6000   115.2724     9.0805     8.0375
  103.7000   116.0561     9.0277     8.0158
  103.8000   116.9907     8.9752     8.0163
  103.9000   117.7593     8.9217     8.0169
  104.0000   118.5279     8.8016     8.0174
  104.1000   119.1305     8.7584     8.0181
  104.2000   119.1300     8.6739     8.0185
  104.3000   119.1294     8.5970     8.0191
  104.4000   119.1288     8.5320     8.0197
  104.5000   119.0528     8.4326     8.0202
  104.6000   118.7958     8.3282     8.0208
  104.7000   118.5236     8.2375     8.0213
  104.8000   118.0404     8.1057     8.0219
  104.9000   117.7231     7.9644     8.0224
  105.0000   117.4661     7.8435     8.0230
  105.1000   117.1035     7.7617     8.0235
  105.2000   116.7107     7.7165     8.0241
  105.3000   116.6799     7.6649     8.0246
  105.4000   116.1061     7.6652     8.0253
  105.5000   115.8793     7.6655     8.0258
  105.6000   115.6223     7.6658     8.0263
  105.7000   115.5011     7.6800     8.0269
  105.8000   115.5005     7.7256     8.0274
  105.9000   115.4998     7.7740     8.0280
  106.0000   115.4992     7.8176     8.0285
  106.1000   115.8002     7.8640     8.0292
  106.2000   116.4332     7.9107     7.9909
  106.3000   117.3677     7.9577     7.9748
  106.4000   118.3928     8.0049     7.9754
  106.5000   119.3424     8.0524     7.9622
  106.6000   120.1713     8.1070     7.9214
  106.7000   121.5282     8.1072     7.9221
  106.8000   122.9756     8.1400     7.9226
  106.9000   124.3174     8.1407     7.9231
  107.0000   125.5988     8.1083     7.9237
  107.1000   126.7747     8.1086     7.9242
  107.2000   127.6790     8.1089     7.9248
  107.3000   128.1611     8.1093     7.9253
  107.4000   127.5571     8.0730     7.9259
  107.5000   127.1041     8.0539     7.9264
  107.6000   126.2287     8.0349     7.8942
  107.7000   125.0667     7.9881     7.8728
  107.8000   123.6935     7.9438     7.8734
  107.9000   122.1997     7.9442     7.8739
  108.0000   120.9170     7.9042     7.8745
  108.1000   120.3130     7.8899     7.9298
  108.2000   120.5237     7.9136     7.9688
  108.3000   120.7795     7.9606     8.0164
  108.4000   121.0353     8.0078     8.0642
  108.5000   121.2911     8.0572     8.0983
  108.6000   121.5469     8.1032     8.1101
  108.7000   121.8178     8.1140     8.2123
  108.8000   122.2999     8.1718     8.3044
  108.9000   122.6160     8.2484     8.4033
  109.0000   122.7210     8.2973     8.4738
  109.1000   122.8259     8.3465     8.5037
  109.2000   123.0817     8.4023     8.5043
  109.3000   123.3225     8.4459     8.5049
  109.4000   123.0201     8.4961     8.5056
  109.5000   123.0196     8.5208     8.5061
  109.6000   122.8380     8.5378     8.5067
  109.7000   122.7167     8.5809     8.5073
  109.8000   122.6256     8.5812     8.5079
  109.9000   122.3234     8.6799     8.5084
  110.0000   121.8100     8.7423     8.5090
  110.1000   121.5076     8.7942     8.5097
  110.2000   121.2959     8.8464     8.5516
  110.3000   121.2048     8.9118     8.6026
  110.4000   121.0835     9.0140     8.6540
  110.5000   120.9020     9.0739     8.7056
  110.6000   120.9014     9.0742     8.7576
  110.7000   120.9007     9.1498     8.8129
  110.8000   121.1415     9.2300     8.8135
  110.9000   121.2012     9.2848     8.8539
  111.0000   121.2006     9.3312     8.9067
  111.1000   121.3056     9.3316     8.9599
  111.2000   121.5011     9.3857     9.0133
  111.3000   121.5005     9.4414     9.0671
  111.4000   121.4998     9.4975     9.1276
  111.5000   121.7255     9.5295     9.1757
  111.6000   121.8003     9.5441     9.2305
  111.7000   121.6640     9.5967     9.2856
  111.8000   121.4974     9.5971     9.3216
  111.9000   121.4968     9.6986     9.3417
  112.0000   121.4962     9.7727     9.4528
  112.1000   121.1939     9.8307     9.4536
  112.2000   120.9822     9.8689     9.5001
  112.3000   120.7252     9.8886     9.5568
  112.4000   120.4682    10.0077     9.5872
  112.5000   120.2866    10.0779     9.6045
  112.6000   120.2860    10.1260     9.6618
  112.7000   120.2853    10.1488     9.7229
  112.8000   120.2848    10.2022     9.7775
  112.9000   120.2842    10.3073     9.8359
  113.0000   120.2836    10.3685     9.8604
  113.1000   120.2830    10.4363     9.8850
