~VERSION INFORMATION
 VERS.                2.0:   CWLS LOG ASCII STANDARD - VERSION 2.0
 WRAP.                 NO:   ONE LINE PER DEPTH STEP
~WELL INFORMATION
#MNEM.UNIT      DATA TYPE    INFORMATION
#----------   ------------   ------------------------------
 STRT.F           33.0000:   START DEPTH
 STOP.F          694.0000:   STOP DEPTH
 STEP.F            0.5000:   STEP LENGTH
 NULL.          -999.2500:   NO VALUE
 COMP. FENIX & SCISSON INC:   COMPANY
 WELL.  NPR 3 #64 S 34-34:   WELL
 FLD .             TEAPOT:   FIELD
 LOC .      S34 T39N R78W:   LOCATION
 CNTY.            NATRONA:   COUNTY
 STAT.            WYOMING:   STATE
 CTRY. UNITED STATES OF AMERICA:   COUNTRY
 SRVC.              Welex:   SERVICE COMPANY
 DATE.        28-APR-1977:   LOGDATE
 API .       490251034600:   API NUMBER
~CURVE INFORMATION
#MNEM.UNIT       API CODE    CURVE DESCRIPTION
#----------   ------------   ------------------------------
 DEPT.F                  :   
 CALD.IN     45 280 60 00:   CALIPER FROM DENSITY LOG
 GRD .GAPI   45 310 01 00:   GAMMA RAY FROM DENSITY LOG
 CORR.G/C3   45 356 01 00:   DENSITY CORRECTION
 DPHI.DEC    45 890 12 00:   DENSITY POROSITY SANDSTONE
 RHOB.G/C3   45 350 01 00:   BULK DENSITY
 SPR .MV     07 010 01 00:   SPONTANEOUS POTENTIAL
 ILD .OHMM   07 120 46 00:   INDUCTION LOG DEEP
 ILM .OHMM   07 120 44 00:   INDUCTION LOG MEDIUM
 SGRD.OHMM   07 221 05 00:   SHALLOW SHORT GUARD RESISTIVITY
~PARAMETER INFORMATION
#MNEM.UNIT          VALUE    DESCRIPTION
#----------   ------------   ------------------------------
 PD  .                 GL:   PERMANENT DATUM
 EPD .F              5079:   ELEVATION PERMANENT DATUM
 LMF .                 GL:   LOG MEASURED FROM
 DMF .                 GL:   DRILLING MEASURED FROM
 EGL .F              5079:   GROUND LEVEL
 DATE.        28-APR-1977:   RUN DATE
 RUN .                  1:   RUN NUMBER
 DD  .F               735:   DEPTH DRILLER
 DL  .F               697:   DEPTH LOGGER
 BLI .F               695:   BOTTOM LOG INTERVAL
 TLI .F                32:   TOP LOG INTERVAL
 CS  .IN            8.625:   CASING SIZE
 BS  .IN               12:   BIT SIZE
 BSD .F               735:   BIT SIZE AT DEPTH
 DFT .            KCL MUD:   DRILLING FLUID TYPE
 DFD .                9.0:   DRILLING FLUID DENSITY
 BHT .F                74:   BOTTOM HOLE TEMPERATURE
 TCS .HRS            0100:   TIME CURCULATED STOPPED
 MRT .F                74:   MAXIMUM RECORDED TEMPERATURE
 ENGI.            C. DOAK:   RECORDING ENGINEER
 WITN.           ROB LYON:   WITNESSED BY
 CLNT.            A2DTECH:   CLIENT CODE
 ORIG.           5" PRINT:   ORIGIN OF DATA
 UWI .       490251034600:   UNIQUE WELL ID
 DICO. A2D Technologies, Inc.:   DIGITIZING COMPANY
~OTHER INFORMATION
~A   DEPT     CALD        GRD       CORR       DPHI       RHOB        SPR        ILD        ILM       SGRD   
# ...
  471.0000     7.9149   120.2859     0.0101     0.1390     2.4499   -40.0796     6.8655     7.5425     8.1121
  471.5000     7.9167   122.2289     0.0117     0.1372     2.4455   -40.0789     6.7308     7.5997     8.1738
  472.0000     7.9181   124.6290     0.0089     0.1401     2.4426   -40.0781     6.5975     7.6574     8.1215
  472.5000     7.9199   126.5406     0.0105     0.1341     2.4502   -40.0774     6.4222     7.5046     8.0152
  473.0000     7.9217   127.2846     0.0137     0.1302     2.4562   -40.0766     6.2516     7.2035     7.9104
  473.5000     7.9234   126.9985     0.0154     0.1317     2.4548   -40.0758     6.0855     6.8193     7.9169
  474.0000     7.9252   126.2906     0.0170     0.1340     2.4474   -40.0751     5.8829     6.5004     7.6529
  474.5000     7.9270   129.5811     0.0156     0.1387     2.4407   -40.0743     5.6870     6.3267     7.2458
  475.0000     7.9288   130.4896     0.0158     0.1399     2.4401   -40.0736     5.4598     6.1576     7.1006
  475.5000     7.9306   130.3635     0.0160     0.1411     2.4386   -40.0728     5.2416     5.8697     6.9606
  476.0000     7.9473   130.3859     0.0146     0.1440     2.4350   -40.0721     5.1023     5.6342     6.4998
  476.5000     7.9490   129.3697     0.0102     0.1455     2.4328   -40.0713     5.0700     5.4756     5.8633
  477.0000     7.9526   127.6116     0.0044     0.1460     2.4292   -40.0705     5.2958     5.4107     4.6379
  477.5000     7.9674   125.4084     0.0015     0.1466     2.4300   -40.0698     5.5231     5.8554     6.4232
  478.0000     7.9840   123.6503     0.0001     0.1427     2.4368   -40.0690     5.7242     6.2710     7.9092
  478.5000     7.9857   125.8981     0.0033     0.1390     2.4444   -40.0683     5.9683     6.5825     8.5398
  479.0000     7.9578   127.1226     0.0020     0.1381     2.4407   -40.0675     6.1792     6.8183     8.6645
  479.5000     7.9448   126.0912    -0.0024     0.1434     2.4326   -40.0668     6.4013     6.9659     8.9752
  480.0000     7.9466   130.1194     0.0008     0.1398     2.4394   -40.0660     6.5407     7.1167     9.1062
  480.5000     7.9335   129.8450    -0.0006     0.1344     2.4485   -40.0652     6.6831     7.2708     8.3866
  481.0000     7.9353   127.7902    -0.0034     0.1320     2.4546   -40.0645     6.7347     7.4283     7.5132
  481.5000     7.9222   125.8838    -0.0018     0.1328     2.4524   -40.0637     6.7868     7.5367     6.9184
  482.0000     7.9092   123.9773     0.0044     0.1346     2.4487   -40.0630     6.9827     7.6467     8.5794
  482.5000     7.8961   125.3349     0.0091     0.1357     2.4458   -40.0622     7.1348     7.7048     8.7046
  483.0000     7.8979   124.3187     0.0107     0.1381     2.4437   -40.0615     7.1899     7.8172     8.7103
  483.5000     7.8997   124.4894     0.0124     0.1393     2.4445   -40.0607     7.2455     7.9865     8.7765
  484.0000     7.9015   125.5503     0.0125     0.1368     2.4461   -40.0599     7.1499     8.1594     8.7812
  484.5000     7.9033   127.5014     0.0141     0.1364     2.4491   -40.0592     7.1061     8.2213     8.7261
  485.0000     7.9051   129.7493     0.0160     0.1339     2.4522   -40.0584     7.0624     8.2837     8.6717
  485.5000     7.9068   131.1069     0.0177     0.1306     2.4598   -40.0577     7.0692     8.2890     8.6777
  486.0000     7.9086   130.5358     0.0206     0.1286     2.4614   -40.0569     7.1238     8.1788     8.6834
  486.5000     7.9104   127.5907     0.0223     0.1292     2.4622   -40.0562     7.1293     8.0713     8.7494
  487.0000     7.9122   125.5359     0.0208     0.1270     2.4638   -40.0554     7.1348     7.9652     8.7551
  487.5000     7.9288   124.3713     0.0179     0.1249     2.4676   -40.0546     7.1403     7.8605     8.8216
  488.0000     7.9308   123.5034     0.0167     0.1243     2.4684   -40.0539     7.0965     7.8655     8.8274
  488.5000     7.9324   122.9267     0.0214     0.1245     2.4700   -40.0531     7.1020     7.7621     8.8332
  489.0000     7.9342   124.8834     0.0245     0.1173     2.4784   -40.0524     7.1074     7.7120     8.7781
  489.5000     7.9360   127.7247     0.0277     0.1143     2.4889   -40.0516     7.1118     7.6649     8.7234
  490.0000     7.9377   129.8242     0.0293     0.1136     2.4912   -40.0509     7.1170     7.6698     8.7291
  490.5000     7.9395   130.2916     0.0310     0.1160     2.4771   -40.0501     7.0733     7.6215     8.6747
  491.0000     7.9413   130.3139     0.0311     0.1204     2.4727   -40.0493     7.0274     7.4693     8.6804
  491.5000     7.9282   130.3363     0.0313     0.1258     2.4683   -40.0486     6.7953     7.2699     8.6262
  492.0000     7.9300   130.3586     0.0314     0.1308     2.4556   -40.0478     6.6153     7.1743     8.5724
  492.5000     7.9318   130.5237     0.0286     0.1365     2.4457   -40.0471     6.3071     7.0311     8.5781
  493.0000     7.9188   129.6614     0.0242     0.1394     2.4385   -40.0463     6.0551     6.7959     8.1219
  493.5000     7.9206   126.1229     0.0244     0.1391     2.4458   -40.0456     6.0178     6.6143     5.5565
  494.0000     7.9224   123.0295     0.0245     0.1351     2.4547   -40.0448     6.0226     6.4375     7.6954
  494.5000     7.9241   123.6453     0.0277     0.1309     2.4584   -40.0440     6.0272     6.5315     8.0823
  495.0000     7.9259   126.0415     0.0308     0.1276     2.4607   -40.0433     6.0319     6.8131     8.0319
  495.5000     7.9277   127.2508     0.0340     0.1252     2.4645   -40.0425     5.7908     6.8174     5.9697
  496.0000     7.9295   128.3117     0.0326     0.1350     2.4580   -40.0418     5.5594     6.7268     7.7153
  496.5000     7.9461   129.5210     0.0298     0.1397     2.4397   -40.0410     5.3743     6.5470     8.1032
  497.0000     7.9326   131.0270     0.0299     0.1424     2.4339   -40.0403     5.2669     6.3730     8.2215
  497.5000     7.9196   132.3847     0.0361     0.1435     2.4308   -40.0395     5.1494     5.8953     7.8382
  498.0000     7.8917   131.5168     0.0393     0.1510     2.4198   -40.0387     4.9243     4.9688     6.8303
  498.5000     7.8939   130.3522     0.0289     0.1539     2.4155   -40.0380     4.8605     4.8722     4.1258
  499.0000     7.8957   127.5555     0.0230     0.1425     2.4375   -40.0372     4.9319     5.0827     3.3784
  499.5000     7.9123   125.3523     0.0201     0.1320     2.4584   -40.0365     5.0733     5.4132     6.3866
  500.0000     7.9439   123.5886     0.0220     0.1235     2.4719   -40.0357     5.3284     5.8858     7.8099
  500.5000     7.9452   126.5803     0.0234     0.1197     2.4683   -40.0350     5.7537     6.2685     8.0900
  501.0000     7.9466   128.5316     0.0175     0.1202     2.4684   -40.0342     6.0433     6.4936     8.0953
  501.5000     7.9332   129.8893     0.0161     0.1217     2.4692   -40.0334     6.2169     6.6803     8.2135
  502.0000     7.9349   127.6863     0.0162     0.1242     2.4687   -40.0327     6.3514     6.7309     8.2759
  502.5000     7.9363   124.8898     0.0145     0.1295     2.4541   -40.0319     6.3995     6.7820     8.1676
  503.0000     7.9377   122.0932     0.0069     0.1336     2.4499   -40.0312     6.4035     6.8809     8.0594
  503.5000     7.9394   120.0385     0.0000     0.1319     2.4501   -40.0304     6.2757     6.9331     8.1221
  504.0000     7.9408   118.8684     0.0048     0.1286     2.4630   -40.0297     6.1933     6.9857     8.1825
  504.5000     7.9422   120.6769     0.0109     0.1268     2.4546   -40.0289     5.9449     7.0387     8.1936
  505.0000     7.9439   122.3314     0.0169     0.1342     2.4488   -40.0281     5.5506     6.6632     8.3125
  505.5000     7.9453   124.4310     0.0230     0.1381     2.4414   -40.0274     5.1825     6.3078     8.0339
  506.0000     7.9467   126.3823     0.0215     0.1476     2.4221   -40.0266     5.0762     5.9713     5.8847
  506.5000     7.9481   125.3662     0.0172     0.1538     2.4197   -40.0259     5.1532     5.6137     3.7526
  507.0000     7.9498   123.1631     0.0143     0.1490     2.4290   -40.0251     5.2646     5.7751     4.6224
