~VERSION INFORMATION
 VERS.                2.0:   CWLS LOG ASCII STANDARD - VERSION 2.0
 WRAP.                 NO:   ONE LINE PER DEPTH STEP
~WELL INFORMATION
#MNEM.UNIT      DATA TYPE    INFORMATION
#----------   ------------   ------------------------------
 STRT.F           30.0000:   START DEPTH
 STOP.F          509.0000:   STOP DEPTH
 STEP.F            0.5000:   STEP LENGTH
 NULL.          -999.2500:   NO VALUE
 COMP. FENIX & SCISSON INC:   COMPANY
 WELL.   NPR 3 #45 SX 3-3:   WELL
 FLD .             TEAPOT:   FIELD
 LOC .       S3 T38N R78W:   LOCATION
 CNTY.            NATRONA:   COUNTY
 STAT.            WYOMING:   STATE
 CTRY. UNITED STATES OF AMERICA:   COUNTRY
 SRVC.            Unknown:   SERVICE COMPANY
 DATE.        05-OCT-1978:   LOGDATE
 API .       490251071700:   API NUMBER
~CURVE INFORMATION
#MNEM.UNIT       API CODE    CURVE DESCRIPTION
#----------   ------------   ------------------------------
 DEPT.F                  :   
 SPR .MV     05 010 01 00:   SPONTANEOUS POTENTIAL FROM RES.
 SN  .OHMM   05 040 16 00:   SHORT NORMAL 16"
 ILD .OHMM   05 120 46 00:   INDUCTION LOG DEEP
 GRD .GAPI   45 310 01 00:   GAMMA RAY FROM DENSITY LOG
 CALD.IN     45 280 60 00:   CALIPER
 RHOB.G/C3   45 350 01 00:   BULK DENSITY
 DPHI.DEC    45 890 12 00:   DENSITY POROSITY SANDSTONE
 CORR.G/C3   45 356 01 00:   DENSITY CORRECTION
~PARAMETER INFORMATION
#MNEM.UNIT          VALUE    DESCRIPTION
#----------   ------------   ------------------------------
 PD  .                 GL:   PERMANENT DATUM
 EPD .F              5188:   ELEVATION PERMANENT DATUM
 LMF .                 KB:   LOG MEASURED FROM
 DAPD.F                 4:   FEET ABOVE PERMANENT DATUM
 DMF .                 KB:   DRILLING MEASURED FROM
 EKB .F              5192:   KELLING BUSHING
 EGL .F              5188:   GROUND LEVEL
 DATE.            10-5-78:   RUN DATE
 RUN .                  1:   RUN NUMBER
 DD  .F               510:   DEPTH DRILLER
 DL  .F               509:   DEPTH LOGGER
 BLI .F               503:   BOTTOM LOG INTERVAL
 TLI .F                48:   TOP LOG INTERVAL
 CS  .IN            8.625:   CASING SIZE
 CBL .F                46:   CASING BOTTOM LOGGER
 BS  .IN            7.875:   BIT SIZE
 BSD .F               510:   BIT SIZE AT DEPTH
 DFT .                KCL:   DRILLING FLUID TYPE
 DFD .                8.7:   DRILLING FLUID DENSITY
 DFV .                 37:   DRILLING FLUID VISCOSITY
 DFPH.                  9:   DRILLING FLUID PH
 DFL .               10.4:   DRILLING FLUID LOSS
 MSS .            MUD PIT:   MUD SAMPLE SOURCE
 RMS .OHMM            .28:   RESISTIVITY MUD SAMPLE
 MST .F                58:   MUD SAMPLE TEMPERATURE
 RMF .OHMM            .32:   RESISTIVITY MUD FILTRATE SAMPLE
 MFST.F                54:   MUD FILTRATE SAMPLE TEMPERATURE
 RMC .OHMM            .24:   RESISTIVITY MUD CAKE
 MCST.F                56:   MUD CAKE SAMPLE TEMPERATURE
 MFSS.               MEAS:   MUD FILTRATE SAMPLE SOURCE
 MCSS.               MEAS:   MUD CAKE SAMPLE SOURCE
 BHT .F                64:   BOTTOM HOLE TEMPERATURE
 TCS .HRS               2:   TIME CURCULATED STOPPED
 MRT .F                64:   MAXIMUM RECORDED TEMPERATURE
 LUN .               2958:   LOGGING UNIT NUMBER
 LUL .               CASP:   LOGGING UNIT LOCATION
 ENGI.             MILLER:   RECORDING ENGINEER
 WITN.           DINSMORE:   WITNESSED BY
 CLNT.            A2DTECH:   CLIENT CODE
 ORIG.       2", 5" PRINT:   ORIGIN OF DATA
 UWI .       490251071700:   UNIQUE WELL ID
 DICO. A2D Technologies, Inc.:   DIGITIZING COMPANY
~OTHER INFORMATION
~A   DEPT      SPR         SN        ILD         GRD      CALD       RHOB       DPHI       CORR   
# ...
  475.5000   -18.5516    10.8476    10.6607    98.1453     7.5216     2.5087     0.1016     0.0077
  476.0000   -18.5514    10.8782    10.5258    98.3629     7.5226     2.5093     0.1047     0.0085
  476.5000   -18.5507    10.9089    10.4416    98.6944     7.5235     2.5143     0.1024     0.0113
  477.0000   -18.5537    10.9535    10.3864    99.1639     7.5244     2.5199     0.0993     0.0140
  477.5000   -18.7155    10.8873    10.3304    99.4374     7.5254     2.5233     0.0962     0.0155
  478.0000   -18.8920    10.7668    10.2746    99.6657     7.5263     2.5243     0.0949     0.0155
  478.5000   -19.0698    10.6481    10.2192    99.9257     7.5273     2.5266     0.0940     0.0153
  479.0000   -19.1530    10.5309    10.1641   100.1853     7.5282     2.5289     0.0908     0.0152
  479.5000   -19.1676    10.4549    10.1094   100.7975     7.5292     2.5294     0.0914     0.0150
  480.0000   -19.1809    10.4387    10.0546   101.5491     7.5301     2.5231     0.0930     0.0149
  480.5000   -19.1940    10.4226    10.0023   102.1014     7.5311     2.5158     0.0962     0.0147
  481.0000   -19.2072    10.4065     9.7775   102.1984     7.5320     2.5137     0.0996     0.0146
  481.5000   -19.2205    10.3904     9.5427   102.1080     7.5330     2.5130     0.1022     0.0144
  482.0000   -19.2337    10.3742     9.5002   101.4926     7.5339     2.5150     0.1010     0.0143
  482.5000   -19.2470    10.3235     9.4602    99.6546     7.5349     2.5176     0.0997     0.0141
  483.0000   -19.2602    10.2350     9.4202    97.8986     7.5358     2.5207     0.0985     0.0140
  483.5000   -19.2734    10.1472     9.3805    97.4547     7.5368     2.5238     0.0950     0.0138
  484.0000   -19.2867    10.0602     9.2703    97.7146     7.5377     2.5208     0.0970     0.0137
  484.5000   -19.2999     9.9739     9.1328    98.5916     7.5387     2.5178     0.0989     0.0135
  485.0000   -19.3132     9.8895     8.9972    99.6295     7.5398     2.5152     0.1008     0.0147
  485.5000   -19.3264     9.8132     8.8637   100.6559     7.5332     2.5187     0.0998     0.0163
  486.0000   -19.3397     9.7374     8.7322   101.5123     7.5246     2.5224     0.0962     0.0179
  486.5000   -19.3529     9.6471     8.6095   101.6933     7.5160     2.5257     0.0934     0.0195
  487.0000   -19.3662     9.5531     8.5210   101.8863     7.5074     2.5280     0.0923     0.0212
  487.5000   -19.3794     9.4600     8.4334   102.0798     7.4988     2.5340     0.0895     0.0191
  488.0000   -19.3927     9.3689     8.3467   102.2742     7.4901     2.5399     0.0867     0.0161
  488.5000   -19.4059     9.3587     8.2608   102.4703     7.4813     2.5401     0.0860     0.0130
  489.0000   -19.4191     9.3485     8.1759   102.6376     7.4848     2.5352     0.0876     0.0115
  489.5000   -19.4324     9.3384     8.1270   102.4136     7.4906     2.5290     0.0914     0.0115
  490.0000   -19.4456     9.3283     8.0851   102.1872     7.4963     2.5220     0.0971     0.0115
  490.5000   -19.4589     9.3182     8.0434   101.9600     7.5021     2.5107     0.1045     0.0115
  491.0000   -19.4721     9.3080     8.0019   101.7435     7.5078     2.4924     0.1119     0.0143
  491.5000   -19.4854     9.2977     7.9404   100.8449     7.5136     2.4899     0.1172     0.0208
  492.0000   -19.4986     9.2829     7.9644    99.6090     7.5194     2.5018     0.1130     0.0272
  492.5000   -19.5119     9.3941     8.0144    99.1316     7.5166     2.5141     0.1049     0.0315
  493.0000   -19.5250     9.6158     8.0644    98.7700     7.5128     2.5264     0.0967     0.0315
  493.5000   -19.5394     9.8421     8.1819    98.3927     7.5090     2.5387     0.0885     0.0302
  494.0000   -19.4571    10.0838     8.4657    98.8416     7.5052     2.5452     0.0835     0.0233
  494.5000   -19.3153    10.1184     8.7595   102.0629     7.5014     2.5468     0.0827     0.0167
  495.0000   -19.1724    10.1546     9.0634   104.0421     7.4976     2.5464     0.0825     0.0129
  495.5000   -19.0292    10.2636     9.3779   104.0679     7.4938     2.5460     0.0823     0.0115
  496.0000   -18.8855    10.4907     9.7032   103.5483     7.4900     2.5471     0.0821     0.0102
  496.5000   -18.7548    10.7228  -999.2500   103.0565     7.4863     2.5473     0.0826     0.0089
  497.0000   -18.8077    10.9535  -999.2500   102.9873     7.4825     2.5435     0.0849     0.0076
  497.5000   -18.8652    10.9927  -999.2500   102.9303     7.4787     2.5335     0.0895     0.0064
  498.0000   -18.9218    11.0299  -999.2500   102.8787     7.4749     2.5235     0.0965     0.0064
  498.5000   -18.9783    11.0675  -999.2500   101.8131     7.4711     2.5162     0.1012     0.0093
  499.0000   -19.0347    11.1054  -999.2500   100.0852     7.4674     2.5162     0.1003     0.0129
  499.5000   -19.0912    11.1435  -999.2500    99.6151     7.4637     2.5192     0.0981     0.0202
  500.0000   -19.1476    11.1816  -999.2500    99.3404     7.4600     2.5222     0.0959     0.0274
  500.5000   -19.2038    11.2199  -999.2500   100.8772     7.4264     2.5252     0.0935     0.0339
  501.0000   -19.2608    11.2584  -999.2500   102.2209     7.3889     2.5308     0.0902     0.0359
  501.5000   -19.3181    11.2970  -999.2500   102.2834     7.3508     2.5370     0.0868     0.0380
  502.0000   -19.5916    11.3553  -999.2500   101.9270     7.2927     2.5413     0.0858     0.0387
  502.5000   -19.9315    11.5273  -999.2500   101.6301     7.2258     2.5418     0.0848     0.0358
  503.0000   -20.0727    12.1208  -999.2500   101.3329     7.1585     2.5415     0.0852     0.0330
  503.5000  -999.2500  -999.2500  -999.2500   101.0347     7.0910     2.5402     0.0951     0.0336
  504.0000  -999.2500  -999.2500  -999.2500   100.8365     7.0454     2.5240     0.1007     0.0381
  504.5000  -999.2500  -999.2500  -999.2500   101.0179     7.0737     2.5131     0.1009     0.0426
  505.0000  -999.2500  -999.2500  -999.2500  -999.2500     7.1010     2.5141     0.0992     0.0471
  505.5000  -999.2500  -999.2500  -999.2500  -999.2500     7.1320     2.5190     0.0981     0.0496
  506.0000  -999.2500  -999.2500  -999.2500  -999.2500     7.1638     2.5238     0.0985     0.0498
  506.5000  -999.2500  -999.2500  -999.2500  -999.2500     7.1957     2.5246     0.0988     0.0501
  507.0000  -999.2500  -999.2500  -999.2500  -999.2500     7.2205     2.5246     0.0958     0.0504
  507.5000  -999.2500  -999.2500  -999.2500  -999.2500     7.2121     2.5229     0.0937     0.0507
  508.0000  -999.2500  -999.2500  -999.2500  -999.2500     7.2047     2.5214     0.0980     0.0509
  508.5000  -999.2500  -999.2500  -999.2500  -999.2500     7.1554     2.5139     0.1030     0.0512
  509.0000  -999.2500  -999.2500  -999.2500  -999.2500     7.0827     2.5093     0.1048     0.0514
