~VERSION INFORMATION
 VERS.                2.0:   CWLS LOG ASCII STANDARD - VERSION 2.0
 WRAP.                 NO:   ONE LINE PER DEPTH STEP
~WELL INFORMATION
#MNEM.UNIT      DATA TYPE    INFORMATION
#----------   ------------   ------------------------------
 STRT.F            4.0000:   START DEPTH
 STOP.F          572.0000:   STOP DEPTH
 STEP.F            0.5000:   STEP LENGTH
 NULL.          -999.2500:   NO VALUE
 COMP. FENIX & SCISSON INC:   COMPANY
 WELL.       NPR#3 #33-10:   WELL
 FLD .             TEAPOT:   FIELD
 LOC .      S10 T38N R78W:   LOCATION
 CNTY.            NATRONA:   COUNTY
 STAT.            WYOMING:   STATE
 CTRY. UNITED STATES OF AMERICA:   COUNTRY
 SRVC.              Welex:   SERVICE COMPANY
 DATE.        05-MAY-1980:   LOGDATE
 API .       490251080800:   API NUMBER
~CURVE INFORMATION
#MNEM.UNIT       API CODE    CURVE DESCRIPTION
#----------   ------------   ------------------------------
 DEPT.F                  :   
 SGRD.OHMM   07 220 05 00:   SHALLOW GUARD RESISTIVITY
 ILD .OHMM   07 120 46 00:   INDUCTION LOG DEEP RESISTIVITY
 ILM .OHMM   07 120 44 00:   INDUCTION LOG MEDIUM
 SPR .MV     07 010 01 00:   SPONTANEOUS POTENTIAL
 CALD.IN     45 280 60 00:   CALIPER
 GRD .GAPI   45 310 01 00:   GAMMA RAY FROM DENSITY LOG
 RHOB.G/C3   45 350 01 00:   BULK DENSITY
 CORR.G/C3   45 356 01 00:   DENSITY CORRECTION
 DPHI.DEC    45 890 12 00:   DENSITY POROSITY SANDSTONE
~PARAMETER INFORMATION
#MNEM.UNIT          VALUE    DESCRIPTION
#----------   ------------   ------------------------------
 PD  .                 GL:   PERMANENT DATUM
 EPD .F              5228:   ELEVATION PERMANENT DATUM
 LMF .                 KB:   LOG MEASURED FROM
 DAPD.F                 5:   FEET ABOVE PERMANENT DATUM
 DMF .                 KB:   DRILLING MEASURED FROM
 EKB .F              5233:   KELLING BUSHING
 EGL .F              5228:   GROUND LEVEL
 DATE.             5-5-80:   RUN DATE
 RUN .                  1:   RUN NUMBER
 DD  .F               572:   DEPTH DRILLER
 DL  .F               572:   DEPTH LOGGER
 BLI .F               570:   BOTTOM LOG INTERVAL
 TLI .F                30:   TOP LOG INTERVAL
 BS  .IN            7.875:   BIT SIZE
 BSD .F               572:   BIT SIZE AT DEPTH
 DFT .            KCL MUD:   DRILLING FLUID TYPE
 DFD .                8.9:   DRILLING FLUID DENSITY
 DFV .                 36:   DRILLING FLUID VISCOSITY
 DFL .               12.6:   DRILLING FLUID LOSS
 MSS .           FLOWLINE:   MUD SAMPLE SOURCE
 RMS .OHMM           1.08:   RESISTIVITY MUD SAMPLE
 MST .F                60:   MUD SAMPLE TEMPERATURE
 RMF .OHMM            .86:   RESISTIVITY MUD FILTRATE SAMPLE
 MFST.F                60:   MUD FILTRATE SAMPLE TEMPERATURE
 RMC .OHMM           1.29:   RESISTIVITY MUD CAKE
 MCST.F                60:   MUD CAKE SAMPLE TEMPERATURE
 MFSS.           MEASURED:   MUD FILTRATE SAMPLE SOURCE
 MCSS.           MEASURED:   MUD CAKE SAMPLE SOURCE
 TCS .HRS               2:   TIME CURCULATED STOPPED
 MRT .F               100:   MAXIMUM RECORDED TEMPERATURE
 LUN .               1892:   LOGGING UNIT NUMBER
 LUL .             CASPER:   LOGGING UNIT LOCATION
 ENGI.               REIN:   RECORDING ENGINEER
 WITN.              AMEND:   WITNESSED BY
 CLNT.            A2DTECH:   CLIENT CODE
 ORIG.           5" PRINT:   ORIGIN OF DATA
 UWI .       490251080800:   UNIQUE WELL ID
 DICO. A2D Technologies, Inc.:   DIGITIZING COMPANY
~OTHER INFORMATION
~A    DEPT    SGRD        ILD        ILM        SPR       CALD         GRD        RHOB       CORR     DPHI   
# ...
  259.5000     8.8039     6.1041     6.5413   -27.8422     7.8798    95.2815     2.5492     0.0034     0.0866
  260.0000     8.1779     6.2909     6.7159   -28.3554     7.8803    93.0371     2.5568     0.0071     0.0849
  260.5000     8.6344     6.3680     6.8951   -28.9178     7.8808    90.8091     2.5618     0.0103     0.0817
  261.0000     8.9697     6.4306     7.0493   -29.2958     7.8813    91.0017     2.5396    -0.0047     0.0943
  261.5000     8.8010     6.4943     7.1732   -29.6333     7.8818    92.2167     2.5149    -0.0238     0.1044
  262.0000     8.9477     6.5587     7.2150   -29.9694     7.8823    93.4347     2.5199    -0.0272     0.0989
  262.5000     9.2192     6.6236     7.2550   -30.3214     7.8828    94.1520     2.5285    -0.0218     0.0914
  263.0000     9.0508     6.6892     7.2952   -30.7449     7.8833    94.8044     2.5373    -0.0162     0.0858
  263.5000     9.1712     6.7555     7.3357   -31.1704     7.8838    94.6313     2.5438    -0.0132     0.0900
  264.0000     9.4110     6.8040     7.3764   -31.2356     7.8843    93.7878     2.5381    -0.0158     0.0944
  264.5000     9.4778     6.8139     7.4173   -31.0900     7.8847    92.9152     2.5320    -0.0182     0.0908
  265.0000     9.2192     6.8238     7.4585   -30.7536     7.8852    92.7617     2.5260    -0.0205     0.0929
  265.5000     9.3364     6.8337     7.4998   -30.2730     7.8857    92.8532     2.5291    -0.0228     0.0976
  266.0000     9.5655     6.8436     7.5267   -29.7342     7.8862    92.9546     2.5498    -0.0148     0.0888
  266.5000     9.4698     6.8536     7.5078   -29.2317     7.8867    93.0337     2.5699     0.0134     0.0768
  267.0000     9.3889     6.8635     7.4915   -28.9651     7.8872    94.0096     2.5856     0.0216     0.0721
  267.5000     9.5901     6.8735     7.4752   -28.7109     7.8874    94.6289     2.5771     0.0073     0.0702
  268.0000     9.8019     6.8835     7.4589   -28.2288     7.8874    93.9994     2.5872     0.0224     0.0713
  268.5000    10.0168     6.8935     7.4427   -27.7200     7.8874    93.3919     2.5935     0.0180     0.0723
  269.0000    10.0168     6.9035     7.4265   -27.3618     7.8874    93.1158     2.5793     0.0055     0.0734
  269.5000     9.5537     6.9135     7.4103   -27.0014     7.8874    93.2265     2.5705    -0.0071     0.0698
  270.0000     9.2192     6.9267     7.3942   -26.3486     7.8874    93.3343     2.5847    -0.0093     0.0598
  270.5000     9.3343     6.9172     7.3781   -25.5786     7.8874    93.4694     2.6062    -0.0010     0.0498
  271.0000     9.4778     6.9012     7.3621   -25.2869     7.8874    92.6443     2.6368     0.0073     0.0399
  271.5000     9.2614     6.8853     7.3461   -24.9844     7.8874    91.4161     2.6278     0.0159     0.0337
  272.0000     8.9327     6.8693     7.3299   -24.6818     7.8874    91.6113     2.6007     0.0064     0.0544
  272.5000     8.8854     6.8008     7.3229   -24.4406     7.8874    92.3097     2.5738    -0.0082     0.0754
  273.0000     9.0508     6.7389     7.1939   -24.6324     7.8874    93.0489     2.5477    -0.0208     0.0856
  273.5000     8.6904     6.6677     7.0486   -24.8490     7.8874    92.9792     2.5456    -0.0175     0.0872
  274.0000     8.5599     6.5973     6.9063   -25.0659     7.8874    92.8500     2.5383    -0.0125     0.0902
  274.5000     9.0712     6.5276     6.7668   -25.2812     7.8874    92.7044     2.5306    -0.0131     0.0948
  275.0000     9.1346     6.4589     6.6302   -25.4981     7.8874    93.3842     2.5229    -0.0199     0.0993
  275.5000     8.1605     6.3909     6.4963   -25.8575     7.8874    94.3643     2.5152    -0.0263     0.1039
  276.0000     7.9996     6.3173     6.3651   -27.0700     7.8874    95.3541     2.5074    -0.0228     0.1085
  276.5000     7.6937     5.9474     6.2366   -28.3833     7.8874    96.3945     2.4998    -0.0166     0.1120
  277.0000     7.2622     5.5684     5.9708   -29.3863     7.8874    95.8244     2.4900    -0.0104     0.1142
  277.5000     6.8008     5.1824     5.6667   -30.3998     7.8874    94.6742     2.4947    -0.0043     0.1155
  278.0000     6.9274     4.8022     5.3781   -31.4097     7.8874    93.5366     2.5034     0.0018     0.1168
  278.5000     6.0327     4.4482     5.1999   -32.4153     7.8874    93.4660     2.4676     0.0057     0.1283
  279.0000     6.0327     4.1204     4.9902   -33.2189     7.8874    93.4706     2.4376    -0.0014     0.1451
  279.5000     5.3651     3.8168     4.7033   -33.6724     7.8874    92.9818     2.4076    -0.0098     0.1615
  280.0000     4.8890     3.5356     4.4330   -34.0412     7.8874    92.0037     2.3779    -0.0183     0.1821
  280.5000     4.4551     3.2751     4.1787   -33.9922     7.8874    91.5083     2.3485    -0.0265     0.2023
  281.0000     4.1349     3.0338     3.9602   -33.7761     7.8874    90.8829     2.3273    -0.0204     0.2153
  281.5000     3.6902     2.8103     3.8394   -33.5186     7.8874    90.3205     2.3213    -0.0133     0.2182
  282.0000     3.1976     2.6032     3.7223   -33.2654     7.8874    88.7942     2.3155    -0.0166     0.2191
  282.5000     2.8273     2.4758     3.6269   -33.0365     7.8874    88.9648     2.3122    -0.0455     0.2198
  283.0000     3.1170     2.4441     3.6013   -33.0327     7.8874    89.9013     2.3455    -0.0627     0.2056
  283.5000     3.5223     2.4441     3.5668   -33.0373     7.8874    91.0699     2.4118    -0.0308     0.1842
  284.0000     4.9073     2.5363     3.6309   -32.8321     7.8874    93.2097     2.4518    -0.0068     0.1616
  284.5000     6.1657     2.6458     3.7336   -32.6381     7.8874    95.6186     2.4439    -0.0196     0.1399
  285.0000     3.2747     2.7930     3.8391   -32.6921     7.8874    95.9893     2.4691    -0.0298     0.1311
  285.5000     4.5061     3.0517     3.9966   -32.7422     7.8874    95.9132     2.5201    -0.0153     0.1027
  286.0000     6.7601     3.3333     4.1867   -32.7934     7.8874    97.1991     2.5500    -0.0069     0.0876
  286.5000     7.8818     3.6417     4.3858   -32.8414     7.8874    98.4533     2.5320    -0.0151     0.0917
  287.0000     7.3190     3.9787     4.5944   -32.5903     7.8874    99.7522     2.5300    -0.0226     0.0992
  287.5000     7.1876     4.3442     4.8129   -32.2776     7.8874   100.6312     2.5439    -0.0130     0.0954
  288.0000     7.4612     4.7235     5.0421   -31.9635     7.8874   100.9421     2.5715    -0.0019     0.0869
  288.5000     7.1161     4.8674     5.2828   -31.6495     7.8874    99.9751     2.5667     0.0092     0.0757
  289.0000     7.2568     5.0205     5.6063   -31.3349     7.8874    99.0360     2.5540     0.0154     0.0827
  289.5000     6.8607     5.1575     5.5528   -31.0440     7.8874    98.0686     2.5350    -0.0034     0.0967
  290.0000     7.3892     5.1429     5.4252   -30.9970     7.8874    97.8628     2.5087    -0.0216     0.1139
  290.5000     7.2213     5.1230     5.2057   -30.9400     7.8874    98.6356     2.4840    -0.0383     0.1250
  291.0000     7.1217     5.0435     5.0633   -30.8801     7.8874    99.3985     2.4710    -0.0357     0.1272
  291.5000     7.6668     4.8595     5.1381   -30.7870     7.8874   100.0604     2.4825    -0.0190     0.1284
  292.0000     7.1217     4.6822     5.2189   -30.5771     7.8874   100.1734     2.4755     0.0036     0.1275
  292.5000     7.5267     4.5330     5.3010   -30.3772     7.8874    99.0365     2.4720    -0.0060     0.1243
  293.0000     4.4846     4.4657     5.3518   -30.2257     7.8874    97.9812     2.5071    -0.0051     0.1116
  293.5000     5.5235     4.3811     5.3513   -30.1920     7.8874    97.0878     2.5367     0.0168     0.0997
  294.0000     6.3776     4.2980     5.3827   -30.1555     7.8874    96.8554     2.5424     0.0133     0.0870
  294.5000     5.5593     4.2497     5.4090   -30.1195     7.8874    97.7057     2.5353     0.0016     0.0905
  295.0000     4.6601     4.2822     5.4356   -30.0835     7.8874    98.5214     2.5252    -0.0103     0.0952
  295.5000     6.6714     4.3356     5.4622   -30.0480     7.8874    99.3823     2.5154    -0.0223     0.0998
