~VERSION INFORMATION
 VERS.                2.0:   CWLS LOG ASCII STANDARD - VERSION 2.0
 WRAP.                 NO:   ONE LINE PER DEPTH STEP
~WELL INFORMATION
#MNEM.UNIT      DATA TYPE    INFORMATION
#----------   ------------   ------------------------------
 STRT.F            0.1000:   START DEPTH
 STOP.F          550.8000:   STOP DEPTH
 STEP.F            0.1000:   STEP LENGTH
 NULL.          -999.2500:   NO VALUE
 COMP.       F D SERV INC:   COMPANY
 WELL.  82-1 SX 10 #82-10:   WELL
 FLD .             TEAPOT:   FIELD
 LOC .      S10 T38N R78W:   LOCATION
 CNTY.            NATRONA:   COUNTY
 STAT.            WYOMING:   STATE
 CTRY. UNITED STATES OF AMERICA:   COUNTRY
 SRVC.     Atlas Wireline:   SERVICE COMPANY
 DATE.        11-DEC-1992:   LOGDATE
 API .       490252257600:   API NUMBER
~CURVE INFORMATION
#MNEM.UNIT       API CODE    CURVE DESCRIPTION
#----------   ------------   ------------------------------
 DEPT.F                  :   
 GRR .GAPI   07 310 01 00:   GAMMA RAY
 RILD.OHMM   07 120 46 00:   INDUCTION LOG DEEP RESISTIVITY
 RILM.OHMM   07 120 44 00:   INDUCTION LOG MEDIUM RESISTIVITY
~PARAMETER INFORMATION
#MNEM.UNIT          VALUE    DESCRIPTION
#----------   ------------   ------------------------------
 PD  .                 GL:   PERMANENT DATUM
 EPD .F              5136:   ELEVATION PERMANENT DATUM
 LMF .                 KB:   LOG MEASURED FROM
 DAPD.F                10:   FEET ABOVE PERMANENT DATUM
 DMF .                 KB:   DRILLING MEASURED FROM
 EKB .F              5146:   KELLING BUSHING
 EDF .F              5145:   DRILLING FLOOR
 EGL .F              5136:   GROUND LEVEL
 DATE.        11-DEC-1992:   RUN DATE
 RUN .                  1:   RUN NUMBER
 DD  .F               560:   DEPTH DRILLER
 DL  .F               560:   DEPTH LOGGER
 BLI .F               551:   BOTTOM LOG INTERVAL
 CS  .IN            8.625:   CASING SIZE
 CBD .F                53:   CASING BOTTOM DRILLER
 CBL .F                54:   CASING BOTTOM LOGGER
 BS  .IN            7.875:   BIT SIZE
 BSD .F               560:   BIT SIZE AT DEPTH
 DFT .           AIR FOAM:   DRILLING FLUID TYPE
 BHT .F                60:   BOTTOM HOLE TEMPERATURE
 MRT .F                60:   MAXIMUM RECORDED TEMPERATURE
 LUN .           HL- 6274:   LOGGING UNIT NUMBER
 LUL .             CASPER:   LOGGING UNIT LOCATION
 ENGI.       P. RASMUSSEN:   RECORDING ENGINEER
 WITN.          G. STRONG:   WITNESSED BY
 CLNT.            A2DTECH:   CLIENT CODE
 ORIG.           5" PRINT:   ORIGIN OF DATA
 UWI .       490252257600:   UNIQUE WELL ID
 DICO. A2D Technologies, Inc.:   DIGITIZING COMPANY
~OTHER INFORMATION
~A    DEPT      GRR      RILD       RILM   
# ...
   54.7000    95.7005  9984.8086  9832.2158
   54.8000    97.2800  9985.1133  9817.6826
   54.9000    99.1302  9985.3623  9817.8174
   55.0000   102.1349  9985.6387  9817.9531
   55.1000   104.2081  9985.9160  9818.0898
   55.2000   107.6042  9986.1924  9818.2246
   55.3000   110.7386  9986.4688  9818.3691
   55.4000   112.8204  9981.8750  9818.4961
   55.5000   114.3990  9918.1221  9773.3027
   55.6000   116.2562  7983.2383  9575.2637
   55.7000   117.6268   592.0967  6777.0503
   55.8000   119.0414    12.7715  1356.1541
   55.9000   120.3743     8.3314     7.0741
   56.0000   122.1414     4.9162     4.2959
   56.1000   124.1490     3.5027     3.5707
   56.2000   125.3325     3.0403     2.9034
   56.3000   125.8634     2.6119     2.7514
   56.4000   126.3583     2.4747     2.7514
   56.5000   127.2822     2.3414     2.7631
   56.6000   128.1480     2.0176     2.7887
   56.7000   128.7992     1.8892     2.8156
   56.8000   129.1597     1.8892     2.8401
   56.9000   129.1573     1.8931     2.8891
   57.0000   129.1548     1.9045     2.9081
   57.1000   129.1525     1.9162     2.9395
   57.2000   129.1501     1.9560     2.9748
   57.3000   129.1477     2.0065     3.0313
   57.4000   129.0270     2.0758     3.1933
   57.5000   128.7669     2.1721     3.4571
   57.6000   128.5069     2.3955     3.6467
   57.7000   128.2357     2.7924     3.8617
   57.8000   127.7402     3.1215     4.0372
   57.9000   127.4260     3.4760     4.2542
   58.0000   127.0055     3.8824     4.4556
   58.1000   126.4878     4.4017     4.6577
   58.2000   125.8959     4.7730     4.8677
   58.3000   125.1517     4.9940     5.0406
   58.4000   124.6098     5.3076     5.1994
   58.5000   123.6251     6.0177     5.4429
   58.6000   122.9971     7.1441     5.6274
   58.7000   122.6388     8.2182     5.7976
   58.8000   122.4950     8.5908     5.9728
   58.9000   122.4926     8.5850     6.1765
   59.0000   122.4902     8.5343     6.4041
   59.1000   122.4877     8.4723     6.4429
   59.2000   122.7300     8.3722     6.4430
   59.3000   122.7838     8.2639     6.4431
   59.4000   122.9398     8.0886     6.4179
   59.5000   123.3103     7.6962     6.3424
   59.6000   123.8232     7.2762     6.2057
   59.7000   124.3651     6.8642     5.9759
   59.8000   125.1776     6.4105     5.5325
   59.9000   126.0686     5.9481     5.3834
   60.0000   127.0109     5.6868     5.3834
   60.1000   127.9532     5.5638     5.3835
   60.2000   128.5907     5.5068     5.4006
   60.3000   128.9171     5.4937     5.4448
   60.4000   129.4300     5.5080     5.5101
   60.5000   129.9728     5.5322     5.5760
   60.6000   130.4557     5.5323     5.6509
   60.7000   130.7691     5.5325     5.7711
   60.8000   131.1807     5.5326     5.9103
   60.9000   131.6936     5.5328     6.0528
   61.0000   132.3468     5.5329     6.2136
   61.1000   133.3479     5.5331     6.3920
   61.2000   134.1665     5.5239     6.5430
   61.3000   134.6474     5.4873     6.6716
   61.4000   135.1603     5.4198     6.7812
   61.5000   135.8286     5.2088     6.8727
   61.6000   136.7114     5.0911     6.9308
   61.7000   137.6012     5.0386     6.9371
   61.8000   138.2184     5.0228     6.8961
   61.9000   139.8639     5.0229     6.8552
   62.0000   140.3429     5.0273     6.8121
   62.1000   140.6582     5.0581     6.7367
   62.2000   140.7591     5.1645     6.7187
   62.3000   140.6454     5.2916     6.7188
   62.4000   140.4535     5.4304     6.7189
   62.5000   140.4261     5.6275     6.7190
   62.6000   140.1478     5.8784     6.7295
   62.7000   139.9060     6.0742     6.8128
   62.8000   139.6459     6.1843     6.8602
   62.9000   139.3859     6.4024     6.8932
   63.0000   139.1258     6.5635     6.9345
   63.1000   138.8658     6.8724     6.9961
   63.2000   138.6298     7.0973     7.0529
   63.3000   138.6272     7.0964     7.0596
   63.4000   138.6250     6.9366     7.1021
   63.5000   138.6226     6.8143     7.1022
   63.6000   138.6202     6.7217     7.1023
   63.7000   138.7270     6.6545     7.1024
   63.8000   138.9823     6.5494     7.1025
   63.9000   139.2147     6.4734     7.1026
   64.0000   139.2118     6.4352     7.1026
   64.1000   139.6848     6.4045     7.1017
   64.2000   140.1977     6.4047     7.0539
   64.3000   140.8620     6.4049     7.0179
   64.4000   141.7408     6.4050     6.9475
   64.5000   142.7689     6.4052     6.8654
   64.6000   143.7971     6.4054     6.7395
   64.7000   144.9093     6.4199     6.5664
   64.8000   145.8535     6.4503     6.4907
   64.9000   146.6881     6.4504     6.4481
   65.0000   147.0075     6.4506     6.4141
   65.1000   147.0051     6.4508     6.3762
   65.2000   146.8744     6.4510     6.3598
   65.3000   146.3567     6.4726     6.3599
   65.4000   145.7947     6.4962     6.3600
   65.5000   145.0857     6.4963     6.3601
   65.6000   144.1179     6.4965     6.3602
   65.7000   143.0849     6.4967     6.3603
   65.8000   142.0520     6.5319     6.3891
   65.9000   140.9558     6.5422     6.4046
   66.0000   139.6652     6.5648     6.4212
   66.1000   138.2590     6.5880     6.4492
   66.2000   136.3802     6.5882     6.4493
   66.3000   134.8910     6.5884     6.4494
   66.4000   134.3423     6.5886     6.4494
   66.5000   134.3399     6.5888     6.4798
   66.6000   134.3374     6.5890     6.4944
   66.7000   134.3350     6.5660     6.4945
   66.8000   134.3324     6.5438     6.4946
   66.9000   134.3302     6.5440     6.4946
   67.0000   134.5183     6.5442     6.4947
   67.1000   134.8472     6.5444     6.4948
   67.2000   135.2313     6.5446     6.4949
   67.3000   135.5236     6.5448     6.4699
   67.4000   135.5212     6.5449     6.4503
   67.5000   135.5186     6.5451     6.4504
   67.6000   135.2838     6.5453     6.4505
   67.7000   135.0238     6.5409     6.4504
   67.8000   134.6174     6.5005     6.4063
   67.9000   134.2029     6.5007     6.3743
   68.0000   133.9429     6.5008     6.3623
   68.1000   133.6999     6.4768     6.3624
   68.2000   133.6972     6.4386     6.3489
   68.3000   133.6950     6.4120     6.3114
   68.4000   133.6926     6.4069     6.2752
   68.5000   133.6902     6.3681     6.2753
   68.6000   133.7901     6.3243     6.2754
   68.7000   134.0453     6.2941     6.2491
   68.8000   134.2847     6.2810     6.2323
   68.9000   134.2819     6.2812     6.2324
   69.0000   134.7409     6.2813     6.2242
   69.1000   134.8788     6.2758     6.1897
   69.2000   135.1651     6.2383     6.1898
   69.3000   135.5767     6.2385     6.1898
   69.4000   135.8901     6.2387     6.1628
   69.5000   136.4030     6.2143     6.1473
   69.6000   136.9718     6.1960     6.1474
   69.7000   137.6583     6.1961     6.1383
   69.8000   138.6153     6.1900     6.1052
   69.9000   139.7868     6.1537     6.1053
   70.0000   141.0727     6.1539     6.1054
   70.1000   142.2442     6.1541     6.0777
   70.2000   143.0007     6.1542     6.0635
   70.3000   143.5715     6.1544     6.0636
   70.4000   144.2550     6.1546     6.0535
   70.5000   144.8401     6.1548     6.0220
   70.6000   145.4953     6.1549     6.0221
   70.7000   146.1666     6.1551     6.0566
   70.8000   146.6795     6.1553     6.0640
   70.9000   147.1664     6.1554     6.0871
   71.0000   147.1636     6.1556     6.1063
   71.1000   147.3891     6.1558     6.1177
   71.2000   147.4599     6.1559     6.1488
   71.3000   147.4574     6.1561     6.1489
   71.4000   147.4550     6.1563     6.1916
   71.5000   147.4526     6.1888     6.1917
   71.6000   147.4502     6.2259     6.2163
   71.7000   147.4475     6.2427     6.2535
   71.8000   147.4454     6.2428     6.2782
   71.9000   147.2595     6.2514     6.2849
   72.0000   146.9995     6.2889     6.3225
   72.1000   146.6422     6.3304     6.3659
   72.2000   145.9621     6.3646     6.3660
   72.3000   144.6825     6.4027     6.3924
   72.4000   143.5209     6.4411     6.4306
   72.5000   142.6165     6.4798     6.4549
   72.6000   140.6712     6.5091     6.4629
   72.7000   139.0468     6.5155     6.5016
   72.8000   137.8213     6.6003     6.5451
