~VERSION INFORMATION
 VERS.                2.0:   CWLS LOG ASCII STANDARD - VERSION 2.0
 WRAP.                 NO:   ONE LINE PER DEPTH STEP
~WELL INFORMATION
#MNEM.UNIT      DATA TYPE    INFORMATION
#----------   ------------   ------------------------------
 STRT.F          432.0000:   START DEPTH
 STOP.F         1258.0000:   STOP DEPTH
 STEP.F            0.5000:   STEP LENGTH
 NULL.          -999.2500:   NO VALUE
 COMP. FENIX & SCISSON INC:   COMPANY
 WELL.   12 SHX 34 #12-34:   WELL
 FLD .            WILDCAT:   FIELD
 LOC .      S34 T39N R78W:   LOCATION
 CNTY.            NATRONA:   COUNTY
 STAT.            WYOMING:   STATE
 CTRY. UNITED STATES OF AMERICA:   COUNTRY
 SRVC.              Welex:   SERVICE COMPANY
 DATE.        23-APR-1979:   LOGDATE
 API .       490251078200:   API NUMBER
~CURVE INFORMATION
#MNEM.UNIT       API CODE    CURVE DESCRIPTION
#----------   ------------   ------------------------------
 DEPT.F                  :   
 CALD.IN     45 280 60 00:   CALIPER
 GRD .GAPI   45 310 01 00:   GAMMA RAY FROM DENSITY LOG
 RHOB.G/C3   45 350 01 00:   BULK DENSITY
 DPHI.DEC    45 890 12 00:   DENSITY POROSITY SANDSTONE
 CORR.G/C3   45 356 01 00:   DENSITY CORRECTION
~PARAMETER INFORMATION
#MNEM.UNIT          VALUE    DESCRIPTION
#----------   ------------   ------------------------------
 PD  .                 GL:   PERMANENT DATUM
 EPD .F              5092:   ELEVATION PERMANENT DATUM
 LMF .                 KB:   LOG MEASURED FROM
 DAPD.F                10:   FEET ABOVE PERMANENT DATUM
 DMF .                 KB:   DRILLING MEASURED FROM
 EKB .F              5102:   KELLING BUSHING
 EGL .F              5092:   GROUND LEVEL
 DATE.            4-23-79:   RUN DATE
 RUN .                  1:   RUN NUMBER
 DD  .F              1260:   DEPTH DRILLER
 DL  .F              1260:   DEPTH LOGGER
 BLI .F              1258:   BOTTOM LOG INTERVAL
 TLI .F               446:   TOP LOG INTERVAL
 CS  .IN            9.625:   CASING SIZE
 CBD .F               440:   CASING BOTTOM DRILLER
 BS  .IN            8.375:   BIT SIZE
 BSD .F              1260:   BIT SIZE AT DEPTH
 DFT .                OIL:   DRILLING FLUID TYPE
 DFD .                8.7:   DRILLING FLUID DENSITY
 TCS .HRS               1:   TIME CURCULATED STOPPED
 ENGI.               REIN:   RECORDING ENGINEER
 WITN.              AMEND:   WITNESSED BY
 CLNT.            A2DTECH:   CLIENT CODE
 ORIG.           5" PRINT:   ORIGIN OF DATA
 UWI .       490251078200:   UNIQUE WELL ID
 DICO. A2D Technologies, Inc.:   DIGITIZING COMPANY
~OTHER INFORMATION
~A   DEPT     CALD         GRD      RHOB       DPHI       CORR   
# ...
 1103.0000     8.5049    88.1221     2.4738     0.0443    -0.0092
 1103.5000     8.5049    89.3879     2.4753     0.0492    -0.0049
 1104.0000     8.5049    90.6529     2.4844     0.0475     0.0006
 1104.5000     8.5049    91.0928     2.4935     0.0369     0.0001
 1105.0000     8.5049    90.0863     2.5027     0.0318    -0.0043
 1105.5000     8.5049    88.6800     2.5009     0.0318    -0.0071
 1106.0000     8.5049    87.2305     2.4978     0.0318    -0.0036
 1106.5000     8.5049    86.9696     2.5080     0.0303     0.0022
 1107.0000     8.5049    86.9933     2.5206     0.0240     0.0029
 1107.5000     8.5049    88.8428     2.5222     0.0197     0.0008
 1108.0000     8.5049    91.9791     2.5071     0.0247    -0.0014
 1108.5000     8.5049    95.1401     2.4947     0.0316    -0.0030
 1109.0000     8.5049    98.0712     2.4968     0.0362    -0.0013
 1109.5000     8.5049    96.9700     2.5054     0.0335     0.0026
 1110.0000     8.5049    95.2900     2.5120     0.0273     0.0030
 1110.5000     8.5049    93.5968     2.5035     0.0278     0.0030
 1111.0000     8.5049    91.9059     2.5049     0.0284     0.0030
 1111.5000     8.5049    90.2245     2.5144     0.0286     0.0032
 1112.0000     8.5049    89.0101     2.5196     0.0274     0.0077
 1112.5000     8.5049    89.1139     2.5041     0.0253     0.0122
 1113.0000     8.5049    89.7044     2.4997     0.0291     0.0166
 1113.5000     8.5049    90.3061     2.5092     0.0322     0.0214
 1114.0000     8.5049    90.8197     2.5208     0.0261     0.0213
 1114.5000     8.5049    90.1271     2.5199     0.0213     0.0175
 1115.0000     8.5049    89.1842     2.5072     0.0235     0.0134
 1115.5000     8.5049    88.2229     2.5013     0.0265     0.0093
 1116.0000     8.5049    87.8664     2.5099     0.0273     0.0051
 1116.5000     8.5049    87.8268     2.5089     0.0281     0.0010
 1117.0000     8.5049    89.1263     2.4993     0.0315    -0.0032
 1117.5000     8.5043    90.5132     2.4899     0.0383    -0.0051
 1118.0000     8.5034    90.3422     2.4831     0.0397    -0.0048
 1118.5000     8.5024    85.0113     2.4937     0.0361     0.0020
 1119.0000     8.5015    84.5045     2.5039     0.0326     0.0091
 1119.5000     8.5005    89.2829     2.5039     0.0307     0.0153
 1120.0000     8.4996    92.5897     2.4950     0.0359     0.0128
 1120.5000     8.4986    94.5920     2.4860     0.0402     0.0063
 1121.0000     8.4977    93.5734     2.4771     0.0443    -0.0003
 1121.5000     8.4967    91.2791     2.4682     0.0496    -0.0068
 1122.0000     8.4958    89.0352     2.4594     0.0545    -0.0132
 1122.5000     8.4948    88.2787     2.4537     0.0580    -0.0153
 1123.0000     8.4939    90.1899     2.4553     0.0569    -0.0132
 1123.5000     8.4929    88.0100     2.4664     0.0462    -0.0033
 1124.0000     8.4920    87.4516     2.4809     0.0357     0.0071
 1124.5000     8.4910    89.0387     2.4956     0.0278     0.0091
 1125.0000     8.4901    87.6881     2.5103     0.0248     0.0091
 1125.5000     8.4891    85.2329     2.5250     0.0203     0.0117
 1126.0000     8.4881    86.7002     2.5395     0.0127     0.0192
 1126.5000     8.4872    88.4418     2.5406     0.0092     0.0250
 1127.0000     8.4862    90.3263     2.5229     0.0106     0.0229
 1127.5000     8.4853    89.6170     2.5081     0.0218     0.0162
 1128.0000     8.4843    87.6381     2.4934     0.0331     0.0095
 1128.5000     8.4834    85.7609     2.4786     0.0444     0.0027
 1129.0000     8.4824    84.1570     2.4646     0.0524    -0.0045
 1129.5000     8.4815    82.9667     2.4599     0.0536    -0.0075
 1130.0000     8.4805    82.5894     2.4555     0.0556    -0.0090
 1130.5000     8.4796    83.1638     2.4536     0.0576    -0.0082
 1131.0000     8.4786    84.4387     2.4605     0.0549    -0.0067
 1131.5000     8.4776    85.7152     2.4689     0.0508    -0.0052
 1132.0000     8.4767    86.9176     2.4771     0.0467    -0.0037
 1132.5000     8.4757    86.5336     2.4789     0.0459    -0.0022
 1133.0000     8.4748    84.6130     2.4799     0.0451    -0.0008
 1133.5000     8.4738    84.8654     2.4828     0.0405     0.0007
 1134.0000     8.4729    85.9824     2.4918     0.0360     0.0022
 1134.5000     8.4719    87.1324     2.5016     0.0316     0.0037
 1135.0000     8.4710    88.2815     2.5099     0.0273     0.0051
 1135.5000     8.4700    89.3261     2.5097     0.0269     0.0066
 1136.0000     8.4691    89.3137     2.5036     0.0314     0.0071
 1136.5000     8.4681    87.7613     2.4977     0.0321     0.0063
 1137.0000     8.4672    86.2041     2.4928     0.0298     0.0053
 1137.5000     8.4662    87.7402     2.4928     0.0313     0.0043
 1138.0000     8.4659    89.3712     2.4977     0.0328     0.0033
 1138.5000     8.4659    90.5535     2.5033     0.0312     0.0022
 1139.0000     8.4659    88.7080     2.5091     0.0292     0.0012
 1139.5000     8.4659    86.3110     2.5056     0.0274     0.0002
 1140.0000     8.4659    84.0966     2.4998     0.0328    -0.0008
 1140.5000     8.4659    84.3385     2.4962     0.0386    -0.0018
 1141.0000     8.4659    85.5566     2.4966     0.0378    -0.0028
 1141.5000     8.4659    86.7172     2.4997     0.0354    -0.0039
 1142.0000     8.4659    87.8757     2.4978     0.0378    -0.0049
 1142.5000     8.4659    89.0209     2.4899     0.0408    -0.0050
 1143.0000     8.4659    89.0995     2.4818     0.0427    -0.0037
 1143.5000     8.4659    88.0353     2.4828     0.0427     0.0012
 1144.0000     8.4659    86.9804     2.4883     0.0393     0.0054
 1144.5000     8.4659    88.6332     2.4939     0.0357     0.0096
 1145.0000     8.4659    90.8048     2.4993     0.0322     0.0139
 1145.5000     8.4659    88.6875     2.5010     0.0355     0.0126
 1146.0000     8.4659    87.5547     2.4952     0.0399     0.0092
 1146.5000     8.4659    92.5899     2.4891     0.0399     0.0057
 1147.0000     8.4659    90.3120     2.4892     0.0395     0.0022
 1147.5000     8.4659    89.6843     2.4938     0.0362    -0.0013
 1148.0000     8.4659    93.0525     2.5021     0.0326    -0.0022
 1148.5000     8.4659    90.3510     2.5103     0.0289    -0.0008
 1149.0000     8.4659    87.0054     2.5186     0.0253     0.0007
 1149.5000     8.4659    83.6991     2.5267     0.0229     0.0021
 1150.0000     8.4659    82.7725     2.5268     0.0205     0.0036
 1150.5000     8.4659    89.7771     2.5190     0.0185     0.0050
 1151.0000     8.4659    88.3066     2.5247     0.0176     0.0065
 1151.5000     8.4659    86.1197     2.5296     0.0176     0.0071
 1152.0000     8.4659    86.1952     2.5164     0.0215     0.0071
 1152.5000     8.4659    88.9622     2.5016     0.0292     0.0051
 1153.0000     8.4659    91.7749     2.4869     0.0370    -0.0077
 1153.5000     8.4659    94.5250     2.4721     0.0448    -0.0178
 1154.0000     8.4659    95.6261     2.4649     0.0525    -0.0234
 1154.5000     8.4659    93.4597     2.4666     0.0560    -0.0233
 1155.0000     8.4659    91.3434     2.4776     0.0476    -0.0189
 1155.5000     8.4659    89.1685     2.4886     0.0403    -0.0120
 1156.0000     8.4659    88.8809     2.4996     0.0374    -0.0050
 1156.5000     8.4659    89.6090     2.5007     0.0362     0.0019
 1157.0000     8.4659    87.4438     2.5018     0.0338     0.0090
 1157.5000     8.4659    86.0918     2.5083     0.0269     0.0169
 1158.0000     8.4659    90.7665     2.5266     0.0202     0.0193
 1158.5000     8.4659    86.4316     2.5390     0.0136     0.0182
 1159.0000     8.4659    84.5784     2.5321     0.0112     0.0171
 1159.5000     8.4658    87.7045     2.5246     0.0125     0.0171
 1160.0000     8.4647    90.4112     2.5268     0.0132     0.0172
 1160.5000     8.4635    89.0471     2.5317     0.0125     0.0170
 1161.0000     8.4623    87.6774     2.5366     0.0108     0.0193
 1161.5000     8.4611    86.3271     2.5383     0.0110     0.0183
 1162.0000     8.4600    84.9360     2.5315     0.0155     0.0159
 1162.5000     8.4588    83.7973     2.5226     0.0201     0.0134
 1163.0000     8.4576    83.8428     2.5136     0.0246     0.0109
 1163.5000     8.4564    85.8705     2.5048     0.0294     0.0084
