~VERSION INFORMATION
 VERS.                2.0:   CWLS LOG ASCII STANDARD - VERSION 2.0
 WRAP.                 NO:   ONE LINE PER DEPTH STEP
~WELL INFORMATION
#MNEM.UNIT      DATA TYPE    INFORMATION
#----------   ------------   ------------------------------
 STRT.F            0.0000:   START DEPTH
 STOP.F          412.0000:   STOP DEPTH
 STEP.F            0.5000:   STEP LENGTH
 NULL.          -999.2500:   NO VALUE
 COMP. DEPARTMENT OF ENERGY:   COMPANY
 WELL. 65-24 SXS C-3 #65-3:   WELL
 FLD .        TEAPOT EAST:   FIELD
 LOC .       S3 T38N R78W:   LOCATION
 CNTY.            NATRONA:   COUNTY
 STAT.            WYOMING:   STATE
 CTRY. UNITED STATES OF AMERICA:   COUNTRY
 SRVC.      Dresser Atlas:   SERVICE COMPANY
 DATE.        30-JUN-1985:   LOGDATE
 API .       490251134700:   API NUMBER
~CURVE INFORMATION
#MNEM.UNIT       API CODE    CURVE DESCRIPTION
#----------   ------------   ------------------------------
 DEPT.F                  :   
 CALD.IN     45 280 60 00:   CALIPER FROM DENSITY LOG
 CNC .DEC    42 890 03 00:   NEUTRON POROSITY SANDSTONE
 CORR.G/C3   45 356 01 00:   DENSITY CORRECTION
 PORD.DEC    45 890 12 00:   POROSITY DENSITY SANDSTONE
 DEN .G/C3   45 350 01 00:   COMPENSATED BULK DENSTIY
 GRR .GAPI   07 310 01 00:   GAMMA RAY
 RILD.OHMM   07 120 46 00:   INDUCTION LOG DEEP RESISTIVITY
 RILM.OHMM   07 120 44 00:   INDUCTION LOG MEDIUM RESISTIVITY
~PARAMETER INFORMATION
#MNEM.UNIT          VALUE    DESCRIPTION
#----------   ------------   ------------------------------
 PD  .                 GL:   PERMANENT DATUM
 EPD .F              5161:   ELEVATION PERMANENT DATUM
 LMF .                 GL:   LOG MEASURED FROM
 DMF .                 GL:   DRILLING MEASURED FROM
 EGL .F              5161:   GROUND LEVEL
 DATE.        30-JUN-1985:   RUN DATE
 RUN .              1-424:   RUN NUMBER
 DD  .F               424:   DEPTH DRILLER
 DL  .F               422:   DEPTH LOGGER
 BLI .F               414:   BOTTOM LOG INTERVAL
 CS  .IN                7:   CASING SIZE
 CBD .F                80:   CASING BOTTOM DRILLER
 CBL .F                85:   CASING BOTTOM LOGGER
 BS  .IN            4.875:   BIT SIZE
 BSD .F               424:   BIT SIZE AT DEPTH
 DFT .                OIL:   DRILLING FLUID TYPE
 TCS .HRS               3:   TIME CURCULATED STOPPED
 LUN .               6274:   LOGGING UNIT NUMBER
 LUL .           GILLETTE:   LOGGING UNIT LOCATION
 ENGI.             RAUTIO:   RECORDING ENGINEER
 WITN.             GROOMS:   WITNESSED BY
 CLNT.            A2DTECH:   CLIENT CODE
 ORIG.           5" PRINT:   ORIGIN OF DATA
 UWI .       490251134700:   UNIQUE WELL ID
 DICO. A2D Technologies, Inc.:   DIGITIZING COMPANY
~OTHER INFORMATION
~A    DEPT    CALD        CNC       CORR       PORD        DEN         GRR      RILD       RILM   
# ...
  162.0000     9.5825     0.2372     0.4452     0.2381     2.2591   123.7816     4.4705     3.6450
  162.5000     9.7640     0.2218     0.4860     0.3212     2.1348   126.2162     4.0854     3.3772
  163.0000    10.2027     0.2167     0.4997     0.3662     2.0052   126.8270     3.8386     3.1730
  163.5000    10.6566     0.2239     0.4786     0.4200     2.0022   125.3102     3.6828     2.9604
  164.0000    10.5138     0.2281     0.4499     0.4592     2.0014   120.1460     3.6330     2.7814
  164.5000     9.4766     0.2281     0.4197     0.4930     2.0015   113.7660     3.6340     2.9210
  165.0000     8.7504     0.2286     0.3905     0.4320     2.0015   110.0608     3.6902     3.1772
  165.5000     8.1452     0.2395     0.3655     0.3800     2.0015   107.9968     3.7384     3.3704
  166.0000     7.6914     0.2434     0.4380     0.3162     2.1469   108.6084     3.6878     3.6532
  166.5000     7.7216     0.2249     0.4788     0.3100     2.1575   112.5628     3.9000     3.9176
  167.0000     7.8427     0.2068     0.4864     0.3663     2.0241   115.6052     4.2998     4.1431
  167.5000     8.1755     0.2001     0.4744     0.4282     2.0030   114.0884     5.0466     4.3210
  168.0000     8.4494     0.2177     0.3476     0.4464     2.0030   112.8748     5.5639     4.4753
  168.5000     8.2209     0.2346     0.2872     0.3768     2.0182   116.5259     5.8429     4.6350
  169.0000     7.6157     0.2287     0.3295     0.2765     2.1975   118.9605     5.9677     4.7685
  169.5000     7.5401     0.2191     0.4004     0.1801     2.3460   119.2675     5.9697     4.8692
  170.0000     7.4947     0.2151     0.4731     0.2387     2.3332   120.4869     5.9295     4.9736
  170.5000     7.3737     0.2296     0.4988     0.2595     2.2307   123.8333     5.9729     4.9749
  171.0000     7.2678     0.2374     0.4959     0.2115     2.2757   127.1798     6.0162     5.0460
  171.5000     7.2073     0.2416     0.4461     0.1688     2.3626   128.0946     6.0178     5.0938
  172.0000     7.3779     0.2464     0.3177     0.1126     2.4960   125.3620     6.0614     5.1195
  172.5000     7.4947     0.2425     0.2452     0.0909     2.4982   118.9819     6.1480     5.1927
  173.0000     7.5552     0.2343     0.2311     0.1138     2.4154   117.6961     6.1925     5.2669
  173.5000     7.6611     0.2264     0.3027     0.1603     2.3076   121.7234     6.1942     5.3101
  174.0000     7.7670     0.2222     0.3437     0.1990     2.2609   126.3181     6.1960     5.4190
  174.5000     7.7368     0.2330     0.3466     0.2409     2.2474   125.0735     6.1980     5.4583
  175.0000     7.5098     0.2469     0.3542     0.2379     2.2526   121.7330     6.1996     5.5750
  175.5000     7.3585     0.2544     0.3951     0.2059     2.2866   119.6083     6.2446     5.5765
  176.0000     7.4051     0.2583     0.5000     0.1465     2.4056   120.2192     6.2462     5.6170
  176.5000     7.4796     0.2486     0.5000     0.1412     2.4170   120.8300     6.3354     5.6578
  177.0000     7.4947     0.2386     0.5000     0.2121     2.2896   121.4401     6.3813     5.6200
  177.5000     7.5250     0.2329     0.4980     0.2472     2.1751   119.6201     6.4276     5.6216
  178.0000     7.8729     0.2337     0.4420     0.2864     2.1947   117.7994     6.5197     5.6234
  178.5000     8.1452     0.2346     0.4271     0.2668     2.2678   119.1722     6.5215     5.5856
  179.0000     8.2209     0.2352     0.4754     0.2377     2.2859   122.9732     6.4781     5.5874
  179.5000     8.2965     0.2352     0.4921     0.2205     2.2987   125.4078     6.4345     5.4734
  180.0000     8.4680     0.2269     0.4740     0.2093     2.3138   126.3226     6.3917     5.4366
  180.5000     8.8865     0.2152     0.3562     0.2235     2.2630   125.1097     6.3491     5.3632
  181.0000     9.1286     0.2097     0.2883     0.2996     2.0372   123.5929     6.3956     5.2905
  181.5000     9.1891     0.2100     0.3397     0.3624     2.0000   121.4682     6.4876     5.2515
  182.0000     9.2799     0.2121     0.3262     0.4696     2.0003   120.2553     6.5795     5.1483
  182.5000     9.5371     0.2163     0.2989     0.4092     2.0049   119.0425     6.5817     5.0433
  183.0000    10.0514     0.2217     0.3228     0.3720     2.0486   121.5218     6.5834     4.9749
  183.5000    10.5204     0.2257     0.3399     0.3660     2.0157   123.9124     6.4943     4.8730
  184.0000    10.8405     0.2277     0.3490     0.3777  -999.2500   123.6114     6.4059     4.7079
  184.5000    11.0802     0.2223     0.3793     0.5148  -999.2500   121.7906     6.1892     4.5165
  185.0000    11.3525     0.2240     0.4186     0.5359  -999.2500   120.8818     5.8968     4.3632
  185.5000    11.7005     0.2376     0.4504     0.5550  -999.2500   120.2761     5.4264     4.1203
  186.0000    11.7458     0.2524     0.4459     0.4888  -999.2500   121.1916     4.9866     3.7984
  186.5000    12.5628     0.2593     0.4021     0.4546  -999.2500   120.8723     4.5005     3.4707
  187.0000    13.7882     0.2620     0.3672     0.4448  -999.2500   124.2695     3.8100     3.0627
  187.5000    14.9228     0.2642     0.3549     0.4860  -999.2500   125.1520     3.1918     2.6840
  188.0000    15.6188     0.2704     0.3479     0.5499  -999.2500   123.9397     2.5650     2.3196
  188.5000    15.2708     0.2794     0.3600     0.6757  -999.2500   123.0301     2.2326     2.0046
  189.0000    13.7428     0.2848     0.3615     0.6905  -999.2500   122.7291     1.9803     1.8063
  189.5000    12.1392     0.3010     0.3435     0.6651  -999.2500   120.3012     1.7638     1.6470
  190.0000    12.9864     0.3080     0.2196     0.6614  -999.2500   116.6567     1.6118     1.5293
  190.5000    11.6853     0.2365     0.1230     0.6738  -999.2500   111.4925     1.5144     1.5190
  191.0000     9.3858     0.2117     0.0823     0.6862  -999.2500   106.0243     1.5685     1.6066
  191.5000     9.1506     0.2059     0.1645     0.6866  -999.2500   102.3577     1.6935     1.7470
  192.0000     9.6581     0.2280     0.2772     0.6439  -999.2500   101.7749     1.8414     1.9808
  192.5000     8.3389     0.2521     0.3377     0.5634  -999.2500   113.0248     2.1462     2.2932
  193.0000     8.5991     0.2394     0.3846     0.4160     2.0300   123.9700     2.5943     2.7299
  193.5000     9.1286     0.2369     0.4012     0.3081     2.0994   126.4046     3.1021     3.1442
  194.0000     9.2799     0.2592     0.3862     0.2879     2.1634   124.5839     3.6687     3.4371
  194.5000     8.6596     0.2731     0.3515     0.2856     2.1988   125.4987     4.2170     3.6097
  195.0000     9.4463     0.2612     0.4512     0.3679     2.0338   129.1490     4.7472     3.7126
  195.5000    10.0968     0.2490     0.4830     0.4247  -999.2500   128.8480     5.0903     3.7920
  196.0000    10.4020     0.2462     0.4528     0.4814  -999.2500   126.3627     5.3086     3.8462
  196.5000    12.1270     0.2676     0.3788     0.5491  -999.2500   124.5994     5.4597     3.9284
  197.0000    13.8941     0.2724     0.3457     0.6056  -999.2500   123.9937     5.4612     3.9295
  197.5000    14.2794     0.2672     0.3034     0.6267  -999.2500   127.6448     5.3842     3.9019
  198.0000    15.1649     0.2590     0.2068     0.6644  -999.2500   132.5110     5.2413     3.8191
  198.5000    15.4523     0.2524     0.2823     0.6992  -999.2500   130.6902     4.9248     3.6430
  199.0000    15.3064     0.2487     0.3202     0.7000  -999.2500   129.7806     4.4693     3.4227
  199.5000    13.3537     0.2559     0.3398     0.6644  -999.2500   131.3040     3.8903     3.0627
  200.0000    11.5189     0.2897     0.3399     0.5616  -999.2500   132.8268     3.5782     2.7828
  200.5000     9.8090     0.2912     0.2221     0.4610  -999.2500   133.0620     3.4148     2.5664
  201.0000     8.5988     0.2634     0.1964     0.4397  -999.2500   133.7639     3.2514     2.4021
  201.5000     8.6894     0.2190     0.1329     0.4564  -999.2500   136.2072     3.0880     2.3692
  202.0000     9.4759     0.2534     0.1858     0.5215  -999.2500   137.1388     2.9297     2.4198
