~VERSION INFORMATION
 VERS.                2.0:   CWLS LOG ASCII STANDARD - VERSION 2.0
 WRAP.                 NO:   ONE LINE PER DEPTH STEP
~WELL INFORMATION
#MNEM.UNIT      DATA TYPE    INFORMATION
#----------   ------------   ------------------------------
 STRT.F           48.0000:   START DEPTH
 STOP.F          650.0000:   STOP DEPTH
 STEP.F            0.5000:   STEP LENGTH
 NULL.          -999.2500:   NO VALUE
 COMP. FENIX & SCISSON INC:   COMPANY
 WELL.    36 SX 34 #36-34:   WELL
 FLD .             TEAPOT:   FIELD
 LOC .      S34 T39N R78W:   LOCATION
 CNTY.            NATRONA:   COUNTY
 STAT.            WYOMING:   STATE
 CTRY. UNITED STATES OF AMERICA:   COUNTRY
 SRVC.            Unknown:   SERVICE COMPANY
 DATE.        19-JAN-1979:   LOGDATE
 API .       490251076800:   API NUMBER
~CURVE INFORMATION
#MNEM.UNIT       API CODE    CURVE DESCRIPTION
#----------   ------------   ------------------------------
 DEPT.F                  :   
 SPR .MV     05 010 01 00:   SPONTANEOUS POTENTIAL FROM RES.
 SN  .OHMM   05 040 16 00:   SHORT NORMAL 16"
 IL  .OHMM   05 120 00 00:   INDUCTION LOG
 CALD.IN     45 280 60 00:   CALIPER
 GRD .GAPI   45 310 01 00:   GAMMA RAY FROM DENSITY LOG
 RHOB.G/C3   45 350 01 00:   BULK DENSITY
 DPHI.DEC    45 890 12 00:   DENSITY POROSITY SANDSTONE
 CORR.G/C3   45 356 01 00:   DENSITY CORRECTION
~PARAMETER INFORMATION
#MNEM.UNIT          VALUE    DESCRIPTION
#----------   ------------   ------------------------------
 PD  .                 GL:   PERMANENT DATUM
 EPD .F              5125:   ELEVATION PERMANENT DATUM
 LMF .                 KB:   LOG MEASURED FROM
 DAPD.F                 4:   FEET ABOVE PERMANENT DATUM
 DMF .                 KB:   DRILLING MEASURED FROM
 EKB .F              5129:   KELLING BUSHING
 EGL .F              5125:   GROUND LEVEL
 DATE.            1-19-79:   RUN DATE
 RUN .                  1:   RUN NUMBER
 DD  .F               650:   DEPTH DRILLER
 DL  .F               650:   DEPTH LOGGER
 BLI .F               643:   BOTTOM LOG INTERVAL
 TLI .F                50:   TOP LOG INTERVAL
 CS  .IN            8.625:   CASING SIZE
 CBD .F                40:   CASING BOTTOM DRILLER
 CBL .F                36:   CASING BOTTOM LOGGER
 BS  .IN            7.875:   BIT SIZE
 BSD .F               650:   BIT SIZE AT DEPTH
 DFT .                KCL:   DRILLING FLUID TYPE
 DFD .                8.8:   DRILLING FLUID DENSITY
 DFV .                 34:   DRILLING FLUID VISCOSITY
 DFL .                8.8:   DRILLING FLUID LOSS
 MSS .           FLOWLINE:   MUD SAMPLE SOURCE
 RMS .OHMM            .17:   RESISTIVITY MUD SAMPLE
 MST .F                62:   MUD SAMPLE TEMPERATURE
 RMF .OHMM            .15:   RESISTIVITY MUD FILTRATE SAMPLE
 MFST.F                62:   MUD FILTRATE SAMPLE TEMPERATURE
 RMC .OHMM            .22:   RESISTIVITY MUD CAKE
 MCST.F                63:   MUD CAKE SAMPLE TEMPERATURE
 MFSS.           MEASURED:   MUD FILTRATE SAMPLE SOURCE
 MCSS.           MEASURED:   MUD CAKE SAMPLE SOURCE
 RMB .OHMM            .18:   RESISTIVITY MUD AT BHT
 BHT .F                60:   BOTTOM HOLE TEMPERATURE
 TCS .HRS               3:   TIME CURCULATED STOPPED
 MRT .F                60:   MAXIMUM RECORDED TEMPERATURE
 LUN .                 30:   LOGGING UNIT NUMBER
 LUL .             CASPER:   LOGGING UNIT LOCATION
 ENGI.         B. ROLLINS:   RECORDING ENGINEER
 WITN.           DINSMORE:   WITNESSED BY
 CLNT.            A2DTECH:   CLIENT CODE
 ORIG.           5" PRINT:   ORIGIN OF DATA
 UWI .       490251076800:   UNIQUE WELL ID
 DICO. A2D Technologies, Inc.:   DIGITIZING COMPANY
~OTHER INFORMATION
~A   DEPT      SPR           SN        IL      CALD        GRD       RHOB       DPHI       CORR   
# ...
  169.5000   -54.9200     7.1800     7.7700     8.2320   112.0850     2.4940     0.1000     0.0340
  170.0000   -54.5650     7.1930     7.8000     8.2330   113.7140     2.4920     0.1000     0.0370
  170.5000   -54.1580     7.2050     7.8290     8.2350   115.3400     2.4920     0.1010     0.0420
  171.0000   -53.5910     7.2170     7.8590     8.2380   116.9660     2.4930     0.1000     0.0410
  171.5000   -53.0650     7.2290     7.8880     8.2400   118.5840     2.4940     0.1000     0.0390
  172.0000   -53.6660     7.2410     7.9180     8.2420   119.7640     2.4940     0.1000     0.0370
  172.5000   -54.0160     7.2530     7.9470     8.2450   118.5900     2.4940     0.1010     0.0360
  173.0000   -54.0980     7.2660     7.9770     8.2470   115.8520     2.4930     0.1020     0.0340
  173.5000   -54.1250     7.2780     8.0060     8.2490   111.6880     2.4920     0.1020     0.0320
  174.0000   -53.1480     7.2900     8.0360     8.2500   113.2800     2.4940     0.1010     0.0310
  174.5000   -52.2400     7.3360     8.0650     8.2430   116.9320     2.4950     0.0990     0.0310
  175.0000   -52.7350     7.3880     8.0950     8.2370   118.1370     2.4960     0.0980     0.0320
  175.5000   -53.2780     7.4400     8.1240     8.2300   120.0140     2.5000     0.0970     0.0370
  176.0000   -53.8160     7.4930     8.1610     8.2240   122.3550     2.5050     0.0940     0.0420
  176.5000   -54.1050     7.5450     8.2340     8.2170   123.9680     2.5090     0.0920     0.0440
  177.0000   -53.8450     7.5970     8.3060     8.2110   122.3520     2.5070     0.0950     0.0400
  177.5000   -53.6000     7.6500     8.3790     8.2050   119.2730     2.5030     0.0980     0.0350
  178.0000   -53.3900     7.7020     8.4520     8.1980   116.1810     2.4980     0.0980     0.0340
  178.5000   -53.5390     7.7550     8.5250     8.1920   113.2750     2.5020     0.0950     0.0440
  179.0000   -53.6890     7.8070     8.5980     8.1850   113.2480     2.5070     0.0930     0.0500
  179.5000   -53.6880     7.8590     8.6710     8.1790   115.3050     2.5060     0.0940     0.0480
  180.0000   -53.0420     7.9120     8.7430     8.1720   117.7830     2.5000     0.0960     0.0380
  180.5000   -51.9850     7.9640     8.8160     8.1660   120.0530     2.4950     0.0990     0.0280
  181.0000   -52.1720     8.0170     8.8890     8.1600   118.0480     2.4980     0.0980     0.0300
  181.5000   -51.5580     8.0690     8.9620     8.1530   113.2040     2.5010     0.0970     0.0320
  182.0000   -50.7640     8.1210     9.0350     8.1470   108.3830     2.5040     0.0970     0.0340
  182.5000   -50.6370     8.1740     9.1080     8.1400   103.5340     2.5070     0.0960     0.0350
  183.0000   -51.0710     8.2260     9.1800     8.1330   102.4940     2.5070     0.0950     0.0370
  183.5000   -51.5020     8.2780     9.2760     8.1430   104.5040     2.5070     0.0940     0.0390
  184.0000   -51.9330     8.3310     9.2660     8.1550   106.5060     2.5060     0.0950     0.0410
  184.5000   -52.3660     8.3830     9.2520     8.1680   108.5070     2.5070     0.0950     0.0420
  185.0000   -52.7810     8.4360     9.2380     8.1810   109.1150     2.5140     0.0910     0.0440
  185.5000   -52.9610     8.4880     9.2240     8.1940   107.2820     2.5210     0.0830     0.0460
  186.0000   -52.7850     8.5400     9.2100     8.2070   107.7780     2.5240     0.0850     0.0470
  186.5000   -52.7290     8.5930     9.1910     8.2200   110.3700     2.5140     0.0900     0.0460
  187.0000   -53.6000     8.6450     9.2030     8.2330   112.8610     2.5020     0.0960     0.0430
  187.5000   -53.6960     8.6980     9.2240     8.2470   115.2110     2.4940     0.0990     0.0400
  188.0000   -53.2080     8.7500     9.2450     8.2480   115.3130     2.4920     0.1010     0.0400
  188.5000   -52.7090     8.7750     9.2660     8.2430   112.6650     2.4840     0.1020     0.0390
  189.0000   -52.6600     8.7240     9.2880     8.2380   111.8680     2.4860     0.1030     0.0390
  189.5000   -52.7520     8.6860     9.3090     8.2340   113.7960     2.4910     0.0990     0.0390
  190.0000   -52.8480     8.6480     9.3300     8.2290   114.6760     2.4960     0.0950     0.0380
  190.5000   -52.9530     8.6100     9.3510     8.2240   116.1390     2.4970     0.0970     0.0360
  191.0000   -52.6210     8.5710     9.3720     8.2190   118.6480     2.4870     0.1010     0.0320
  191.5000   -51.9440     8.5330     9.3930     8.2150   117.7970     2.4840     0.1030     0.0300
  192.0000   -50.7980     8.4950     9.4150     8.2140   116.7350     2.4870     0.1020     0.0300
  192.5000   -51.4430     8.4570     9.4360     8.2230   115.7020     2.4910     0.1000     0.0300
  193.0000   -52.4740     8.4180     9.4490     8.2310   112.7400     2.4950     0.0990     0.0300
  193.5000   -53.0910     8.3800     9.4490     8.2400   106.5690     2.4980     0.0980     0.0300
  194.0000   -52.7240     8.3420     9.4490     8.2480   109.6600     2.5020     0.0910     0.0350
  194.5000   -52.3810     8.3030     9.4490     8.2570   113.2310     2.5200     0.0830     0.0400
  195.0000   -52.0440     8.2650     9.4490     8.2650   111.1670     2.5370     0.0750     0.0440
  195.5000   -51.7890     8.2270     9.4490     8.2740   109.2990     2.5380     0.0800     0.0460
  196.0000   -51.9140     8.1890     9.4490     8.2820   109.9800     2.5260     0.0850     0.0460
  196.5000   -52.4770     8.1500     9.4490     8.2900   111.1440     2.5090     0.0900     0.0440
  197.0000   -53.0310     8.1120     9.4490     8.2740   112.3140     2.4980     0.0950     0.0360
  197.5000   -52.9970     8.0740     9.4500     8.2580   114.4360     2.4960     0.0970     0.0320
  198.0000   -52.0290     8.0360     9.4330     8.2420   118.2690     2.4950     0.0980     0.0290
  198.5000   -52.1010     7.9970     9.4060     8.2260   121.7140     2.4950     0.0980     0.0260
  199.0000   -52.8450     7.9590     9.3790     8.2090   121.6750     2.4970     0.0980     0.0260
  199.5000   -53.5920     7.9250     9.3520     8.1930   120.7730     2.4990     0.0930     0.0300
  200.0000   -54.3380     7.9250     9.3250     8.1760   121.3930     2.5020     0.0870     0.0340
  200.5000   -55.0680     7.9250     9.2970     8.1730   123.8010     2.5040     0.0890     0.0340
  201.0000   -54.7340     7.9250     9.2700     8.1940   120.9860     2.5030     0.0940     0.0270
  201.5000   -54.2520     7.9260     9.2430     8.2150   117.6360     2.4860     0.1000     0.0210
  202.0000   -53.7710     7.9260     9.2160     8.2360   118.5770     2.4690     0.1050     0.0150
  202.5000   -53.4180     7.8940     9.1890     8.2570   119.8830     2.4610     0.1090     0.0100
  203.0000   -53.6740     7.8630     9.1610     8.2780   117.8170     2.4740     0.1050     0.0180
  203.5000   -53.9260     7.8330     9.1340     8.2910   115.6600     2.4880     0.1010     0.0280
  204.0000   -53.8990     7.8020     9.1060     8.2820   115.7610     2.4970     0.0970     0.0330
  204.5000   -53.8170     7.7720     8.9780     8.2710   117.2940     2.4980     0.0970     0.0340
  205.0000   -53.1890     7.7410     8.8440     8.2600   116.5760     2.4970     0.0980     0.0290
  205.5000   -52.3940     7.7110     8.7100     8.2520   115.9910     2.4920     0.0990     0.0240
  206.0000   -51.9780     7.6800     8.5770     8.3390   118.6910     2.4880     0.0990     0.0250
  206.5000   -52.6140     7.6500     8.4430     8.4220   120.5710     2.4940     0.0980     0.0320
  207.0000   -53.5140     7.6190     8.3090     8.2920   118.7770     2.5010     0.0970     0.0380
  207.5000   -54.4080     7.5890     8.1750     8.1730   120.8950     2.5010     0.0960     0.0380
  208.0000   -54.8670     7.5580     8.0410     8.1710   125.6460     2.4990     0.0970     0.0370
  208.5000   -55.1160     7.5280     7.9080     8.1720   122.8520     2.4970     0.0980     0.0370
  209.0000   -54.7780     7.4970     7.8520     8.1720   119.2220     2.4960     0.0990     0.0370
  209.5000   -54.4300     7.4670     7.8950     8.1720   117.5420     2.4960     0.0990     0.0360
