~VERSION INFORMATION
 VERS.                2.0:   CWLS LOG ASCII STANDARD - VERSION 2.0
 WRAP.                 NO:   ONE LINE PER DEPTH STEP
~WELL INFORMATION
#MNEM.UNIT      DATA TYPE    INFORMATION
#----------   ------------   ------------------------------
 STRT.F            1.0000:   START DEPTH
 STOP.F          508.0000:   STOP DEPTH
 STEP.F            0.1000:   STEP LENGTH
 NULL.          -999.2500:   NO VALUE
 COMP.       F D SERV INC:   COMPANY
 WELL. NAVAL PETROLEUM RESERVE 3 SX-1 #83-4-10:   WELL
 FLD .             TEAPOT:   FIELD
 LOC .      S10 T38N R78W:   LOCATION
 CNTY.            NATRONA:   COUNTY
 STAT.            WYOMING:   STATE
 CTRY. UNITED STATES OF AMERICA:   COUNTRY
 SRVC.     Atlas Wireline:   SERVICE COMPANY
 DATE.        26-JAN-1993:   LOGDATE
 API .       490252258300:   API NUMBER
~CURVE INFORMATION
#MNEM.UNIT       API CODE    CURVE DESCRIPTION
#----------   ------------   ------------------------------
 DEPT.F                  :   
 GRR .GAPI   07 310 01 00:   GAMMA RAY
 RILD.OHMM   07 120 46 00:   INDUCTION LOG DEEP RESISTIVITY
 RILM.OHMM   07 120 44 00:   INDUCTION LOG MEDIUM RESISTIVITY
~PARAMETER INFORMATION
#MNEM.UNIT          VALUE    DESCRIPTION
#----------   ------------   ------------------------------
 PD  .                 GL:   PERMANENT DATUM
 EPD .F              5152:   ELEVATION PERMANENT DATUM
 LMF .                 KB:   LOG MEASURED FROM
 DAPD.F                10:   FEET ABOVE PERMANENT DATUM
 DMF .                 KB:   DRILLING MEASURED FROM
 EKB .F              5162:   KELLING BUSHING
 EDF .F              5161:   DRILLING FLOOR
 EGL .F              5152:   GROUND LEVEL
 DATE.        26-JAN-1993:   RUN DATE
 RUN .                  1:   RUN NUMBER
 DD  .F               515:   DEPTH DRILLER
 DL  .F               516:   DEPTH LOGGER
 BLI .F               508:   BOTTOM LOG INTERVAL
 CS  .IN            8.625:   CASING SIZE
 CBD .F                55:   CASING BOTTOM DRILLER
 CBL .F                55:   CASING BOTTOM LOGGER
 BS  .IN            7.875:   BIT SIZE
 BSD .F               515:   BIT SIZE AT DEPTH
 DFT .                AIR:   DRILLING FLUID TYPE
 MRT .F                63:   MAXIMUM RECORDED TEMPERATURE
 LUN .           HL- 6274:   LOGGING UNIT NUMBER
 LUL .             CASPER:   LOGGING UNIT LOCATION
 ENGI.       P. RASMUSSEN:   RECORDING ENGINEER
 WITN.          G. STRONG:   WITNESSED BY
 CLNT.            A2DTECH:   CLIENT CODE
 ORIG.           5" PRINT:   ORIGIN OF DATA
 UWI .       490252258300:   UNIQUE WELL ID
 DICO. A2D Technologies, Inc.:   DIGITIZING COMPANY
~OTHER INFORMATION
~A    DEPT     GRR       RILD       RILM   
# ...
   92.0000   141.4016     7.5330     7.5345
   92.1000   141.9173     7.5330     7.5495
   92.2000   142.2156     7.5330     7.5493
   92.3000   142.4345     7.5330     7.5491
   92.4000   142.8707     7.5330     7.5489
   92.5000   143.1175     7.5330     7.5487
   92.6000   143.2104     7.5330     7.5485
   92.7000   143.4691     7.5330     7.5483
   92.8000   143.7181     7.5330     7.5481
   92.9000   143.7174     7.5213     7.5479
   93.0000   144.1707     7.4810     7.5477
   93.1000   144.3187     7.4810     7.5474
   93.2000   144.3181     7.4810     7.5472
   93.3000   144.4185     7.4810     7.5470
   93.4000   144.6771     7.4810     7.5468
   93.5000   144.9187     7.4810     7.5466
   93.6000   144.9180     7.4810     7.5464
   93.7000   144.7166     7.4810     7.5462
   93.8000   144.4938     7.4810     7.5460
   93.9000   144.3138     7.4294     7.5458
   94.0000   144.3052     7.4294     7.5456
   94.1000   144.0114     7.4294     7.5454
   94.2000   143.7856     7.4294     7.5451
   94.3000   143.3424     7.4294     7.5449
   94.4000   142.8233     7.4294     7.5447
   94.5000   142.3042     7.4294     7.5445
   94.6000   141.8426     7.4294     7.5381
   94.7000   141.5827     7.4294     7.4920
   94.8000   141.2963     7.3997     7.4918
   94.9000   141.2958     7.3781     7.4916
   95.0000   141.2952     7.3781     7.4621
   95.1000   141.2946     7.3781     7.4395
   95.2000   141.2940     7.3771     7.4393
   95.3000   141.2934     7.3272     7.4391
   95.4000   141.3386     7.3272     7.4389
   95.5000   141.8945     7.3272     7.4387
   95.6000   142.3743     7.3272     7.4006
   95.7000   143.0904     7.3272     7.3869
   95.8000   144.1799     7.3179     7.3631
   95.9000   145.1327     7.2767     7.3356
   96.0000   145.9398     7.2767     7.3259
   96.1000   147.4946     7.2767     7.2821
   96.2000   149.1192     7.2451     7.2340
   96.3000   151.0993     7.2264     7.2339
   96.4000   152.1446     7.2264     7.2337
   96.5000   152.7581     7.2264     7.2087
   96.6000   153.2759     7.2264     7.1833
   96.7000   153.7141     7.2264     7.1722
   96.8000   153.9350     7.2264     7.1334
   96.9000   153.9343     7.1939     7.1332
   97.0000   153.9336     7.1766     7.0933
   97.1000   153.9331     7.1581     7.0836
   97.2000   153.9325     7.1270     7.0574
   97.3000   153.9319     7.1270     7.0343
   97.4000   153.9313     7.1270     7.0341
   97.5000   153.9307     7.1270     7.0339
   97.6000   153.9301     7.0937     7.0337
   97.7000   153.9294     7.0779     7.0335
   97.8000   154.1494     7.0779     7.0333
   97.9000   154.4080     7.0779     7.0331
   98.0000   154.5301     7.0779     7.0329
   98.1000   154.5295     7.0779     7.0327
   98.2000   154.5815     7.0779     7.0325
   98.3000   154.8401     7.0779     7.0323
   98.4000   155.1301     7.0779     7.0321
   98.5000   155.1295     7.0779     7.0319
   98.6000   155.1289     7.0918     7.0317
   98.7000   155.1283     7.1270     7.0315
   98.8000   155.1277     7.1270     7.0314
   98.9000   155.1271     7.1270     7.0402
   99.0000   155.1265     7.1270     7.0798
   99.1000   155.1259     7.1270     7.0796
   99.2000   155.1253     7.1270     7.0794
   99.3000   155.1247     7.1270     7.1104
   99.4000   154.9727     7.1354     7.1282
   99.5000   154.2751     7.1766     7.1280
   99.6000   153.0457     7.1766     7.1278
   99.7000   152.0592     7.2140     7.1316
   99.8000   151.5072     7.2264     7.1770
   99.9000   151.5066     7.2264     7.1768
  100.0000   151.3052     7.2264     7.1766
  100.1000   151.0454     7.2264     7.2027
  100.2000   150.9024     7.2292     7.2260
  100.3000   150.8269     7.2767     7.2258
  100.4000   150.5671     7.3159     7.2256
  100.5000   150.2982     7.3272     7.2254
  100.6000   149.6951     7.3272     7.2754
  100.7000   149.2781     7.3272     7.3107
  100.8000   148.5928     7.3384     7.3256
  100.9000   147.9388     7.3822     7.3254
  101.0000   147.3373     7.4294     7.3398
  101.1000   146.6397     7.4294     7.3835
  101.2000   146.3783     7.4294     7.4270
  101.3000   146.0764     7.4294     7.4267
  101.4000   146.2916     7.4492     7.4265
  101.5000   146.3765     7.4810     7.4571
  101.6000   146.3759     7.4865     7.5016
  101.7000   146.3753     7.5330     7.5295
  101.8000   146.4225     7.5330     7.5388
  101.9000   146.6753     7.5689     7.5837
  102.0000   146.6746     7.5854     7.6338
  102.1000   146.6741     7.6069     7.6337
  102.2000   146.4924     7.6381     7.6334
  102.3000   146.2325     7.6381     7.6332
  102.4000   145.8755     7.6381     7.6518
  102.5000   145.2460     7.6912     7.6974
  102.6000   144.1953     7.6912     7.7391
  102.7000   142.7548     7.7217     7.7388
  102.8000   142.0626     7.7446     7.7818
  102.9000   141.0957     7.7604     7.7922
  103.0000   140.3514     7.7984     7.8205
  103.1000   139.8323     7.7992     7.8459
  103.2000   139.4386     7.8526     7.8457
  103.3000   139.4173     7.8526     7.8516
  103.4000   139.1361     7.8526     7.8997
  103.5000   138.8976     7.8526     7.9544
  103.6000   138.4418     7.8526     7.9542
  103.7000   138.2307     7.8623     7.9850
  103.8000   138.1181     7.9072     8.0090
  103.9000   137.8582     7.9072     8.0247
  104.0000   137.5984     7.9072     8.0643
  104.1000   137.3247     7.9413     8.0640
  104.2000   137.0787     7.9621     8.0638
  104.3000   137.0223     7.9621     8.0636
  104.4000   137.0217     7.9621     8.0634
  104.5000   137.0211     7.9656     8.0631
  104.6000   137.0205     8.0175     8.0629
  104.7000   137.0199     8.0175     8.0627
  104.8000   137.0193     8.0175     8.0625
  104.9000   137.0186     8.0175     8.0622
  105.0000   137.0181     8.0175     8.0620
  105.1000   137.0175     8.0049     8.0618
  105.2000   137.0763     7.9621     8.0616
  105.3000   137.1971     7.9621     8.0613
  105.4000   137.3180     7.9621     8.0611
  105.5000   137.4388     7.9621     8.0609
  105.6000   137.5596     7.9330     8.0607
  105.7000   137.6805     7.8858     8.0604
  105.8000   137.8013     7.8526     8.0602
  105.9000   137.9221     7.8526     8.0600
  106.0000   138.1044     7.8526     8.0598
  106.1000   138.4295     7.8526     8.0457
  106.2000   138.9394     7.8526     7.9976
  106.3000   139.4958     7.8225     7.9483
  106.4000   139.7277     7.7760     7.9480
  106.5000   140.1677     7.7446     7.9096
  106.6000   140.5394     7.7446     7.8623
  106.7000   140.9777     7.7446     7.8381
  106.8000   141.7422     7.7446     7.8226
  106.9000   142.5114     7.7062     7.7758
  107.0000   143.1146     7.6912     7.7296
  107.1000   143.5279     7.6678     7.7294
  107.2000   144.0378     7.6381     7.6902
  107.3000   144.5476     7.6381     7.6442
  107.4000   144.9908     7.6381     7.6225
  107.5000   145.2460     7.6381     7.6056
  107.6000   145.5278     7.5989     7.5601
  107.7000   145.7564     7.5537     7.5170
  107.8000   146.0116     7.5330     7.5168
  107.9000   146.4018     7.5330     7.4375
  108.0000   146.9117     7.5233     7.4130
  108.1000   147.4215     7.4786     7.4128
  108.2000   147.9410     7.4294     7.3946
  108.3000   147.9416     7.4294     7.3612
  108.4000   148.3486     7.4294     7.3572
  108.5000   148.5452     7.4043     7.3100
  108.6000   148.6558     7.3603     7.3098
  108.7000   148.9110     7.3272     7.2763
  108.8000   149.1494     7.3236     7.2589
  108.9000   149.1501     7.2767     7.2395
  109.0000   149.1506     7.2368     7.2085
  109.1000   149.1512     7.2264     7.2083
  109.2000   149.1518     7.2264     7.2080
  109.3000   149.0673     7.2077     7.2078
  109.4000   148.7747     7.1766     7.1731
  109.5000   148.2500     7.1718     7.1577
  109.6000   148.0040     7.1270     7.1575
  109.7000   147.5500     7.1270     7.1435
  109.8000   147.0414     7.1270     7.1077
  109.9000   146.7464     7.1005     7.1075
  110.0000   146.7470     7.0779     7.1073
  110.1000   146.7749     7.0651     7.1071
