~VERSION INFORMATION
 VERS.                2.0:   CWLS LOG ASCII STANDARD - VERSION 2.0
 WRAP.                 NO:   ONE LINE PER DEPTH STEP
~WELL INFORMATION
#MNEM.UNIT      DATA TYPE    INFORMATION
#----------   ------------   ------------------------------
 STRT.F           46.0000:   START DEPTH
 STOP.F          472.0000:   STOP DEPTH
 STEP.F            0.5000:   STEP LENGTH
 NULL.          -999.2500:   NO VALUE
 COMP. BROWN JOHN E&C INC:   COMPANY
 WELL. NPR 3 SX10 1 #63-10:   WELL
 FLD .             TEAPOT:   FIELD
 LOC .      S10 T38N R78W:   LOCATION
 CNTY.            NATRONA:   COUNTY
 STAT.            WYOMING:   STATE
 CTRY. UNITED STATES OF AMERICA:   COUNTRY
 SRVC.       Schlumberger:   SERVICE COMPANY
 DATE.        01-OCT-1990:   LOGDATE
 API .       490251132000:   API NUMBER
~CURVE INFORMATION
#MNEM.UNIT       API CODE    CURVE DESCRIPTION
#----------   ------------   ------------------------------
 DEPT.F                  :   
 GRR .GAPI   07 310 01 00:   GAMMA RAY
 ILD .OHMM   07 120 46 00:   INDUCTION LOG DEEP
 ILM .OHMM   07 120 44 00:   INDUCTION LOG MEDIUM
~PARAMETER INFORMATION
#MNEM.UNIT          VALUE    DESCRIPTION
#----------   ------------   ------------------------------
 PD  .                 GL:   PERMANENT DATUM
 EPD .F            5182.0:   ELEVATION PERMANENT DATUM
 LMF .                 KB:   LOG MEASURED FROM
 DAPD.F              10.0:   FEET ABOVE PERMANENT DATUM
 DMF .                 KB:   DRILLING MEASURED FROM
 EKB .F            5192.0:   KELLING BUSHING
 EDF .F            5191.0:   DRILLING FLOOR
 EGL .F            5182.0:   GROUND LEVEL
 DATE.        01-OCT-1990:   RUN DATE
 RUN .                  1:   RUN NUMBER
 DD  .F               477:   DEPTH DRILLER
 DL  .F               478:   DEPTH LOGGER
 BLI .F               472:   BOTTOM LOG INTERVAL
 TLI .F                50:   TOP LOG INTERVAL
 CS  .IN            8.625:   CASING SIZE
 CBL .F                53:   CASING BOTTOM LOGGER
 BS  .IN            7.875:   BIT SIZE
 BSD .F               477:   BIT SIZE AT DEPTH
 DFT .                AIR:   DRILLING FLUID TYPE
 TLAB.HRS            1758:   TIME LOGGER AT BOTTOM
 LUN .               5882:   LOGGING UNIT NUMBER
 LUL .               CODY:   LOGGING UNIT LOCATION
 ENGI.        MIKE FISHER:   RECORDING ENGINEER
 WITN.       GARRY STRONG:   WITNESSED BY
 CLNT.            A2DTECH:   CLIENT CODE
 ORIG.           5" PRINT:   ORIGIN OF DATA
 UWI .       490251132000:   UNIQUE WELL ID
 DICO. A2D Technologies, Inc.:   DIGITIZING COMPANY
~OTHER INFORMATION
~A   DEPT      GRR        ILD        ILM   
# ...
  137.0000   131.4033     7.8870     7.7204
  137.5000   131.0992     7.8355     7.6690
  138.0000   132.3012     7.6779     7.5652
  138.5000   134.4498     7.5178     7.4111
  139.0000   134.7051     7.3203     7.2607
  139.5000   133.4967     7.1722     7.1128
  140.0000   129.8793     6.9303     6.8656
  140.5000   129.8765     6.6576     6.5935
  141.0000   131.5321     6.2507     6.2823
  141.5000   133.1840     5.8338     5.8623
  142.0000   126.8551     5.5981     5.4325
  142.5000   122.3341     5.5226     5.0696
  143.0000   118.7168     5.5258     5.0007
  143.5000   120.9548     5.6837     5.1432
  144.0000   126.8429     5.8055     5.4386
  144.5000   131.0569     5.9300     5.7120
  145.0000   134.6685     6.1419     6.0394
  145.5000   137.0752     6.4128     6.3419
  146.0000   137.3736     6.8218     6.6136
  146.5000   135.2616     7.1147     6.9449
  147.0000   134.3550     7.4202     7.2499
  147.5000   134.6534     7.5793     7.6057
  148.0000   136.1565     7.8039     7.8766
  148.5000   140.4167     7.9638     7.9889
  149.0000   144.2826     7.9110     7.9910
  149.5000   146.0870     7.9701     7.9932
  150.0000   140.6634     8.3123     8.0784
  150.5000   133.9075     8.4284     8.3357
  151.0000   133.0076     8.6657     8.5183
  151.5000   132.9955     8.7869     8.6302
  152.0000   132.9811     8.7869     8.7510
  152.5000   131.4609     8.7869     8.7510
  153.0000   132.3540     8.7869     8.7510
  153.5000   136.8670     8.7869     8.8120
  154.0000   139.2713     8.7869     8.8120
  154.5000   139.2565     8.8481     8.8734
  155.0000   139.2446     8.9097     8.9975
  155.5000   138.3277     8.9717     8.9975
  156.0000   136.2042     8.9717     8.9352
  156.5000   134.6840     8.9717     8.8734
  157.0000   134.3704     8.9717     8.8120
  157.5000   134.9619     8.9097     8.8120
  158.0000   135.2519     8.9097     8.6904
  158.5000   134.9381     8.8481     8.6904
  159.0000   134.0151     8.8481     8.6904
  159.5000   133.4060     8.7869     8.6904
  160.0000   135.2841     8.7869     8.6904
  160.5000   137.9041     8.6657     8.6302
  161.0000   140.0038     8.6058     8.5705
  161.5000   139.6902     8.5463     8.3938
  162.0000   134.5501     8.4284     8.3357
  162.5000   130.9183     8.1977     8.2780
  163.0000   130.0014     7.9108     8.1072
  163.5000   135.1178     7.6339     7.8851
  164.0000   137.8208     7.2349     7.4589
  164.5000   139.3202     6.8918     7.0069
  165.0000   139.9116     6.5196     6.4465
  165.5000   138.9917     6.1248     5.8087
  166.0000   136.2649     5.5963     5.4567
  166.5000   134.4431     5.1135     5.0553
  167.0000   135.6378     4.5444     4.4242
  167.5000   138.6425     4.0107     3.8503
  168.0000   136.1931     3.3952     3.4998
  168.5000   132.4394     3.1457     2.9612
  169.0000   128.7219     2.9758     2.7817
  169.5000   123.2073     2.9145     2.7434
  170.0000   120.7821     2.8347     2.7817
  170.5000   123.1835     2.8150     2.8601
  171.0000   126.1882     2.8373     3.0026
  171.5000   131.3045     2.9965     3.2410
  172.0000   131.8989     3.2342     3.4742
  172.5000   131.8840     3.6646     3.8290
  173.0000   132.7771     4.3289     4.3996
  173.5000   136.3851     4.7706     4.9510
  174.0000   140.5965     5.2211     5.4947
  174.5000   140.5845     5.6745     6.0139
  175.0000   141.7793     6.1248     6.3136
  175.5000   143.8790     6.4745     6.4465
  176.0000   146.2804     6.6107     6.4915
  176.5000   147.1735     6.6107     6.4915
  177.0000   145.0135     6.4745     6.3136
  177.5000   142.2171     6.2972     6.1406
  178.0000   142.8216     6.0768     5.9723
  178.5000   148.0279     5.8289     5.8087
  179.0000   154.0492     5.6353     5.6104
  179.5000   161.2771     5.5192     5.4567
  180.0000   166.3934     5.3681     5.3441
  180.5000   165.4765     5.2211     5.2339
  181.0000   158.2248     5.1491     5.1260
  181.5000   151.8781     5.1850     5.0203
  182.0000   149.7545     5.3309     5.0203
  182.5000   153.0609     5.5192     5.1260
  183.0000   156.3672     5.7133     5.3441
  183.5000   157.2633     5.8963     5.6112
  184.0000   155.4385     6.0824     5.9790
  184.5000   149.9967     6.3410     6.3197
  185.0000   147.2699     6.6107     6.6743
  185.5000   145.4339     6.9946     7.0069
  186.0000   143.6018     7.3428     7.3560
  186.5000   142.7089     7.6480     7.6159
  187.0000   146.0127     7.8633     7.7763
  187.5000   148.4170     7.8633     7.8851
  188.0000   148.7068     7.8633     7.9401
  188.5000   144.7704     7.9181     7.9401
  189.0000   142.9485     7.8633     7.8851
  189.5000   143.5399     7.8633     7.8305
  190.0000   148.3546     7.8633     7.6690
  190.5000   149.5523     7.7549     7.5632
  191.0000   148.3308     7.7013     7.4589
  191.5000   145.8510     7.4386     7.3560
  192.0000   142.8215     7.2349     7.2545
  192.5000   143.2579     7.0858     7.1993
  193.0000   147.9795     6.9817     6.9430
  193.5000   147.0627     6.4567     6.4465
  194.0000   145.8441     5.8749     6.0139
  194.5000   145.8322     5.5762     5.6104
  195.0000   149.7419     5.2574     5.3273
  195.5000   154.2549     5.1826     5.0553
  196.0000   155.1510     5.0781     4.8827
  196.5000   153.9294     5.1491     4.7820
  197.0000   152.4092     5.2941     5.0203
  197.5000   152.0986     5.5192     5.3479
  198.0000   154.1954     5.7939     5.7760
  198.5000   154.2353     6.0824     6.1604
  199.0000   153.5683     6.5196     6.5367
  199.5000   153.2547     7.0858     6.9102
  200.0000   156.5604     7.6480     7.6161
  200.5000   160.1720     7.7637     7.8317
  201.0000   160.1629     7.8089     7.8874
  201.5000   159.8504     7.8633     7.9434
  202.0000   159.8417     7.8633     7.9999
  202.5000   159.2297     7.8633     8.0567
  203.0000   158.3161     7.9732     8.1142
  203.5000   155.5925     8.0847     8.0589
  204.0000   154.0674     8.1977     8.0602
  204.5000   153.4635     8.1977     8.2310
  205.0000   154.3576     8.1410     8.2321
  205.5000   155.8572     8.1410     8.0634
  206.0000   158.2618     8.1410     8.0087
  206.5000   158.2906     8.0219     8.0100
  207.0000   157.0377     7.8633     7.9554
  207.5000   157.3308     7.8633     7.9567
  208.0000   157.3199     7.8633     7.9578
  208.5000   157.0096     7.8633     7.9038
  209.0000   155.4926     7.9181     7.9048
  209.5000   155.4839     7.9732     7.9061
  210.0000   155.7769     8.0287     7.9072
  210.5000   156.9727     8.0287     7.9083
  211.0000   157.8690     8.0287     7.9093
  211.5000   159.3686     8.0287     7.9104
  212.0000   159.9654     7.9732     7.9114
  212.5000   158.7479     7.5864     7.8532
  213.0000   156.6013     6.9881     7.4343
  213.5000   156.3151     6.7031     7.1317
  214.0000   157.2114     6.6107     6.6541
  214.5000   160.2193     6.5196     6.2084
  215.0000   163.5289     6.5196     5.9558
  215.5000   164.1428     6.4745     6.0399
  216.0000   162.2403     6.4745     6.1252
  216.5000   160.4841     6.3852     6.1689
  217.0000   160.7771     5.9159     6.1269
  217.5000   161.0722     5.4431     6.0015
  218.0000   160.1564     5.2941     5.7573
  218.5000   159.2428     5.2574     5.1524
  219.0000   157.0458     5.2574     4.6432
  219.5000   153.7934     5.2574     4.6440
  220.0000   149.8631     5.2941     4.9100
  220.5000   147.4411     5.3309     5.1913
  221.0000   152.5607     5.5192     5.6042
  221.5000   157.0769     5.8769     5.8435
  222.0000   160.8206     6.5650     6.2213
  222.5000   162.1877     7.0368     6.5854
  223.0000   159.7636     7.2853     7.1506
  223.5000   154.9284     7.4386     7.4043
  224.0000   150.0734     7.4386     7.4569
  224.5000   147.6712     7.2347     7.2533
  225.0000   146.4537     7.0695     7.0069
  225.5000   145.5400     6.4745     6.6753
  226.0000   145.2297     5.9985     6.0666
  226.5000   145.8243     5.5963     5.3464
  227.0000   153.3571     5.4431     5.0580
  227.5000   161.8150     5.4054     4.9545
