~VERSION INFORMATION
 VERS.                2.0:   CWLS LOG ASCII STANDARD - VERSION 2.0
 WRAP.                 NO:   ONE LINE PER DEPTH STEP
~WELL INFORMATION
#MNEM.UNIT      DATA TYPE    INFORMATION
#----------   ------------   ------------------------------
 STRT.F            3.0000:   START DEPTH
 STOP.F          523.0000:   STOP DEPTH
 STEP.F            0.1000:   STEP LENGTH
 NULL.          -999.2500:   NO VALUE
 COMP.     BROWN JOHN E&C:   COMPANY
 WELL.   NPR 3 #52-2-SX-3:   WELL
 FLD .             TEAPOT:   FIELD
 LOC .       S3 T38N R78W:   LOCATION
 CNTY.            NATRONA:   COUNTY
 STAT.            WYOMING:   STATE
 CTRY. UNITED STATES OF AMERICA:   COUNTRY
 SRVC.     Atlas Wireline:   SERVICE COMPANY
 DATE.        18-APR-1992:   LOGDATE
 API .       490252251500:   API NUMBER
~CURVE INFORMATION
#MNEM.UNIT       API CODE    CURVE DESCRIPTION
#----------   ------------   ------------------------------
 DEPT.F                  :   
 GRR .GAPI   07 310 01 00:   GAMMA RAY
 RILD.OHMM   07 120 46 00:   INDUCTION LOG DEEP RESISTIVITY
 RILM.OHMM   07 120 44 00:   INDUCTION LOG MEDIUM RESISTIVITY
~PARAMETER INFORMATION
#MNEM.UNIT          VALUE    DESCRIPTION
#----------   ------------   ------------------------------
 PD  .                 GL:   PERMANENT DATUM
 EPD .F              5128:   ELEVATION PERMANENT DATUM
 LMF .                 KB:   LOG MEASURED FROM
 DAPD.F                 5:   FEET ABOVE PERMANENT DATUM
 DMF .                 KB:   DRILLING MEASURED FROM
 EKB .F              5133:   KELLING BUSHING
 EDF .F              5132:   DRILLING FLOOR
 EGL .F              5128:   GROUND LEVEL
 DATE.        18-APR-1992:   RUN DATE
 RUN .                  1:   RUN NUMBER
 DD  .F               525:   DEPTH DRILLER
 DL  .F               526:   DEPTH LOGGER
 BLI .F               524:   BOTTOM LOG INTERVAL
 CS  .IN            8.625:   CASING SIZE
 CBD .F                48:   CASING BOTTOM DRILLER
 CBL .F                49:   CASING BOTTOM LOGGER
 BS  .IN            7.875:   BIT SIZE
 BSD .F               525:   BIT SIZE AT DEPTH
 DFT .                AIR:   DRILLING FLUID TYPE
 TCS .HRS               2:   TIME CURCULATED STOPPED
 MRT .F                87:   MAXIMUM RECORDED TEMPERATURE
 LUN .            HL 6274:   LOGGING UNIT NUMBER
 LUL .             CASPER:   LOGGING UNIT LOCATION
 ENGI.            LEBSOCK:   RECORDING ENGINEER
 WITN.             STRONG:   WITNESSED BY
 CLNT.            A2DTECH:   CLIENT CODE
 ORIG.       2", 5" PRINT:   ORIGIN OF DATA
 UWI .       490252251500:   UNIQUE WELL ID
 DICO. A2D Technologies, Inc.:   DIGITIZING COMPANY
~OTHER INFORMATION
~A    DEPT     GRR       RILD       RILM   
# ...
  166.8000   132.0040     9.8224     9.2506
  166.9000   132.4606     9.7824     9.2505
  167.0000   132.7273     9.7822     9.2504
  167.1000   132.7273     9.7821     9.2502
  167.2000   132.7273     9.7820     9.2501
  167.3000   132.6142     9.7485     9.2500
  167.4000   132.3677     9.7136     9.2498
  167.5000   132.1212     9.7055     9.2497
  167.6000   131.8747     9.6456     9.2496
  167.7000   131.6283     9.6455     9.2495
  167.8000   131.5152     9.6079     9.2493
  167.9000   131.4384     9.5532     9.2492
  168.0000   131.1919     9.5113     9.2491
  168.1000   130.9091     9.5111     9.2060
  168.2000   130.9091     9.4570     9.1844
  168.3000   130.7556     9.4033     9.1843
  168.4000   130.6061     9.3787     9.1842
  168.5000   130.5657     9.3786     9.1840
  168.6000   130.3030     9.3785     9.1367
  168.7000   130.0727     9.3783     9.1198
  168.8000   129.8262     9.3326     9.1197
  168.9000   129.5798     9.3128     9.1082
  169.0000   129.3333     9.3126     9.0559
  169.1000   129.0909     9.3125     9.0558
  169.2000   129.0909     9.3124     9.0165
  169.3000   128.7030     9.3122     8.9925
  169.4000   128.4848     9.3121     8.9924
  169.5000   128.4041     9.2863     8.9922
  169.6000   128.1576     9.2470     8.9921
  169.7000   127.8788     9.2469     8.9920
  169.8000   127.8788     9.2467     9.0237
  169.9000   128.1940     9.2466     9.0548
  170.0000   128.7879     9.2465     9.0547
  170.1000   129.5273     9.2464     9.0545
  170.2000   130.3030     9.2462     9.0544
  170.3000   130.7717     9.2461     9.0543
  170.4000   131.0869     9.2460     9.0542
  170.5000   131.2121     9.2458     9.0540
  170.6000   131.2121     9.2457     9.0539
  170.7000   131.2041     9.2456     9.0538
  170.8000   130.9091     9.2455     9.0946
  170.9000   130.5131     9.2453     9.1170
  171.0000   130.1616     9.2452     9.1169
  171.1000   129.7454     9.2451     9.1168
  171.2000   129.0343     9.2449     9.1166
  171.3000   128.4848     9.2448     9.1165
  171.4000   128.2667     9.2447     9.1164
  171.5000   128.3434     9.2446     9.1162
  171.6000   129.0101     9.2444     9.1161
  171.7000   130.1454     9.2443     9.1160
  171.8000   130.9091     9.2442     9.1159
  171.9000   131.6242     9.2440     9.1157
  172.0000   132.1818     9.2439     9.1156
  172.1000   132.6747     9.2438     9.1155
  172.2000   133.0303     9.2436     9.1154
  172.3000   133.0424     9.2435     9.1152
  172.4000   133.3333     9.2434     9.1151
  172.5000   133.3333     9.2433     9.1150
  172.6000   133.3333     9.2431     9.1148
  172.7000   133.2444     9.2430     9.1147
  172.8000   133.0303     9.2429     9.1146
  172.9000   133.0303     9.2427     9.1145
  173.0000   132.3636     9.2426     9.1143
  173.1000   131.1273     9.2425     9.1142
  173.2000   129.8668     9.2424     9.1141
  173.3000   128.9859     9.2422     9.1140
  173.4000   128.4848     9.2421     9.1138
  173.5000   128.0000     9.2420     9.1137
  173.6000   127.5071     9.2418     9.1136
  173.7000   127.0141     9.2417     9.1134
  173.8000   126.6667     9.2416     9.1133
  173.9000   126.6505     9.2415     9.1132
  174.0000   126.3636     9.2413     9.1131
  174.1000   126.3636     9.2412     9.1129
  174.2000   126.3636     9.2411     9.1128
  174.3000   126.3636     9.2409     9.1127
  174.4000   126.4000     9.2408     9.1125
  174.5000   126.6667     9.2407     9.1124
  174.6000   126.6667     9.2405     9.1123
  174.7000   126.6667     9.2404     9.0873
  174.8000   126.6667     9.2403     9.0486
  174.9000   126.6667     9.2402     9.0485
  175.0000   126.6667     9.2400     9.0483
  175.1000   126.9131     9.2399     9.0482
  175.2000   126.9697     9.2398     9.0481
  175.3000   127.1030     9.2396     9.0480
  175.4000   127.3495     9.2395     9.0478
  175.5000   127.5960     9.2394     9.0477
  175.6000   127.8788     9.2393     9.0476
  175.7000   127.8788     9.2391     9.0474
  175.8000   128.0323     9.2390     9.0473
  175.9000   128.1818     9.2389     9.0472
  176.0000   128.2222     9.2387     9.0471
  176.1000   128.4848     9.2386     9.0469
  176.2000   128.4848     9.2385     9.0468
  176.3000   128.4848     9.2384     9.0467
  176.4000   128.4848     9.2382     9.0466
  176.5000   128.4242     9.2381     9.0464
  176.6000   128.1737     9.2257     9.0463
  176.7000   127.6808     9.1735     9.0462
  176.8000   126.8000     9.1734     9.0461
  176.9000   125.8141     9.1732     9.0459
  177.0000   124.9091     9.1731     9.0458
  177.1000   124.1939     9.1730     9.0457
  177.2000   123.6364     9.1729     8.9989
  177.3000   123.6364     9.1727     8.9132
  177.4000   123.6364     9.1726     8.8349
  177.5000   123.6364     9.1725     8.7735
  177.6000   123.6364     9.1512     8.6736
  177.7000   123.6364     9.1083     8.6245
  177.8000   123.6364     9.1082     8.5755
  177.9000   123.6364     9.1081     8.5267
  178.0000   123.6364     9.1080     8.4932
  178.1000   123.6364     9.0824     8.4891
  178.2000   123.6364     9.0443     8.4338
  178.3000   123.6364     9.0442     8.4337
  178.4000   123.8343     9.0440     8.4037
  178.5000   123.9394     9.0026     8.3748
  178.6000   123.9394     8.9808     8.3746
  178.7000   123.9394     8.9807     8.3745
  178.8000   123.9394     8.9744     8.3744
  178.9000   124.1576     8.9179     8.3743
  179.0000   124.4040     8.9178     8.3512
  179.1000   124.7556     8.8841     8.3157
  179.2000   125.3455     8.8554     8.3156
  179.3000   126.3636     8.8449     8.3155
  179.4000   127.5556     8.7935     8.2778
  179.5000   128.4243     8.7934     8.2574
  179.6000   128.9131     8.7559     8.2573
  179.7000   129.0909     8.7319     8.2519
  179.8000   129.0909     8.7173     8.1995
  179.9000   129.0909     8.6677     8.1994
  180.0000   129.0909     8.6103     8.1688
  180.1000   129.0909     8.5694     8.1421
  180.2000   129.0020     8.4914     8.1328
  180.3000   128.7879     8.4132     8.0852
  180.4000   128.7879     8.3583     8.0850
  180.5000   128.5657     8.2562     8.0510
  180.6000   128.4848     8.2129     7.9820
  180.7000   128.3757     8.1342     7.8916
  180.8000   128.1818     8.0211     7.8045
  180.9000   128.1818     7.8956     7.7525
  181.0000   127.9394     7.8060     7.6441
  181.1000   127.8788     7.7177     7.4895
  181.2000   127.8788     7.5968     7.3512
  181.3000   127.8061     7.4915     7.2621
  181.4000   127.5758     7.4066     7.1284
  181.5000   127.5758     7.3265     7.0914
  181.6000   127.5758     7.2792     6.9967
  181.7000   127.4263     7.2080     6.8959
  181.8000   127.2727     7.1263     6.8091
  181.9000   127.2727     7.0783     6.6934
  182.0000   127.2727     7.0710     6.6178
  182.1000   127.0465     7.0288     6.5429
  182.2000   127.1394     6.9908     6.4887
  182.3000   127.2727     6.9510     6.4403
  182.4000   127.3858     6.9310     6.3704
  182.5000   127.8788     6.9309     6.3290
  182.6000   128.1252     6.9308     6.3289
  182.7000   128.5616     6.9306     6.3288
  182.8000   128.9212     6.9306     6.3287
  182.9000   129.1677     6.9305     6.3348
  183.0000   129.4343     6.9304     6.3729
  183.1000   130.0000     6.9303     6.4071
  183.2000   130.2101     6.9302     6.4436
  183.3000   130.3030     6.9301     6.4803
  183.4000   130.4000     6.9300     6.5171
  183.5000   130.6465     6.9299     6.5542
  183.6000   130.9091     6.9298     6.5990
  183.7000   130.9091     6.9297     6.6290
  183.8000   130.9091     6.9296     6.6667
  183.9000   130.9091     6.9593     6.7047
  184.0000   130.7273     6.9780     6.7428
  184.1000   129.9879     6.9897     6.7855
  184.2000   129.2485     7.0294     6.8544
  184.3000   129.2848     7.0759     6.9067
  184.4000   129.3939     7.0758     6.9460
  184.5000   129.4747     7.1004     6.9936
  184.6000   129.7212     7.1408     7.0756
  184.7000   130.0000     7.1814     7.1148
  184.8000   130.2142     7.2253     7.1553
  184.9000   130.3030     7.2634     7.1960
