~VERSION INFORMATION
 VERS.                2.0:   CWLS LOG ASCII STANDARD - VERSION 2.0
 WRAP.                 NO:   ONE LINE PER DEPTH STEP
~WELL INFORMATION
#MNEM.UNIT      DATA TYPE    INFORMATION
#----------   ------------   ------------------------------
 STRT.F           16.5000:   START DEPTH
 STOP.F          640.0000:   STOP DEPTH
 STEP.F            0.5000:   STEP LENGTH
 NULL.          -999.2500:   NO VALUE
 COMP. FENIX & SCISSON INC:   COMPANY
 WELL.     11 SX 14 #3-14:   WELL
 FLD .             TEAPOT:   FIELD
 LOC .      S14 T38N R78W:   LOCATION
 CNTY.            NATRONA:   COUNTY
 STAT.            WYOMING:   STATE
 CTRY. UNITED STATES OF AMERICA:   COUNTRY
 SRVC.            Unknown:   SERVICE COMPANY
 DATE.        18-DEC-1978:   LOGDATE
 API .       490251075700:   API NUMBER
~CURVE INFORMATION
#MNEM.UNIT       API CODE    CURVE DESCRIPTION
#----------   ------------   ------------------------------
 DEPT.F                  :   
 SPR .MV     05 010 01 00:   SPONTANEOUS POTENTIAL FROM RES.
 SN  .OHMM   05 040 16 00:   SHORT NORMAL 16"
 IL  .OHMM   05 120 00 00:   INDUCTION LOG
 GRD .GAPI   45 310 01 00:   GAMMA RAY FROM DENSITY LOG
 CALD.IN     45 280 60 00:   CALIPER
 RHOB.G/C3   45 350 01 00:   BULK DENSITY
 DPHI.DEC    45 890 12 00:   DENSITY POROSITY SANDSTONE
 CORR.G/C3   45 356 01 00:   DENSITY CORRECTION
~PARAMETER INFORMATION
#MNEM.UNIT          VALUE    DESCRIPTION
#----------   ------------   ------------------------------
 PD  .                 GL:   PERMANENT DATUM
 EPD .F              5217:   ELEVATION PERMANENT DATUM
 LMF .                 KB:   LOG MEASURED FROM
 DAPD.F                 4:   FEET ABOVE PERMANENT DATUM
 DMF .                 KB:   DRILLING MEASURED FROM
 EKB .F              5221:   KELLING BUSHING
 EGL .F              5217:   GROUND LEVEL
 DATE.           12-18-78:   RUN DATE
 RUN .                  1:   RUN NUMBER
 DD  .F               653:   DEPTH DRILLER
 DL  .F               640:   DEPTH LOGGER
 BLI .F               634:   BOTTOM LOG INTERVAL
 TLI .F                32:   TOP LOG INTERVAL
 CS  .IN            8.625:   CASING SIZE
 CBD .F                40:   CASING BOTTOM DRILLER
 CBL .F                30:   CASING BOTTOM LOGGER
 BS  .IN            7.875:   BIT SIZE
 BSD .F               653:   BIT SIZE AT DEPTH
 DFT .                KCL:   DRILLING FLUID TYPE
 DFD .                8.3:   DRILLING FLUID DENSITY
 DFV .                 36:   DRILLING FLUID VISCOSITY
 DFPH.               12.5:   DRILLING FLUID PH
 DFL .               12.3:   DRILLING FLUID LOSS
 MSS .           FLOWLINE:   MUD SAMPLE SOURCE
 MST .F                56:   MUD SAMPLE TEMPERATURE
 RMF .OHMM            .44:   RESISTIVITY MUD FILTRATE SAMPLE
 MFST.F                58:   MUD FILTRATE SAMPLE TEMPERATURE
 RMC .OHMM            .58:   RESISTIVITY MUD CAKE
 MCST.F                66:   MUD CAKE SAMPLE TEMPERATURE
 MFSS.           MEASURED:   MUD FILTRATE SAMPLE SOURCE
 MCSS.           MEASURED:   MUD CAKE SAMPLE SOURCE
 BHT .F                58:   BOTTOM HOLE TEMPERATURE
 TCS .HRS               4:   TIME CURCULATED STOPPED
 MRT .F                58:   MAXIMUM RECORDED TEMPERATURE
 LUL .             CASPER:   LOGGING UNIT LOCATION
 ENGI.         B. ROLLINS:   RECORDING ENGINEER
 WITN.              AMEND:   WITNESSED BY
 CLNT.            A2DTECH:   CLIENT CODE
 ORIG.           5" PRINT:   ORIGIN OF DATA
 UWI .       490251075700:   UNIQUE WELL ID
 DICO. A2D Technologies, Inc.:   DIGITIZING COMPANY
~OTHER INFORMATION
~A   DEPT      SPR         SN         IL         GRD      CALD       RHOB       DPHI       CORR   
# ...
  300.0000   -50.1980    10.2400     9.6480    91.3890     8.0200     2.4570     0.1340     0.0420
  300.5000   -50.2500    10.1860     9.5660    91.3940     7.9950     2.4620     0.1270     0.0480
  301.0000   -50.1210    10.1310     9.5010    91.3930     7.9690     2.4710     0.1260     0.0540
  301.5000   -49.4660    10.0770     9.4430    91.3920     7.9420     2.4780     0.1220     0.0570
  302.0000   -48.8300    10.0230     9.3840    91.3920     7.8750     2.4830     0.1200     0.0600
  302.5000   -48.1960     9.9680     9.3260    91.3810     7.7990     2.4870     0.1230     0.0590
  303.0000   -47.5600     9.9140     9.2670    91.1770     7.7730     2.4840     0.1310     0.0510
  303.5000   -46.9280     9.8590     9.2090    91.0040     7.9870     2.4710     0.1310     0.0400
  304.0000   -46.8990     9.8140     9.1500    91.1160     8.0570     2.4700     0.1290     0.0380
  304.5000   -46.9000     9.7780     9.1250    91.2320     8.0580     2.4730     0.1280     0.0380
  305.0000   -46.9060     9.7420     9.1130    91.3420     8.0590     2.4730     0.1260     0.0390
  305.5000   -47.0780     9.7050     9.1000    92.2120     8.0500     2.4770     0.1240     0.0390
  306.0000   -47.2600     9.6690     9.0870    93.9140     8.0310     2.4790     0.1230     0.0390
  306.5000   -47.4420     9.6320     9.0740    95.1610     8.0430     2.4800     0.1220     0.0400
  307.0000   -47.6230     9.5960     9.0610    94.9810     8.0930     2.4840     0.1220     0.0400
  307.5000   -47.8050     9.5590     9.0150    94.8300     8.1440     2.4850     0.1210     0.0410
  308.0000   -47.9870     9.5230     8.7930    93.7810     8.1570     2.4850     0.1210     0.0410
  308.5000   -48.1690     9.4860     8.5710    92.1730     8.1190     2.4850     0.1240     0.0410
  309.0000   -48.3510     9.1850     8.2540    90.6330     8.0740     2.4840     0.1260     0.0380
  309.5000   -48.5320     8.6430     8.2660    89.2310     8.0420     2.4740     0.1360     0.0340
  310.0000   -48.7140     8.6550     8.2880    89.5350     8.0550     2.4640     0.1390     0.0320
  310.5000   -48.8960     8.6750     8.3100    93.2710     8.0680     2.4560     0.1390     0.0350
  311.0000   -49.0800     8.6950     8.3320    94.0940     8.0790     2.4550     0.1390     0.0420
  311.5000   -49.4440     8.7150     8.3540    94.5040     8.0790     2.4550     0.1390     0.0530
  312.0000   -49.8350     8.7350     8.3760    94.5630     8.0790     2.4570     0.1360     0.0630
  312.5000   -50.2230     8.7560     8.3980    94.5580     8.0790     2.4630     0.1310     0.0620
  313.0000   -50.4920     8.7760     8.4410    94.2790     8.0790     2.4700     0.1290     0.0550
  313.5000   -50.4360     8.7960     8.4980    92.9820     8.0790     2.4710     0.1290     0.0540
  314.0000   -50.3880     8.8540     8.5550    92.0570     8.0800     2.4700     0.1290     0.0540
  314.5000   -50.3380     8.9370     8.6120    92.5110     8.0530     2.4710     0.1290     0.0550
  315.0000   -50.2130     9.0190     8.6690    92.9400     8.0220     2.4720     0.1260     0.0550
  315.5000   -49.6190     9.0650     8.7260    93.0540     7.9920     2.4740     0.1260     0.0550
  316.0000   -49.0860     9.0890     8.7980    92.7570     7.7770     2.4770     0.1280     0.0530
  316.5000   -49.1160     9.1130     8.7770    92.5900     7.9320     2.4730     0.1310     0.0430
  317.0000   -49.1350     9.1360     8.7350    92.9850     8.1380     2.4680     0.1340     0.0370
  317.5000   -49.1500     9.1600     8.6920    93.9160     7.8460     2.4660     0.1340     0.0350
  318.0000   -49.1640     9.1830     8.6500    94.8390     7.8950     2.4660     0.1330     0.0330
  318.5000   -49.1800     9.2070     8.6080    95.9030     8.1210     2.4650     0.1350     0.0310
  319.0000   -49.1950     9.2310     8.5650    95.6030     8.3580     2.4630     0.1380     0.0320
  319.5000   -49.2110     9.2540     8.5230    95.2690     8.3640     2.4580     0.1390     0.0320
  320.0000   -49.2260     9.2780     8.4810    95.9660     8.1630     2.4570     0.1400     0.0330
  320.5000   -49.2420     9.3030     8.4380    99.6370     7.8780     2.4580     0.1320     0.0380
  321.0000   -49.2570     9.2910     8.4060   100.2140     7.8210     2.4650     0.1260     0.0430
  321.5000   -49.2730     9.2750     8.4020   100.4640     7.9170     2.4770     0.1220     0.0480
  322.0000   -49.2880     9.2590     8.3980   100.7190     8.0300     2.4840     0.1220     0.0530
  322.5000   -49.2940     9.2430     8.3940   100.9340     8.0940     2.4850     0.1220     0.0580
  323.0000   -49.2650     9.2270     8.3900   100.9210     8.0810     2.4860     0.1150     0.0630
  323.5000   -49.2370     9.2110     8.3860   100.9310     8.0690     2.4930     0.1120     0.0660
  324.0000   -49.2090     9.1950     8.3820    99.7170     8.0570     2.4990     0.1140     0.0590
  324.5000   -49.1800     9.1790     8.3790    97.7610     8.0450     2.5000     0.1170     0.0390
  325.0000   -49.1520     9.1630     8.3750    96.1800     8.0320     2.4930     0.1180     0.0250
  325.5000   -49.1220     9.1470     8.3710    95.4190     8.0200     2.4910     0.1180     0.0160
  326.0000   -49.0020     9.1310     8.3670    95.0040     8.0070     2.4900     0.1210     0.0190
  326.5000   -48.2200     9.1150     8.3630    94.5880     7.9950     2.4860     0.1260     0.0230
  327.0000   -47.4320     9.0990     8.3590    94.1980     7.9830     2.4780     0.1310     0.0260
  327.5000   -46.9170     9.0830     8.3550    94.3710     7.9710     2.4700     0.1350     0.0290
  328.0000   -47.0160     9.0670     8.3510    94.5690     7.9580     2.4620     0.1370     0.0350
  328.5000   -47.0770     9.0510     8.3470    94.7970     7.9460     2.4620     0.1340     0.0410
  329.0000   -46.2870     9.0360     8.3430    95.8070     7.9590     2.4620     0.1360     0.0440
  329.5000   -45.4370     9.0200     8.3390    96.8630     7.9880     2.4610     0.1380     0.0450
  330.0000   -44.8320     9.0040     8.3350    97.9390     8.0180     2.4610     0.1370     0.0470
  330.5000   -44.6700     8.9880     8.3320    97.6240     8.0470     2.4630     0.1280     0.0510
  331.0000   -44.5080     8.9710     8.3020    96.5080     8.1800     2.4770     0.1140     0.0610
  331.5000   -44.5200     8.9680     8.2640    95.4020     8.3880     2.4940     0.1140     0.0700
  332.0000   -44.5400     8.9680     8.2260    95.1790     8.4260     2.5010     0.1150     0.0700
  332.5000   -44.5610     8.9680     8.1880    95.1530     8.1860     2.4950     0.1160     0.0700
  333.0000   -44.5810     8.9680     8.1500    95.8380     8.0060     2.4930     0.1180     0.0710
  333.5000   -44.6010     8.9680     8.1130    96.6140     7.9630     2.4930     0.1210     0.0710
  334.0000   -44.6210     8.8330     8.0750    96.7360     7.9250     2.4900     0.1240     0.0740
  334.5000   -44.6410     8.6940     8.0370    96.0850     7.9010     2.4820     0.1240     0.0770
  335.0000   -44.6610     8.5550     7.9210    95.3880     7.9010     2.4820     0.1220     0.0790
  335.5000   -44.6820     8.4150     7.7830    94.6840     7.9010     2.4850     0.1190     0.0810
  336.0000   -44.6930     8.2530     7.6450    94.4970     7.8950     2.4880     0.1170     0.0830
  336.5000   -44.5560     8.0550     7.5070    94.7050     7.8870     2.4920     0.1150     0.0830
  337.0000   -44.4220     7.7380     7.3680    94.9090     7.8800     2.4950     0.1170     0.0830
  337.5000   -44.3020     7.7700     7.2300    95.1070     7.8710     2.4950     0.1270     0.0770
  338.0000   -44.3000     7.8510     7.0920    95.7690     7.8590     2.4820     0.1360     0.0720
  338.5000   -44.3000     7.9320     6.9270    96.5550     8.0280     2.4670     0.1440     0.0680
  339.0000   -44.3000     8.0280     6.9830    97.3440     8.1840     2.4510     0.1410     0.0720
  339.5000   -44.3070     7.9690     7.1180    98.1490     8.2150     2.4500     0.1370     0.0760
  340.0000   -44.6010     7.8960     7.2520    98.0100     7.9620     2.4570     0.1350     0.0770
