~VERSION INFORMATION
 VERS.                2.0:   CWLS LOG ASCII STANDARD - VERSION 2.0
 WRAP.                 NO:   ONE LINE PER DEPTH STEP
~WELL INFORMATION
#MNEM.UNIT      DATA TYPE    INFORMATION
#----------   ------------   ------------------------------
 STRT.F            6.0000:   START DEPTH
 STOP.F          495.0000:   STOP DEPTH
 STEP.F            0.5000:   STEP LENGTH
 NULL.          -999.2500:   NO VALUE
 COMP. FENIX & SCISSON INC:   COMPANY
 WELL. FI NPR-3 #65-25 SX3:   WELL
 FLD .  NAVAL RESERVES #3:   FIELD
 LOC .       S3 T38N R78W:   LOCATION
 CNTY.            NATRONA:   COUNTY
 STAT.            WYOMING:   STATE
 CTRY. UNITED STATES OF AMERICA:   COUNTRY
 SRVC.       Schlumberger:   SERVICE COMPANY
 DATE.        22-MAY-1980:   LOGDATE
 API .       490251080300:   API NUMBER
~CURVE INFORMATION
#MNEM.UNIT       API CODE    CURVE DESCRIPTION
#----------   ------------   ------------------------------
 DEPT.F                  :   
 SPR .MV     07 010 01 00:   SPONTANEOUS POTENTIAL
 SFL .OHMM   07 220 01 00:   SHALLOW FOCUSED LOG RESISTIVITY
 ILD .OHMM   07 120 46 00:   INDUCTION LOG DEEP RESISTIVITY
 ILM .OHMM   07 120 44 00:   INDUCTION LOG MEDIUM
 GRD .GAPI   45 310 01 00:   GAMMA RAY FROM DENSITY LOG
 CALD.IN     45 280 60 00:   CALIPER
 DPHI.DEC    45 890 12 00:   DENSITY POROSITY SANDSTONE
 RHOB.G/C3   45 350 01 00:   BULK DENSITY
 CORR.G/C3   45 356 01 00:   DENSITY CORRECTION
 NPHI.DEC    42 890 03 00:   NEUTRON POROSITY SANDSTONE
~PARAMETER INFORMATION
#MNEM.UNIT          VALUE    DESCRIPTION
#----------   ------------   ------------------------------
 PD  .                 GL:   PERMANENT DATUM
 EPD .F              5162:   ELEVATION PERMANENT DATUM
 LMF .                 KB:   LOG MEASURED FROM
 DAPD.F                 4:   FEET ABOVE PERMANENT DATUM
 DMF .                 KB:   DRILLING MEASURED FROM
 EKB .F              5166:   KELLING BUSHING
 EGL .F              5162:   GROUND LEVEL
 DATE.            5-22-80:   RUN DATE
 RUN .                  1:   RUN NUMBER
 DD  .F               500:   DEPTH DRILLER
 DL  .F               498:   DEPTH LOGGER
 BLI .F               492:   BOTTOM LOG INTERVAL
 TLI .F                10:   TOP LOG INTERVAL
 BS  .IN            9.875:   BIT SIZE
 BSD .F               500:   BIT SIZE AT DEPTH
 DFT .                KCL:   DRILLING FLUID TYPE
 DFD .                9.6:   DRILLING FLUID DENSITY
 DFV .                 45:   DRILLING FLUID VISCOSITY
 DFL .                8.9:   DRILLING FLUID LOSS
 MSS .               PITS:   MUD SAMPLE SOURCE
 RMS .OHMM            .21:   RESISTIVITY MUD SAMPLE
 MST .F                76:   MUD SAMPLE TEMPERATURE
 RMF .OHMM            .19:   RESISTIVITY MUD FILTRATE SAMPLE
 MFST.F                76:   MUD FILTRATE SAMPLE TEMPERATURE
 MFSS.               MEAS:   MUD FILTRATE SAMPLE SOURCE
 TLAB.HRS            0845:   TIME LOGGER AT BOTTOM
 LUN .               8035:   LOGGING UNIT NUMBER
 LUL .               CSPR:   LOGGING UNIT LOCATION
 ENGI.           C. DRAKE:   RECORDING ENGINEER
 WITN.              AMEND:   WITNESSED BY
 CLNT.            A2DTECH:   CLIENT CODE
 ORIG.           5" PRINT:   ORIGIN OF DATA
 UWI .       490251080300:   UNIQUE WELL ID
 DICO. A2D Technologies, Inc.:   DIGITIZING COMPANY
~OTHER INFORMATION
~A    DEPT     SPR        SFL        ILD        ILM         GRD       CALD      DPHI       RHOB       CORR        NPHI  
# ...
  240.5000   -78.9710     6.4479     6.5980     5.2535   135.4441    10.1889     0.1347     2.4516    -0.0092     0.3963
  241.0000   -79.0201     6.1449     6.5810     5.2938   134.7746    10.1879     0.1344     2.4517    -0.0125     0.3862
  241.5000   -79.3097     6.6296     6.5641     5.3430   134.0841    10.1870     0.1324     2.4552    -0.0135     0.3725
  242.0000   -79.5963     6.9920     6.6153     5.3927   133.5124    10.1861     0.1303     2.4615    -0.0134     0.3589
  242.5000   -79.8821     7.3742     6.3225     5.4008   132.9149    10.1851     0.1278     2.4634    -0.0123     0.3466
  243.0000   -80.1076     7.5964     6.0520     5.2859   132.2196    10.1842     0.1278     2.4638    -0.0084     0.3339
  243.5000   -80.1656     7.7378     5.7932     5.1575   129.8188    10.1832     0.1307     2.4570     0.0003     0.3435
  244.0000   -80.2295     7.3892     5.5519     4.4321   127.3241    10.1823     0.1395     2.4322     0.0054     0.3741
  244.5000   -80.2984     5.9150     5.4008     3.8754   125.7169    10.1814     0.1638     2.4031     0.0002     0.4277
  245.0000   -80.0551     4.7870     5.4421     3.8398   123.9404    10.1804     0.1804     2.3771    -0.0048     0.4621
  245.5000   -79.7682     4.0889     5.4601     4.2203   122.2220    10.1795     0.1777     2.3853    -0.0093     0.4542
  246.0000   -79.4808     4.5396     5.4742     4.5028   122.3855    10.1785     0.1647     2.4119    -0.0088     0.4232
  246.5000   -79.1888     5.3184     5.4883     4.8043   123.9329    10.1776     0.1387     2.4492    -0.0054     0.3554
  247.0000   -79.1871     6.2233     5.5013     5.0633   125.6188    10.1767     0.1302     2.4607    -0.0061     0.3371
  247.5000   -79.3094     7.1876     5.9034     5.2027   127.3878    10.1757     0.1322     2.4560    -0.0084     0.3451
  248.0000   -79.4337     7.1876     6.3034     5.3357   128.9323    10.1748     0.1355     2.4515    -0.0084     0.3553
  248.5000   -79.4190     7.1583     6.7305     5.5503   127.8106    10.1739     0.1344     2.4539    -0.0061     0.3627
  249.0000   -79.2506     7.1252     7.1866     5.7242   124.2354    10.1729     0.1313     2.4593    -0.0045     0.3629
  249.5000   -79.0838     7.1217     7.5267     5.9036   121.9416    10.1720     0.1275     2.4646    -0.0035     0.3619
  250.0000   -78.9160     7.2880     7.6668     5.9225   120.5889    10.1711     0.1269     2.4668    -0.0028     0.3591
  250.5000   -78.7429     7.4230     7.0096     5.8404   121.1284    10.1701     0.1262     2.4666    -0.0018     0.3467
  251.0000   -78.6247     7.7460     6.5885     5.7080   122.3090    10.1692     0.1242     2.4712    -0.0008     0.3395
  251.5000   -78.5178     8.1779     6.1927     5.3394   124.2379    10.1682     0.1202     2.4767     0.0017     0.3321
  252.0000   -78.4101     7.9566     5.8207     4.8656   127.1721    10.1673     0.1210     2.4723     0.0067     0.3358
  252.5000   -78.3085     6.5461     5.4509     4.4338   130.6319    10.1664     0.1404     2.4451     0.0079     0.3904
  253.0000   -78.5514     5.3142     5.3513     4.0958   131.9306    10.1654     0.1546     2.4196     0.0063     0.4336
  253.5000   -78.8250     4.4093     5.3513     4.2256   130.3902    10.1645     0.1601     2.4097    -0.0029     0.4597
  254.0000   -79.0827     4.3689     5.3022     4.3973   128.4130    10.1636     0.1575     2.4154    -0.0034     0.4473
  254.5000   -78.7657     5.0047     5.4048     4.5760   126.8724    10.1626     0.1319     2.4495    -0.0035     0.3904
  255.0000   -78.4121     5.5300     5.5906     4.7619   125.3622    10.1617     0.1222     2.4716    -0.0023     0.3650
  255.5000   -78.0605     6.1105     5.7609     5.0141   121.5978    10.1608     0.1158     2.4830    -0.0043     0.3444
  256.0000   -77.7115     6.7519     6.1658     5.2525   120.0309    10.1607     0.1148     2.4859    -0.0067     0.3343
  256.5000   -77.4485     7.4576     6.6417     5.5024   120.1253    10.1630     0.1144     2.4866    -0.0078     0.3218
  257.0000   -77.3305     7.7059     7.1543     5.7641   121.7913    10.1652     0.1153     2.4843    -0.0048     0.3284
  257.5000   -76.9504     7.9801     7.7065     6.0382   124.0217    10.1675     0.1178     2.4809    -0.0019     0.3349
  258.0000   -76.6975     8.0969     7.9441     6.2325   125.3289    10.1698     0.1194     2.4784    -0.0015     0.3363
  258.5000   -76.7055     8.2157     8.0378     6.3053   125.0225    10.1720     0.1192     2.4780    -0.0042     0.3212
  259.0000   -76.8385     8.3299     8.0646     6.3790   123.7926    10.1743     0.1195     2.4785    -0.0070     0.3146
  259.5000   -76.9757     8.3414     8.0994     6.4535   121.1020    10.1765     0.1205     2.4766    -0.0093     0.3142
  260.0000   -77.0889     8.3547     8.1345     6.4944   119.4183    10.1788     0.1205     2.4762    -0.0064     0.3163
  260.5000   -76.8799     8.3681     8.1698     6.4944   116.6582    10.1778     0.1178     2.4806    -0.0031     0.3178
  261.0000   -76.6677     8.3816     8.2051     6.4944   117.1233    10.1742     0.1158     2.4845     0.0004     0.3171
  261.5000   -76.4571     8.3950     8.2407     6.4944   117.8318    10.1705     0.1184     2.4818    -0.0006     0.3164
  262.0000   -76.2480     8.4072     8.2764     6.4944   116.5895    10.1668     0.1218     2.4760    -0.0015     0.3177
  262.5000   -76.0973     8.5429     8.3123     6.5982   115.0079    10.1631     0.1198     2.4778     0.0001     0.3186
  263.0000   -76.1008     8.6693     8.5637     6.6947   114.4782    10.1595     0.1145     2.4848     0.0015     0.3182
  263.5000   -76.0965     8.7991     8.5366     6.8008   116.6071    10.1558     0.1097     2.4945     0.0018     0.3160
  264.0000   -75.8939     8.8848     8.4839     6.7943   118.9403    10.1521     0.1049     2.5024     0.0022     0.3128
  264.5000   -75.7463     8.7231     8.4315     6.7816   119.5166    10.1484     0.1022     2.5056     0.0025     0.3146
  265.0000   -76.1550     8.4808     8.3301     6.7691   119.6834    10.1447     0.1054     2.5003     0.0006     0.3184
  265.5000   -76.5599     8.2285     8.5637     6.7565   119.7488    10.1410     0.1113     2.4899    -0.0014     0.3197
  266.0000   -76.8938     7.9837     8.4851     6.7439   118.9834    10.1374     0.1157     2.4831    -0.0025     0.3188
  266.5000   -76.7770     7.7378     8.7815     6.7384   116.9900    10.1337     0.1161     2.4836    -0.0027     0.3154
  267.0000   -76.6674     7.9048     9.0152     6.9399   115.2426    10.1300     0.1133     2.4887    -0.0034     0.3118
  267.5000   -76.5592     8.4403     9.2551     7.1181   113.9804    10.1263     0.1096     2.4962    -0.0035     0.3038
  268.0000   -76.4515     9.1136     9.5014     7.3008   113.1973    10.1227     0.1070     2.5004    -0.0036     0.2998
  268.5000   -76.3418     9.8415     9.6541     7.4882   113.8952    10.1219     0.1051     2.5021    -0.0055     0.2958
  269.0000   -76.3616    10.6240     8.4595     7.5267   115.0612    10.1250     0.1048     2.5015    -0.0040     0.2918
  269.5000   -76.4612    10.8834     7.6902     7.0611   118.0705    10.1280     0.1072     2.4967     0.0045     0.2898
  270.0000   -76.5614    10.5269     6.9907     6.2334   125.0578    10.1311     0.1106     2.4676     0.0162     0.3102
  270.5000   -76.6664     9.4270     6.3758     5.0572   132.7190    10.1342     0.1458     2.4127     0.0119     0.3604
  271.0000   -76.5063     7.0450     6.3881     4.0582   135.7715    10.1372     0.1790     2.3700     0.0035     0.4105
  271.5000   -76.2073     4.7362     6.4029     4.3386   130.9425    10.1403     0.1921     2.3577    -0.0053     0.4471
  272.0000   -75.9047     3.6700     6.4178     4.8167   122.2285    10.1434     0.1769     2.3978    -0.0075     0.4024
  272.5000   -75.6020     4.8176     6.3352     5.3476   116.9567    10.1464     0.1437     2.4497    -0.0025     0.3297
  273.0000   -75.2996     6.6226     6.5752     5.9369   113.4646    10.1495     0.1139     2.4939     0.0016     0.2999
  273.5000   -74.9972     9.1130     6.8879     6.3607   110.9311    10.1525     0.1042     2.5035     0.0011     0.2904
