~VERSION INFORMATION
 VERS.                2.0:   CWLS LOG ASCII STANDARD - VERSION 2.0
 WRAP.                 NO:   ONE LINE PER DEPTH STEP
~WELL INFORMATION
#MNEM.UNIT      DATA TYPE    INFORMATION
#----------   ------------   ------------------------------
 STRT.F          750.0000:   START DEPTH
 STOP.F         1490.0000:   STOP DEPTH
 STEP.F            0.5000:   STEP LENGTH
 NULL.          -999.2500:   NO VALUE
 COMP.    FENIX & SCISSON:   COMPANY
 WELL.  53 STX 15 #53 -15:   WELL
 FLD .             TEAPOT:   FIELD
 LOC .      S15 T38N R78W:   LOCATION
 CNTY.            NATRONA:   COUNTY
 STAT.            WYOMING:   STATE
 CTRY. UNITED STATES OF AMERICA:   COUNTRY
 SRVC.              Welex:   SERVICE COMPANY
 DATE.        01-JUN-1980:   LOGDATE
 API .       490251082000:   API NUMBER
~CURVE INFORMATION
#MNEM.UNIT       API CODE    CURVE DESCRIPTION
#----------   ------------   ------------------------------
 DEPT.F                  :   
 CALD.IN     45 280 60 00:   CALIPER
 GRD .GAPI   45 310 01 00:   GAMMA RAY FROM DENSITY LOG
 CORR.G/C3   45 356 01 00:   DENSITY CORRECTION
 RHOB.G/C3   45 350 01 00:   BULK DENSITY
 DPHI.DEC    45 890 12 00:   DENSITY POROSITY SANDSTONE
~PARAMETER INFORMATION
#MNEM.UNIT          VALUE    DESCRIPTION
#----------   ------------   ------------------------------
 PD  .                 GL:   PERMANENT DATUM
 EPD .F              5257:   ELEVATION PERMANENT DATUM
 LMF .                 KB:   LOG MEASURED FROM
 DAPD.F                10:   FEET ABOVE PERMANENT DATUM
 DMF .                 KB:   DRILLING MEASURED FROM
 EKB .F              5267:   KELLING BUSHING
 EGL .F              5257:   GROUND LEVEL
 DATE.             6-1-80:   RUN DATE
 RUN .                  1:   RUN NUMBER
 DD  .F              1498:   DEPTH DRILLER
 DL  .F              1492:   DEPTH LOGGER
 BLI .F              1490:   BOTTOM LOG INTERVAL
 TLI .F               750:   TOP LOG INTERVAL
 CS  .IN            9.625:   CASING SIZE
 CBD .F               772:   CASING BOTTOM DRILLER
 BS  .IN             8.75:   BIT SIZE
 BSD .F              1498:   BIT SIZE AT DEPTH
 DFT .        AIR DRILLED:   DRILLING FLUID TYPE
 TCS .HRS               4:   TIME CURCULATED STOPPED
 MRT .F                88:   MAXIMUM RECORDED TEMPERATURE
 ENGI.               REIN:   RECORDING ENGINEER
 WITN.            RHOADES:   WITNESSED BY
 CLNT.            A2DTECH:   CLIENT CODE
 ORIG.           5" PRINT:   ORIGIN OF DATA
 UWI .       490251082000:   UNIQUE WELL ID
 DICO. A2D Technologies, Inc.:   DIGITIZING COMPANY
~OTHER INFORMATION
~A   DEPT     CALD         GRD      CORR       RHOB       DPHI   
# ...
 1360.0000     9.1315    73.6608     0.0359     2.4446     0.0645
 1360.5000     9.0867    74.3777     0.0227     2.4553     0.0609
 1361.0000     9.0540    74.4943     0.0196     2.4557     0.0548
 1361.5000     9.1913    74.6363     0.0151     2.4489     0.0572
 1362.0000     9.1885    74.7824     0.0068     2.4226     0.0726
 1362.5000     9.1653    74.9291    -0.0014     2.4119     0.0855
 1363.0000     9.1098    75.0762     0.0032     2.4368     0.0761
 1363.5000     9.0627    75.2267     0.0091     2.4406     0.0642
 1364.0000     9.0265    75.5159     0.0125     2.4255     0.0761
 1364.5000     9.0080    75.9797     0.0087     2.4446     0.0668
 1365.0000     8.9889    76.4413     0.0111     2.4419     0.0661
 1365.5000     8.9696    76.9067     0.0104     2.4497     0.0607
 1366.0000     8.9866    77.3621     0.0054     2.4386     0.0597
 1366.5000     9.0131    77.2602     0.0098     2.4388     0.0698
 1367.0000     9.0396    76.6141     0.0222     2.4578     0.0653
 1367.5000     9.1500    75.9943     0.0345     2.4475     0.0528
 1368.0000     9.2181    75.3750     0.0387     2.4525     0.0621
 1368.5000     9.2006    74.7509     0.0360     2.4439     0.0565
 1369.0000     9.1820    74.1114     0.0314     2.4320     0.0702
 1369.5000     9.1693    74.7134     0.0164     2.4370     0.0734
 1370.0000     9.1374    75.5652     0.0169     2.4484     0.0632
 1370.5000     9.1169    75.3797     0.0289     2.4656     0.0540
 1371.0000     9.1812    74.9554     0.0411     2.4825     0.0453
 1371.5000     9.2075    74.5346     0.0485     2.4941     0.0348
 1372.0000     9.1995    74.0332     0.0553     2.4972     0.0291
 1372.5000     9.1909    74.0875     0.0602     2.4866     0.0346
 1373.0000     9.1851    74.5832     0.0434     2.4788     0.0386
 1373.5000     9.1781    75.0919     0.0308     2.4595     0.0495
 1374.0000     9.1712    75.5979     0.0230     2.4441     0.0649
 1374.5000     9.1642    75.8931     0.0253     2.4508     0.0621
 1375.0000     9.1572    75.3281     0.0347     2.4665     0.0532
 1375.5000     9.1503    74.7422     0.0449     2.4651     0.0501
 1376.0000     9.1281    74.1571     0.0479     2.4728     0.0516
 1376.5000     9.0938    73.5709     0.0498     2.4977     0.0331
 1377.0000     9.1169    72.9779     0.0572     2.5048     0.0233
 1377.5000     9.1620    72.9038     0.0647     2.4975     0.0259
 1378.0000     9.1681    73.3636     0.0580     2.5036     0.0298
 1378.5000     9.1441    73.8348     0.0591     2.4925     0.0217
 1379.0000     9.1196    74.3029     0.0667     2.4817     0.0395
 1379.5000     9.0952    74.7699     0.0656     2.4898     0.0401
 1380.0000     9.0709    75.2335     0.0630     2.4896     0.0316
 1380.5000     9.0485    75.3785     0.0621     2.4862     0.0366
 1381.0000     9.0432    75.5543     0.0611     2.4811     0.0338
 1381.5000     9.0326    75.5043     0.0601     2.4758     0.0409
 1382.0000     9.0220    75.4423     0.0586     2.4717     0.0449
 1382.5000     9.0108    75.3802     0.0540     2.4758     0.0467
 1383.0000     9.0275    75.3240     0.0502     2.4689     0.0448
 1383.5000     9.0547    75.0519     0.0279     2.4582     0.0483
 1384.0000     9.0824    74.7059     0.0193     2.4399     0.0577
 1384.5000     9.1097    74.3886     0.0128     2.4339     0.0714
 1385.0000     9.1290    74.5041     0.0169     2.4516     0.0624
 1385.5000     9.1144    74.8673     0.0289     2.4570     0.0532
 1386.0000     9.0987    75.2271     0.0299     2.4532     0.0608
 1386.5000     9.0895    75.5871     0.0285     2.4796     0.0617
 1387.0000     9.1587    75.6081     0.0424     2.4602     0.0370
 1387.5000     9.2099    75.7112     0.0523     2.4292     0.0528
 1388.0000     9.2093    75.8248     0.0201     2.4251     0.0794
 1388.5000     9.2097    75.9389     0.0070     2.4430     0.0617
 1389.0000     9.2044    76.0527     0.0054     2.4283     0.0690
 1389.5000     9.1833    76.1666     0.0182     2.4238     0.0798
 1390.0000     9.1741    76.2805     0.0223     2.4548     0.0687
 1390.5000     9.1657    76.3949     0.0348     2.4771     0.0507
 1391.0000     9.1572    76.5065     0.0485     2.4836     0.0386
 1391.5000     9.1496    76.5753     0.0524     2.4766     0.0396
 1392.0000     9.1632    76.7443     0.0494     2.4613     0.0479
 1392.5000     9.1777    76.9119     0.0331     2.4508     0.0608
 1393.0000     9.1895    77.0937     0.0367     2.4613     0.0536
 1393.5000     9.1945    77.3386     0.0340     2.4648     0.0511
 1394.0000     9.2073    77.3640     0.0357     2.4644     0.0495
 1394.5000     9.2055    77.2250     0.0386     2.4730     0.0447
 1395.0000     9.1866    77.0352     0.0389     2.4683     0.0487
 1395.5000     9.1682    76.8206     0.0305     2.4785     0.0437
 1396.0000     9.1497    76.8612     0.0449     2.4775     0.0395
 1396.5000     9.1312    76.9748     0.0391     2.4696     0.0441
 1397.0000     9.1352    77.0807     0.0288     2.4770     0.0483
 1397.5000     9.1447    77.6127     0.0374     2.4963     0.0375
 1398.0000     9.1544    78.0691     0.0500     2.5140     0.0233
 1398.5000     9.1639    78.5150     0.0609     2.5152     0.0172
 1399.0000     9.1698    78.8976     0.0627     2.5119     0.0180
 1399.5000     9.1848    79.6963     0.0553     2.5065     0.0209
 1400.0000     9.1882    80.1249     0.0480     2.4990     0.0282
 1400.5000     9.1847    79.6764     0.0409     2.4887     0.0366
 1401.0000     9.1813    79.2084     0.0332     2.4710     0.0349
 1401.5000     9.1779    79.4663     0.0199     2.4502     0.0523
 1402.0000     9.1744    79.8109     0.0057     2.4379     0.0708
 1402.5000     9.1710    80.1567     0.0117     2.4458     0.0709
 1403.0000     9.1676    80.4968     0.0244     2.4605     0.0600
 1403.5000     9.1642    80.6512     0.0283     2.4657     0.0467
 1404.0000     9.1608    79.8843     0.0203     2.4534     0.0536
 1404.5000     9.1574    79.2066     0.0269     2.4664     0.0604
 1405.0000     9.1539    79.5657     0.0383     2.4855     0.0449
 1405.5000     9.1505    80.1613     0.0429     2.4792     0.0354
 1406.0000     9.1497    79.3517     0.0438     2.4768     0.0424
 1406.5000     9.1565    78.2881     0.0404     2.4733     0.0403
 1407.0000     9.1633    77.2147     0.0393     2.4686     0.0479
 1407.5000     9.1641    76.1345     0.0421     2.4637     0.0507
 1408.0000     9.1235    75.0507     0.0450     2.4699     0.0532
 1408.5000     9.0831    74.6698     0.0463     2.4698     0.0435
 1409.0000     9.0472    74.0697     0.0412     2.4568     0.0596
 1409.5000     9.0572    73.7996     0.0360     2.4673     0.0467
 1410.0000     9.0741    73.7179     0.0378     2.4480     0.0548
 1410.5000     9.0909    73.6172     0.0469     2.4619     0.0588
 1411.0000     9.1078    73.5167     0.0506     2.4681     0.0463
 1411.5000     9.1254    73.4159     0.0485     2.4660     0.0499
 1412.0000     9.1116    73.3148     0.0464     2.4752     0.0468
 1412.5000     9.0903    73.2099     0.0475     2.4681     0.0413
 1413.0000     9.1269    73.1786     0.0499     2.4579     0.0529
 1413.5000     9.1680    73.6531     0.0483     2.4697     0.0573
 1414.0000     9.1375    74.2674     0.0569     2.4863     0.0445
 1414.5000     9.0958    74.8849     0.0655     2.4948     0.0342
 1415.0000     9.0682    75.5015     0.0702     2.5009     0.0283
 1415.5000     9.0610    76.1115     0.0638     2.5023     0.0295
 1416.0000     9.0512    76.5135     0.0593     2.5037     0.0333
 1416.5000     9.0415    76.5661     0.0758     2.5018     0.0330
 1417.0000     9.0317    76.6428     0.0727     2.4958     0.0245
 1417.5000     9.0221    76.7197     0.0710     2.4938     0.0334
 1418.0000     9.0126    76.8098     0.0821     2.5059     0.0291
 1418.5000     9.0028    76.2262     0.0916     2.5178     0.0165
 1419.0000     9.0177    75.4706     0.1057     2.5247     0.0096
 1419.5000     9.0766    74.7135     0.0978     2.5019     0.0197
 1420.0000     9.1542    74.0777     0.0808     2.4883     0.0302
 1420.5000     9.1690    74.1564     0.0816     2.5073     0.0237
