~VERSION INFORMATION
 VERS.                2.0:   CWLS LOG ASCII STANDARD - VERSION 2.0
 WRAP.                 NO:   ONE LINE PER DEPTH STEP
~WELL INFORMATION
#MNEM.UNIT      DATA TYPE    INFORMATION
#----------   ------------   ------------------------------
 STRT.F          432.0000:   START DEPTH
 STOP.F         1258.0000:   STOP DEPTH
 STEP.F            0.5000:   STEP LENGTH
 NULL.          -999.2500:   NO VALUE
 COMP. FENIX & SCISSON INC:   COMPANY
 WELL.   12 SHX 34 #12-34:   WELL
 FLD .            WILDCAT:   FIELD
 LOC .      S34 T39N R78W:   LOCATION
 CNTY.            NATRONA:   COUNTY
 STAT.            WYOMING:   STATE
 CTRY. UNITED STATES OF AMERICA:   COUNTRY
 SRVC.              Welex:   SERVICE COMPANY
 DATE.        23-APR-1979:   LOGDATE
 API .       490251078200:   API NUMBER
~CURVE INFORMATION
#MNEM.UNIT       API CODE    CURVE DESCRIPTION
#----------   ------------   ------------------------------
 DEPT.F                  :   
 CALD.IN     45 280 60 00:   CALIPER
 GRD .GAPI   45 310 01 00:   GAMMA RAY FROM DENSITY LOG
 RHOB.G/C3   45 350 01 00:   BULK DENSITY
 DPHI.DEC    45 890 12 00:   DENSITY POROSITY SANDSTONE
 CORR.G/C3   45 356 01 00:   DENSITY CORRECTION
~PARAMETER INFORMATION
#MNEM.UNIT          VALUE    DESCRIPTION
#----------   ------------   ------------------------------
 PD  .                 GL:   PERMANENT DATUM
 EPD .F              5092:   ELEVATION PERMANENT DATUM
 LMF .                 KB:   LOG MEASURED FROM
 DAPD.F                10:   FEET ABOVE PERMANENT DATUM
 DMF .                 KB:   DRILLING MEASURED FROM
 EKB .F              5102:   KELLING BUSHING
 EGL .F              5092:   GROUND LEVEL
 DATE.            4-23-79:   RUN DATE
 RUN .                  1:   RUN NUMBER
 DD  .F              1260:   DEPTH DRILLER
 DL  .F              1260:   DEPTH LOGGER
 BLI .F              1258:   BOTTOM LOG INTERVAL
 TLI .F               446:   TOP LOG INTERVAL
 CS  .IN            9.625:   CASING SIZE
 CBD .F               440:   CASING BOTTOM DRILLER
 BS  .IN            8.375:   BIT SIZE
 BSD .F              1260:   BIT SIZE AT DEPTH
 DFT .                OIL:   DRILLING FLUID TYPE
 DFD .                8.7:   DRILLING FLUID DENSITY
 TCS .HRS               1:   TIME CURCULATED STOPPED
 ENGI.               REIN:   RECORDING ENGINEER
 WITN.              AMEND:   WITNESSED BY
 CLNT.            A2DTECH:   CLIENT CODE
 ORIG.           5" PRINT:   ORIGIN OF DATA
 UWI .       490251078200:   UNIQUE WELL ID
 DICO. A2D Technologies, Inc.:   DIGITIZING COMPANY
~OTHER INFORMATION
~A   DEPT     CALD         GRD      RHOB       DPHI       CORR   
# ...
  798.0000     8.6142    93.3974     2.5078     0.0277     0.0134
  798.5000     8.6380    91.1785     2.4979     0.0345     0.0081
  799.0000     8.6604    88.2332     2.4882     0.0393     0.0029
  799.5000     8.6609    85.2671     2.4833     0.0415    -0.0016
  800.0000     8.6585    84.3117     2.4934     0.0401    -0.0027
  800.5000     8.6535    86.8401     2.5034     0.0339    -0.0004
  801.0000     8.6486    89.4511     2.5132     0.0277     0.0021
  801.5000     8.6437    88.9678     2.5192     0.0216     0.0045
  802.0000     8.6388    87.9560     2.5095     0.0209     0.0069
  802.5000     8.6338    90.1537     2.4967     0.0330     0.0090
  803.0000     8.6289    91.7043     2.4992     0.0330     0.0110
  803.5000     8.6240    89.6722     2.5059     0.0306     0.0088
  804.0000     8.6191    88.8013     2.4987     0.0345     0.0063
  804.5000     8.6141    92.1473     2.4841     0.0408     0.0035
  805.0000     8.6092    93.1352     2.4762     0.0463     0.0030
  805.5000     8.6041    91.4065     2.4807     0.0444     0.0052
  806.0000     8.6161    89.6608     2.4889     0.0402     0.0066
  806.5000     8.6385    87.9105     2.4788     0.0386     0.0090
  807.0000     8.6611    86.1523     2.4647     0.0497     0.0082
  807.5000     8.6838    84.3812     2.4522     0.0584     0.0066
  808.0000     8.7064    85.9745     2.4542     0.0608     0.0049
  808.5000     8.7290    88.1195     2.4679     0.0568     0.0032
  809.0000     8.7525    89.7355     2.4716     0.0510     0.0008
  809.5000     8.7484    86.8910     2.4804     0.0462     0.0009
  810.0000     8.7163    84.2077     2.4916     0.0382     0.0015
  810.5000     8.6845    86.3712     2.5028     0.0303     0.0072
  811.0000     8.6603    88.8091     2.5103     0.0281     0.0143
  811.5000     8.6608    91.2728     2.5079     0.0265     0.0214
  812.0000     8.6608    90.1419     2.5014     0.0276     0.0252
  812.5000     8.6608    85.6796     2.4989     0.0318     0.0272
  813.0000     8.6608    81.1789     2.5044     0.0299     0.0246
  813.5000     8.6605    80.0478     2.5131     0.0268     0.0214
  814.0000     8.6708    78.1158     2.5222     0.0236     0.0191
  814.5000     8.6822    77.8411     2.5251     0.0205     0.0192
  815.0000     8.6935    78.8704     2.5190     0.0189     0.0201
  815.5000     8.7048    81.6260     2.5139     0.0219     0.0225
  816.0000     8.7166    84.6731     2.5207     0.0253     0.0257
  816.5000     8.7172    87.7331     2.5302     0.0185     0.0294
  817.0000     8.7144    90.6905     2.5344     0.0132     0.0292
  817.5000     8.7115    91.3433     2.5264     0.0128     0.0270
  818.0000     8.7087    90.0798     2.5165     0.0203     0.0217
  818.5000     8.7058    88.7301     2.5062     0.0275     0.0165
  819.0000     8.7030    90.5506     2.5052     0.0298     0.0112
  819.5000     8.7001    92.4808     2.5164     0.0294     0.0089
  820.0000     8.6973    92.8477     2.5281     0.0236     0.0100
  820.5000     8.6944    90.0307     2.5404     0.0144     0.0144
  821.0000     8.6916    89.5139     2.5460     0.0084     0.0188
  821.5000     8.6887    90.8851     2.5422     0.0079     0.0231
  822.0000     8.6859    92.2432     2.5310     0.0110     0.0272
  822.5000     8.6830    89.7344     2.5200     0.0183     0.0210
  823.0000     8.6802    90.2760     2.5090     0.0256     0.0115
  823.5000     8.6773    91.0300     2.4979     0.0329     0.0050
  824.0000     8.6744    88.5260     2.4867     0.0391     0.0070
  824.5000     8.6716    86.0593     2.4851     0.0399     0.0095
  825.0000     8.6687    83.5039     2.4913     0.0372     0.0120
  825.5000     8.6659    83.4780     2.4974     0.0342     0.0146
  826.0000     8.6630    85.3272     2.5034     0.0311     0.0151
  826.5000     8.6597    87.1847     2.5089     0.0280     0.0152
  827.0000     8.6543    88.3683     2.5082     0.0261     0.0150
  827.5000     8.6489    85.8112     2.5068     0.0269     0.0176
  828.0000     8.6436    84.6624     2.5050     0.0273     0.0200
  828.5000     8.6382    85.9426     2.5064     0.0253     0.0227
  829.0000     8.6328    88.1588     2.5102     0.0232     0.0253
  829.5000     8.6274    87.1497     2.5142     0.0211     0.0280
  830.0000     8.6221    85.5071     2.5158     0.0201     0.0292
  830.5000     8.6218    86.9546     2.5162     0.0197     0.0291
  831.0000     8.6218    88.4922     2.5160     0.0201     0.0234
  831.5000     8.6218    90.0151     2.5106     0.0226     0.0173
  832.0000     8.6218    91.0931     2.4960     0.0324     0.0127
  832.5000     8.6218    91.0583     2.4818     0.0452     0.0092
  833.0000     8.6218    91.5960     2.4758     0.0406     0.0073
  833.5000     8.6218    93.9602     2.4842     0.0382     0.0051
  834.0000     8.6218    95.3927     2.4957     0.0430     0.0050
  834.5000     8.6218    95.0482     2.4970     0.0350     0.0055
  835.0000     8.6218    93.9245     2.4970     0.0342     0.0061
  835.5000     8.6218    92.8110     2.4971     0.0330     0.0068
  836.0000     8.6218    91.7007     2.5055     0.0282     0.0074
  836.5000     8.6218    90.5894     2.5156     0.0234     0.0081
  837.0000     8.6218    89.4745     2.5251     0.0188     0.0087
  837.5000     8.6218    88.2952     2.5261     0.0189     0.0094
  838.0000     8.6218    90.4888     2.5240     0.0189     0.0100
  838.5000     8.6218    92.2128     2.5193     0.0217     0.0106
  839.0000     8.6218    89.9876     2.5121     0.0221     0.0108
  839.5000     8.6218    87.2875     2.5008     0.0281     0.0085
  840.0000     8.6218    85.3272     2.4835     0.0376     0.0062
  840.5000     8.6218    89.9080     2.4753     0.0471     0.0039
  841.0000     8.6218    94.6556     2.4844     0.0480     0.0016
  841.5000     8.6218    94.2572     2.4787     0.0462    -0.0007
  842.0000     8.6218    91.6787     2.4805     0.0430    -0.0029
  842.5000     8.6218    89.1354     2.4866     0.0399    -0.0014
  843.0000     8.6218    87.2410     2.4929     0.0388     0.0003
  843.5000     8.6218    87.9416     2.4962     0.0378     0.0019
  844.0000     8.6218    89.2533     2.4970     0.0368     0.0026
  844.5000     8.6218    90.6066     2.4972     0.0358     0.0013
  845.0000     8.6218    89.5271     2.4937     0.0385     0.0000
  845.5000     8.6218    89.5937     2.4846     0.0427    -0.0012
  846.0000     8.6218    89.9071     2.4777     0.0469    -0.0025
  846.5000     8.6218    88.4012     2.4738     0.0479    -0.0030
  847.0000     8.6237    85.7730     2.4740     0.0471    -0.0010
  847.5000     8.6266    83.0693     2.4799     0.0434     0.0012
  848.0000     8.6296    83.5771     2.4865     0.0389     0.0033
  848.5000     8.6326    85.3339     2.4930     0.0344     0.0051
  849.0000     8.6356    87.1413     2.4959     0.0326     0.0050
  849.5000     8.6386    88.9273     2.4894     0.0338     0.0050
  850.0000     8.6413    90.0000     2.4847     0.0350     0.0050
  850.5000     8.6400    88.1567     2.4936     0.0324     0.0088
  851.0000     8.6299    86.2070     2.5057     0.0273     0.0140
  851.5000     8.6197    84.2742     2.5144     0.0238     0.0193
  852.0000     8.6096    83.7156     2.5128     0.0260     0.0247
  852.5000     8.5994    86.2414     2.5075     0.0282     0.0274
  853.0000     8.5893    88.7280     2.5020     0.0304     0.0234
  853.5000     8.5791    88.7368     2.4999     0.0308     0.0192
  854.0000     8.5690    86.6364     2.5027     0.0299     0.0150
  854.5000     8.5589    84.5880     2.5063     0.0290     0.0109
  855.0000     8.5487    82.5330     2.4989     0.0313     0.0066
  855.5000     8.5434    80.4861     2.4906     0.0348     0.0025
  856.0000     8.5421    78.7523     2.4822     0.0383    -0.0011
  856.5000     8.5409    80.1158     2.4779     0.0415    -0.0010
  857.0000     8.5398    82.6486     2.4785     0.0415    -0.0010
  857.5000     8.5386    85.1845     2.4853     0.0415     0.0008
  858.0000     8.5375    87.7244     2.4931     0.0391     0.0078
  858.5000     8.5364    90.3384     2.5010     0.0318     0.0140
