~VERSION INFORMATION
 VERS.                2.0:   CWLS LOG ASCII STANDARD - VERSION 2.0
 WRAP.                 NO:   ONE LINE PER DEPTH STEP
~WELL INFORMATION
#MNEM.UNIT      DATA TYPE    INFORMATION
#----------   ------------   ------------------------------
 STRT.F            1.0000:   START DEPTH
 STOP.F          508.0000:   STOP DEPTH
 STEP.F            0.1000:   STEP LENGTH
 NULL.          -999.2500:   NO VALUE
 COMP.       F D SERV INC:   COMPANY
 WELL. NAVAL PETROLEUM RESERVE 3 SX-1 #83-4-10:   WELL
 FLD .             TEAPOT:   FIELD
 LOC .      S10 T38N R78W:   LOCATION
 CNTY.            NATRONA:   COUNTY
 STAT.            WYOMING:   STATE
 CTRY. UNITED STATES OF AMERICA:   COUNTRY
 SRVC.     Atlas Wireline:   SERVICE COMPANY
 DATE.        26-JAN-1993:   LOGDATE
 API .       490252258300:   API NUMBER
~CURVE INFORMATION
#MNEM.UNIT       API CODE    CURVE DESCRIPTION
#----------   ------------   ------------------------------
 DEPT.F                  :   
 GRR .GAPI   07 310 01 00:   GAMMA RAY
 RILD.OHMM   07 120 46 00:   INDUCTION LOG DEEP RESISTIVITY
 RILM.OHMM   07 120 44 00:   INDUCTION LOG MEDIUM RESISTIVITY
~PARAMETER INFORMATION
#MNEM.UNIT          VALUE    DESCRIPTION
#----------   ------------   ------------------------------
 PD  .                 GL:   PERMANENT DATUM
 EPD .F              5152:   ELEVATION PERMANENT DATUM
 LMF .                 KB:   LOG MEASURED FROM
 DAPD.F                10:   FEET ABOVE PERMANENT DATUM
 DMF .                 KB:   DRILLING MEASURED FROM
 EKB .F              5162:   KELLING BUSHING
 EDF .F              5161:   DRILLING FLOOR
 EGL .F              5152:   GROUND LEVEL
 DATE.        26-JAN-1993:   RUN DATE
 RUN .                  1:   RUN NUMBER
 DD  .F               515:   DEPTH DRILLER
 DL  .F               516:   DEPTH LOGGER
 BLI .F               508:   BOTTOM LOG INTERVAL
 CS  .IN            8.625:   CASING SIZE
 CBD .F                55:   CASING BOTTOM DRILLER
 CBL .F                55:   CASING BOTTOM LOGGER
 BS  .IN            7.875:   BIT SIZE
 BSD .F               515:   BIT SIZE AT DEPTH
 DFT .                AIR:   DRILLING FLUID TYPE
 MRT .F                63:   MAXIMUM RECORDED TEMPERATURE
 LUN .           HL- 6274:   LOGGING UNIT NUMBER
 LUL .             CASPER:   LOGGING UNIT LOCATION
 ENGI.       P. RASMUSSEN:   RECORDING ENGINEER
 WITN.          G. STRONG:   WITNESSED BY
 CLNT.            A2DTECH:   CLIENT CODE
 ORIG.           5" PRINT:   ORIGIN OF DATA
 UWI .       490252258300:   UNIQUE WELL ID
 DICO. A2D Technologies, Inc.:   DIGITIZING COMPANY
~OTHER INFORMATION
~A    DEPT     GRR       RILD       RILM   
# ...
   55.6000   108.8021  9971.8184  1979.3965
   55.7000   112.4475  9948.2773  1870.2783
   55.8000   116.3917  9565.9746  1229.7190
   55.9000   121.2608  8323.9111  1032.4238
   56.0000   127.6747  6952.1924   834.2076
   56.1000   132.1920  5580.4736   635.9914
   56.2000   133.2378  4208.7544   437.7752
   56.3000   134.0315  2837.0356   239.5590
   56.4000   134.5494  1465.3167     3.3213
   56.5000   134.9006     3.2815     3.2894
   56.6000   134.9000     2.3966     3.2755
   56.7000   134.8994     2.1708     3.2754
   56.8000   135.1999     2.1658     3.2882
   56.9000   135.4161     2.1658     3.3276
   57.0000   135.5000     2.1732     3.3677
   57.1000   135.7648     2.1993     3.4616
   57.2000   136.1920     2.2266     3.5506
   57.3000   136.4994     2.2734     3.6734
   57.4000   137.0173     2.3512     3.7951
   57.5000   137.6053     2.4610     3.9637
   57.6000   138.2771     2.6356     4.1990
   57.7000   139.2363     2.9111     4.3348
   57.8000   140.2727     3.2540     4.6937
   57.9000   141.3090     3.5168     5.0046
   58.0000   142.3454     3.9288     5.4013
   58.1000   143.3247     4.4132     5.7963
   58.2000   143.3240     5.0859     6.2370
   58.3000   143.3235     5.8300     6.7361
   58.4000   143.3229     6.6900     7.1727
   58.5000   143.1747     7.6353     7.9434
   58.6000   142.7036     8.2173     8.3981
   58.7000   141.9890    10.0064     8.6705
   58.8000   141.4699    11.4035     8.8152
   58.9000   140.9102    12.6237     8.8732
   59.0000   139.9538    13.5864     8.8729
   59.1000   139.3102    14.2419     8.8727
   59.2000   138.7912    14.4618     8.8724
   59.3000   138.4982    14.5440     8.8722
   59.4000   138.4265    13.8558     8.8294
   59.5000   138.1958    12.5518     8.7766
   59.6000   138.1951    11.3057     8.7242
   59.7000   138.1946    10.2172     8.6720
   59.8000   138.3984     9.0339     8.6286
   59.9000   138.4946     7.7901     8.6281
   60.0000   138.7350     7.1141     8.5686
   60.1000   139.2528     6.9323     8.4400
   60.2000   139.7707     6.8946     8.3238
   60.3000   140.2994     6.8537     8.2248
   60.4000   140.9011     6.8370     8.1622
   60.5000   141.1124     6.8370     8.1521
   60.6000   141.3711     6.8261     8.1055
   60.7000   141.7576     6.7855     8.1615
   60.8000   142.2755     6.7429     8.1613
   60.9000   142.7055     6.7051     8.2322
   61.0000   142.7068     6.6653     8.3309
   61.1000   143.0053     6.6502     8.4307
   61.2000   143.2241     6.6321     8.5316
   61.3000   143.3054     6.5927     8.6338
   61.4000   143.5755     6.5587     8.7451
   61.5000   144.0000     6.5587     8.8420
   61.6000   144.3615     6.5135     8.9480
   61.7000   145.1480     6.5135     9.0552
   61.8000   146.3144     6.5135     9.1393
   61.9000   146.7673     6.5324     9.1938
   62.0000   147.6546     6.5587     9.2417
   62.1000   148.5482     6.5716     9.2414
   62.2000   149.4261     6.6502     9.2411
   62.3000   150.4036     6.6502     9.1529
   62.4000   151.1302     6.7511     8.9078
   62.5000   151.1295     6.8450     8.5942
   62.6000   151.1289     6.9487     8.3225
   62.7000   151.1283     7.0740     8.1257
   62.8000   151.1277     7.2015     7.9337
   62.9000   151.2353     7.3326     7.8246
   63.0000   151.3615     7.5330     7.7462
   63.1000   151.1259     7.6912     7.7166
   63.2000   151.1253     7.8769     7.6924
   63.3000   150.6416     8.0142     7.6464
   63.4000   150.5217     8.1290     7.6006
   63.5000   150.2058     8.2645     7.5552
   63.6000   149.6868     8.3665     7.5047
   63.7000   149.0940     8.5331     7.5045
   63.8000   148.2522     8.4425     7.4720
   63.9000   146.9042     8.3425     7.4274
   64.0000   145.9076     8.2717     7.3830
   64.1000   145.4912     8.2025     7.3388
   64.2000   145.2313     8.1172     7.2985
   64.3000   145.0946     8.0648     7.2982
   64.4000   145.1751     7.9621     7.2183
   64.5000   145.4729     7.8749     7.1975
   64.6000   145.9964     7.7116     7.1459
   64.7000   146.8993     7.5567     7.0981
   64.8000   147.5421     7.4228     7.0742
   64.9000   148.4918     7.2793     6.9900
   65.0000   149.2671     7.1076     6.9036
   65.1000   149.8735     6.9323     6.8557
   65.2000   150.6040     6.8540     6.7582
   65.3000   151.1265     6.7729     6.6634
   65.4000   152.0156     6.6926     6.5841
   65.5000   152.6807     6.6502     6.5306
   65.6000   153.6377     6.6381     6.5304
   65.7000   154.6741     6.5986     6.5302
   65.8000   155.5185     6.5587     6.4850
   65.9000   155.9823     6.5587     6.4848
   66.0000   156.2410     6.5587     6.4847
   66.1000   156.5294     6.5587     6.4845
   66.2000   156.5289     6.5394     6.4843
   66.3000   156.5283     6.5005     6.4841
   66.4000   156.5277     6.4685     6.4855
   66.5000   156.5271     6.4685     6.5288
   66.6000   156.5265     6.4685     6.5286
   66.7000   156.5259     6.4685     6.5285
   66.8000   156.5253     6.4685     6.5283
   66.9000   156.5247     6.4685     6.5281
   67.0000   156.5241     6.4685     6.5279
   67.1000   156.5235     6.4685     6.5277
   67.2000   156.5229     6.4685     6.5275
   67.3000   156.5223     6.4685     6.5274
   67.4000   156.5486     6.4685     6.5569
   67.5000   156.8223     6.4685     6.5724
   67.6000   157.0659     6.4685     6.5895
   67.7000   157.3245     6.4685     6.6177
   67.8000   157.5831     6.4685     6.6175
   67.9000   157.9600     6.4685     6.6173
   68.0000   158.3253     6.4685     6.6551
   68.1000   158.3247     6.5036     6.6629
   68.2000   158.3241     6.5135     6.6882
   68.3000   158.3234     6.5362     6.7088
   68.4000   157.9036     6.5587     6.7087
   68.5000   157.3845     6.5689     6.7085
   68.6000   156.7398     6.6082     6.7083
   68.7000   155.8777     6.6502     6.7547
   68.8000   154.8402     6.6502     6.7885
   68.9000   153.8018     6.6502     6.8013
   69.0000   152.2951     6.6745     6.8011
   69.1000   151.6434     6.7144     6.8155
   69.2000   151.2153     6.7429     6.8561
   69.3000   150.9554     6.7480     6.8954
   69.4000   150.6956     6.7898     6.8952
   69.5000   150.4849     6.8370     6.8950
   69.6000   150.4843     6.8370     6.9244
   69.7000   150.4837     6.8632     6.9657
   69.8000   150.2586     6.9042     6.9906
   69.9000   149.9988     6.9455     7.0003
   70.0000   149.8795     6.9870     7.0420
   70.1000   149.7803     7.0290     7.0875
   70.2000   149.5205     7.0290     7.0873
   70.3000   149.2753     7.0640     7.1516
   70.4000   149.2746     7.1062     7.1857
   70.5000   149.0422     7.1270     7.2043
   70.6000   148.5924     7.1418     7.2473
   70.7000   148.0733     7.1845     7.2854
   70.8000   147.4482     7.2274     7.2851
   70.9000   146.6058     7.2767     7.3267
   71.0000   145.5683     7.3141     7.3704
   71.1000   144.4512     7.3578     7.3861
   71.2000   143.0144     7.4018     7.4070
   71.3000   142.0506     7.4294     7.4511
   71.4000   141.2722     7.4388     7.4885
   71.5000   140.3805     7.4833     7.4883
   71.6000   139.3430     7.5330     7.4881
   71.7000   138.3054     7.5330     7.5254
   71.8000   137.2180     7.5658     7.5397
   71.9000   136.2303     7.5854     7.5628
   72.0000   135.1928     7.5854     7.5917
   72.1000   134.1553     7.5854     7.5915
   72.2000   133.1177     7.5854     7.5913
   72.3000   132.2379     7.5854     7.5910
   72.4000   131.7558     7.5854     7.5908
   72.5000   131.4910     7.5514     7.5906
   72.6000   131.4902     7.5330     7.5654
   72.7000   131.4898     7.5330     7.5378
   72.8000   131.6594     7.5330     7.5376
   72.9000   132.0859     7.5330     7.5374
   73.0000   132.6835     7.5330     7.5372
   73.1000   133.2811     7.5330     7.5370
   73.2000   133.8788     7.4980     7.5368
   73.3000   134.4764     7.4810     7.5366
   73.4000   135.0373     7.4606     7.5364
   73.5000   135.5552     7.4294     7.5362
   73.6000   136.0731     7.4294     7.5360
   73.7000   136.6042     7.4294     7.5357
