~VERSION INFORMATION
 VERS.                2.0:   CWLS LOG ASCII STANDARD - VERSION 2.0
 WRAP.                 NO:   ONE LINE PER DEPTH STEP
~WELL INFORMATION
#MNEM.UNIT      DATA TYPE    INFORMATION
#----------   ------------   ------------------------------
 STRT.F            6.0000:   START DEPTH
 STOP.F          522.0000:   STOP DEPTH
 STEP.F            0.5000:   STEP LENGTH
 NULL.          -999.2500:   NO VALUE
 COMP.       F D SERV INC:   COMPANY
 WELL.    88-7 SX-3 #88-3:   WELL
 FLD .             TEAPOT:   FIELD
 LOC .       S3 T38N R78W:   LOCATION
 CNTY.            NATRONA:   COUNTY
 STAT.            WYOMING:   STATE
 CTRY. UNITED STATES OF AMERICA:   COUNTRY
 SRVC.      Western Atlas:   SERVICE COMPANY
 DATE.        30-NOV-1992:   LOGDATE
 API .       490252254100:   API NUMBER
~CURVE INFORMATION
#MNEM.UNIT       API CODE    CURVE DESCRIPTION
#----------   ------------   ------------------------------
 DEPT.F                  :   
 GRR .GAPI   07 310 01 00:   GAMMA RAY
 RILD.OHMM   07 120 46 00:   INDUCTION LOG DEEP RESISTIVITY
 RILM.OHMM   07 120 44 00:   INDUCTION LOG MEDIUM RESISTIVITY
 C13 .IN     45 280 13 00:   CALIPER 13
 ZCOR.G/C3   45 356 01 00:   DENSITY CORRECTION
 ZDEN.G/C3   45 350 01 00:   BULK DENSITY
 PORZ.DEC    45 890 00 00:   DENSITY POROSITY
 NPHI.DEC    42 890 03 00:   NEUTRON POROSITY SANDSTONE
~PARAMETER INFORMATION
#MNEM.UNIT          VALUE    DESCRIPTION
#----------   ------------   ------------------------------
 PD  .                 GL:   PERMANENT DATUM
 EPD .F              5155:   ELEVATION PERMANENT DATUM
 LMF .                 KB:   LOG MEASURED FROM
 DAPD.F                10:   FEET ABOVE PERMANENT DATUM
 DMF .                 KB:   DRILLING MEASURED FROM
 EKB .F              5165:   KELLING BUSHING
 EDF .F              5164:   DRILLING FLOOR
 EGL .F              5155:   GROUND LEVEL
 DATE.        30-NOV-1992:   RUN DATE
 RUN .                  1:   RUN NUMBER
 DD  .F               525:   DEPTH DRILLER
 DL  .F               525:   DEPTH LOGGER
 BLI .F               516:   BOTTOM LOG INTERVAL
 TLI .F                 6:   TOP LOG INTERVAL
 CS  .IN            8.625:   CASING SIZE
 CBD .F                95:   CASING BOTTOM DRILLER
 CBL .F                98:   CASING BOTTOM LOGGER
 BS  .IN            7.875:   BIT SIZE
 BSD .F               525:   BIT SIZE AT DEPTH
 DFT .           AIR FOAM:   DRILLING FLUID TYPE
 MRT .F                68:   MAXIMUM RECORDED TEMPERATURE
 LUN .           HL- 6774:   LOGGING UNIT NUMBER
 LUL .             CASPER:   LOGGING UNIT LOCATION
 ENGI.             RAUTIO:   RECORDING ENGINEER
 WITN.          BOB SYLER:   WITNESSED BY
 CLNT.            A2DTECH:   CLIENT CODE
 ORIG.           5" PRINT:   ORIGIN OF DATA
 UWI .       490252254100:   UNIQUE WELL ID
 DICO. A2D Technologies, Inc.:   DIGITIZING COMPANY
~OTHER INFORMATION
~A    DEPT     GRR       RILD       RILM        C13       ZCOR       ZDEN       PORZ       NPHI   
# ...
  249.0000   137.9997     4.9909     5.1419     8.3525     0.0493     2.4465     0.1214     0.3337
  249.5000   139.2125     5.1670     5.3607     8.3504     0.0356     2.4706     0.1096     0.3334
  250.0000   146.1195     5.4625     5.5740     8.3483     0.0038     2.4811     0.1023     0.3352
  250.5000   148.9362     5.9853     5.8752     8.3462     0.0082     2.4796     0.1041     0.3352
  251.0000   144.9848     6.3718     6.2629     8.3442     0.0186     2.4803     0.1044     0.3234
  251.5000   141.6413     6.7300     6.6213     8.3421     0.0426     2.4818     0.1026     0.3170
  252.0000   139.8176     6.9675     7.0315     8.3400     0.0500     2.4886     0.0986     0.3137
  252.5000   139.5137     7.2638     7.3311     8.3202     0.0359     2.5037     0.0898     0.3146
  253.0000   139.5137     7.4679     7.5378     8.2596     0.0166     2.5067     0.0880     0.3192
  253.5000   141.3374     7.6243     7.6430     8.2424     0.0135     2.5051     0.0892     0.3201
  254.0000   145.8967     7.7302     7.7497     8.2100     0.0179     2.5082     0.0901     0.3207
  254.5000   147.7204     7.7828     7.7492     8.2080     0.0178     2.5105     0.0858     0.3222
  255.0000   147.7204     7.7267     7.7487     8.2059     0.0176     2.5156     0.0832     0.3241
  255.5000   147.4164     7.6713     7.6943     8.2038     0.0191     2.5118     0.0847     0.3286
  256.0000   147.7326     7.5109     7.5347     8.2017     0.0053     2.5027     0.0892     0.3320
  256.5000   149.8480     7.3538     7.3271     8.1997     0.0007     2.4912     0.0965     0.3361
  257.0000   149.8480     7.2000     7.1252     8.1976     0.0021     2.4814     0.1035     0.3404
  257.5000   147.1934     7.0494     7.0262     8.1955     0.0050     2.4791     0.1038     0.3425
  258.0000   142.5532     6.9013     6.9285     8.1930     0.0049     2.4821     0.1014     0.3440
  258.5000   141.3374     6.7034     6.6434     8.1909     0.0047     2.4828     0.1005     0.3458
  259.0000   141.6413     6.3831     6.3206     8.2343     0.0031     2.4812     0.1035     0.3477
  259.5000   143.4650     6.0409     5.7571     8.2479    -0.0031     2.4789     0.1083     0.3489
  260.0000   145.2888     5.7118     5.0624     8.2761    -0.0152     2.4668     0.1135     0.3514
  260.5000   148.3283     5.3630     4.7213     8.2735    -0.0048     2.4600     0.1193     0.3614
  261.0000   151.0638     5.0005     4.4651     8.2714    -0.0064     2.4479     0.1293     0.3723
  261.5000   152.8875     4.7945     4.3724     8.2694    -0.0050     2.4184     0.1529     0.3841
  262.0000   154.7112     4.7935     4.4027     8.2673     0.0039     2.3777     0.1749     0.3817
  262.5000   156.2310     4.8599     4.7200     8.2626     0.0215     2.3588     0.1777     0.3675
  263.0000   156.2310     4.9274     5.2033     8.2323     0.0456     2.3667     0.1583     0.3443
  263.5000   149.5441     5.0656     5.5396     8.2151     0.0259     2.4088     0.1304     0.3342
  264.0000   144.0730     5.3553     5.8567     8.1979     0.0047     2.4575     0.1035     0.3299
  264.5000   142.5532     5.8218     6.0639     8.2115    -0.0014     2.4831     0.0996     0.3271
  265.0000   140.7194     6.4628     6.2348     8.2246     0.0045     2.4906     0.0999     0.3262
  265.5000   140.4255     6.9284     6.5460     8.2528     0.0105     2.4845     0.1002     0.3271
  266.0000   141.9086     7.3773     7.1661     8.2502     0.0195     2.4852     0.1002     0.3280
  266.5000   147.7204     7.5351     7.4196     8.2482     0.0095     2.4874     0.0993     0.3277
  267.0000   149.5441     7.6881     7.5232     8.2461    -0.0033     2.4882     0.0972     0.3260
  267.5000   148.6322     7.7404     7.5226     8.2439     0.0071     2.4926     0.0903     0.3266
  268.0000   149.5441     7.7384     7.5747     8.2414     0.0206     2.5054     0.0882     0.3275
  268.5000   148.9362     7.7914     7.6270     8.2055     0.0161     2.5077     0.0891     0.3288
  269.0000   144.9848     7.7894     7.6800     8.2036     0.0145     2.5054     0.0898     0.3288
  269.5000   143.7690     7.7878     7.7331     8.1863     0.0204     2.5053     0.0900     0.3297
  270.0000   146.2006     7.7861     7.7325     8.1845     0.0294     2.5053     0.0894     0.3313
  270.5000   153.1915     7.7845     7.7319     8.1373     0.0339     2.5068     0.0876     0.3349
  271.0000   153.7994     7.7829     7.7314     8.1203     0.0277     2.5083     0.0846     0.3374
  271.5000   153.1915     7.7272     7.6772     8.1186     0.0231     2.5135     0.0825     0.3398
  272.0000   150.4559     7.7256     7.5704     8.1475     0.0155     2.5164     0.0819     0.3423
  272.5000   149.5441     7.7240     7.5699     8.1609     0.0124     2.5164     0.0822     0.3447
  273.0000   149.8480     7.7225     7.5694     8.1743     0.0093     2.5141     0.0835     0.3460
  273.5000   151.9757     7.7209     7.5689     8.1876     0.0078     2.5103     0.0859     0.3484
  274.0000   154.1196     7.7193     7.5684     8.1854     0.0077     2.5080     0.0844     0.3484
  274.5000   153.6991     7.6640     7.6208     8.1685     0.0076     2.5185     0.0789     0.3472
  275.0000   151.3678     7.6624     7.6202     8.1667     0.0090     2.5396     0.0662     0.3460
  275.5000   151.9757     7.6605     7.5668     8.1963     0.0090     2.5441     0.0658     0.3445
  276.0000   152.8875     7.6589     7.5663     8.2259     0.0069     2.5395     0.0799     0.3440
  276.5000   152.5836     7.6573     7.5657     8.2825    -0.0002     2.5138     0.0838     0.3425
  277.0000   154.7112     7.4971     7.5126     8.3262     0.0012     2.5130     0.0848     0.3401
  277.5000   155.9270     7.2893     7.2549     8.3088     0.0026     2.5107     0.0873     0.3377
  278.0000   156.5350     6.9890     6.9574     8.2767     0.0026     2.5047     0.0897     0.3353
  278.5000   152.5836     6.6544     6.5341     8.2446     0.0010     2.5045     0.0936     0.3386
  279.0000   150.4559     6.3803     6.0940     8.2428     0.0024     2.4986     0.0981     0.3438
  279.5000   151.3678     6.2468     5.8849     8.2411     0.0069     2.4812     0.1206     0.3584
  280.0000   156.2310     6.1590     5.8437     8.2393     0.0204     2.4434     0.1251     0.3588
  280.5000   159.8784     6.1149     5.8433     8.2375     0.0474     2.4419     0.1194     0.3505
  281.0000   159.2705     6.0289     5.9663     8.2357     0.0564     2.4532     0.1042     0.3439
  281.5000   155.0152     5.9442     6.1345     8.1885     0.0503     2.4735     0.0973     0.3406
  282.0000   151.3678     5.8994     6.1769     8.1867     0.0336     2.4893     0.0912     0.3415
  282.5000   150.7599     5.8186     6.1336     8.1849     0.0245     2.5013     0.0903     0.3431
  283.0000   152.3242     5.7697     5.8821     8.1983     0.0199     2.5013     0.0964     0.3454
  283.5000   155.4377     5.6955     5.6393     8.2263     0.0138     2.4952     0.1114     0.3561
  284.0000   158.8896     5.6547     5.5624     8.2553     0.0167     2.4816     0.1273     0.3661
  284.5000   159.8784     5.6142     5.5621     8.2990     0.0227     2.4476     0.1419     0.3634
  285.0000   152.2796     5.6526     5.5616     8.3123     0.0289     2.4189     0.1395     0.3529
  285.5000   151.0638     5.7306     5.6002     8.3101     0.0346     2.4219     0.1267     0.3417
  286.0000   151.9757     5.8099     5.6390     8.3083     0.0252     2.4415     0.1125     0.3332
  286.5000   152.2796     6.0150     5.7978     8.3065     0.0073     2.4648     0.1004     0.3266
  287.0000   147.7204     6.3148     6.1726     8.3047     0.0133     2.4836     0.0959     0.3260
  287.5000   143.1611     6.5834     6.5259     8.3030     0.0222     2.4889     0.0983     0.3309
  288.0000   143.4650     6.8634     6.4803     8.2709     0.0191     2.4881     0.0983     0.3367
  288.5000   145.2888     7.0562     6.9958     8.2388     0.0161     2.4880     0.0947     0.3370
  289.0000   145.2888     7.2040     7.1432     8.2370     0.0220     2.4903     0.0869     0.3370
