~VERSION INFORMATION
 VERS.                2.0:   CWLS LOG ASCII STANDARD - VERSION 2.0
 WRAP.                 NO:   ONE LINE PER DEPTH STEP
~WELL INFORMATION
#MNEM.UNIT      DATA TYPE    INFORMATION
#----------   ------------   ------------------------------
 STRT.F           30.0000:   START DEPTH
 STOP.F          597.0000:   STOP DEPTH
 STEP.F            0.5000:   STEP LENGTH
 NULL.          -999.2500:   NO VALUE
 COMP. FENIX & SCISSON-U.S. NAVY:   COMPANY
 WELL.    NPR #3 #15-S-11:   WELL
 FLD .             TEAPOT:   FIELD
 LOC .      S11 T38N R78W:   LOCATION
 CNTY.            NATRONA:   COUNTY
 STAT.            WYOMING:   STATE
 CTRY. UNITED STATES OF AMERICA:   COUNTRY
 SRVC.       Schlumberger:   SERVICE COMPANY
 DATE.        22-FEB-1977:   LOGDATE
 API .       490251028000:   API NUMBER
~CURVE INFORMATION
#MNEM.UNIT       API CODE    CURVE DESCRIPTION
#----------   ------------   ------------------------------
 DEPT.F                  :   
 SPR .MV     07 010 01 00:   SPONTANEOUS POTENTIAL
 ILD .OHMM   07 120 46 00:   INDUCTION LOG DEEP RES
 ILM .OHMM   07 120 44 00:   INDUCTION LOG MEDIUM RES
 LL8 .OHMM   07 220 08 00:   LATEROLOG-8 RES
 CALD.IN     45 280 60 00:   CALIPER FROM DENSITY LOG
 GRD .GAPI   45 310 01 00:   GAMMA RAY FROM DENSITY LOG
 CORR.G/C3   45 356 01 00:   DENSITY CORRECTION
 RHOB.G/C3   45 350 01 00:   BULK DENSITY
 DPHI.DEC    45 890 12 00:   DENSITY POROSITY SANDSTONE
~PARAMETER INFORMATION
#MNEM.UNIT          VALUE    DESCRIPTION
#----------   ------------   ------------------------------
 PD  .                 GL:   PERMANENT DATUM
 EPD .F              5188:   ELEVATION PERMANENT DATUM
 LMF .                 KB:   LOG MEASURED FROM
 DAPD.F                 5:   FEET ABOVE PERMANENT DATUM
 DMF .                 KB:   DRILLING MEASURED FROM
 EKB .F              5193:   KELLING BUSHING
 EGL .F              5188:   GROUND LEVEL
 DATE.         22FEB-1977:   RUN DATE
 RUN .                  1:   RUN NUMBER
 DD  .F               598:   DEPTH DRILLER
 DL  .F               598:   DEPTH LOGGER
 BLI .F               597:   BOTTOM LOG INTERVAL
 TLI .F                35:   TOP LOG INTERVAL
 CS  .IN            8.625:   CASING SIZE
 CBD .F                42:   CASING BOTTOM DRILLER
 CBL .F                45:   CASING BOTTOM LOGGER
 BS  .IN            7.875:   BIT SIZE
 BSD .F               598:   BIT SIZE AT DEPTH
 DFT .                KCL:   DRILLING FLUID TYPE
 DFD .                8.7:   DRILLING FLUID DENSITY
 DFV .                 31:   DRILLING FLUID VISCOSITY
 DFPH.                  8:   DRILLING FLUID PH
 DFL .                7.2:   DRILLING FLUID LOSS
 MSS .           MUD TANK:   MUD SAMPLE SOURCE
 RMS .OHMM           .526:   RESISTIVITY MUD SAMPLE
 MST .F                70:   MUD SAMPLE TEMPERATURE
 RMF .OHMM           .515:   RESISTIVITY MUD FILTRATE SAMPLE
 MFST.F                71:   MUD FILTRATE SAMPLE TEMPERATURE
 RMC .OHMM            .77:   RESISTIVITY MUD CAKE
 MCST.F                70:   MUD CAKE SAMPLE TEMPERATURE
 MFSS.               MEAS:   MUD FILTRATE SAMPLE SOURCE
 MCSS.               CALC:   MUD CAKE SAMPLE SOURCE
 RMB .OHMM            .67:   RESISTIVITY MUD AT BHT
 BHT .F                55:   BOTTOM HOLE TEMPERATURE
 TCS .HRS            0600:   TIME CURCULATED STOPPED
 MRT .F                55:   MAXIMUM RECORDED TEMPERATURE
 LUN .               5642:   LOGGING UNIT NUMBER
 LUL .               CSPR:   LOGGING UNIT LOCATION
 ENGI.                FIX:   RECORDING ENGINEER
 WITN.         STUEBINGER:   WITNESSED BY
 CLNT.            A2DTECH:   CLIENT CODE
 ORIG.           5" PRINT:   ORIGIN OF DATA
 UWI .       490251028000:   UNIQUE WELL ID
 DICO. A2D Technologies, Inc.:   DIGITIZING COMPANY
~OTHER INFORMATION
~A   DEPT      SPR        ILD        ILM        LL8       CALD         GRD      CORR       RHOB       DPHI   
# ...
  139.5000   -74.3723     7.3020     7.6952     8.5819     8.1157   120.8021    -0.0016     2.4236     0.1387
  140.0000   -73.9047     7.3538     7.8047     8.3499     8.1168   120.3621    -0.0057     2.4296     0.1347
  140.5000   -73.5880     7.4574     7.9157     8.0128     8.1178   119.1714    -0.0143     2.4386     0.1314
  141.0000   -73.2713     7.5103     8.0283     8.1259     8.1338   116.1762    -0.0195     2.4311     0.1350
  141.5000   -72.9546     7.5115     8.1990     8.7690     8.1348   117.3905    -0.0083     2.4236     0.1415
  142.0000   -72.7887     7.5126     8.2583     9.1419     8.1359   121.4550     0.0008     2.4266     0.1411
  142.5000   -72.6228     7.5659     8.2608     9.2072     8.1369   122.0661     0.0075     2.4492     0.1306
  143.0000   -72.4569     7.5671     8.2056     9.2730     8.1380   124.0285     0.0098     2.4454     0.1215
  143.5000   -72.5927     7.6208     8.2087     9.1478     8.1390   119.0840     0.0083     2.4462     0.1252
  144.0000   -72.5776     7.6749     8.3254     9.0238     8.1400   121.0464     0.0098     2.4477     0.1283
  144.5000   -72.7172     7.7294     8.5024     8.9636     8.1411   123.3092     0.0105     2.4402     0.1309
  145.0000   -73.0038     7.7842     8.6234     8.9660     8.1571   123.4672     0.0090     2.4327     0.1320
  145.5000   -73.2866     7.8938     8.7460     9.0301     8.1581   120.9277     0.0075     2.4417     0.1293
  146.0000   -73.7278     7.9498     8.9320     9.2210     8.1592   121.3886     0.0000     2.4485     0.1247
  146.5000   -74.0144     8.0063     8.9966     9.4160     8.1602   122.7504    -0.0053     2.4350     0.1344
  147.0000   -73.9956     8.0631     9.1246     9.5490     8.1612   123.5116    -0.0023     2.4297     0.1368
  147.5000   -73.6789     8.1203     9.1273     9.6839     8.1623   123.3693     0.0023     2.4365     0.1292
  148.0000   -73.5130     8.2346     9.1300     9.9572     8.1633   122.1812     0.0060     2.4478     0.1208
  148.5000   -73.1963     8.2359     9.1327     9.9593     8.1644   117.6872     0.0083     2.4402     0.1229
  149.0000   -73.0304     8.3519     9.1354    10.0305     8.1801   117.3947     0.0158     2.4463     0.1208
  149.5000   -73.0153     8.4695     9.2015    10.1021     8.1662   117.8583     0.0225     2.4688     0.1118
  150.0000   -72.7665     8.7084     9.2813    10.0906     8.1675   118.6478     0.0143     2.4591     0.1182
  150.5000   -72.2452     8.7645     9.4479    10.0122     8.1631   116.0731     0.0023     2.4146     0.1329
  151.0000   -71.6408     8.8205     9.6145     9.9337     8.1582   111.4245     0.0022     2.4395     0.1220
  151.5000   -71.6393     8.8813     9.7798     9.9667     8.1547   114.5837     0.0054     2.4508     0.1187
  152.0000   -71.3361     9.0070    10.0606    10.3226     8.1555   117.2925    -0.0045     2.4366     0.1268
  152.5000   -70.7313     9.0716    10.5582    10.8338     8.1562   117.4474    -0.0090     2.4261     0.1358
  153.0000   -70.4281     9.2000    11.0118    11.3735     8.1420   117.6296    -0.0068     2.4223     0.1406
  153.5000   -70.2758     9.2659    11.3907    11.6895     8.1577   119.4996    -0.0045     2.4336     0.1349
  154.0000   -70.4255     9.4623    11.5503    11.7730     8.1585   118.9489    -0.0038     2.4407     0.1244
  154.5000   -70.4236     9.4644    11.3071    11.3690     8.1592   118.3722    -0.0023     2.4239     0.1343
  155.0000   -70.7238     9.4008    10.9988    11.0533     8.1600   118.7188     0.0008     2.4209     0.1385
  155.5000   -71.0243     9.2743    10.7733    10.7612     8.1607   120.6725     0.0038     2.4284     0.1358
  156.0000   -71.3245     9.1484    10.6255    10.4696     8.1615   123.4955     0.0060     2.4382     0.1291
  156.5000   -71.6246     8.9626    10.4168    10.2656     8.1622   122.4505     0.0068     2.4352     0.1276
  157.0000   -71.1703     8.8415    10.3359    10.1873     8.1630   120.8049     0.0045     2.4240     0.1312
  157.5000   -70.7163     8.7221    10.2047    10.0491     8.1638   118.1082    -0.0008     2.4150     0.1364
  158.0000   -70.4131     8.7245    10.1241     9.9814     8.1645   118.2644    -0.0045     2.4292     0.1439
  158.5000   -70.4116     8.6659    10.0663     9.9142     8.1653   121.1233     0.0038     2.4368     0.1327
  159.0000   -70.4101     8.6683     9.9978     9.7917     8.1660   122.4807    -0.0060     2.4300     0.1309
  159.5000   -70.4086     8.6702     9.9987     9.7264     8.1668   124.2886    -0.0128     2.4270     0.1375
  160.0000   -70.4071     8.6722     9.9998     9.7290     8.1675   123.8441    -0.0015     2.4421     0.1282
  160.5000   -70.2548     8.6743     9.9315     9.6636     8.1531   118.8952     0.0075     2.4466     0.1228
  161.0000   -70.2533     8.6158     9.9326     9.5997     8.1541   117.6986     0.0158     2.4496     0.1203
  161.5000   -70.2517     8.6183     9.8650     9.5352     8.1548   117.4058     0.0173     2.4549     0.1228
  162.0000   -70.0994     8.5603     9.7977     9.4716     8.1404   117.1101     0.0015     2.4444     0.1288
  162.5000   -69.9471     8.5627     9.6642     9.4741     8.1414   117.7182    -0.0105     2.4406     0.1279
  163.0000   -69.7948     8.5647     9.5982     9.4762     8.1421   118.7753    -0.0068     2.4504     0.1221
  163.5000   -69.7933     8.5666     9.5329     9.4782     8.1429   120.5832    -0.0015     2.4527     0.1188
  164.0000   -69.7917     8.5685     9.5339     9.4802     8.1436   123.7424     0.0113     2.4429     0.1230
  164.5000   -69.7902     8.5109     9.4688     9.5479     8.1593   124.6493     0.0015     2.4294     0.1311
  165.0000   -69.9399     8.5133     9.4699     9.5500     8.1599   124.8055    -0.0030     2.4249     0.1366
  165.5000   -69.9381     8.4561     9.4052     9.6182     8.1457   124.6599     0.0003     2.4340     0.1362
  166.0000   -69.9366     8.3997     9.3412     9.6203     8.1614   125.1164     0.0039     2.4415     0.1282
  166.5000   -69.9351     8.4021     9.3422     9.6223     8.1622   122.8717     0.0045     2.4370     0.1291
  167.0000   -69.7827     8.4040     9.3430     9.6911     8.1629   121.6750    -0.0025     2.4400     0.1332
  167.5000   -69.7812     8.4058     9.3438     9.7603     8.1637   122.8838    -0.0091     2.4431     0.1295
  168.0000   -69.7797     8.4077     9.3447     9.7624     8.1644   125.8928    -0.0089     2.4401     0.1227
  168.5000   -69.6274     8.4096     9.2809     9.7645     8.1652   128.0010    -0.0015     2.4303     0.1287
  169.0000   -69.4751     8.4115     9.2819     9.7666     8.1659   130.1091     0.0008     2.4251     0.1341
  169.5000   -69.1719     8.3550     9.2827     9.7686     8.1667   128.4635    -0.0015     2.4251     0.1371
  170.0000   -68.7179     8.3573     9.2193     9.7707     8.1674   124.8660    -0.0075     2.4304     0.1362
  170.5000   -68.2639     8.3011     9.1568     9.7728     8.1682   125.4726     0.0000     2.4409     0.1335
  171.0000   -67.9607     8.2458     9.1576     9.7749     8.1689   130.2835     0.0046     2.4492     0.1238
  171.5000   -67.9592     8.0788     9.0951     9.7770     8.1846   133.9760    -0.0023     2.4439     0.1187
  172.0000   -67.8069     7.9696     8.9711     9.7791     8.1854   133.0815    -0.0105     2.4274     0.1283
  172.5000   -67.6546     7.8615     8.7877     9.6471     8.1861   128.3783    -0.0137     2.4229     0.1356
  173.0000   -67.3514     7.6492     8.5487     9.1939     8.1869   126.9870    -0.0038     2.4402     0.1338
  173.5000   -67.1991     7.3909     8.3162     8.7620     8.1876   127.0331     0.0030     2.4538     0.1238
  174.0000   -67.1976     7.1909     7.9790     8.4082     8.1884   128.6907     0.0045     2.4575     0.1169
  174.5000   -67.3469     6.9963     7.7085     8.1246     8.1891   130.7910     0.0045     2.4448     0.1184
  175.0000   -67.6471     6.8542     7.4472     8.0149     8.1748   133.0330     0.0023     2.4326     0.1244
  175.5000   -67.9472     6.7612     7.2445     7.9615     8.1757   135.5916    -0.0023     2.4298     0.1313
