~VERSION INFORMATION
 VERS.                2.0:   CWLS LOG ASCII STANDARD - VERSION 2.0
 WRAP.                 NO:   ONE LINE PER DEPTH STEP
~WELL INFORMATION
#MNEM.UNIT      DATA TYPE    INFORMATION
#----------   ------------   ------------------------------
 STRT.F            4.0000:   START DEPTH
 STOP.F          693.0000:   STOP DEPTH
 STEP.F            0.5000:   STEP LENGTH
 NULL.          -999.2500:   NO VALUE
 COMP.   FLUOR DANIEL INC:   COMPANY
 WELL. NAVAL PETROLEUM RESERVE 3 SX-3 #1-34:   WELL
 FLD .             TEAPOT:   FIELD
 LOC .      S34 T39N R78W:   LOCATION
 CNTY.            NATRONA:   COUNTY
 STAT.            WYOMING:   STATE
 CTRY. UNITED STATES OF AMERICA:   COUNTRY
 SRVC.      Western Atlas:   SERVICE COMPANY
 DATE.        06-FEB-1994:   LOGDATE
 API .       490252269600:   API NUMBER
~CURVE INFORMATION
#MNEM.UNIT       API CODE    CURVE DESCRIPTION
#----------   ------------   ------------------------------
 DEPT.F                  :   
 GRR .GAPI   07 310 01 00:   GAMMA RAY FROM RES. LOG.
 ILD .OHMM   07 120 46 00:   INDUCTION LOG DEEP
 ILM .OHMM   07 120 44 00:   INDUCTION LOG MEDIUM
~PARAMETER INFORMATION
#MNEM.UNIT          VALUE    DESCRIPTION
#----------   ------------   ------------------------------
 PD  .                 GL:   PERMANENT DATUM
 EPD .F              5097:   ELEVATION PERMANENT DATUM
 LMF .                 KB:   LOG MEASURED FROM
 DAPD.F                10:   FEET ABOVE PERMANENT DATUM
 DMF .                 KB:   DRILLING MEASURED FROM
 EKB .F              5107:   KELLING BUSHING
 EDF .F              5106:   DRILLING FLOOR
 EGL .F              5097:   GROUND LEVEL
 DATE.         6-FEB-1994:   RUN DATE
 RUN .                  1:   RUN NUMBER
 DD  .F               700:   DEPTH DRILLER
 DL  .F               701:   DEPTH LOGGER
 BLI .F               693:   BOTTOM LOG INTERVAL
 CS  .IN            9.625:   CASING SIZE
 CBD .F                56:   CASING BOTTOM DRILLER
 CBL .F                56:   CASING BOTTOM LOGGER
 BS  .IN             8.75:   BIT SIZE
 BSD .F               700:   BIT SIZE AT DEPTH
 DFT .                AIR:   DRILLING FLUID TYPE
 MRT .F                89:   MAXIMUM RECORDED TEMPERATURE
 LUN .            HL-6274:   LOGGING UNIT NUMBER
 LUL .             CASPER:   LOGGING UNIT LOCATION
 ENGI.        VERN RAUTIO:   RECORDING ENGINEER
 WITN.        GARY STRONG:   WITNESSED BY
 CLNT.            A2DTECH:   CLIENT CODE
 ORIG.           5" PRINT:   ORIGIN OF DATA
 UWI .       490252269600:   UNIQUE WELL ID
 DICO. A2D Technologies, Inc.:   DIGITIZING COMPANY
~OTHER INFORMATION
~A    DEPT      GRR       ILD        ILM   
# ...
  186.0000    90.0220    15.0820    15.6370
  186.5000    91.6870    14.1390    14.4080
  187.0000    91.5070    13.4720    14.0090
  187.5000    91.3700    12.8160    13.8290
  188.0000    91.4530    12.6120    13.7260
  188.5000    92.9350    12.5350    13.6210
  189.0000    94.0440    12.4570    13.4950
  189.5000    93.5540    12.3800    13.3660
  190.0000    94.0210    12.3030    13.2380
  190.5000    95.4970    12.2260    13.1090
  191.0000    97.7570    12.1490    12.9810
  191.5000    99.3900    12.0720    12.8520
  192.0000    98.7310    11.6930    12.6790
  192.5000    97.2410    11.2930    12.4020
  193.0000    97.1300    10.5600    11.5310
  193.5000   101.5330     9.8910    10.7350
  194.0000   105.9570     9.2220     9.9400
  194.5000   110.3780     8.5530     9.1450
  195.0000   114.9430     7.8840     8.3500
  195.5000   117.7270     7.4240     7.5540
  196.0000   117.3930     7.0500     7.0690
  196.5000   117.5250     6.6820     6.8730
  197.0000   119.0420     6.6070     6.8090
  197.5000   119.2530     6.4970     6.9180
  198.0000   118.6000     6.5250     6.9940
  198.5000   119.3660     6.5790     7.0700
  199.0000   117.6430     6.6320     7.1460
  199.5000   115.8160     6.6820     7.2030
  200.0000   114.3380     6.6700     7.1300
  200.5000   112.8610     6.6580     7.0220
  201.0000   113.5090     6.6460     6.9150
  201.5000   115.6490     6.6340     6.8090
  202.0000   116.4260     6.6210     6.8090
  202.5000   115.6300     6.6490     6.8420
  203.0000   115.7680     6.6810     6.8920
  203.5000   116.6980     6.7140     6.9420
  204.0000   116.5090     6.7470     6.9920
  204.5000   114.6720     6.7800     7.0420
  205.0000   113.3880     6.8130     7.0920
  205.5000   112.3970     6.8460     7.1350
  206.0000   112.6400     6.8730     7.1090
  206.5000   113.1560     6.8290     7.0800
  207.0000   114.5910     6.7920     7.0520
  207.5000   115.1680     6.7550     7.0230
  208.0000   115.8730     6.7180     6.9950
  208.5000   117.2290     6.6810     6.9660
  209.0000   118.4670     6.6430     6.9380
  209.5000   118.1300     6.6060     6.9100
  210.0000   116.8190     6.5690     6.8730
  210.5000   115.3920     6.5580     6.8730
  211.0000   114.0750     6.6210     6.8730
  211.5000   114.6280     6.7340     6.9520
  212.0000   115.5260     6.8460     7.0520
  212.5000   117.5220     6.9590     7.2480
  213.0000   118.2200     7.0720     7.4450
  213.5000   118.3580     7.1840     7.6410
  214.0000   118.2080     7.2970     7.8370
  214.5000   115.1520     7.4100     8.0340
  215.0000   111.7760     7.5220     8.2120
  215.5000   109.5970     7.6350     8.2010
  216.0000   110.7100     7.7480     8.1860
  216.5000   112.3720     7.8360     8.1700
  217.0000   111.8260     7.8360     8.1540
  217.5000   109.9040     7.8360     8.1390
  218.0000   108.7200     7.8360     8.1230
  218.5000   108.7800     7.8370     8.1080
  219.0000   109.8490     7.8370     8.0920
  219.5000   111.5030     7.7490     8.0770
  220.0000   113.1200     7.6620     8.0600
  220.5000   111.7080     7.5750     7.9060
  221.0000   110.1530     7.4880     7.7350
  221.5000   111.0030     7.4020     7.5650
  222.0000   112.9210     7.3150     7.3950
  222.5000   113.2950     7.2700     7.3390
  223.0000   113.7180     7.3520     7.6050
  223.5000   114.0160     7.4430     7.8490
  224.0000   112.8730     7.5340     8.0920
  224.5000   108.5140     7.6190     8.3350
  225.0000   102.0670     7.6010     8.3680
  225.5000    95.5750     7.5830     8.1900
  226.0000    93.5630     7.5650     8.0530
  226.5000    99.0400     7.5480     7.9150
  227.0000   108.4910     7.4660     7.7780
  227.5000   114.0850     7.3850     7.6410
  228.0000   113.1530     7.3040     7.5480
  228.5000   111.6450     7.2230     7.5350
  229.0000   112.0750     7.1420     7.4980
  229.5000   111.5390     7.0610     7.4600
  230.0000   109.1360     7.0030     7.4230
  230.5000   107.5410     7.0240     7.3860
  231.0000   107.5070     7.0630     7.3490
  231.5000   108.2070     7.1030     7.3120
  232.0000   109.5850     7.1430     7.2700
  232.5000   112.5660     7.1830     7.3550
  233.0000   113.1720     7.2220     7.4530
  233.5000   112.5460     7.2620     7.5510
  234.0000   112.2860     7.3020     7.6500
  234.5000   114.4600     7.3410     7.7480
  235.0000   114.4510     7.3810     7.8360
  235.5000   112.5590     7.4080     7.7190
  236.0000   111.9020     7.3270     7.6120
  236.5000   114.4690     7.2410     7.5050
  237.0000   116.2050     7.1560     7.3990
  237.5000   116.4120     7.0700     7.2920
  238.0000   116.1110     6.9840     7.1850
  238.5000   116.8960     6.8980     7.0780
  239.0000   118.0470     6.8130     6.9710
  239.5000   118.0990     6.7270     6.8640
  240.0000   118.1040     6.6670     6.8090
  240.5000   118.0740     6.6330     6.8670
  241.0000   115.6810     6.6000     6.9070
  241.5000   111.6340     6.5670     6.9380
  242.0000   110.5020     6.5340     6.8480
  242.5000   113.3990     6.5010     6.7740
  243.0000   116.1860     6.4680     6.7000
  243.5000   116.0200     6.4350     6.6270
  244.0000   113.4810     6.4010     6.5530
  244.5000   111.5470     6.3770     6.4970
  245.0000   110.7660     6.4460     6.5870
  245.5000   110.7720     6.5120     6.6720
  246.0000   110.7670     6.5780     6.7570
  246.5000   111.3930     6.6430     6.8430
  247.0000   112.4600     6.7090     6.9280
  247.5000   112.5780     6.7750     7.0130
  248.0000   112.2650     6.8410     7.0980
  248.5000   112.0840     6.9060     7.1800
  249.0000   114.0210     6.9720     7.2610
  249.5000   116.4220     7.0380     7.3420
  250.0000   117.9270     7.1040     7.4230
  250.5000   115.1790     7.1350     7.4780
  251.0000   111.9210     7.1350     7.4780
  251.5000   108.5210     7.1350     7.4030
  252.0000   107.9820     7.1180     7.3260
  252.5000   109.7610     7.0340     7.2490
  253.0000   110.3860     6.9500     7.1720
  253.5000   109.5430     6.8660     7.0940
  254.0000   109.5950     6.7830     7.0170
  254.5000   110.4320     6.6990     6.9400
  255.0000   110.3130     6.6150     6.8630
  255.5000   108.6940     6.5320     6.7850
  256.0000   108.8230     6.4480     6.7080
  256.5000   110.9280     6.4370     6.6820
  257.0000   113.3770     6.5690     6.7970
  257.5000   117.0800     6.7180     6.9640
  258.0000   122.1090     6.8660     7.1300
  258.5000   118.9890     7.0150     7.2970
  259.0000   113.7290     7.1630     7.4630
  259.5000   108.3460     7.3120     7.6300
  260.0000   106.7140     7.4600     7.7960
  260.5000   106.6850     7.6190     7.9630
  261.0000   108.4260     7.6190     8.1360
  261.5000   112.2680     7.6190     8.1360
  262.0000   115.2410     7.6190     8.0690
  262.5000   112.8980     7.5580     7.9070
  263.0000   110.9170     7.4190     7.7450
  263.5000   109.9310     7.2800     7.5820
  264.0000   108.9630     7.1410     7.4200
  264.5000   108.4410     7.0020     7.2580
  265.0000   109.1200     6.8630     7.0950
  265.5000   111.2160     6.7240     6.9380
  266.0000   114.9530     6.6200     6.9380
  266.5000   118.5780     6.6510     7.0430
  267.0000   120.9540     6.6970     7.1260
  267.5000   119.8330     6.7450     7.2100
  268.0000   116.5260     6.8230     7.2930
  268.5000   111.6610     6.9050     7.3760
  269.0000   108.0100     6.9870     7.4600
  269.5000   107.0770     7.0690     7.5430
  270.0000   108.1920     7.1510     7.6270
  270.5000   109.9020     7.2330     7.7100
  271.0000   112.3840     7.3150     7.7930
  271.5000   114.7350     7.3970     7.8770
  272.0000   115.4620     7.4780     7.9100
  272.5000   113.8840     7.5230     7.9100
  273.0000   111.8370     7.5680     7.9100
  273.5000   111.2300     7.6120     7.9100
  274.0000   113.1030     7.6570     7.9100
  274.5000   115.9740     7.7010     7.9100
  275.0000   116.6530     7.7460     7.9100
  275.5000   114.8140     7.7630     7.9100
  276.0000   112.3620     7.7630     7.9090
  276.5000   112.6590     7.7120     7.9100
