~VERSION INFORMATION
 VERS.                2.0:   CWLS LOG ASCII STANDARD - VERSION 2.0
 WRAP.                 NO:   ONE LINE PER DEPTH STEP
~WELL INFORMATION
#MNEM.UNIT      DATA TYPE    INFORMATION
#----------   ------------   ------------------------------
 STRT.F           12.0000:   START DEPTH
 STOP.F          551.0000:   STOP DEPTH
 STEP.F            0.5000:   STEP LENGTH
 NULL.          -999.2500:   NO VALUE
 COMP. LAWRENCE-ALLISON &AS:   COMPANY
 WELL. NPR 3 #58-46SX3LP4:   WELL
 FLD .             TEAPOT:   FIELD
 LOC .       S3 T38N R78W:   LOCATION
 CNTY.            NATRONA:   COUNTY
 STAT.            WYOMING:   STATE
 CTRY. UNITED STATES OF AMERICA:   COUNTRY
 SRVC.      Dresser Atlas:   SERVICE COMPANY
 DATE.        14-DEC-1984:   LOGDATE
 API .       490251099900:   API NUMBER
~CURVE INFORMATION
#MNEM.UNIT       API CODE    CURVE DESCRIPTION
#----------   ------------   ------------------------------
 DEPT.F                  :   
 RD  .OHMM   11 220 10 00:   RESISTIVITY DEEP
 RS  .OHMM   11 220 09 00:   RESISTIVITY SHALLOW
 SPR .MV     11 010 01 00:   SPONTANEOUS POTENTIAL FROM RES.
 AC  .US/F   60 520 00 00:   ACOUSTIC SONIC
 CALD.IN     45 280 60 00:   CALIPER FROM DENSITY
 CORR.G/C3   45 356 01 00:   DENSITY CORRECTION
 DEN .G/C3   45 350 01 00:   COMPENSATED BULK DENSTIY
 GRD .GAPI   45 310 01 00:   GAMMA RAY FROM DENSITY LOG
 PORD.DEC    45 890 12 00:   POROSITY DENSITY SANDSTONE
 CNC .DEC    42 890 03 00:   NEUTRON POROSITY SANDSTONE
~PARAMETER INFORMATION
#MNEM.UNIT          VALUE    DESCRIPTION
#----------   ------------   ------------------------------
 PD  .                 GL:   PERMANENT DATUM
 EPD .F              5201:   ELEVATION PERMANENT DATUM
 LMF .                 GL:   LOG MEASURED FROM
 DMF .                 GL:   DRILLING MEASURED FROM
 EGL .F              5201:   GROUND LEVEL
 DATE.        14-DEC-1984:   RUN DATE
 RUN .                  1:   RUN NUMBER
 DD  .F               552:   DEPTH DRILLER
 DL  .F               552:   DEPTH LOGGER
 BLI .F               550:   BOTTOM LOG INTERVAL
 TLI .F                20:   TOP LOG INTERVAL
 CS  .IN            8.625:   CASING SIZE
 CBD .F                20:   CASING BOTTOM DRILLER
 CBL .F                20:   CASING BOTTOM LOGGER
 BS  .IN            7.875:   BIT SIZE
 BSD .F               552:   BIT SIZE AT DEPTH
 DFT .          KCL WATER:   DRILLING FLUID TYPE
 MSS .            MUDTANK:   MUD SAMPLE SOURCE
 RMS .OHMM          0.152:   RESISTIVITY MUD SAMPLE
 MST .F                76:   MUD SAMPLE TEMPERATURE
 RMF .OHMM           0.11:   RESISTIVITY MUD FILTRATE SAMPLE
 MFST.F                76:   MUD FILTRATE SAMPLE TEMPERATURE
 RMC .OHMM           0.19:   RESISTIVITY MUD CAKE
 MCST.F                76:   MUD CAKE SAMPLE TEMPERATURE
 MFSS.               CALC:   MUD FILTRATE SAMPLE SOURCE
 MCSS.               CALC:   MUD CAKE SAMPLE SOURCE
 TCS .HRS               5:   TIME CURCULATED STOPPED
 MRT .F               100:   MAXIMUM RECORDED TEMPERATURE
 LUN .               6270:   LOGGING UNIT NUMBER
 ENGI.            LEBSOCK:   RECORDING ENGINEER
 WITN.        GREG GROOMS:   WITNESSED BY
 CLNT.            A2DTECH:   CLIENT CODE
 ORIG.           5" PRINT:   ORIGIN OF DATA
 UWI .       490251099900:   UNIQUE WELL ID
 DICO. A2D Technologies, Inc.:   DIGITIZING COMPANY
~OTHER INFORMATION
~A   DEPT       RD         RS        SPR         AC       CALD       CORR        DEN        GRD       PORD          CNC 
# ...
  414.0000    15.3543    14.8057   -65.5849    91.6176     7.8689     0.0185     2.4731    88.0683     0.1199     0.2382
  414.5000    15.2567    14.7127   -65.4258    91.6040     7.8690     0.0310     2.4693    89.7599     0.1232     0.2364
  415.0000    15.2653    14.7241   -65.5617    91.5734     7.8541     0.0444     2.4708    88.3756     0.1244     0.2409
  415.5000    15.1684    14.6294   -66.1449    91.5428     7.8543     0.0549     2.4784    84.9155     0.1232     0.2397
  416.0000    15.0723    14.5375   -66.7281    91.5216     7.8244     0.0603     2.4806    81.3050     0.1202     0.2376
  416.5000    14.8737    14.4462   -67.3139    91.4413     7.8095     0.0557     2.4791    79.9501     0.1196     0.2386
  417.0000    14.7794    14.2588   -67.8945    91.4361     7.7946     0.0391     2.4663    79.4975     0.1296     0.2446
  417.5000    14.6857    14.0717   -68.3293    91.5074     7.7948     0.0058     2.4549    79.4960     0.1366     0.2480
  418.0000    14.4921    13.8869   -68.6158    91.5773     7.7949    -0.0229     2.4436    83.1035     0.1396     0.2504
  418.5000    14.4002    13.7043   -69.0506    91.6461     7.8251    -0.0185     2.4420    89.1170     0.1396     0.2492
  419.0000    14.4081    13.4316   -69.1887    91.8661     7.8253     0.0101     2.4435    91.2212     0.1393     0.2290
  419.5000    14.1202    13.2553   -69.3293    91.9361     7.8254     0.0161     2.4435    89.7155     0.1384     0.2175
  420.0000    13.9341    12.9911   -69.4674    92.1563     7.8557     0.0146     2.4458    88.8118     0.1330     0.2166
  420.5000    13.6557    12.8206   -69.7513    92.4553     7.8558     0.0251     2.4601    88.5099     0.1293     0.2378
  421.0000    13.2908    12.6512   -69.7410    92.7543     7.8560     0.0341     2.4631    91.2148     0.1290     0.2408
  421.5000    12.9356    12.3957   -69.8817    93.1397     7.8561     0.0355     2.4616    90.4614     0.1284     0.2408
  422.0000    12.5916    12.2297   -69.8688    93.7120     7.8713     0.0279     2.4661    89.8584     0.1245     0.2384
  422.5000    12.3383    11.9936   -69.7102    94.2327     7.8564     0.0233     2.4797    91.5110     0.1197     0.2472
  423.0000    12.0102    11.9044   -69.5515    94.6031     7.8566     0.0248     2.4751    93.9155     0.1194     0.2533
  423.5000    11.7703    11.6808   -69.2445    94.8998     7.8416     0.0443     2.4729    94.8167     0.1227     0.2503
  424.0000    11.5352    11.4498   -68.9375    95.2689     7.8418     0.0458     2.4706    93.6122     0.1245     0.2479
  424.5000    11.3047    11.3762   -68.9272    95.7145     7.8420     0.0291     2.4690    97.2193     0.1258     0.2551
  425.0000    11.1557    11.1495   -68.7685    96.2353     7.8421     0.0215     2.4668    97.8197     0.1270     0.2521
  425.5000    10.9328    10.7789   -68.6098    97.2819     7.8272     0.0124     2.4660    94.2088     0.1273     0.2388
  426.0000    10.4223    10.2051   -68.5875    99.1550     7.8274    -0.0013     2.4675    93.6058     0.1258     0.2325
  426.5000     9.5322     9.3335   -68.4407   102.5307     7.8275     0.0047     2.4690    96.9125     0.1267     0.2440
  427.0000     8.3065     7.9661   -68.2582   106.4324     7.8427     0.0092     2.4539   101.4223     0.1321     0.2821
  427.5000     6.8020     5.8800   -67.8244   108.0814     7.8579    -0.0165     2.4410   104.1276     0.1388     0.2993
  428.0000     5.6474     5.6048   -67.6657   106.6474     7.8430    -0.0196     2.4266   111.6449     0.1500     0.3096
  428.5000     5.7292     5.7267   -67.2103   101.6835     7.8281     0.0120     2.4025   117.9592     0.1661     0.3223
  429.0000     6.3583     6.6717   -66.6066    96.6445     7.8283     0.0422     2.3873   117.3562     0.1719     0.3211
  429.5000     7.6138     8.2717   -66.1512    92.2066     7.8134     0.0466     2.4002   108.6329     0.1673     0.2683
  430.0000     9.8370    10.8388   -65.8442    91.6754     7.7985     0.0390     2.4402    95.9998     0.1410     0.2441
  430.5000    11.9433    12.1983   -65.5371    92.0496     7.7987     0.0344     2.4961    95.3971     0.1200     0.2471
  431.0000    12.4675    12.4617   -65.5268    92.4164     7.7988     0.0329     2.4991    95.8464     0.1088     0.2638
  431.5000    12.3765    12.3832   -65.5166    92.7117     7.7990     0.0539     2.5067    95.6945     0.1058     0.2674
  432.0000    12.1293    12.1367   -65.6572    93.0070     7.7991     0.0644     2.5127    90.7306     0.1018     0.2572
  432.5000    12.0524    12.0604   -65.7953    93.3011     7.8143     0.0614     2.5156    89.8272     0.0983     0.2572
  433.0000    11.8117    12.0679   -65.9334    92.9953     7.8295     0.0477     2.5094    92.9833     0.0986     0.2641
  433.5000    11.9835    12.1592   -66.0689    92.6145     7.8447     0.0265     2.5042    95.5381     0.1026     0.2660
  434.0000    12.3287    12.2602   -66.0586    92.3088     7.8599     0.0144     2.5103    95.3863     0.1040     0.2608
  434.5000    12.6839    12.5238   -65.4549    92.1533     7.8600     0.0113     2.5080    93.2795     0.1031     0.2515
  435.0000    13.0492    12.8867   -64.9995    91.9978     7.8602     0.0112     2.5023    91.3231     0.1036     0.2491
  435.5000    13.4251    13.2600   -64.8408    91.8424     7.8302     0.0157     2.4958    90.8705     0.1070     0.2500
  436.0000    13.8118    13.7202   -64.6822    91.6869     7.8003     0.0277     2.4914    92.8239     0.1110     0.2500
  436.5000    14.1119    14.1136   -64.6719    91.2309     7.7854     0.0382     2.5012    95.6795     0.1095     0.2429
  437.0000    14.4978    14.4183   -64.5133    90.6998     7.7705     0.0427     2.5079    96.2799     0.1050     0.2335
  437.5000    14.8096    14.8318   -64.3546    90.1687     7.7707     0.0411     2.5110    94.0224     0.1029     0.2268
  438.0000    15.1280    15.2572   -64.3442    89.8630     7.7859     0.0381     2.5117    92.2164     0.1002     0.2277
  438.5000    15.5605    15.5866   -64.3338    89.7075     7.8011     0.0425     2.5117    93.2675     0.0999     0.2353
  439.0000    15.7857    15.8134   -64.4721    89.7023     7.8012     0.0425     2.5094    92.9652     0.1005     0.2356
  439.5000    16.0141    16.0435   -64.6102    89.3966     7.8164     0.0333     2.4988    91.6104     0.1035     0.2284
  440.0000    16.1340    16.2769   -65.0425    88.6401     7.8316     0.0091     2.4837    88.1502     0.1141     0.2206
  440.5000    16.2548    16.5137   -65.1805    88.2592     7.8317    -0.0075     2.4776    86.1938     0.1202     0.2278
  441.0000    16.3765    16.6386   -65.3212    88.4043     7.8169     0.0076     2.4761    85.4404     0.1199     0.2398
  441.5000    16.2726    16.5341   -65.4593    88.6997     7.8320     0.0257     2.4957    86.9427     0.1157     0.2417
  442.0000    16.0559    16.3146   -65.2981    89.2191     7.8322     0.0330     2.5040    89.3473     0.1069     0.2386
  442.5000    16.0669    16.1004   -65.1394    89.5896     7.8323     0.0249     2.5002    90.5489     0.1078     0.2366
  443.0000    16.4125    16.1128   -64.9808    89.8098     7.8475     0.0054     2.4957    90.8481     0.1139     0.2428
  443.5000    16.6500    16.4607   -64.6737    89.8810     7.8477     0.0027     2.4851    93.8541     0.1178     0.2442
  444.0000    16.8909    16.8161   -64.6635    89.8007     7.8478     0.0164     2.4790    95.9579     0.1205     0.2418
  444.5000    17.0174    17.0607   -64.8015    89.8706     7.8329     0.0207     2.4722    95.8060     0.1224     0.2370
  445.0000    17.0267    17.0713   -64.7913    90.0908     7.8331     0.0204     2.4715    92.1955     0.1236     0.2313
  445.5000    16.8022    16.7311   -64.9319    90.3097     7.8332     0.0157     2.4760    91.7428     0.1239     0.2258
  446.0000    16.2406    16.3962   -65.0700    90.4561     7.8334     0.0084     2.4782    95.6511     0.1227     0.2216
  446.5000    15.8065    15.8445   -65.2081    90.5260     7.8335     0.0038     2.4790    97.3037     0.1212     0.2204
  447.0000    15.2782    15.3114   -65.4945    90.4444     7.8337     0.0053     2.4805    96.5504     0.1197     0.2214
