~VERSION INFORMATION
 VERS.                2.0:   CWLS LOG ASCII STANDARD - VERSION 2.0
 WRAP.                 NO:   ONE LINE PER DEPTH STEP
~WELL INFORMATION
#MNEM.UNIT      DATA TYPE    INFORMATION
#----------   ------------   ------------------------------
 STRT.F            7.0000:   START DEPTH
 STOP.F          480.0000:   STOP DEPTH
 STEP.F            0.1000:   STEP LENGTH
 NULL.          -999.2500:   NO VALUE
 COMP.       F D SERV INC:   COMPANY
 WELL.    67-2 SX-3 #67-3:   WELL
 FLD .          N.P.R. #3:   FIELD
 LOC .       S3 T38N R78W:   LOCATION
 CNTY.            NATRONA:   COUNTY
 STAT.            WYOMING:   STATE
 CTRY. UNITED STATES OF AMERICA:   COUNTRY
 SRVC.     Atlas Wireline:   SERVICE COMPANY
 DATE.        12-FEB-1992:   LOGDATE
 API .       490252250400:   API NUMBER
~CURVE INFORMATION
#MNEM.UNIT       API CODE    CURVE DESCRIPTION
#----------   ------------   ------------------------------
 DEPT.F                  :   
 SPR .MV     07 010 01 00:   SPONTANEOUS POTENTIAL
 GRR .GAPI   07 310 01 00:   GAMMA RAY
 RILD.OHMM   07 120 46 00:   INDUCTION LOG DEEP RESISTIVITY
 RILM.OHMM   07 120 44 00:   INDUCTION LOG MEDIUM RESISTIVITY
 RFOC.OHMM   07 220 04 00:   RESISTIVITY FOCUSED LOG
~PARAMETER INFORMATION
#MNEM.UNIT          VALUE    DESCRIPTION
#----------   ------------   ------------------------------
 PD  .                 GL:   PERMANENT DATUM
 EPD .F              5165:   ELEVATION PERMANENT DATUM
 LMF .                 KB:   LOG MEASURED FROM
 DAPD.F                10:   FEET ABOVE PERMANENT DATUM
 DMF .                 KB:   DRILLING MEASURED FROM
 EKB .F              5175:   KELLING BUSHING
 EDF .F              5174:   DRILLING FLOOR
 EGL .F              5165:   GROUND LEVEL
 DATE.        12-FEB-1992:   RUN DATE
 RUN .                  1:   RUN NUMBER
 DD  .F               487:   DEPTH DRILLER
 DL  .F               485:   DEPTH LOGGER
 BLI .F               482:   BOTTOM LOG INTERVAL
 CS  .IN            8.625:   CASING SIZE
 CBD .F               183:   CASING BOTTOM DRILLER
 CBL .F               186:   CASING BOTTOM LOGGER
 BS  .IN            7.875:   BIT SIZE
 BSD .F               487:   BIT SIZE AT DEPTH
 DFT .           CHEM GEL:   DRILLING FLUID TYPE
 DFD .               16.1:   DRILLING FLUID DENSITY
 DFV .                 43:   DRILLING FLUID VISCOSITY
 DFPH.                9.5:   DRILLING FLUID PH
 DFL .               11.8:   DRILLING FLUID LOSS
 MSS .           MUD TANK:   MUD SAMPLE SOURCE
 RMS .OHMM           2.36:   RESISTIVITY MUD SAMPLE
 MST .F                65:   MUD SAMPLE TEMPERATURE
 RMF .OHMM           1.17:   RESISTIVITY MUD FILTRATE SAMPLE
 MFST.F                65:   MUD FILTRATE SAMPLE TEMPERATURE
 RMC .OHMM           5.18:   RESISTIVITY MUD CAKE
 MCST.F                65:   MUD CAKE SAMPLE TEMPERATURE
 MFSS.               MEAS:   MUD FILTRATE SAMPLE SOURCE
 MCSS.               CALC:   MUD CAKE SAMPLE SOURCE
 RMB .OHMM           1.67:   RESISTIVITY MUD AT BHT
 BHT .F                92:   BOTTOM HOLE TEMPERATURE
 TCS .HRS               2:   TIME CURCULATED STOPPED
 MRT .F                92:   MAXIMUM RECORDED TEMPERATURE
 LUN .           HL- 6224:   LOGGING UNIT NUMBER
 LUL .             CASPER:   LOGGING UNIT LOCATION
 ENGI.        VERN RAUTIO:   RECORDING ENGINEER
 WITN.        GARY STRONG:   WITNESSED BY
 CLNT.            A2DTECH:   CLIENT CODE
 ORIG.           5" PRINT:   ORIGIN OF DATA
 UWI .       490252250400:   UNIQUE WELL ID
 DICO. A2D Technologies, Inc.:   DIGITIZING COMPANY
~OTHER INFORMATION
~A    DEPT     SPR        GRR       RILD       RILM       RFOC   
# ...
  458.4000   -27.9256  -999.2500    10.4291    10.3899    10.8345
  458.5000   -27.7954  -999.2500    10.4885    10.3899    10.8774
  458.6000   -27.6819  -999.2500    10.5255    10.3899    10.9110
  458.7000   -27.5601  -999.2500    10.5345    10.3899    10.9258
  458.8000   -27.4382  -999.2500    10.5992    10.3899    10.9880
  458.9000   -27.3449  -999.2500    10.5992    10.3899    10.9883
  459.0000   -27.3454  -999.2500    10.5577    10.3899    10.9885
  459.1000   -27.1013  -999.2500    10.5255    10.4415    10.9888
  459.2000   -26.9509  -999.2500    10.5255    10.4245    10.9890
  459.3000   -26.8944  -999.2500    10.5255    10.3899    10.9893
  459.4000   -26.8581  -999.2500    10.5255    10.3899    10.9896
  459.5000   -26.7446  -999.2500    10.4793    10.3899    10.9898
  459.6000   -26.7452  -999.2500    10.4523    10.3899    10.9900
  459.7000   -26.7456  -999.2500    10.4523    10.3899    10.9903
  459.8000   -26.6723  -999.2500    10.4523    10.3899    10.9906
  459.9000   -26.5958  -999.2500    10.4523    10.3899    10.9908
  460.0000   -26.5795  -999.2500    10.4014    10.3899    10.9911
  460.1000   -26.4460  -999.2500    10.3796    10.3899    10.9913
  460.2000   -26.5571  -999.2500    10.3560    10.3899    10.9605
  460.3000   -26.5978  -999.2500    10.2973    10.3899    10.9153
  460.4000   -26.6519  -999.2500    10.2358    10.3899    10.9156
  460.5000   -26.7496  -999.2500    10.1811    10.3899    10.9159
  460.6000   -26.7501  -999.2500    10.1235    10.3899    10.9161
  460.7000   -26.7507  -999.2500    10.0939    10.3899    10.8799
  460.8000   -26.7512  -999.2500    10.0792    10.3508    10.8184
  460.9000   -26.7516  -999.2500    10.0221    10.3178    10.7653
  461.0000   -26.7857  -999.2500     9.9654    10.3056    10.7656
  461.1000   -26.9034  -999.2500     9.9090    10.2462    10.7106
  461.2000   -26.9041  -999.2500     9.8529    10.1894    10.6911
  461.3000   -26.9045  -999.2500     9.8161    10.1319    10.6641
  461.4000   -26.9754  -999.2500     9.8161    10.0746    10.6171
  461.5000   -27.0563  -999.2500     9.8161    10.0176    10.6174
  461.6000   -27.0702  -999.2500     9.7670     9.9610    10.5578
  461.7000   -27.2082  -999.2500     9.7118     9.8954    10.5439
  461.8000   -27.2086  -999.2500     9.6801     9.8487    10.5120
  461.9000   -27.1303  -999.2500     9.6694     9.7930    10.4526
  462.0000   -27.1091  -999.2500     9.6128     9.7377    10.3935
  462.1000   -27.2319  -999.2500     9.6128     9.6746    10.3262
  462.2000   -27.3615  -999.2500     9.6128     9.5566    10.2764
  462.3000   -27.3620  -999.2500     9.5851     9.5566    10.2183
  462.4000   -27.3625  -999.2500     9.5459     9.5194    10.1835
  462.5000   -27.3630  -999.2500     9.5459     9.4656    10.1739
  462.6000   -27.3635  -999.2500     9.5459     9.4120    10.1131
  462.7000   -27.3640  -999.2500     9.5015     9.3588    10.1133
  462.8000   -27.3645  -999.2500     9.4477     9.3059    10.0726
  462.9000   -27.2695  -999.2500     9.4136     9.2940    10.0156
  463.0000   -27.1476  -999.2500     9.4064     9.2654     9.9590
  463.1000   -27.0258  -999.2500     9.3482     9.2294     9.9044
  463.2000   -26.9140  -999.2500     9.3482     9.2294     9.9047
  463.3000   -26.9146  -999.2500     9.3482     9.2294     9.8598
  463.4000   -26.8112  -999.2500     9.3482     9.2294     9.8040
  463.5000   -26.6893  -999.2500     9.3482     9.2294     9.7679
  463.6000   -26.5674  -999.2500     9.3482     9.2294     9.7681
  463.7000   -26.4640  -999.2500     9.2958     9.2294     9.7684
  463.8000   -26.4646  -999.2500     9.2832     9.2294     9.7686
  463.9000   -26.3528  -999.2500     9.2832     9.2294     9.7688
  464.0000   -26.3147  -999.2500     9.2832     9.2294     9.7690
  464.1000   -26.2599  -999.2500     9.2832     9.2294     9.7693
  464.2000   -26.1649  -999.2500     9.2832     9.2294     9.7695
  464.3000   -26.1654  -999.2500     9.2832     9.2294     9.7697
  464.4000   -26.0453  -999.2500     9.2832     9.2294     9.7699
  464.5000   -26.0156  -999.2500     9.3037     9.2294     9.7702
  464.6000   -26.0161  -999.2500     9.3482     9.2294     9.7704
  464.7000   -25.9813  -999.2500     9.3482     9.2294     9.7745
  464.8000   -25.8662  -999.2500     9.3482     9.2294     9.8394
  464.9000   -25.8669  -999.2500     9.3482     9.2294     9.8396
  465.0000   -25.8673  -999.2500     9.3733     9.1835     9.8398
  465.1000   -25.9398  -999.2500     9.4136     9.1654     9.8401
  465.2000   -26.0191  -999.2500     9.4143     9.1217     9.8403
  465.3000   -26.0196  -999.2500     9.4679     9.0286     9.8405
  465.4000   -26.0202  -999.2500     9.5219     8.9758     9.8407
  465.5000   -26.1296  -999.2500     9.5761     8.9269     9.8410
  465.6000   -26.1719  -999.2500     9.6128     8.8764     9.8412
  465.7000   -26.2244  -999.2500     9.6149     8.8262     9.8414
  465.8000   -26.3473  -999.2500     9.6366     8.7763     9.8417
  465.9000   -26.4751  -999.2500     9.6584     8.7291     9.8419
  466.0000   -26.4756  -999.2500     9.6801     8.7291     9.8421
  466.1000   -26.5649  -999.2500  -999.2500     8.6887     9.8423
  466.2000   -26.6274  -999.2500  -999.2500     8.6685     9.8426
  466.3000   -26.6279  -999.2500  -999.2500     8.6508     9.8428
  466.4000   -26.6284  -999.2500  -999.2500     8.6019     9.8431
  466.5000   -26.6290  -999.2500  -999.2500     8.5485     9.8433
  466.6000   -26.5323  -999.2500  -999.2500     8.5485     9.8435
  466.7000   -26.4792  -999.2500  -999.2500     8.5485     9.8437
  466.8000   -26.4797  -999.2500  -999.2500     8.5485     9.8440
  466.9000   -26.4801  -999.2500  -999.2500     8.5485     9.8442
  467.0000   -26.4807  -999.2500  -999.2500     8.5485     9.8444
  467.1000   -26.4811  -999.2500  -999.2500     8.5485     9.8446
  467.2000   -26.4817  -999.2500  -999.2500     8.5119     9.8449
  467.3000   -26.4336  -999.2500  -999.2500     8.4638     9.8451
  467.4000   -26.3317  -999.2500  -999.2500     8.4159     9.8453
  467.5000   -26.3324  -999.2500  -999.2500     8.3683     9.8456
  467.6000   -26.2189  -999.2500  -999.2500     8.3136     9.8458
  467.7000   -26.1825  -999.2500  -999.2500     8.2740     9.8460
  467.8000   -26.1830  -999.2500  -999.2500     8.2273     9.8254
  467.9000   -26.1550  -999.2500  -999.2500     8.1808     9.7779
  468.0000   -26.0332  -999.2500  -999.2500     8.1345     9.7782
  468.1000   -26.0337  -999.2500  -999.2500     8.0851     9.7784
  468.2000   -25.9404  -999.2500  -999.2500     8.0851     9.7786
  468.3000   -25.8839  -999.2500  -999.2500     8.0533     9.7788
  468.4000   -25.8843  -999.2500  -999.2500     8.0077     9.7660
  468.5000   -25.8848  -999.2500  -999.2500     7.9625     9.7112
  468.6000   -25.8855  -999.2500  -999.2500     7.9174     9.7114
  468.7000   -25.8859  -999.2500  -999.2500     7.8727     9.7116
  468.8000   -25.8864  -999.2500  -999.2500     7.8282     9.7119
  468.9000   -25.8869  -999.2500  -999.2500     7.8083     9.7121
  469.0000   -25.8874  -999.2500  -999.2500     7.7941     9.7123
  469.1000   -25.8879  -999.2500  -999.2500     7.7500     9.7126
  469.2000   -25.8884  -999.2500  -999.2500     7.7003     9.7128
  469.3000   -25.8889  -999.2500  -999.2500     7.7003     9.7130
  469.4000   -25.8894  -999.2500  -999.2500     7.7003     9.7132
  469.5000   -25.8899  -999.2500  -999.2500     7.7003     9.7134
  469.6000   -25.8904  -999.2500  -999.2500     7.7003     9.7137
  469.7000   -25.8909  -999.2500  -999.2500     7.7003     9.6612
  469.8000   -25.8914  -999.2500  -999.2500     7.7419     9.4887
  469.9000   -25.8919  -999.2500  -999.2500     7.7859     9.2754
  470.0000   -25.8924  -999.2500  -999.2500     7.8083     9.0665
  470.1000   -25.8980  -999.2500  -999.2500     7.8083     8.8622
  470.2000   -26.0443  -999.2500  -999.2500     7.8098     8.6269
  470.3000   -26.0448  -999.2500  -999.2500     7.8629     8.4687
  470.4000   -26.0453  -999.2500  -999.2500     7.8629     8.2784
  470.5000   -26.0458  -999.2500  -999.2500     7.8887     8.1752
