~VERSION INFORMATION
 VERS.                2.0:   CWLS LOG ASCII STANDARD - VERSION 2.0
 WRAP.                 NO:   ONE LINE PER DEPTH STEP
~WELL INFORMATION
#MNEM.UNIT      DATA TYPE    INFORMATION
#----------   ------------   ------------------------------
 STRT.F           38.0000:   START DEPTH
 STOP.F          483.5000:   STOP DEPTH
 STEP.F            0.5000:   STEP LENGTH
 NULL.          -999.2500:   NO VALUE
 COMP. FENIX & SCISSON INC:   COMPANY
 WELL.    43 SX 10 #43-10:   WELL
 FLD .             TEAPOT:   FIELD
 LOC .      S10 T38N R78W:   LOCATION
 CNTY.            NATRONA:   COUNTY
 STAT.            WYOMING:   STATE
 CTRY. UNITED STATES OF AMERICA:   COUNTRY
 SRVC.            Unknown:   SERVICE COMPANY
 DATE.        12-NOV-1978:   LOGDATE
 API .       490251072700:   API NUMBER
~CURVE INFORMATION
#MNEM.UNIT       API CODE    CURVE DESCRIPTION
#----------   ------------   ------------------------------
 DEPT.F                  :   
 SPR .MV     05 010 01 00:   SPONTANEOUS POTENTIAL FROM RES.
 SN  .OHMM   05 040 16 00:   SHORT NORMAL 16"
 IL  .OHMM   05 120 00 00:   INDUCTION LOG
 GRD .GAPI   45 310 01 00:   GAMMA RAY FROM DENSITY LOG
 CALD.IN     45 280 60 00:   CALIPER
 DEN .G/C3   45 350 01 00:   COMPENSATED BULK DENSTIY
 DPHI.DEC    45 890 12 00:   DENSITY POROSITY SANDSTONE
 CORR.G/C3   45 356 01 00:   DENSITY CORRECTION
~PARAMETER INFORMATION
#MNEM.UNIT          VALUE    DESCRIPTION
#----------   ------------   ------------------------------
 PD  .                 GL:   PERMANENT DATUM
 EPD .F              5193:   ELEVATION PERMANENT DATUM
 LMF .                 KB:   LOG MEASURED FROM
 DAPD.F                 4:   FEET ABOVE PERMANENT DATUM
 DMF .                 KB:   DRILLING MEASURED FROM
 EKB .F              5197:   KELLING BUSHING
 EGL .F              5193:   GROUND LEVEL
 DATE.           11-12-78:   RUN DATE
 RUN .                  1:   RUN NUMBER
 DD  .F               480:   DEPTH DRILLER
 DL  .F               485:   DEPTH LOGGER
 BLI .F               479:   BOTTOM LOG INTERVAL
 TLI .F                50:   TOP LOG INTERVAL
 CS  .IN            8.625:   CASING SIZE
 CBD .F                40:   CASING BOTTOM DRILLER
 CBL .F                45:   CASING BOTTOM LOGGER
 BS  .IN            7.875:   BIT SIZE
 BSD .F               480:   BIT SIZE AT DEPTH
 DFT .            SEA MUD:   DRILLING FLUID TYPE
 DFD .                8.7:   DRILLING FLUID DENSITY
 DFV .                 36:   DRILLING FLUID VISCOSITY
 DFPH.               10.5:   DRILLING FLUID PH
 MSS .            MUD PIT:   MUD SAMPLE SOURCE
 RMS .OHMM            .42:   RESISTIVITY MUD SAMPLE
 MST .F                52:   MUD SAMPLE TEMPERATURE
 RMF .OHMM            .42:   RESISTIVITY MUD FILTRATE SAMPLE
 MFST.F                52:   MUD FILTRATE SAMPLE TEMPERATURE
 RMC .OHMM            .48:   RESISTIVITY MUD CAKE
 MCST.F                54:   MUD CAKE SAMPLE TEMPERATURE
 MFSS.               MEAS:   MUD FILTRATE SAMPLE SOURCE
 MCSS.               MEAS:   MUD CAKE SAMPLE SOURCE
 RMB .OHMM            .34:   RESISTIVITY MUD AT BHT
 BHT .F                71:   BOTTOM HOLE TEMPERATURE
 TCS .HRS               3:   TIME CURCULATED STOPPED
 MRT .F                71:   MAXIMUM RECORDED TEMPERATURE
 LUN .               3006:   LOGGING UNIT NUMBER
 LUL .               CASP:   LOGGING UNIT LOCATION
 ENGI.             MILLER:   RECORDING ENGINEER
 WITN.           DINSMORE:   WITNESSED BY
 CLNT.            A2DTECH:   CLIENT CODE
 ORIG.       2", 5" PRINT:   ORIGIN OF DATA
 UWI .       490251072700:   UNIQUE WELL ID
 DICO. A2D Technologies, Inc.:   DIGITIZING COMPANY
~OTHER INFORMATION
~A   DEPT      SPR         SN         IL         GRD      CALD        DEN       DPHI       CORR   
# ...
  402.5000   -23.0654    12.6743    13.6498    85.1053     8.3207     2.4456     0.1383     0.0171
  403.0000   -23.4238    12.6469    13.6083    85.6034     8.3506     2.4482     0.1373     0.0228
  403.5000   -23.4606    12.6195    13.5670    86.4891     8.4163     2.4560     0.1334     0.0266
  404.0000   -23.5007    12.5922    13.5257    87.3592     8.4157     2.4632     0.1274     0.0266
  404.5000   -23.5445    12.5650    13.4846    87.6535     8.4159     2.4646     0.1257     0.0241
  405.0000   -23.5883    12.5378    13.4436    87.1356     8.4158     2.4660     0.1254     0.0209
  405.5000   -23.6320    12.5107    13.4027    86.5607     8.4158     2.4635     0.1262     0.0177
  406.0000   -23.6757    12.4836    13.3620    87.1829     8.4158     2.4574     0.1285     0.0169
  406.5000   -23.7195    12.4566    13.3214    88.0426     8.4158     2.4540     0.1308     0.0175
  407.0000   -23.7632    12.4297    13.2809    88.9058     8.4158     2.4573     0.1299     0.0181
  407.5000   -23.8069    12.4028    13.2405    89.6460     8.4158     2.4606     0.1283     0.0184
  408.0000   -23.8507    12.3759    13.2002    89.9906     8.4158     2.4639     0.1267     0.0177
  408.5000   -23.8944    12.3492    13.1601    90.2132     8.4158     2.4669     0.1252     0.0170
  409.0000   -23.9382    12.3224    13.1201    90.0325     8.4158     2.4674     0.1246     0.0162
  409.5000   -23.9819    12.2958    13.0783    90.3329     8.4158     2.4677     0.1240     0.0156
  410.0000   -24.0256    12.2692    13.0280    92.0945     8.4158     2.4674     0.1241     0.0149
  410.5000   -24.0694    12.2426    12.9778    93.6833     8.4158     2.4653     0.1256     0.0145
  411.0000   -24.1131    12.2162    12.9279    93.8714     8.4158     2.4632     0.1272     0.0145
  411.5000   -24.1568    12.1897    12.8781    94.1015     8.4158     2.4611     0.1288     0.0145
  412.0000   -24.2025    12.1634    12.8285    94.5200     8.4158     2.4609     0.1289     0.0145
  412.5000   -24.2820    12.1370    12.7792    95.3004     8.4158     2.4609     0.1291     0.0161
  413.0000   -24.3658    12.1108    12.7300    96.4431     8.4158     2.4609     0.1292     0.0178
  413.5000   -24.4500    12.0846    12.6810    96.8085     8.4158     2.4638     0.1275     0.0195
  414.0000   -24.5336    12.0584    12.6321    96.5257     8.4157     2.4674     0.1228     0.0207
  414.5000   -24.5982    12.0324    12.5835    96.0081     8.4146     2.4677     0.1246     0.0221
  415.0000   -24.5657    12.0063    12.5351    94.3894     8.4135     2.4643     0.1265     0.0235
  415.5000   -24.5349    11.9803    12.4868    94.2254     8.4125     2.4609     0.1283     0.0250
  416.0000   -24.5044    11.9543    12.4388    96.0702     8.4114     2.4575     0.1302     0.0274
  416.5000   -24.4736    11.9169    12.3909    97.3644     8.4103     2.4570     0.1304     0.0298
  417.0000   -24.4444    11.8377    12.3024    95.7268     8.4093     2.4606     0.1286     0.0322
  417.5000   -24.4060    11.7598    12.2064    95.8430     8.4082     2.4691     0.1248     0.0308
  418.0000   -24.8488    11.6823    12.1112    96.0413     8.4071     2.4774     0.1186     0.0281
  418.5000   -25.5062    11.6053    12.0167    96.4015     8.4061     2.4797     0.1152     0.0254
  419.0000   -25.8046    11.5288    11.9229    97.5863     8.4050     2.4745     0.1200     0.0248
  419.5000   -26.0406    11.4529    11.8299    99.6064     8.4039     2.4702     0.1233     0.0251
  420.0000   -26.2775    11.3774    11.7376   100.8193     8.4029     2.4738     0.1221     0.0255
  420.5000   -26.3923    11.3024    11.6461   101.6074     8.4018     2.4774     0.1198     0.0259
  421.0000   -26.3945    11.2280    11.5552    99.2182     8.4008     2.4809     0.1176     0.0263
  421.5000   -26.3946    11.1544    11.4650    98.7240     8.3997     2.4845     0.1153     0.0262
  422.0000   -26.3944    11.0852    11.3756   100.4444     8.3986     2.4880     0.1130     0.0252
  422.5000   -26.3943    10.9767    11.2868    99.7642     8.3976     2.4907     0.1116     0.0242
  423.0000   -26.3936    10.8760    11.2006    98.7287     8.3965     2.4878     0.1123     0.0232
  423.5000   -26.3940    10.7821    11.0296    98.6228     8.3931     2.4851     0.1130     0.0222
  424.0000   -26.4532    10.5868    10.8545    98.9673     8.3880     2.4823     0.1145     0.0212
  424.5000   -26.8169    10.4090    10.6810    95.3770     8.3829     2.4795     0.1167     0.0205
  425.0000   -27.1757    10.2343    10.5104    92.5164     8.3778     2.4784     0.1185     0.0205
  425.5000   -27.4452    10.0624    10.3426    93.9744     8.3726     2.4776     0.1186     0.0205
  426.0000   -27.5747     9.8935    10.1774    93.3775     8.3675     2.4767     0.1187     0.0207
  426.5000   -27.7062     9.7274    10.0149    92.6589     8.3624     2.4755     0.1188     0.0217
  427.0000   -27.8374     9.5634     9.8550    93.1644     8.3577     2.4742     0.1192     0.0226
  427.5000   -27.9686     9.3921     9.6976    94.3084     8.3369     2.4726     0.1197     0.0236
  428.0000   -28.0998     9.2318     9.4048    94.8985     8.3141     2.4598     0.1273     0.0249
  428.5000   -28.2311     9.0628     8.9449    95.4441     8.3028     2.4371     0.1424     0.0336
  429.0000   -28.3630     8.8854     8.4632    96.1739     8.3308     2.4145     0.1575     0.0442
  429.5000   -28.4927     8.5102     7.7360    99.8859     8.3574     2.4041     0.1653     0.0458
  430.0000   -28.5421     8.1253     7.0712   101.2499     8.3796     2.4232     0.1601     0.0310
  430.5000   -28.3495     7.6675     6.4637   102.4383     8.3915     2.4461     0.1427     0.0209
  431.0000   -28.1021     7.1643     6.3173    99.0133     8.4034     2.4690     0.1235     0.0232
  431.5000   -27.4455     6.4944     6.3807    93.9810     8.4153     2.4917     0.1105     0.0251
  432.0000   -26.9719     6.6387     6.5650    91.8099     8.4170     2.4989     0.1056     0.0264
  432.5000   -26.9393     6.9073     6.7547    93.4371     8.4182     2.4993     0.1056     0.0258
  433.0000   -26.8976     7.1869     6.9952    95.6951     8.4193     2.4996     0.1056     0.0253
  433.5000   -26.8577     7.7431     7.2590    95.6880     8.4205     2.4998     0.1056     0.0248
  434.0000   -26.8181     8.4322     7.8989    95.7434     8.4217     2.5005     0.1056     0.0243
  434.5000   -26.8101     9.1826     8.7186    96.0110     8.4229     2.5036     0.1028     0.0238
  435.0000   -26.8573    10.0168     9.6233    98.1788     8.4241     2.5067     0.0999     0.0232
  435.5000   -26.9036    10.2977     9.9571    99.5591     8.4253     2.5099     0.0984     0.0227
  436.0000   -26.9501    10.4632    10.1173    99.5418     8.4265     2.5108     0.0983     0.0198
  436.5000   -26.9965    10.6341    10.2801   100.3011     8.4277     2.5098     0.0994     0.0155
  437.0000   -27.0429    10.8077    10.4454   101.0585     8.4289     2.5024     0.1006     0.0112
  437.5000   -27.0893    10.9842    10.6135    99.5549     8.4300     2.4949     0.1070     0.0116
  438.0000   -27.1358    11.1636    10.7836    98.0120     8.4312     2.4874     0.1134     0.0142
  438.5000   -27.1822    11.3459    10.9571    97.4438     8.4324     2.4819     0.1133     0.0167
  439.0000   -27.2286    11.5312    11.1766    97.9487     8.4336     2.4873     0.1093     0.0184
  439.5000   -27.2750    11.7165    11.4005    97.5776     8.4348     2.5019     0.1036     0.0175
  440.0000   -27.3214    11.9952    11.6289    97.2066     8.4353     2.5093     0.0984     0.0167
  440.5000   -27.3679    12.2692    11.8618    96.8953     8.4337     2.5099     0.0981     0.0159
  441.0000   -27.4277    12.4415    12.0995    97.1171     8.4323     2.5100     0.0978     0.0151
  441.5000   -27.5013    12.6120    12.3419    97.3297     8.4308     2.5100     0.0977     0.0147
  442.0000   -27.5744    12.7848    12.5891    97.4056     8.4293     2.5100     0.0980     0.0151
  442.5000   -27.6476    12.8797    12.8415    97.1888     8.4278     2.5100     0.0983     0.0156
