~VERSION INFORMATION
 VERS.                2.0:   CWLS LOG ASCII STANDARD - VERSION 2.0
 WRAP.                 NO:   ONE LINE PER DEPTH STEP
~WELL INFORMATION
#MNEM.UNIT      DATA TYPE    INFORMATION
#----------   ------------   ------------------------------
 STRT.F          534.0000:   START DEPTH
 STOP.F         1820.0000:   STOP DEPTH
 STEP.F            0.5000:   STEP LENGTH
 NULL.          -999.2500:   NO VALUE
 COMP.   FLUOR DANIEL INC:   COMPANY
 WELL. NAVAL PETROLEUM RESERVE 3 X-29 #45-29:   WELL
 FLD .             TEAPOT:   FIELD
 LOC .      S29 T39N R78W:   LOCATION
 CNTY.            NATRONA:   COUNTY
 STAT.            WYOMING:   STATE
 CTRY. UNITED STATES OF AMERICA:   COUNTRY
 SRVC.            Unknown:   SERVICE COMPANY
 DATE.        30-SEP-1994:   LOGDATE
 API .       490252265100:   API NUMBER
~CURVE INFORMATION
#MNEM.UNIT       API CODE    CURVE DESCRIPTION
#----------   ------------   ------------------------------
 DEPT.F                  :   
 ROP .FT/HR  91 810 01 00:   RAT OF DRILLING PENETRATION
 TGAS.TC/CC  91 830 01 00:   TOTAL GAS UNIT
~PARAMETER INFORMATION
#MNEM.UNIT          VALUE    DESCRIPTION
#----------   ------------   ------------------------------
 EKB .F              5023:   KELLING BUSHING
 EGL .F              5013:   GROUND LEVEL
 DATE.        30-SEP-1994:   RUN DATE
 RUN .                  1:   RUN NUMBER
 BLI .F              1820:   BOTTOM LOG INTERVAL
 TLI .F               540:   TOP LOG INTERVAL
 WITN.     C.TOWER/R.HUSK:   WITNESSED BY
 CLNT.            A2DTECH:   CLIENT CODE
 ORIG.           5" PRINT:   ORIGIN OF DATA
 UWI .       490252265100:   UNIQUE WELL ID
 DICO. A2D Technologies, Inc.:   DIGITIZING COMPANY
~OTHER INFORMATION
~A   DEPT        ROP       TGAS 
# ...
 1020.0000     0.5386     1.9655
 1020.5000     0.5384     2.1472
 1021.0000     0.5382     2.1398
 1021.5000     0.5380     2.5105
 1022.0000     0.5378     2.5034
 1022.5000     0.5377     2.4957
 1023.0000     0.5375     2.4882
 1023.5000     0.5373     2.4807
 1024.0000     0.5371     2.4731
 1024.5000     0.5369     2.0860
 1025.0000     0.5367     2.0786
 1025.5000     0.5365     2.0712
 1026.0000     0.5363     2.0638
 1026.5000     0.5362     2.0564
 1027.0000     0.5454     2.1113
 1027.5000     0.5452     2.4197
 1028.0000     0.5450     2.4123
 1028.5000     0.5448     2.4048
 1029.0000     0.5446     2.3974
 1029.5000     0.5444     2.2008
 1030.0000     0.5443     2.0042
 1030.5000     0.5461     1.8061
 1031.0000     0.5533     1.7987
 1031.5000     0.5531     1.7913
 1032.0000     0.5529     1.7839
 1032.5000     0.5151     1.7764
 1033.0000     0.5055     1.7690
 1033.5000     0.5053     1.7622
 1034.0000     0.5051     1.9433
 1034.5000     0.5049     1.9359
 1035.0000     0.5047     2.2059
 1035.5000     0.5045     2.2992
 1036.0000     0.5043     2.4808
 1036.5000     0.5041     2.4731
 1037.0000     0.5039     2.4642
 1037.5000     0.5132     2.4567
 1038.0000     0.5130     2.2603
 1038.5000     0.5127     2.2528
 1039.0000     0.5032     2.2454
 1039.5000     0.5030     2.2380
 1040.0000     0.5044     1.8524
 1040.5000     0.5121     1.4669
 1041.0000     0.5118     1.4595
 1041.5000     0.5023     1.4521
 1042.0000     0.5021     1.6337
 1042.5000     0.5019     1.6260
 1043.0000     0.5017     1.6170
 1043.5000     0.5015     1.6109
 1044.0000     0.5107     1.6022
 1044.5000     0.5105     1.4057
 1045.0000     0.5103     1.3983
 1045.5000     0.5102     1.3909
 1046.0000     0.5100     1.1944
 1046.5000     0.5098     0.9979
 1047.0000     0.5096     0.9905
 1047.5000     0.5094     0.7941
 1048.0000     0.5092     0.7866
 1048.5000     0.5090     0.7702
 1049.0000     0.5089     0.5824
 1049.5000     0.5087     0.5734
 1050.0000     0.5085     0.5672
 1050.5000     0.5083     0.5597
 1051.0000     0.4987     0.5512
 1051.5000     0.4985     0.5437
 1052.0000     0.4889     0.5370
 1052.5000     0.4981     0.5289
 1053.0000     0.4979     0.5215
 1053.5000     0.4977     0.7034
 1054.0000     0.4976     0.6958
 1054.5000     0.4974     0.6882
 1055.0000     0.5066     0.6807
 1055.5000     0.5064     0.6717
 1056.0000     0.5062     0.6642
 1056.5000     0.5155     0.6568
 1057.0000     0.5152     0.8403
 1057.5000     0.5245     0.8319
 1058.0000     0.5243     0.8244
 1058.5000     0.5147     0.6272
 1059.0000     0.5158     0.8088
 1059.5000     0.5237     0.8014
 1060.0000     0.5235     0.7941
 1060.5000     0.5233     0.7866
 1061.0000     0.5231     0.7790
 1061.5000     0.5135     0.7714
 1062.0000     0.5134     1.0319
 1062.5000     0.5038     1.1351
 1063.0000     0.5130     1.1258
 1063.5000     0.5222     1.1184
 1064.0000     0.5220     1.1110
 1064.5000     0.5312     1.2926
 1065.0000     0.5310     1.2852
 1065.5000     0.5309     1.2782
 1066.0000     0.5401     1.2706
 1066.5000     0.5399     1.2630
 1067.0000     0.5397     1.4446
 1067.5000     0.5395     1.4370
 1068.0000     0.5394     1.4280
 1068.5000     0.5392     1.4205
 1069.0000     0.5390     1.4131
 1069.5000     0.5388     1.4057
 1070.0000     0.5386     1.3983
 1070.5000     0.5384     1.3909
 1071.0000     0.5382     1.3835
 1071.5000     0.5380     1.3761
 1072.0000     0.5378     1.3689
 1072.5000     0.5377     1.3612
 1073.0000     0.5375     1.3538
 1073.5000     0.5373     1.3462
 1074.0000     0.5371     1.3387
 1074.5000     0.5369     1.3311
 1075.0000     0.5367     1.3223
 1075.5000     0.5365     1.5040
 1076.0000     0.5363     1.4975
 1076.5000     0.5361     1.4891
 1077.0000     0.5360     1.4817
 1077.5000     0.5358     1.5441
 1078.0000     0.5356     1.6578
 1078.5000     0.5354     1.6485
 1079.0000     0.5352     1.6411
 1079.5000     0.5350     1.8228
 1080.0000     0.5364     1.8402
 1080.5000     0.5441     1.8061
 1081.0000     0.5344     1.6096
 1081.5000     0.5343     1.7931
 1082.0000     0.5375     1.7839
 1082.5000     0.5433     1.7764
 1083.0000     0.5386     1.7690
 1083.5000     0.5335     1.7616
 1084.0000     0.5333     1.5651
 1084.5000     0.5331     1.5577
 1085.0000     0.5329     1.1721
 1085.5000     0.5328     1.1647
 1086.0000     0.5326     1.1571
 1086.5000     0.5324     1.1496
 1087.0000     0.5322     1.1406
 1087.5000     0.5320     1.1345
 1088.0000     0.5318     1.1258
 1088.5000     0.5316     1.1184
 1089.0000     0.5315     1.1110
 1089.5000     0.5312     1.1036
 1090.0000     0.5310     1.2871
 1090.5000     0.5309     1.4669
 1091.0000     0.5307     1.4595
 1091.5000     0.5305     1.4521
 1092.0000     0.5303     1.4445
 1092.5000     0.5301     1.4370
 1093.0000     0.5299     1.6189
 1093.5000     0.5298     1.6096
 1094.0000     0.5283     1.6022
 1094.5000     0.4917     1.5948
 1095.0000     0.4915     1.7773
 1095.5000     0.5008     1.7690
 1096.0000     0.5100     1.7616
 1096.5000     0.5098     1.7546
 1097.0000     0.4908     1.7468
 1097.5000     0.4906     1.7394
 1098.0000     0.4716     1.7319
 1098.5000     0.4620     1.7244
 1099.0000     0.4618     1.7168
 1099.5000     0.4615     1.7079
 1100.0000     0.4661     1.7004
 1100.5000     0.4984     0.9384
 1101.0000     0.4973     0.9319
 1101.5000     0.4965     0.9254
 1102.0000     0.4955     1.2971
 1102.5000     0.4948     1.4797
 1103.0000     0.4939     1.6623
 1103.5000     0.4837     1.6542
 1104.0000     0.4829     1.8384
 1104.5000     0.4820     2.0210
 1105.0000     0.4812     2.3926
 1105.5000     0.4897     3.1408
 1106.0000     0.4889     4.2688
 1106.5000     0.4880     5.0203
 1107.0000     0.4872     5.7685
 1107.5000     0.4863     6.1401
 1108.0000     0.4855     6.3227
 1108.5000     0.4890     6.3161
 1109.0000     0.4932     6.4972
 1109.5000     0.5019     6.4907
 1110.0000     0.5009     6.6733
 1110.5000     0.5000     6.8576
 1111.0000     0.5087     6.8495
 1111.5000     0.5078     6.8430
 1112.0000     0.5070     6.8365
 1112.5000     0.5163     6.8300
 1113.0000     0.5246     6.8235
 1113.5000     0.5327     6.8171
 1114.0000     0.5318     6.8105
 1114.5000     0.5310     6.8039
 1115.0000     0.5300     6.7960
 1115.5000     0.5293     6.7895
 1116.0000     0.5283     6.7830
 1116.5000     0.5276     6.7766
 1117.0000     0.5230     6.7708
 1117.5000     0.5163     6.7642
 1118.0000     0.5137     6.7571
 1118.5000     0.4959     6.7506
 1119.0000     0.4951     6.7442
 1119.5000     0.4943     6.7377
 1120.0000     0.4934     6.7311
 1120.5000     0.4926     6.7245
 1121.0000     0.4916     6.7166
 1121.5000     0.4907     6.7112
 1122.0000     0.4899     6.7046
 1122.5000     0.4703     6.6972
 1123.0000     0.4506     6.6907
 1123.5000     0.4404     6.6842
 1124.0000     0.4490     6.4887
 1124.5000     0.4480     6.5349
 1125.0000     0.4471     6.6649
 1125.5000     0.4463     6.6583
 1126.0000     0.4455     6.6517
 1126.5000     0.4447     6.6451
 1127.0000     0.4439     6.6384
 1127.5000     0.4430     6.6308
 1128.0000     0.4422     6.6252
 1128.5000     0.4508     6.6178
 1129.0000     0.4594     6.6113
 1129.5000     0.4491     6.6043
 1130.0000     0.4481     6.4097
 1130.5000     0.4530     6.4030
 1131.0000     0.4559     6.3963
 1131.5000     0.4551     6.5789
 1132.0000     0.4541     6.5723
 1132.5000     0.4344     6.5643
 1133.0000     0.4336     6.5579
 1133.5000     0.4328     6.5514
 1134.0000     0.4320     6.5449
 1134.5000     0.4311     6.5384
 1135.0000     0.4303     7.2882
 1135.5000     0.4389     8.0381
 1136.0000     0.4379     8.7879
 1136.5000     0.4371     8.4033
 1137.0000     0.4268     7.8296
 1137.5000     0.4260     6.8697
 1138.0000     0.4252     5.8777
 1138.5000     0.4244     4.5942
 1139.0000     0.4235     4.0205
 1139.5000     0.4227     3.6359
 1140.0000     0.4217     3.8201
 1140.5000     0.4209     4.0027
 1141.0000     0.4202     4.3727
