~VERSION INFORMATION
 VERS.                2.0:   CWLS LOG ASCII STANDARD - VERSION 2.0
 WRAP.                 NO:   ONE LINE PER DEPTH STEP
~WELL INFORMATION
#MNEM.UNIT      DATA TYPE    INFORMATION
#----------   ------------   ------------------------------
 STRT.F            0.0000:   START DEPTH
 STOP.F          516.0000:   STOP DEPTH
 STEP.F            0.5000:   STEP LENGTH
 NULL.          -999.2500:   NO VALUE
 COMP.       F D SERV INC:   COMPANY
 WELL. NAVAL PETROLEUM RESERVE 3 SX-3 #77-2-3:   WELL
 FLD .             TEAPOT:   FIELD
 LOC .       S3 T38N R78W:   LOCATION
 CNTY.            NATRONA:   COUNTY
 STAT.            WYOMING:   STATE
 CTRY. UNITED STATES OF AMERICA:   COUNTRY
 SRVC.      Western Atlas:   SERVICE COMPANY
 DATE.        22-OCT-1992:   LOGDATE
 API .       490252255600:   API NUMBER
~CURVE INFORMATION
#MNEM.UNIT       API CODE    CURVE DESCRIPTION
#----------   ------------   ------------------------------
 DEPT.F                  :   
 GRR .GAPI   06 310 01 00:   GAMMA RAY FROM RESISTIVITY
 RILD.OHMM   06 120 46 00:   DEEP INDUCTION RESISTIVITY
 RILM.OHMM   06 120 44 00:   INDUCTION LOG MEDIUM RESISTIVITY
~PARAMETER INFORMATION
#MNEM.UNIT          VALUE    DESCRIPTION
#----------   ------------   ------------------------------
 PD  .                 GL:   PERMANENT DATUM
 EPD .F              5139:   ELEVATION PERMANENT DATUM
 LMF .                 KB:   LOG MEASURED FROM
 DAPD.F                10:   FEET ABOVE PERMANENT DATUM
 DMF .                 KB:   DRILLING MEASURED FROM
 EKB .F              5149:   KELLING BUSHING
 EDF .F              5148:   DRILLING FLOOR
 EGL .F              5139:   GROUND LEVEL
 DATE.        22-DEC-1992:   RUN DATE
 RUN .                  1:   RUN NUMBER
 DD  .F               525:   DEPTH DRILLER
 DL  .F               524:   DEPTH LOGGER
 CS  .IN            8.625:   CASING SIZE
 CBL .F                98:   CASING BOTTOM LOGGER
 BS  .IN            9.875:   BIT SIZE
 BSD .F               525:   BIT SIZE AT DEPTH
 DFT .           AIR FOAM:   DRILLING FLUID TYPE
 TCS .HRS               2:   TIME CURCULATED STOPPED
 LUN .            HL-6274:   LOGGING UNIT NUMBER
 LUL .             CASPER:   LOGGING UNIT LOCATION
 ENGI.             RASTIC:   RECORDING ENGINEER
 WITN.        GARY STRONG:   WITNESSED BY
 CLNT.            A2DTECH:   CLIENT CODE
 ORIG.           5" PRINT:   ORIGIN OF DATA
 UWI .       490252255600:   UNIQUE WELL ID
 DICO. A2D Technologies, Inc.:   DIGITIZING COMPANY
~OTHER INFORMATION
~A    DEPT      GRR      RILD       RILM   
# ...
   91.0000    77.1634  -999.2500  -999.2500
   91.5000    80.4577  -999.2500  -999.2500
   92.0000    84.0672  -999.2500  -999.2500
   92.5000    90.0754  -999.2500  -999.2500
   93.0000    92.4858  -999.2500  -999.2500
   93.5000    92.4994  -999.2500  -999.2500
   94.0000    91.3112  -999.2500  -999.2500
   94.5000    89.8232  -999.2500  -999.2500
   95.0000    89.5346  -999.2500  -999.2500
   95.5000    89.5486  -999.2500  -999.2500
   96.0000    89.5598  -999.2500  -999.2500
   96.5000    92.0270  -999.2500  -999.2500
   97.0000   103.6780  -999.2500  -999.2500
   97.5000   121.3804  -999.2500  -999.2500
   98.0000   128.5880  1939.7843  1939.7843
   98.5000   131.3007     2.1449     3.5399
   99.0000   131.6118     2.0868     3.6401
   99.5000   131.0233     2.2842     4.9347
  100.0000   129.8351     4.0862     7.6283
  100.5000   132.8515    10.5537    12.1233
  101.0000   132.2662    12.2881    14.2152
  101.5000   130.7813    10.1270    14.5167
  102.0000   129.2964     8.1745    13.8350
  102.5000   128.3808     7.3202     9.5952
  103.0000   129.6492     7.1722     9.2080
  103.5000   131.7418     6.8359    10.1466
  104.0000   132.3558     6.8856     9.3417
  104.5000   130.5711     7.8016     8.7808
  105.0000   129.6823     8.1915     9.7423
  105.5000   131.7992     8.2511     9.8932
  106.0000   134.8120     8.3112     9.6031
  106.5000   131.5316     8.4890     8.7907
  107.0000   127.9477     8.7302     8.3202
  107.5000   128.8616     8.8548     8.3801
  108.0000   128.8760     8.9192     8.6172
  108.5000   125.2204     8.9222     8.8610
  109.0000   121.4120     9.1124     9.0566
  109.5000   120.8231     9.2432     9.2416
  110.0000   124.1394     9.3751     9.4376
  110.5000   127.7519     9.4434     9.6379
  111.0000   125.9672     9.5121     9.7073
  111.5000   122.8995     9.7149     9.8449
  112.0000   119.9989    10.0602    10.1349
  112.5000   121.8159    10.6373    10.7766
  113.0000   122.1301    11.1689    11.2357
  113.5000   121.2449    11.6463    11.7144
  114.0000   111.0285    11.9771    11.9630
  114.5000   104.4856    11.8975    12.2170
  115.0000    96.4040    12.0683    12.5627
  115.5000    99.4168    12.3266    12.6532
  116.0000   106.6275    12.3307    12.4836
  116.5000   112.9387    12.3348    12.2308
  117.0000   118.0510    12.0853    12.0653
  117.5000   118.0685    11.7593    11.9037
  118.0000   117.7794    11.5215    11.6626
  118.5000   116.5979    11.4459    11.4263
  119.0000   114.2135    11.2923    11.3507
  119.5000   113.0284    11.2191    11.2755
  120.0000   118.1438    11.1445    11.2792
  120.5000   122.0562    10.9959    11.1266
  121.0000   122.3668    10.9237    11.1303
  121.5000   118.1868    10.8520    11.1334
  122.0000   115.5025    10.7807    10.8327
  122.5000   111.8591    10.7852    10.9870
  123.0000   110.1339    10.8637    11.0661
  123.5000   112.5507    10.8673    10.9921
  124.0000   112.8649    10.9464    10.9200
  124.5000   111.9797    10.9510    11.0751
  125.0000   110.1949    11.0307    11.1554
  125.5000   109.3097    11.0343    11.1584
  126.0000   109.9273    10.9619    11.0082
  126.5000   112.0406    10.7402    10.8598
  127.0000   118.0520    10.5961    10.5667
  127.5000   118.0663    10.6005    10.5702
  128.0000   117.4573    10.2434    10.2848
  128.5000   115.0965    10.1052    10.1457
  129.0000   114.2149    10.0396    10.0091
  129.5000   112.7300    10.0430     9.9435
  130.0000   108.5464     9.9082     9.8776
  130.5000   108.5608     9.9123     9.8809
  131.0000   109.5233     9.6449     9.8835
  131.5000   110.3922     9.6481     9.8861
  132.0000   111.6059     9.6514     9.8887
  132.5000   112.8197     9.5219     9.7556
  133.0000   114.0334     9.4593     9.7511
  133.5000   114.6657     9.4626     9.6268
  134.0000   115.2651     9.4004     9.4972
  134.5000   114.9760     9.2742     9.3694
  135.0000   115.5936     9.1498     9.3725
  135.5000   118.0068     9.0897     9.2463
  136.0000   120.7198     9.0935     9.2488
  136.5000   121.3338     9.2881     9.3805
  137.0000   118.9530     9.4207     9.5795
  137.5000   115.9688     9.6215     9.8506
  138.0000   112.6848     9.7588     9.9215
  138.5000   104.0035     9.5613     9.5863
  139.0000   100.4196     9.4332     9.5237
  139.5000   103.7359     9.4365     9.5268
  140.0000   111.2465     9.4402     9.4631
  140.5000   114.2594     9.3136     9.3363
  141.0000   118.1718     9.0623     9.0217
  141.5000   119.1035     8.6367     8.6513
  142.0000   119.1364     8.2310     8.0823
  142.5000   122.1164     7.8266     7.7561
  143.0000   122.7305     7.4766     7.5985
  143.5000   122.1416     7.4269     7.5482
  144.0000   123.9586     7.4300     7.5507
  144.5000   128.1709     7.4841     7.5527
  145.0000   126.9894     7.4866     7.5552
  145.5000   121.3066     7.4892     7.5047
  146.0000   118.0226     7.5442     7.5592
  146.5000   118.6366     7.6519     7.7731
  147.0000   120.7499     7.7611     7.8833
  147.5000   122.2639     7.7637     7.8855
  148.0000   121.6817     7.7662     7.8880
  148.5000   119.8934     7.7689     7.8901
  149.0000   119.9113     7.7721     7.8922
  149.5000   119.9257     7.7746     7.9490
  150.0000   119.9414     7.9955     8.1177
  150.5000   120.5496     8.1101     8.1745
  151.0000   121.1577     8.2843     8.3464
  151.5000   121.1044     8.3451     8.4631
  152.0000   118.7780     8.4647     8.5814
  152.5000   118.7864     8.4680     8.5820
  153.0000   119.3946     8.5309     8.6422
  153.5000   120.0419     8.5935     8.6428
  154.0000   122.4121     8.5969     8.7033
  154.5000   125.4190     8.6002     8.7038
  155.0000   129.3255     8.6044     8.7045
  155.5000   129.6339     8.5476     8.5855
  156.0000   126.0441     8.4342     8.5269
  156.5000   129.0532     8.3215     8.4106
  157.0000   137.4574     8.3256     8.4113
  157.5000   142.2656     8.3288     8.4118
  158.0000   139.5754     8.3321     8.4707
  158.5000   132.0876     8.3354     8.4712
  159.0000   124.8997     8.3973     8.4719
  159.5000   123.1090     8.4006     8.4725
  160.0000   122.5178     8.4622     8.5318
  160.5000   122.5283     8.5244     8.5323
  161.0000   124.0360     8.5285     8.5330
  161.5000   126.4454     8.5318     8.5928
  162.0000   125.8541     8.4754     8.5933
  162.5000   122.8641     8.4211     8.4759
  163.0000   120.1739     8.4252     8.4181
  163.5000   121.0840     8.4285     8.4188
  164.0000   122.5917     8.4318     8.4193
  164.5000   123.7996     8.3191     8.3619
  165.0000   124.1079     8.2650     8.2477
  165.5000   122.6192     8.0983     8.0792
  166.0000   121.1263     8.1023     8.0797
  166.5000   120.8349     8.1056     8.0802
  167.0000   123.2804     7.9980     8.0251
  167.5000   123.8524     7.8367     7.8070
  168.0000   120.2648     7.6787     7.4904
  168.5000   119.0717     7.4212     7.2365
  169.0000   120.6077     7.2214     6.9914
  169.5000   124.7900     6.9304     6.7544
  170.0000   128.0968     6.6053     6.5255
  170.5000   127.2057     6.3391     6.2609
  171.0000   126.9143     6.3862     6.3048
  171.5000   126.9249     6.4331     6.3489
  172.0000   126.9333     6.4356     6.4823
  172.5000   126.3421     6.4835     6.6185
  173.0000   124.5514     6.5310     6.8517
  173.5000   124.5620     6.6706     6.9957
  174.0000   125.1702     7.0044     7.1427
  174.5000   127.2775     7.3049     7.2927
  175.0000   125.7889     7.5129     7.3439
  175.5000   123.3985     7.6206     7.4466
  176.0000   122.8052     7.7835     7.5507
  176.5000   124.6148     7.8413     7.6035
  177.0000   124.9252     7.8444     7.7100
  177.5000   125.2336     7.9019     7.7105
  178.0000   127.6408     7.9050     7.7644
  178.5000   131.2475     7.8536     7.7115
  179.0000   132.4553     7.7486     7.7121
  179.5000   127.6683     7.6451     7.5024
  180.0000   124.6782     7.4917     7.2983
  180.5000   127.0855     7.4954     7.3494
  181.0000   130.0945     7.4466     7.2994
  181.5000   127.7042     7.2964     7.1997
