~VERSION INFORMATION
 VERS.                2.0:   CWLS LOG ASCII STANDARD - VERSION 2.0
 WRAP.                 NO:   ONE LINE PER DEPTH STEP
~WELL INFORMATION
#MNEM.UNIT      DATA TYPE    INFORMATION
#----------   ------------   ------------------------------
 STRT.F          442.0000:   START DEPTH
 STOP.F         2636.0000:   STOP DEPTH
 STEP.F            0.5000:   STEP LENGTH
 NULL.          -999.2500:   NO VALUE
 COMP. FENIX & SCISSON INC:   COMPANY
 WELL.     25 SHX 2 #25-2:   WELL
 FLD .             TEAPOT:   FIELD
 LOC .       S2 T38N R78W:   LOCATION
 CNTY.            NATRONA:   COUNTY
 STAT.            WYOMING:   STATE
 CTRY. UNITED STATES OF AMERICA:   COUNTRY
 SRVC.              Welex:   SERVICE COMPANY
 DATE.        07-JUN-1980:   LOGDATE
 API .       490251080200:   API NUMBER
~CURVE INFORMATION
#MNEM.UNIT       API CODE    CURVE DESCRIPTION
#----------   ------------   ------------------------------
 DEPT.F                  :   
 CALD.IN     45 280 60 00:   CALIPER
 GRD .GAPI   45 310 01 00:   GAMMA RAY FROM DENSITY LOG
 DPHI.DEC    45 890 12 00:   DENSITY POROSITY SANDSTONE
 CORR.G/C3   45 356 01 00:   DENSITY CORRECTION
 RHOB.G/C3   45 350 01 00:   BULK DENSITY
~PARAMETER INFORMATION
#MNEM.UNIT          VALUE    DESCRIPTION
#----------   ------------   ------------------------------
 PD  .                 GL:   PERMANENT DATUM
 EPD .F              5120:   ELEVATION PERMANENT DATUM
 LMF .                 KB:   LOG MEASURED FROM
 DAPD.F                10:   FEET ABOVE PERMANENT DATUM
 DMF .                 KB:   DRILLING MEASURED FROM
 EKB .F              5130:   KELLING BUSHING
 EGL .F              5120:   GROUND LEVEL
 DATE.             6-7-80:   RUN DATE
 RUN .                  1:   RUN NUMBER
 DD  .F              2652:   DEPTH DRILLER
 DL  .F              2638:   DEPTH LOGGER
 BLI .F              2636:   BOTTOM LOG INTERVAL
 TLI .F              1224:   TOP LOG INTERVAL
 BS  .IN             6.75:   BIT SIZE
 BSD .F              2652:   BIT SIZE AT DEPTH
 DFT .        AIR DRILLED:   DRILLING FLUID TYPE
 TCS .HRS               2:   TIME CURCULATED STOPPED
 MRT .F               125:   MAXIMUM RECORDED TEMPERATURE
 ENGI.               REIN:   RECORDING ENGINEER
 WITN.           DINSMORE:   WITNESSED BY
 CLNT.            A2DTECH:   CLIENT CODE
 ORIG.           5" PRINT:   ORIGIN OF DATA
 UWI .       490251080200:   UNIQUE WELL ID
 DICO. A2D Technologies, Inc.:   DIGITIZING COMPANY
~OTHER INFORMATION
~A   DEPT     CALD         GRD      DPHI       CORR       RHOB   
# ...
  930.0000     8.5294    66.5862     0.0926     0.0440     2.4812
  930.5000     8.5301    67.0603     0.1008     0.0332     2.4683
  931.0000     8.5500    67.5309     0.1092     0.0224     2.4611
  931.5000     8.5674    68.0103     0.1119     0.0213     2.4571
  932.0000     8.5878    67.9354     0.1078     0.0255     2.4624
  932.5000     8.6069    67.5893     0.1105     0.0313     2.4579
  933.0000     8.6487    67.2363     0.1110     0.0370     2.4571
  933.5000     8.6986    66.8858     0.1079     0.0460     2.4619
  934.0000     8.7477    66.6783     0.1046     0.0583     2.4665
  934.5000     8.7467    66.9067     0.1020     0.0706     2.4720
  935.0000     8.6873    67.2558     0.0988     0.0829     2.4797
  935.5000     8.6830    67.6085     0.0964     0.0831     2.4792
  936.0000     8.5635    67.9572     0.1010     0.0772     2.4740
  936.5000     8.4383    68.0851     0.0975     0.0812     2.4831
  937.0000     8.4726    67.8700     0.0950     0.0756     2.4835
  937.5000     8.6030    67.6586     0.0993     0.0650     2.4741
  938.0000     8.6346    67.6141     0.1006     0.0642     2.4843
  938.5000     8.6461    67.7121     0.0891     0.0708     2.4953
  939.0000     8.7047    67.8102     0.0852     0.0657     2.5009
  939.5000     8.7120    67.8755     0.0816     0.0622     2.5066
  940.0000     8.7416    67.7348     0.0783     0.0602     2.5059
  940.5000     8.7664    67.5611     0.0849     0.0582     2.5002
  941.0000     8.7657    67.3885     0.0863     0.0553     2.4987
  941.5000     8.7503    67.2747     0.0911     0.0517     2.4923
  942.0000     8.7052    67.3979     0.0836     0.0632     2.5064
  942.5000     8.6379    67.6080     0.0730     0.0747     2.5227
  943.0000     8.4963    67.8194     0.0719     0.0709     2.5240
  943.5000     8.3565    68.0295     0.0690     0.0778     2.5288
  944.0000     8.3460    68.2380     0.0667     0.0844     2.5296
  944.5000     8.4984    68.5299     0.0699     0.0851     2.5236
  945.0000     8.6456    68.7553     0.0734     0.0821     2.5169
  945.5000     8.6887    68.7648     0.0749     0.0806     2.5184
  946.0000     8.6839    68.7188     0.0735     0.0831     2.5208
  946.5000     8.6789    68.6363     0.0757     0.0793     2.5145
  947.0000     8.6744    68.5542     0.0767     0.0771     2.5179
  947.5000     8.6699    68.4719     0.0762     0.0734     2.5126
  948.0000     8.6567    68.3895     0.0811     0.0659     2.5035
  948.5000     8.5651    68.3070     0.0829     0.0587     2.5043
  949.0000     8.4720    68.2272     0.0891     0.0468     2.4939
  949.5000     8.3757    68.2473     0.0970     0.0249     2.4784
  950.0000     8.3573    68.5228     0.1021     0.0113     2.4722
  950.5000     8.4786    68.7699     0.0982     0.0196     2.4835
  951.0000     8.6206    68.6249     0.0964     0.0150     2.4744
  951.5000     8.5897    68.3582     0.1027     0.0072     2.4684
  952.0000     8.5929    68.0922     0.1078     0.0055     2.4634
  952.5000     8.6639    67.8087     0.1031     0.0077     2.4772
  953.0000     8.6678    67.5712     0.0944     0.0230     2.4903
  953.5000     8.6670    67.6353     0.0858     0.0352     2.5017
  954.0000     8.6696    67.9846     0.0814     0.0394     2.5101
  954.5000     8.7342    68.3298     0.0775     0.0412     2.5119
  955.0000     8.7867    68.6741     0.0795     0.0391     2.5087
  955.5000     8.7866    69.0189     0.0787     0.0336     2.5112
  956.0000     8.7503    69.3646     0.0805     0.0288     2.5054
  956.5000     8.7093    69.7053     0.0866     0.0177     2.4957
  957.0000     8.6683    69.7739     0.0887     0.0138     2.4944
  957.5000     8.6707    69.5841     0.0853     0.0243     2.5028
  958.0000     8.7478    70.1517     0.0827     0.0278     2.5037
  958.5000     8.8060    69.8937     0.0944     0.0010     2.4765
  959.0000     8.8208    70.0701     0.0988     0.0019     2.4766
  959.5000     8.8115    69.5691     0.0974     0.0055     2.4732
  960.0000     8.7732    69.9128     0.1050    -0.0026     2.4641
  960.5000     8.7802    70.7964     0.1057    -0.0067     2.4678
  961.0000     8.8183    70.2887     0.0975     0.0063     2.4890
  961.5000     8.8200    69.7156     0.0882     0.0228     2.4919
  962.0000     8.7941    69.1440     0.0939     0.0195     2.4817
  962.5000     8.8018    69.0552     0.0996     0.0143     2.4739
  963.0000     8.8263    69.0605     0.1014     0.0140     2.4750
  963.5000     8.8449    69.3169     0.0990     0.0175     2.4808
  964.0000     8.8463    70.4261     0.0909     0.0314     2.4967
  964.5000     8.8479    70.5483     0.0799     0.0463     2.5103
  965.0000     8.8496    70.5468     0.0775     0.0509     2.5125
  965.5000     8.8513    70.5457     0.0824     0.0453     2.5033
  966.0000     8.8529    70.5453     0.0880     0.0396     2.4943
  966.5000     8.8546    70.4804     0.0941     0.0337     2.4852
  967.0000     8.8563    70.0470     0.0909     0.0428     2.4948
  967.5000     8.8579    69.6143     0.0865     0.0491     2.4992
  968.0000     8.8596    69.1793     0.0870     0.0525     2.4976
  968.5000     8.8613    68.7881     0.0809     0.0611     2.5080
  969.0000     8.8629    69.2210     0.0747     0.0699     2.5194
  969.5000     8.8577    69.6821     0.0686     0.0773     2.5310
  970.0000     8.8261    70.1395     0.0651     0.0750     2.5351
  970.5000     8.7949    70.5959     0.0694     0.0616     2.5245
  971.0000     8.7854    71.0522     0.0767     0.0483     2.5124
  971.5000     8.7852    71.4989     0.0813     0.0356     2.5035
  972.0000     8.7904    72.2674     0.0835     0.0353     2.5038
  972.5000     8.8345    72.2513     0.0801     0.0402     2.5137
  973.0000     8.8447    71.9956     0.0711     0.0517     2.5242
  973.5000     8.8468    71.7429     0.0735     0.0400     2.5115
  974.0000     8.8487    71.4832     0.0859     0.0196     2.4993
  974.5000     8.8506    71.6645     0.0817     0.0248     2.5084
  975.0000     8.8526    72.0546     0.0775     0.0329     2.5154
  975.5000     8.8546    72.4494     0.0781     0.0320     2.5079
  976.0000     8.8565    72.8422     0.0896     0.0176     2.4846
  976.5000     8.8585    73.2004     0.1072    -0.0073     2.4626
  977.0000     8.8605    72.8129     0.1029     0.0040     2.4762
  977.5000     8.8628    72.4024     0.0946     0.0202     2.4870
  978.0000     8.8614    71.9961     0.0891     0.0313     2.4929
  978.5000     8.8103    71.5850     0.0846     0.0382     2.5026
  979.0000     8.7691    71.1743     0.0800     0.0455     2.5131
  979.5000     8.8131    70.7635     0.0727     0.0515     2.5230
  980.0000     8.8357    70.3528     0.0711     0.0458     2.5190
  980.5000     8.7842    69.9421     0.0739     0.0433     2.5254
  981.0000     8.7853    69.5313     0.0683     0.0432     2.5292
  981.5000     8.7828    69.1206     0.0693     0.0412     2.5272
  982.0000     8.7783    68.7105     0.0704     0.0391     2.5254
  982.5000     8.7737    68.3428     0.0697     0.0482     2.5268
  983.0000     8.7692    68.0424     0.0725     0.0384     2.5204
  983.5000     8.7705    67.7409     0.0816     0.0250     2.5059
  984.0000     8.7947    67.4399     0.0914     0.0107     2.4908
  984.5000     8.8180    67.1391     0.0907     0.0147     2.4932
  985.0000     8.8404    66.9797     0.0837     0.0282     2.5039
  985.5000     8.8610    66.9789     0.0786     0.0373     2.5109
  986.0000     8.8503    67.0538     0.0807     0.0356     2.5089
  986.5000     8.8397    67.1564     0.0783     0.0401     2.5124
  987.0000     8.8290    67.2603     0.0731     0.0439     2.5187
  987.5000     8.8183    67.3642     0.0803     0.0355     2.5074
  988.0000     8.8071    67.4678     0.0815     0.0378     2.5052
  988.5000     8.8147    67.5750     0.0741     0.0504     2.5234
  989.0000     8.8250    67.7507     0.0699     0.0536     2.5248
  989.5000     8.8248    67.9317     0.0782     0.0463     2.5131
  990.0000     8.8248    68.1128     0.0787     0.0451     2.5104
  990.5000     8.8265    68.2958     0.0724     0.0572     2.5244
