~VERSION INFORMATION
 VERS.                2.0:   CWLS LOG ASCII STANDARD - VERSION 2.0
 WRAP.                 NO:   ONE LINE PER DEPTH STEP
~WELL INFORMATION
#MNEM.UNIT      DATA TYPE    INFORMATION
#----------   ------------   ------------------------------
 STRT.F            0.0000:   START DEPTH
 STOP.F         4113.0000:   STOP DEPTH
 STEP.F            0.5000:   STEP LENGTH
 NULL.          -999.2500:   NO VALUE
 COMP. LAWRENCE/ALLISON INC:   COMPANY
 WELL.  NPR # #3 76 -MX-3:   WELL
 FLD .             TEAPOT:   FIELD
 LOC .       S3 T38N R78W:   LOCATION
 CNTY.            NATRONA:   COUNTY
 STAT.            WYOMING:   STATE
 CTRY. UNITED STATES OF AMERICA:   COUNTRY
 SRVC.      Dresser Atlas:   SERVICE COMPANY
 DATE.        04-SEP-1983:   LOGDATE
 API .       490251094300:   API NUMBER
~CURVE INFORMATION
#MNEM.UNIT       API CODE    CURVE DESCRIPTION
#----------   ------------   ------------------------------
 DEPT.F                  :   
 GRR .GAPI   07 310 01 00:   GAMMA RAY
 SPR .MV     07 010 01 00:   SPONTANEOUS POTENTIAL
 RILD.OHMM   07 120 46 00:   INDUCTION LOG DEEP RESISTIVITY
 RILM.OHMM   07 120 44 00:   INDUCTION LOG MEDIUM RESISTIVITY
 RFOC.OHMM   07 220 04 00:   RESISTIVITY FOCUSED LOG
 CNCF.DEC    42 890 03 00:   NEUTRON POROSITY SANDSTONE
 PORD.DEC    45 890 12 00:   POROSITY DENSITY SANDSTONE
 CALD.IN     45 280 60 00:   CALIPER FROM DENSITY LOG
 CORR.G/C3   45 356 01 00:   DENSITY CORRECTION
 DEN .G/C3   45 350 01 00:   COMPENSATED BULK DENSTIY
 AC  .US/F   60 520 00 00:   ACCOUSTIC
~PARAMETER INFORMATION
#MNEM.UNIT          VALUE    DESCRIPTION
#----------   ------------   ------------------------------
 PD  .                 GL:   PERMANENT DATUM
 EPD .F              5147:   ELEVATION PERMANENT DATUM
 LMF .                 KB:   LOG MEASURED FROM
 DAPD.F                10:   FEET ABOVE PERMANENT DATUM
 DMF .                 KB:   DRILLING MEASURED FROM
 EKB .F              5157:   KELLING BUSHING
 EGL .F              5147:   GROUND LEVEL
 DATE.        04-SEP-1983:   RUN DATE
 RUN .                  1:   RUN NUMBER
 DD  .F              4119:   DEPTH DRILLER
 DL  .F              4115:   DEPTH LOGGER
 BLI .F              4112:   BOTTOM LOG INTERVAL
 CS  .IN            9.625:   CASING SIZE
 CBD .F               491:   CASING BOTTOM DRILLER
 CBL .F               494:   CASING BOTTOM LOGGER
 BS  .IN             8.75:   BIT SIZE
 BSD .F              4119:   BIT SIZE AT DEPTH
 DFT .            KCL GEL:   DRILLING FLUID TYPE
 DFD .                8.9:   DRILLING FLUID DENSITY
 DFV .                 46:   DRILLING FLUID VISCOSITY
 DFPH.                9.0:   DRILLING FLUID PH
 DFL .               13.6:   DRILLING FLUID LOSS
 MSS .           MUD TANK:   MUD SAMPLE SOURCE
 RMS .OHMM           .315:   RESISTIVITY MUD SAMPLE
 MST .F                92:   MUD SAMPLE TEMPERATURE
 RMF .OHMM            .25:   RESISTIVITY MUD FILTRATE SAMPLE
 MFST.F                84:   MUD FILTRATE SAMPLE TEMPERATURE
 RMC .OHMM             .4:   RESISTIVITY MUD CAKE
 MCST.F                92:   MUD CAKE SAMPLE TEMPERATURE
 MFSS.               MEAS:   MUD FILTRATE SAMPLE SOURCE
 MCSS.               CALC:   MUD CAKE SAMPLE SOURCE
 RMB .OHMM            .22:   RESISTIVITY MUD AT BHT
 BHT .F               132:   BOTTOM HOLE TEMPERATURE
 TCS .HRS               4:   TIME CURCULATED STOPPED
 MRT .F               132:   MAXIMUM RECORDED TEMPERATURE
 LUN .               6274:   LOGGING UNIT NUMBER
 LUL .              GLTE.:   LOGGING UNIT LOCATION
 ENGI.             RAUTIO:   RECORDING ENGINEER
 WITN.             STRONG:   WITNESSED BY
 CLNT.            A2DTECH:   CLIENT CODE
 ORIG.        2" 5" PRINT:   ORIGIN OF DATA
 UWI .       490251094300:   UNIQUE WELL ID
 DICO. A2D Technologies, Inc.:   DIGITIZING COMPANY
~OTHER INFORMATION
~A    DEPT     GRR        SPR       RILD       RILM       RFOC       CNCF       PORD       CALD       CORR        DEN         AC   
# ...
  732.0000   106.7988   -39.5194     5.7886     5.2215     5.7361     0.3031     0.0899     9.3267     0.0127     2.5050  -999.2500
  732.5000   108.3359   -38.9048     5.8268     5.3325     5.7745     0.3057     0.0796     9.3254     0.0126     2.5179  -999.2500
  733.0000   110.1861   -38.4470     5.9077     5.4459     5.8131     0.3009     0.0760     9.3241     0.0276     2.5245  -999.2500
  733.5000   110.4782   -38.2995     5.9898     5.6020     5.8519     0.3003     0.0751     9.3228     0.0366     2.5267  -999.2500
  734.0000   106.3745   -38.4717     6.0731     5.7239     5.9339     0.3048     0.0739     9.3365     0.0366     2.5266  -999.2500
  734.5000    99.7740   -38.4841     6.2019     5.9329     6.0666     0.2999     0.0736     9.3352     0.0365     2.5266  -999.2500
  735.0000    93.1734   -38.3366     6.3795     6.1127     6.2341     0.2900     0.0742     9.3336     0.0364     2.5266  -999.2500
  735.5000    93.4585   -38.1922     6.5622     6.4559     6.4135     0.2834     0.0741     9.3477     0.0364     2.5265  -999.2500
  736.0000    95.9346   -37.8942     6.8002     6.7377     6.6460     0.2729     0.0738     9.3310     0.0423     2.5242  -999.2500
  736.5000    97.4787   -37.9066     7.0480     6.9813     6.8869     0.2611     0.0750     9.3297     0.0483     2.5181  -999.2500
  737.0000    92.1231   -38.2324     7.2585     7.2336     7.1365     0.2632     0.0798     9.3284     0.0437     2.5136  -999.2500
  737.5000    89.9044   -38.7150     7.5163     7.4410     7.3952     0.2692     0.0858     9.3271     0.0271     2.5083  -999.2500
  738.0000    90.1965   -39.0408     7.6669     7.7100     7.6632     0.2701     0.0870     9.3408     0.0255     2.5052  -999.2500
  738.5000    91.7267   -38.7351     7.7721     7.8739     7.8838     0.2650     0.0873     9.3392     0.0450     2.5059  -999.2500
  739.0000    94.2027   -38.5953     7.8247     7.9273     8.0522     0.2533     0.0849     9.3379     0.0480     2.5075  -999.2500
  739.5000    98.2438   -38.9441     7.8763     8.0363     8.0476     0.2435     0.0822     9.3366     0.0374     2.5134  -999.2500
  740.0000   101.3458   -39.2501     7.9857     8.0311     7.9850     0.2427     0.0807     9.3202     0.0283     2.5193  -999.2500
  740.5000   101.9440   -39.2625     8.1539     8.0855     7.9229     0.2536     0.0779     9.3339     0.0222     2.5201  -999.2500
  741.0000   100.3193   -39.2748     8.2685     8.0790     7.9184     0.2557     0.0785     9.3326     0.0267     2.5192  -999.2500
  741.5000    98.3037   -39.2872     8.4427     8.1326     7.9139     0.2520     0.0797     9.3310     0.0330     2.5162  -999.2500
  742.0000    93.4029   -38.9830     8.5600     8.1863     7.9093     0.2536     0.0800     9.3297     0.0446     2.5161  -999.2500
  742.5000    92.4430   -38.8386     8.6789     8.1808     7.9047     0.2592     0.0788     9.3284     0.0491     2.5176  -999.2500
  743.0000    94.2862   -38.6943     8.6733     8.2350     7.9002     0.2640     0.0779     9.3121     0.0475     2.5176  -999.2500
  743.5000    96.1363   -39.0232     8.7320     8.2893     7.9532     0.2676     0.0791     9.3261     0.0354     2.5168  -999.2500
  744.0000    97.0475   -39.5058     8.7250     8.2839     7.9475     0.2580     0.0797     9.3245     0.0203     2.5160  -999.2500
  744.5000    96.3937   -39.6749     8.7194     8.3387     7.9430     0.2439     0.0794     9.3081     0.0112     2.5152  -999.2500
  745.0000    96.0598   -39.5274     8.7138     8.3332     7.9385     0.2487     0.0808     9.3219     0.0066     2.5143  -999.2500
  745.5000    96.3450   -39.3856     8.7082     8.3267     7.9339     0.2604     0.0829     9.3052     0.0051     2.5091  -999.2500
  746.0000    94.1193   -39.3985     8.7657     8.3214     7.9294     0.2775     0.0844     9.3189     0.0095     2.5083  -999.2500
  746.5000    92.2135   -39.4109     8.8235     8.3160     7.9249     0.2790     0.0847     9.3176     0.0215     2.5142  -999.2500
  747.0000    93.1247   -39.4232     8.8817     8.3710     7.9204     0.2685     0.0798     9.3163     0.0290     2.5195  -999.2500
  747.5000    94.9817   -39.4357     8.8758     8.3656     7.9159     0.2601     0.0751     9.3150     0.0349     2.5232  -999.2500
  748.0000    94.9470   -39.6050     8.9345     8.3602     7.9113     0.2477     0.0756     9.3137     0.0379     2.5177  -999.2500
  748.5000    96.1711   -39.6176     8.9935     8.4168     7.9642     0.2447     0.0880     9.3121     0.0273     2.4998  -999.2500
  749.0000   100.2121   -39.7892     9.0528     8.4101     8.0175     0.2435     0.0892     9.3108     0.0152     2.4960  -999.2500
  749.5000   101.4366   -39.8016     9.1125     8.4670     8.0712     0.2411     0.0866     9.3095     0.0136     2.5057  -999.2500
  750.0000    99.5305   -39.6541     9.1727     8.5803     8.1251     0.2353     0.0817     9.3085     0.0133     2.5116  -999.2500
  750.5000    92.9248   -40.1229     9.1005     8.9581     8.3453     0.2326     0.0789     9.3107     0.0117     2.5160  -999.2500
  751.0000    94.4616   -40.3162     9.1625     8.9522     8.5330     0.2350     0.0771     9.3125     0.0103     2.5206  -999.2500
  751.5000    97.5632   -40.3318     9.1559     8.9464     8.8403     0.2419     0.0741     9.3144     0.0358     2.5251  -999.2500
  752.0000   100.0460   -40.1869     9.1506     8.9406     9.5649     0.2518     0.0725     9.3163     0.0447     2.5239  -999.2500
  752.5000    92.8120   -40.0458     9.0795     8.9348     9.9114     0.2518     0.0807     9.3166     0.0325     2.5114  -999.2500
  753.0000    92.7837   -40.0655     9.0743     8.9289     9.4808     0.2476     0.0855     9.3150     0.0234     2.5069  -999.2500
  753.5000    93.3815   -40.2379     9.0038     8.8588     9.0708     0.2401     0.0861     9.3137     0.0308     2.5053  -999.2500
  754.0000    93.3533   -40.4104     8.9339     8.8531     8.8690     0.2389     0.0873     9.3124     0.0382     2.5030  -999.2500
  754.5000    94.2640   -40.7395     8.8645     8.7836     8.6716     0.2461     0.0893     9.3111     0.0350     2.4983  -999.2500
  755.0000    96.1138   -40.7552     8.7957     8.7146     8.5402     0.2560     0.0933     9.3095     0.0244     2.4909  -999.2500
  755.5000    99.8414   -40.4535     8.6646     8.6462     8.4108     0.2578     0.0945     9.3082     0.0137     2.4894  -999.2500
  756.0000    93.8664   -40.1597     8.6596     8.5783     8.2236     0.2578     0.0941     9.3069     0.0046     2.4953  -999.2500
  756.5000    91.3343   -40.1754     8.5924     8.5727     8.1578     0.2443     0.0893     9.3057    -0.0001     2.5005  -999.2500
  757.0000    92.8710   -40.1911     8.4643     8.4442     8.0342     0.2343     0.0881     9.3044     0.0028     2.5083  -999.2500
  757.5000   102.2325   -40.2068     8.3986     8.3779     8.0278     0.2337     0.0857     9.3028     0.0253     2.5208  -999.2500
  758.0000   107.2121   -40.2225     8.3334     8.3121     8.0214     0.2412     0.0746     9.3168     0.0508     2.5305  -999.2500
  758.5000   103.4280   -40.3949     8.3286     8.2469     8.0150     0.2517     0.0700     9.3152     0.0552     2.5320  -999.2500
  759.0000    99.6439   -40.4106     8.2639     8.2415     8.0086     0.2550     0.0715     9.3140     0.0504     2.5251  -999.2500
  759.5000    99.9357   -40.4263     8.2591     8.1768     8.0022     0.2586     0.0745     9.3277     0.0399     2.5220  -999.2500
  760.0000    99.8434   -40.4389     8.1950     8.1715     7.9958     0.2613     0.0751     9.3415     0.0352     2.5198  -999.2500
  760.5000    92.6289   -40.4545     8.1903     8.1073     7.9894     0.2637     0.0760     9.3552     0.0321     2.5175  -999.2500
  761.0000    89.8341   -40.4702     8.1855     8.0437     7.9831     0.2645     0.0783     9.3536     0.0320     2.5137  -999.2500
  761.5000    90.5448   -40.4859     8.1220     8.0384     7.9767     0.2651     0.0820     9.3523     0.0349     2.5159  -999.2500
  762.0000    94.9070   -40.5288     8.0589     7.9753     7.9703     0.2660     0.0822     9.3507     0.0603     2.5190  -999.2500
