~VERSION INFORMATION
 VERS.                2.0:   CWLS LOG ASCII STANDARD - VERSION 2.0
 WRAP.                 NO:   ONE LINE PER DEPTH STEP
~WELL INFORMATION
#MNEM.UNIT      DATA TYPE    INFORMATION
#----------   ------------   ------------------------------
 STRT.F            0.0000:   START DEPTH
 STOP.F          533.0000:   STOP DEPTH
 STEP.F            0.1000:   STEP LENGTH
 NULL.          -999.2500:   NO VALUE
 COMP.   FLUOR DANIEL INC:   COMPANY
 WELL.   84-4 X 10 #81-10:   WELL
 FLD .             TEAPOT:   FIELD
 LOC .      S10 T38N R78W:   LOCATION
 CNTY.            NATRONA:   COUNTY
 STAT.            WYOMING:   STATE
 CTRY. UNITED STATES OF AMERICA:   COUNTRY
 SRVC.     Atlas Wireline:   SERVICE COMPANY
 DATE.        25-SEP-1994:   LOGDATE
 API .       490252264000:   API NUMBER
~CURVE INFORMATION
#MNEM.UNIT       API CODE    CURVE DESCRIPTION
#----------   ------------   ------------------------------
 DEPT.F                  :   
 GRR .GAPI   07 310 01 00:   GAMMA RAY
 RILD.OHMM   07 120 46 00:   INDUCTION LOG DEEP RESISTIVITY
 RILM.OHMM   07 120 44 00:   INDUCTION LOG MEDIUM RESISTIVITY
~PARAMETER INFORMATION
#MNEM.UNIT          VALUE    DESCRIPTION
#----------   ------------   ------------------------------
 PD  .                 GL:   PERMANENT DATUM
 EPD .F              5150:   ELEVATION PERMANENT DATUM
 LMF .                 KB:   LOG MEASURED FROM
 DAPD.F                10:   FEET ABOVE PERMANENT DATUM
 DMF .                 KB:   DRILLING MEASURED FROM
 EKB .F              5160:   KELLING BUSHING
 EDF .F              5159:   DRILLING FLOOR
 EGL .F              5150:   GROUND LEVEL
 DATE.        25-SEP-1994:   RUN DATE
 RUN .                  1:   RUN NUMBER
 DD  .F               545:   DEPTH DRILLER
 DL  .F               541:   DEPTH LOGGER
 BLI .F               533:   BOTTOM LOG INTERVAL
 CS  .IN            9.625:   CASING SIZE
 CBD .F                76:   CASING BOTTOM DRILLER
 CBL .F                76:   CASING BOTTOM LOGGER
 BS  .IN             8.75:   BIT SIZE
 BSD .F               545:   BIT SIZE AT DEPTH
 DFT .                AIR:   DRILLING FLUID TYPE
 MRT .F                85:   MAXIMUM RECORDED TEMPERATURE
 LUN .            HL 6401:   LOGGING UNIT NUMBER
 LUL .         FT. MORGAN:   LOGGING UNIT LOCATION
 ENGI.    DAVE FREDERICKS:   RECORDING ENGINEER
 WITN.        GARY STRONG:   WITNESSED BY
 CLNT.            A2DTECH:   CLIENT CODE
 ORIG.           5' PRINT:   ORIGIN OF DATA
 UWI .       490252264000:   UNIQUE WELL ID
 DICO. A2D Technologies, Inc.:   DIGITIZING COMPANY
~OTHER INFORMATION
~A    DEPT      GRR      RILD       RILM   
# ...
  218.4000   144.5680     7.2483     7.6904
  218.5000   144.8288     7.3212     7.7360
  218.6000   144.9728     7.3643     7.7833
  218.7000   144.9758     7.4102     7.8282
  218.8000   144.9789     7.4513     7.8379
  218.9000   144.9821     7.4952     7.8668
  219.0000   144.7432     7.5393     7.9135
  219.1000   144.4884     7.5837     7.9605
  219.2000   144.0806     7.6178     8.0037
  219.3000   143.5680     7.6203     8.0040
  219.4000   143.0554     7.6705     8.0472
  219.5000   142.5227     7.7104     8.0603
  219.6000   141.6800     7.7558     8.0869
  219.7000   140.9819     7.7772     8.1349
  219.8000   140.2115     7.7933     8.1831
  219.9000   139.4411     7.8310     8.2307
  220.0000   138.5700     7.8309     8.2311
  220.1000   137.6546     7.8852     8.2723
  220.2000   137.1660     7.9235     8.2889
  220.3000   137.1696     7.9398     8.2892
  220.4000   137.3978     7.9617     8.3048
  220.5000   137.4773     7.9947     8.3541
  220.6000   137.6173     8.0002     8.4058
  220.7000   137.7855     8.0501     8.4062
  220.8000   137.7885     8.0500     8.4451
  220.9000   137.7915     8.0862     8.4652
  221.0000   137.7950     8.1057     8.4867
  221.1000   137.7976     8.1253     8.5247
  221.2000   137.8006     8.1618     8.5251
  221.3000   137.6747     8.1645     8.5255
  221.4000   137.5045     8.2183     8.5706
  221.5000   137.5076     8.2182     8.6215
  221.6000   137.5106     8.2523     8.6453
  221.7000   137.5142     8.2750     8.6640
  221.8000   137.7261     8.2922     8.7061
  221.9000   137.8218     8.3323     8.7064
  222.0000   137.9456     8.3322     8.7069
  222.1000   138.2830     8.3900     8.7071
  222.2000   138.8016     8.3899     8.7075
  222.3000   139.3446     8.4218     8.7321
  222.4000   139.8389     8.4479     8.7687
  222.5000   140.3575     8.4625     8.7691
  222.6000   141.0332     8.5064     8.7695
  222.7000   141.8097     8.5063     8.7698
  222.8000   142.5176     8.5062     8.7702
  222.9000   143.0604     8.5060     8.7705
  223.0000   143.8975     8.5059     8.7920
  223.1000   144.6133     8.5058     8.8322
  223.2000   145.1964     8.5057     8.8325
  223.3000   145.4169     8.5056     8.8329
  223.4000   145.5247     8.5054     8.8333
  223.5000   145.7855     8.5053     8.8700
  223.6000   146.0302     8.5052     8.8953
  223.7000   146.0336     8.5051     8.8957
  223.8000   146.0362     8.5050     8.8961
  223.9000   146.0393     8.5049     8.8964
  224.0000   146.0423     8.5048     8.8969
  224.1000   145.8520     8.5046     8.8972
  224.2000   145.3394     8.5045     8.8975
  224.3000   144.8268     8.5044     8.8979
  224.4000   144.2421     8.5043     8.8983
  224.5000   143.8016     8.5042     8.9040
  224.6000   143.2890     8.5040     8.9608
  224.7000   142.7764     8.5039     8.9612
  224.8000   142.2638     8.5038     8.9616
  224.9000   141.7513     8.5037     8.9619
  225.0000   141.2387     8.5331     8.9623
  225.1000   140.6380     8.5625     8.9627
  225.2000   140.2135     8.5624     8.9631
  225.3000   139.7009     8.5653     8.9635
  225.4000   139.3132     8.6217     8.9638
  225.5000   139.0584     8.6216     8.9642
  225.6000   138.8395     8.6215     8.9645
  225.7000   139.1451     8.6213     8.9823
  225.8000   139.3978     8.6212     9.0275
  225.9000   140.0695     8.6211     9.0279
  226.0000   140.8459     8.6210     9.0283
  226.1000   141.7392     8.6208     9.0287
  226.2000   142.7734     8.6207     9.0290
  226.3000   143.8358     8.6536     9.0294
  226.4000   145.2086     8.6804     9.0298
  226.5000   145.9366     8.6803     9.0302
  226.6000   146.7130     8.6802     9.0306
  226.7000   147.3364     8.6800     9.0309
  226.8000   147.7462     8.6799     9.0313
  226.9000   147.9426     8.6798     9.0317
  227.0000   147.9255     8.7098     9.0320
  227.1000   147.6468     8.7399     9.0324
  227.2000   147.4159     8.7398     9.0328
  227.3000   146.9718     8.7396     9.0332
  227.4000   146.6042     8.7395     9.0335
  227.5000   146.3494     8.7394     9.0339
  227.6000   146.0947     8.7393     9.0343
  227.7000   145.8518     8.7391     9.0347
  227.8000   145.8554     8.7390     9.0350
  227.9000   145.6324     8.7389     9.0354
  228.0000   145.5589     8.7388     9.0358
  228.1000   145.5619     8.7386     9.0362
  228.2000   145.4723     8.7385     9.0365
  228.3000   145.2175     8.7384     9.0369
  228.4000   144.9627     8.7383     9.0373
  228.5000   144.6681     8.7382     9.0377
  228.6000   144.2356     8.7381     9.0381
  228.7000   143.5499     8.7379     9.0384
  228.8000   142.9084     8.7378     9.0388
  228.9000   142.3112     8.7377     9.0392
  229.0000   141.5408     8.7376     9.0395
  229.1000   140.7583     8.7375     9.0399
  229.2000   140.4598     8.7373     9.0403
  229.3000   140.2528     8.7372     9.0407
  229.4000   140.3283     8.7371     9.0410
  229.5000   140.5891     8.7370     9.0414
  229.6000   140.9265     8.7368     9.0418
  229.7000   141.4129     8.7367     9.0422
  229.8000   141.6859     8.7366     9.0425
  229.9000   141.9345     8.7365     9.0429
  230.0000   142.1954     8.7364     8.9934
  230.1000   142.2991     8.7362     8.9813
  230.2000   142.3021     8.7361     8.9508
  230.3000   142.2367     8.7360     8.9201
  230.4000   141.9819     8.7359     8.9083
  230.5000   141.7072     8.7358     8.8593
  230.6000   140.9970     8.7356     8.8597
  230.7000   139.8399     8.7355     8.8145
  230.8000   138.5539     8.7354     8.7993
  230.9000   137.3726     8.7353     8.7997
  231.0000   136.3444     8.7352     8.8001
  231.1000   135.3162     8.7350     8.8004
  231.2000   134.1756     8.7349     8.8008
  231.3000   133.4894     8.7318     8.7405
  231.4000   132.7190     8.6744     8.7408
  231.5000   132.0896     8.6743     8.7412
  231.6000   131.8671     8.6382     8.7416
  231.7000   132.1279     8.6142     8.7419
  231.8000   132.3968     8.6141     8.7423
  231.9000   132.9883     8.6050     8.7427
  232.0000   133.4340     8.5544     8.6956
  232.1000   133.9527     8.5542     8.6831
  232.2000   134.7372     8.5128     8.6834
  232.3000   135.7714     8.4950     8.6838
  232.4000   136.8056     8.4714     8.6842
  232.5000   137.8399     8.4361     8.6825
  232.6000   139.0519     8.4302     8.6250
  232.7000   140.1219     8.3777     8.6254
  232.8000   141.4139     8.3313     8.6257
  232.9000   142.7059     8.2823     8.6004
  233.0000   143.9174     8.2621     8.5669
  233.1000   144.9154     8.2420     8.5673
  233.2000   145.7161     8.2048     8.5677
  233.3000   146.7180     8.2019     8.5680
  233.4000   147.7523     8.1480     8.5684
  233.5000   148.3031     8.1057     8.5376
  233.6000   148.5639     8.0915     8.5100
  233.7000   148.7523     8.0663     8.5103
  233.8000   148.7271     8.0355     8.5063
  233.9000   148.4564     8.0271     8.4524
  234.0000   148.2175     7.9798     8.4076
  234.1000   147.9627     7.9797     8.3587
  234.2000   147.5549     7.9410     8.3101
  234.3000   147.0423     7.8943     8.2254
  234.4000   146.5941     7.8479     8.1007
  234.5000   146.3192     7.8017     8.0514
  234.6000   145.7586     7.7558     7.8896
  234.7000   145.0604     7.7075     7.8119
  234.8000   144.2900     7.6226     7.6909
  234.9000   143.3746     7.5672     7.5784
  235.0000   142.3464     7.5227     7.4765
  235.1000   141.3746     7.4784     7.3460
  235.2000   140.6404     7.4344     7.2126
  235.3000   141.5502     7.3906     7.0922
  235.4000   142.0040     7.3420     7.0005
  235.5000   142.7039     7.2662     6.8947
  235.6000   143.6173     7.1811     6.7913
  235.7000   144.6516     7.0970     6.7121
  235.8000   145.6375     7.0138     6.6311
  235.9000   146.4099     6.9316     6.5034
  236.0000   147.0095     6.8503     6.4357
  236.1000   147.2296     6.7093     6.3608
  236.2000   147.6637     6.5809     6.2670
  236.3000   147.9245     6.4520     6.1706
  236.4000   147.7583     6.3217     6.0987
  236.5000   147.2457     6.1744     6.0277
