~VERSION INFORMATION
 VERS.                2.0:   CWLS LOG ASCII STANDARD - VERSION 2.0
 WRAP.                 NO:   ONE LINE PER DEPTH STEP
~WELL INFORMATION
#MNEM.UNIT      DATA TYPE    INFORMATION
#----------   ------------   ------------------------------
 STRT.F            7.0000:   START DEPTH
 STOP.F          549.0000:   STOP DEPTH
 STEP.F            0.5000:   STEP LENGTH
 NULL.          -999.2500:   NO VALUE
 COMP. LAWRENCE-ALLISON &AS:   COMPANY
 WELL. NPR 3 #51-62-SX-10-LP3:   WELL
 FLD .             TEAPOT:   FIELD
 LOC .      S10 T38N R78W:   LOCATION
 CNTY.            NATRONA:   COUNTY
 STAT.            WYOMING:   STATE
 CTRY. UNITED STATES OF AMERICA:   COUNTRY
 SRVC.      Dresser Atlas:   SERVICE COMPANY
 DATE.        10-DEC-1984:   LOGDATE
 API .       490251099500:   API NUMBER
~CURVE INFORMATION
#MNEM.UNIT       API CODE    CURVE DESCRIPTION
#----------   ------------   ------------------------------
 DEPT.F                  :   
 SPR .MV     07 010 01 00:   SPONTANEOUS POTENTIAL
 RILD.OHMM   07 120 46 00:   INDUCTION LOG DEEP RESISTIVITY
 RILM.OHMM   07 120 44 00:   INDUCTION LOG MEDIUM RESISTIVITY
 RFOC.OHMM   07 220 04 00:   RESISTIVITY FOCUSED LOG
 DT  .US/F   60 520 00 00:   INTERVAL TRANSIT TIME
 PORD.DEC    45 890 12 00:   POROSITY DENSITY SANDSTONE
 CNCF.DEC    42 890 03 00:   NEUTRON POROSITY SANDSTONE
 CALD.IN     45 280 60 00:   CALIPER FROM DENSITY LOG
 GRD .GAPI   45 310 01 00:   GAMMA RAY FROM DENSITY LOG
 CORR.G/C3   45 356 01 00:   DENSITY CORRECTION
 DEN .G/C3   45 350 01 00:   COMPENSATED BULK DENSTIY
~PARAMETER INFORMATION
#MNEM.UNIT          VALUE    DESCRIPTION
#----------   ------------   ------------------------------
 PD  .                 GL:   PERMANENT DATUM
 EPD .F              5179:   ELEVATION PERMANENT DATUM
 LMF .                 GL:   LOG MEASURED FROM
 DMF .                 GL:   DRILLING MEASURED FROM
 EGL .F              5179:   GROUND LEVEL
 DATE.        10-DEC-1984:   RUN DATE
 RUN .                  1:   RUN NUMBER
 DD  .F               554:   DEPTH DRILLER
 DL  .F               551:   DEPTH LOGGER
 BLI .F               549:   BOTTOM LOG INTERVAL
 TLI .F                20:   TOP LOG INTERVAL
 CS  .IN            8.625:   CASING SIZE
 CBD .F                20:   CASING BOTTOM DRILLER
 CBL .F                20:   CASING BOTTOM LOGGER
 BS  .IN            7.875:   BIT SIZE
 BSD .F               554:   BIT SIZE AT DEPTH
 DFT .         KCL- WATER:   DRILLING FLUID TYPE
 MSS .           MUD TANK:   MUD SAMPLE SOURCE
 RMS .OHMM           .168:   RESISTIVITY MUD SAMPLE
 MST .F                77:   MUD SAMPLE TEMPERATURE
 RMF .OHMM           .126:   RESISTIVITY MUD FILTRATE SAMPLE
 MFST.F                77:   MUD FILTRATE SAMPLE TEMPERATURE
 RMC .OHMM            .21:   RESISTIVITY MUD CAKE
 MCST.F                77:   MUD CAKE SAMPLE TEMPERATURE
 MFSS.               CALC:   MUD FILTRATE SAMPLE SOURCE
 MCSS.               CALC:   MUD CAKE SAMPLE SOURCE
 RMB .OHMM            .15:   RESISTIVITY MUD AT BHT
 BHT .F                85:   BOTTOM HOLE TEMPERATURE
 TCS .HRS             3.5:   TIME CURCULATED STOPPED
 MRT .F               100:   MAXIMUM RECORDED TEMPERATURE
 LUN .               6270:   LOGGING UNIT NUMBER
 LUL .                 FM:   LOGGING UNIT LOCATION
 ENGI.          E. GOVETT:   RECORDING ENGINEER
 WITN.             GROOMS:   WITNESSED BY
 CLNT.            A2DTECH:   CLIENT CODE
 ORIG.           5" PRINT:   ORIGIN OF DATA
 UWI .       490251099500:   UNIQUE WELL ID
 DICO. A2D Technologies, Inc.:   DIGITIZING COMPANY
~OTHER INFORMATION
~A    DEPT     SPR       RILD       RILM       RFOC         DT       PORD         CNCF     CALD        GRD       CORR        DEN   
# ...
  525.5000   -57.3401     9.4003     7.4315    10.1861    98.2075     0.1229     0.2869     7.5446   102.5473     0.0139     2.4713
  526.0000   -57.4841     9.4035     7.4335    10.1911    97.9764     0.1253     0.2881     7.5428   102.7128     0.0169     2.4698
  526.5000   -57.4785     9.4068     7.5393    10.1256    97.6701     0.1253     0.2863     7.5411   105.2344     0.0228     2.4697
  527.0000   -57.6224     9.3442     7.5938    10.2010    97.2886     0.1244     0.2866     7.5393   104.6241     0.0123     2.4705
  527.5000   -57.7663     9.2196     7.6487    10.2059    96.9071     0.1235     0.2875     7.5376   102.6603     0.0107     2.4719
  528.0000   -57.6135     9.0959     7.7575    10.1404    96.6760     0.1205     0.2839     7.5204   102.6515     0.0091     2.4838
  528.5000   -57.1639     9.0354     7.8136     9.9368    96.7456     0.1130     0.2782     7.5186   105.0487     0.0152     2.4936
  529.0000   -57.0111     9.0393     7.8700     9.8048    96.8918     0.1096     0.2794     7.4718   107.4458     0.0416     2.4996
  529.5000   -56.8583     8.9180     7.9820     9.6746    97.1105     0.1120     0.2800     7.4701   109.8430     0.0572     2.4814
  530.0000   -56.7055     8.7368     8.0956     9.8144    97.1815     0.1280     0.2767     7.4683   108.0296     0.0436     2.4573
  530.5000   -56.7010     8.6202     8.2108    10.0253    96.7986     0.1401     0.2719     7.4666   106.3666     0.0210     2.4444
  531.0000   -56.8461     8.6232     8.3276    10.1701    96.2667     0.1449     0.2692     7.4648   105.6059     0.0194     2.4353
  531.5000   -56.8405     8.6262     8.5048    10.2457    95.9604     0.1458     0.2758     7.4631   104.9895     0.0164     2.4330
  532.0000   -57.1328     8.6892     8.5662    10.2507    95.8045     0.1449     0.2961     7.4612   104.1804     0.0103     2.4375
  532.5000   -57.2778     8.8136     8.6881    10.1849    95.8741     0.1386     0.2973     7.4591   102.7200     0.0133     2.4480
  533.0000   -57.2723     8.8779     8.7509    10.1183    95.9438     0.1377     0.2876     7.4574   101.6586     0.0207     2.4479
  533.5000   -57.4173     9.0050     8.9371    10.1245    96.0134     0.1373     0.2731     7.4556   101.9527     0.0313     2.4479
  534.0000   -57.5601     9.1338     9.0017    10.2707    95.9313     0.1333     0.2729     7.4539   106.1521     0.0403     2.4488
  534.5000   -57.5556     9.3290     9.0667    10.4190    96.0009     0.1288     0.2828     7.4521   109.4516     0.0402     2.4619
  535.0000   -57.7007     9.5408     9.0693    10.4965    96.2961     0.1231     0.2828     7.4504   108.6908     0.0402     2.4741
  535.5000   -57.9918     9.7988     9.1348    10.4279    96.4423     0.1157     0.2841     7.4486   106.4264     0.0431     2.4831
  536.0000   -57.8390     9.9519     9.0743    10.4342    95.9091     0.1139     0.2877     7.4619   107.1694     0.0476     2.4883
  536.5000   -57.6862    10.1514     9.0141    10.6584    95.5276     0.1133     0.2868     7.4752   111.3711     0.0521     2.4882
  537.0000   -57.6818    10.2255     9.0166    10.7377    95.0709     0.1133     0.2804     7.4730   114.9713     0.0458     2.4889
  537.5000   -57.6773    10.2290     8.9569    10.8176    94.6894     0.1148     0.2675     7.4712  -999.2500     0.0430     2.4881
  538.0000   -57.8223    10.2325     8.9594    10.7469    94.5335     0.1190     0.2494     7.4695  -999.2500     0.0399     2.4805
  538.5000   -57.9662    10.2361     8.9000    10.6042    94.9791     0.1193     0.2430     7.4832  -999.2500     0.0218     2.4805
  539.0000   -58.1091    10.2396     8.9025    10.5361    95.2743     0.1193     0.2433     7.4964  -999.2500     0.0262     2.4804
  539.5000   -58.4013    10.2432     8.8435    10.4685    95.3440     0.1202     0.2542     7.4942  -999.2500     0.0352     2.4781
  540.0000   -58.6936    10.2467     8.8459    10.4026    95.1128     0.1229     0.2772     7.5225  -999.2500     0.0488     2.4720
  540.5000   -58.9870    10.1794     8.7873    10.4076    95.0319     0.1229     0.2835     7.5508  -999.2500     0.0397     2.4743
  541.0000   -59.1309    10.1830     8.7898    10.4127    95.0263     0.1181     0.2829     7.5791  -999.2500     0.0336     2.4826
  541.5000   -59.1254    10.1866     8.7922    10.4178    94.9444     0.1127     0.2770     7.5619  -999.2500     0.0200     2.4887
  542.0000   -59.1209    10.1901     8.7946    10.4953    94.9388     0.1096     0.2857     7.5301  -999.2500     0.0139     2.5005
  542.5000   -58.9681    10.1936     8.7971    10.7208  -999.2500     0.1093     0.3008     7.5133  -999.2500     0.0124     2.4944
  543.0000   -58.9636    10.1267     8.7995    10.8756  -999.2500     0.1108     0.3050     7.4816  -999.2500     0.0409     2.4890
  543.5000   -58.9592    10.0602     8.8631    10.9552  -999.2500     0.1136     0.3059     7.4648  -999.2500     0.0620     2.4860
  544.0000   -59.1042     9.9942     8.9272    10.8849  -999.2500     0.1161     0.3062     7.4330  -999.2500     0.0469     2.4829
  544.5000   -59.0987     9.9978     8.9917    10.9672  -999.2500     0.1201     0.3071     7.4154  -999.2500     0.0393     2.4776
  545.0000   -59.0942    10.0012     9.0567    10.9725  -999.2500     0.1280     0.3084     7.3668  -999.2500     0.0300     2.4617
  545.5000   -59.0898    10.0047     9.0592    11.0541  -999.2500     0.1340     0.3087     7.3372  -999.2500     0.0190     2.4526
  546.0000   -58.9369    10.0777     9.0617    11.2138  -999.2500     0.1383     0.3084     7.3205  -999.2500     0.0057     2.4488
  546.5000   -58.9325    10.0812     9.0642    10.9885  -999.2500     0.1377     0.3075     7.3187  -999.2500     0.0029     2.4495
  547.0000   -58.9280    10.0847     9.0667    10.7665  -999.2500     0.1355     0.3075     7.3324  -999.2500     0.0089     2.4525
  547.5000   -58.9236    10.1583     9.0693    10.8479  -999.2500     0.1322     0.3075     7.3302  -999.2500     0.0209     2.4599
  548.0000   -58.9191    10.1619     9.0718    10.9286  -999.2500     0.1277     0.3075     7.3135  -999.2500     0.0480     2.4674
  548.5000   -58.9147    10.1654     9.0743    11.0099  -999.2500     0.1271     0.3114     7.2817  -999.2500     0.0796     2.4672
  549.0000   -59.0597    10.0289     7.9577    10.8638  -999.2500     0.1313     0.3172     6.9792  -999.2500     0.0932     2.4583
