~VERSION INFORMATION
 VERS.                2.0:   CWLS LOG ASCII STANDARD - VERSION 2.0
 WRAP.                 NO:   ONE LINE PER DEPTH STEP
~WELL INFORMATION
#MNEM.UNIT      DATA TYPE    INFORMATION
#----------   ------------   ------------------------------
 STRT.F            0.0000:   START DEPTH
 STOP.F          790.0000:   STOP DEPTH
 STEP.F            0.1000:   STEP LENGTH
 NULL.          -999.2500:   NO VALUE
 COMP.   FLUOR DANIEL INC:   COMPANY
 WELL.   72-2 X-34 #72-34:   WELL
 FLD .          N.P.R. #3:   FIELD
 LOC .      S34 T39N R78W:   LOCATION
 CNTY.            NATRONA:   COUNTY
 STAT.            WYOMING:   STATE
 CTRY. UNITED STATES OF AMERICA:   COUNTRY
 SRVC.      Western Atlas:   SERVICE COMPANY
 DATE.        25-MAR-1995:   LOGDATE
 API .       490252269300:   API NUMBER
~CURVE INFORMATION
#MNEM.UNIT       API CODE    CURVE DESCRIPTION
#----------   ------------   ------------------------------
 DEPT.F                  :   
 GRR .GAPI   07 310 01 00:   GAMMA RAY
 RILD.OHMM   07 120 46 00:   INDUCTION LOG DEEP RESISTIVITY
 RILM.OHMM   07 120 44 00:   INDUCTION LOG MEDIUM RESISTIVITY
~PARAMETER INFORMATION
#MNEM.UNIT          VALUE    DESCRIPTION
#----------   ------------   ------------------------------
 PD  .                 GL:   PERMANENT DATUM
 EPD .F              5058:   ELEVATION PERMANENT DATUM
 LMF .                 KB:   LOG MEASURED FROM
 DAPD.F                10:   FEET ABOVE PERMANENT DATUM
 DMF .                 KB:   DRILLING MEASURED FROM
 EKB .F              5068:   KELLING BUSHING
 EDF .F              5067:   DRILLING FLOOR
 EGL .F              5058:   GROUND LEVEL
 DATE.        25-MAR-1995:   RUN DATE
 RUN .                  1:   RUN NUMBER
 DD  .F               796:   DEPTH DRILLER
 DL  .F               798:   DEPTH LOGGER
 BLI .F               790:   BOTTOM LOG INTERVAL
 TLI .F                96:   TOP LOG INTERVAL
 CS  .IN            9.625:   CASING SIZE
 CBD .F                95:   CASING BOTTOM DRILLER
 CBL .F                96:   CASING BOTTOM LOGGER
 BS  .IN             8.75:   BIT SIZE
 BSD .F               796:   BIT SIZE AT DEPTH
 DFT .                AIR:   DRILLING FLUID TYPE
 MRT .F                97:   MAXIMUM RECORDED TEMPERATURE
 LUN .            HL 6530:   LOGGING UNIT NUMBER
 LUL .             CASPER:   LOGGING UNIT LOCATION
 ENGI.             RAUTIO:   RECORDING ENGINEER
 WITN.             STRONG:   WITNESSED BY
 CLNT.            A2DTECH:   CLIENT CODE
 ORIG.       2", 5" PRINT:   ORIGIN OF DATA
 UWI .       490252269300:   UNIQUE WELL ID
 DICO. A2D Technologies, Inc.:   DIGITIZING COMPANY
~OTHER INFORMATION
~A    DEPT      GRR      RILD       RILM   
# ...
  491.4000   121.8850     4.5739     4.3191
  491.5000   121.8227     4.5473     4.2687
  491.6000   121.5187     4.5199     4.2219
  491.7000   121.0979     4.4926     4.1956
  491.8000   120.8356     4.4766     4.1956
  491.9000   120.5526     4.4766     4.1771
  492.0000   119.6518     4.4753     4.1804
  492.1000   119.2005     4.4447     4.2049
  492.2000   118.3173     4.4447     4.2395
  492.3000   117.5266     4.4447     4.3142
  492.4000   117.1683     4.4447     4.3738
  492.5000   117.1331     4.4447     4.4166
  492.6000   116.8598     4.4447     4.4686
  492.7000   117.1133     4.4447     4.5090
  492.8000   117.1733     4.4447     4.5428
  492.9000   117.4892     4.4654     4.5963
  493.0000   117.9077     4.4766     4.6555
  493.1000   118.2351     4.4766     4.7052
  493.2000   118.7785     4.4766     4.7606
  493.3000   119.6680     4.4776     4.8167
  493.4000   120.1311     4.5088     4.8735
  493.5000   120.6593     4.5321     4.9260
  493.6000   121.3237     4.5412     4.9554
  493.7000   122.0272     4.5546     5.0128
  493.8000   122.5557     4.5739     5.0719
  493.9000   123.0968     4.5772     5.1132
  494.0000   123.3553     4.6067     5.1561
  494.1000   124.0393     4.6330     5.2168
  494.2000   124.5068     4.6611     5.2782
  494.3000   124.7716     4.6894     5.3484
  494.4000   125.1036     4.7179     5.4034
  494.5000   125.5925     4.7465     5.4892
  494.6000   125.5939     4.7753     5.5865
  494.7000   125.5950     4.8090     5.6748
  494.8000   125.5962     4.8582     5.7417
  494.9000   125.5975     4.9174     5.8128
  495.0000   125.5987     4.9918     5.8778
  495.1000   125.6000     5.0923     5.9470
  495.2000   125.6012     5.2204     6.0171
  495.3000   125.6027     5.3929     6.1022
  495.4000   125.6037     5.5466     6.1949
  495.5000   125.4380     5.6913     6.2329
  495.6000   125.1757     5.7912     6.3615
  495.7000   124.9134     5.8617     6.4244
  495.8000   124.6511     5.9330     6.4751
  495.9000   124.3659     6.0048     6.5311
  496.0000   123.8857     6.0477     6.6080
  496.1000   123.5532     6.1086     6.6819
  496.2000   123.2909     6.1589     6.7244
  496.3000   122.9304     6.2137     6.7243
  496.4000   122.5055     6.2787     6.7531
  496.5000   122.5070     6.3205     6.7927
  496.6000   122.5085     6.4043     6.8181
  496.7000   122.5095     6.4755     6.8180
  496.8000   122.5107     6.5255     6.8179
  496.9000   122.3878     6.5651     6.8653
  497.0000   122.2022     6.5904     6.8652
  497.1000   122.2034     6.5976     6.8651
  497.2000   122.2048     6.6378     6.8651
  497.3000   121.9608     6.6855     6.8650
  497.4000   121.8961     6.7186     6.8649
  497.5000   121.7471     6.7594     6.8648
  497.6000   121.4848     6.7820     6.8647
  497.7000   121.2224     6.7929     6.8645
  497.8000   120.9600     6.8307     6.8645
  497.9000   120.6584     6.8307     6.8776
  498.0000   119.9872     6.8680     6.9121
  498.1000   119.5510     6.8798     6.9120
  498.2000   119.1599     6.9021     6.9119
  498.3000   118.7969     6.9440     6.9118
  498.4000   118.8322     6.9791     6.9357
  498.5000   119.1105     6.9791     6.9764
  498.6000   119.3618     6.9791     7.0083
  498.7000   119.4240     6.9791     7.0108
  498.8000   119.7355     6.9791     7.1061
  498.9000   120.2636     6.9791     7.1060
  499.0000   120.7920     6.9791     7.1059
  499.1000   121.3204     6.9791     7.1257
  499.2000   121.9187     6.9791     7.1552
  499.3000   122.3773     6.9791     7.1551
  499.4000   123.0872     6.9791     7.1550
  499.5000   123.7451     7.0011     7.1549
  499.6000   124.3594     7.0292     7.1548
  499.7000   125.1223     7.0292     7.1548
  499.8000   125.7166     7.0292     7.1546
  499.9000   126.3108     7.0292     7.1545
  500.0000   126.9051     7.0580     7.1544
  500.1000   126.9081     7.0945     7.1612
  500.2000   126.9101     7.1307     7.1679
  500.3000   126.9126     7.1307     7.1747
  500.4000   126.9151     7.1307     7.1815
  500.5000   126.9176     7.1307     7.1882
  500.6000   126.9200     7.1307     7.1950
  500.7000   126.9230     7.1307     7.2017
  500.8000   126.7159     7.1307     7.2226
  500.9000   126.4591     7.1307     7.2563
  501.0000   126.3079     7.1662     7.2565
  501.1000   126.2564     7.1819     7.3073
  501.2000   125.9995     7.1819     7.3075
  501.3000   125.6938     7.1819     7.3332
  501.4000   125.0647     7.1819     7.3760
  501.5000   124.1301     7.1819     7.4103
  501.6000   123.0948     7.1819     7.4106
  501.7000   122.0599     7.1819     7.4538
  501.8000   121.0329     7.2016     7.4973
  501.9000   120.4210     7.2335     7.5149
  502.0000   119.7886     7.2335     7.5325
  502.1000   119.0129     7.2335     7.5676
  502.2000   118.5617     7.2335     7.5679
  502.3000   118.6208     7.2335     7.6121
  502.4000   118.8876     7.2541     7.6210
  502.5000   119.5028     7.2855     7.6213
  502.6000   119.9303     7.2855     7.6215
  502.7000   120.6127     7.2855     7.6217
  502.8000   121.3934     7.3243     7.6219
  502.9000   122.1743     7.3379     7.6221
  503.0000   122.9550     7.3379     7.6223
  503.1000   123.8723     7.3379     7.6225
  503.2000   124.3024     7.3379     7.6227
  503.3000   124.8237     7.3379     7.6229
  503.4000   125.3450     7.3778     7.6231
  503.5000   125.8663     7.3906     7.6234
  503.6000   126.3802     7.3906     7.6590
  503.7000   126.6866     7.3906     7.6769
  503.8000   126.9039     7.3906     7.6771
  503.9000   127.0022     7.3906     7.6863
  504.0000   127.0047     7.3906     7.7311
  504.1000   127.0072     7.3906     7.7313
  504.2000   127.0008     7.4143     7.7315
  504.3000   126.7015     7.4438     7.7317
  504.4000   126.4869     7.4438     7.7499
  504.5000   126.3950     7.4438     7.7860
  504.6000   126.2842     7.4438     7.7863
  504.7000   126.0890     7.4438     7.8317
  504.8000   126.1013     7.4438     7.8409
  504.9000   126.4054     7.4438     7.8412
  505.0000   126.1898     7.4438     7.8414
  505.1000   126.0989     7.4438     7.8416
  505.2000   126.1014     7.4438     7.8418
  505.3000   126.1039     7.4438     7.8421
  505.4000   126.0952     7.4438     7.8423
  505.5000   125.7982     7.4438     7.8154
  505.6000   125.3624     7.4438     7.7884
  505.7000   124.8461     7.4438     7.7887
  505.8000   124.2140     7.4438     7.7889
  505.9000   123.4383     7.4438     7.7891
  506.0000   122.6625     7.4438     7.7893
  506.1000   121.7696     7.4438     7.7895
  506.2000   121.3312     7.4438     7.7897
  506.3000   120.9834     7.4438     7.7899
  506.4000   120.9605     7.4438     7.7902
  506.5000   121.3532     7.4438     7.7904
  506.6000   122.1478     7.4438     7.7906
  506.7000   123.3397     7.4438     7.7908
  506.8000   124.2280     7.4438     7.7910
  506.9000   125.2681     7.4438     7.7912
  507.0000   126.3083     7.4438     7.7914
  507.1000   127.3484     7.4438     7.7378
  507.2000   128.3735     7.4438     7.7379
  507.3000   129.2644     7.4438     7.7382
  507.4000   129.7118     7.4438     7.7384
  507.5000   129.8911     7.4420     7.7386
  507.6000   129.7743     7.3906     7.7388
  507.7000   129.2464     7.3906     7.7390
  507.8000   127.9196     7.3906     7.7036
  507.9000   125.8579     7.3906     7.6859
  508.0000   124.7407     7.3906     7.6861
  508.1000   123.6183     7.3906     7.6775
  508.2000   122.8244     7.3906     7.6333
  508.3000   122.3771     7.3906     7.6336
  508.4000   122.1028     7.3906     7.5985
  508.5000   121.5182     7.3906     7.5811
  508.6000   121.5204     7.3906     7.5638
  508.7000   121.5229     7.3872     7.5290
  508.8000   121.7692     7.3379     7.5293
  508.9000   122.2905     7.3379     7.5295
  509.0000   122.8305     7.3379     7.4949
  509.1000   123.7104     7.3379     7.4519
  509.2000   124.3920     7.3379     7.4091
  509.3000   124.9979     7.3337     7.3665
  509.4000   125.5192     7.2855     7.3242
  509.5000   126.0405     7.2463     7.3244
