~VERSION INFORMATION
 VERS.                2.0:   CWLS LOG ASCII STANDARD - VERSION 2.0
 WRAP.                 NO:   ONE LINE PER DEPTH STEP
~WELL INFORMATION
#MNEM.UNIT      DATA TYPE    INFORMATION
#----------   ------------   ------------------------------
 STRT.F           48.0000:   START DEPTH
 STOP.F          650.0000:   STOP DEPTH
 STEP.F            0.5000:   STEP LENGTH
 NULL.          -999.2500:   NO VALUE
 COMP. FENIX & SCISSON INC:   COMPANY
 WELL.    36 SX 34 #36-34:   WELL
 FLD .             TEAPOT:   FIELD
 LOC .      S34 T39N R78W:   LOCATION
 CNTY.            NATRONA:   COUNTY
 STAT.            WYOMING:   STATE
 CTRY. UNITED STATES OF AMERICA:   COUNTRY
 SRVC.            Unknown:   SERVICE COMPANY
 DATE.        19-JAN-1979:   LOGDATE
 API .       490251076800:   API NUMBER
~CURVE INFORMATION
#MNEM.UNIT       API CODE    CURVE DESCRIPTION
#----------   ------------   ------------------------------
 DEPT.F                  :   
 SPR .MV     05 010 01 00:   SPONTANEOUS POTENTIAL FROM RES.
 SN  .OHMM   05 040 16 00:   SHORT NORMAL 16"
 IL  .OHMM   05 120 00 00:   INDUCTION LOG
 CALD.IN     45 280 60 00:   CALIPER
 GRD .GAPI   45 310 01 00:   GAMMA RAY FROM DENSITY LOG
 RHOB.G/C3   45 350 01 00:   BULK DENSITY
 DPHI.DEC    45 890 12 00:   DENSITY POROSITY SANDSTONE
 CORR.G/C3   45 356 01 00:   DENSITY CORRECTION
~PARAMETER INFORMATION
#MNEM.UNIT          VALUE    DESCRIPTION
#----------   ------------   ------------------------------
 PD  .                 GL:   PERMANENT DATUM
 EPD .F              5125:   ELEVATION PERMANENT DATUM
 LMF .                 KB:   LOG MEASURED FROM
 DAPD.F                 4:   FEET ABOVE PERMANENT DATUM
 DMF .                 KB:   DRILLING MEASURED FROM
 EKB .F              5129:   KELLING BUSHING
 EGL .F              5125:   GROUND LEVEL
 DATE.            1-19-79:   RUN DATE
 RUN .                  1:   RUN NUMBER
 DD  .F               650:   DEPTH DRILLER
 DL  .F               650:   DEPTH LOGGER
 BLI .F               643:   BOTTOM LOG INTERVAL
 TLI .F                50:   TOP LOG INTERVAL
 CS  .IN            8.625:   CASING SIZE
 CBD .F                40:   CASING BOTTOM DRILLER
 CBL .F                36:   CASING BOTTOM LOGGER
 BS  .IN            7.875:   BIT SIZE
 BSD .F               650:   BIT SIZE AT DEPTH
 DFT .                KCL:   DRILLING FLUID TYPE
 DFD .                8.8:   DRILLING FLUID DENSITY
 DFV .                 34:   DRILLING FLUID VISCOSITY
 DFL .                8.8:   DRILLING FLUID LOSS
 MSS .           FLOWLINE:   MUD SAMPLE SOURCE
 RMS .OHMM            .17:   RESISTIVITY MUD SAMPLE
 MST .F                62:   MUD SAMPLE TEMPERATURE
 RMF .OHMM            .15:   RESISTIVITY MUD FILTRATE SAMPLE
 MFST.F                62:   MUD FILTRATE SAMPLE TEMPERATURE
 RMC .OHMM            .22:   RESISTIVITY MUD CAKE
 MCST.F                63:   MUD CAKE SAMPLE TEMPERATURE
 MFSS.           MEASURED:   MUD FILTRATE SAMPLE SOURCE
 MCSS.           MEASURED:   MUD CAKE SAMPLE SOURCE
 RMB .OHMM            .18:   RESISTIVITY MUD AT BHT
 BHT .F                60:   BOTTOM HOLE TEMPERATURE
 TCS .HRS               3:   TIME CURCULATED STOPPED
 MRT .F                60:   MAXIMUM RECORDED TEMPERATURE
 LUN .                 30:   LOGGING UNIT NUMBER
 LUL .             CASPER:   LOGGING UNIT LOCATION
 ENGI.         B. ROLLINS:   RECORDING ENGINEER
 WITN.           DINSMORE:   WITNESSED BY
 CLNT.            A2DTECH:   CLIENT CODE
 ORIG.           5" PRINT:   ORIGIN OF DATA
 UWI .       490251076800:   UNIQUE WELL ID
 DICO. A2D Technologies, Inc.:   DIGITIZING COMPANY
~OTHER INFORMATION
~A   DEPT      SPR           SN        IL      CALD        GRD       RHOB       DPHI       CORR   
# ...
  291.0000   -52.0270     8.1560    10.0540     8.2130   101.5050     2.4620     0.1210     0.0210
  291.5000   -52.0970     8.1190     9.9330     8.2120   106.0520     2.4580     0.1230     0.0200
  292.0000   -52.1550     8.0830     9.8110     8.2110   108.9710     2.4570     0.1240     0.0250
  292.5000   -52.7910     8.0470     9.6890     8.2100   105.9190     2.4760     0.1180     0.0300
  293.0000   -53.7530     8.0110     9.5680     8.2090   102.3700     2.4780     0.1120     0.0350
  293.5000   -54.1050     7.9740     9.5100     8.2080   103.7690     2.4770     0.1120     0.0350
  294.0000   -54.1580     7.9380     9.4730     8.2070    99.5240     2.4760     0.1140     0.0330
  294.5000   -53.5420     7.9020     9.4360     8.2060    98.3740     2.4770     0.1150     0.0310
  295.0000   -52.8760     7.8660     9.4000     8.2050   101.0830     2.4760     0.1160     0.0290
  295.5000   -52.4180     7.8290     9.3630     8.2040   103.1980     2.4740     0.1140     0.0300
  296.0000   -52.6050     7.7930     9.3260     8.2040   104.9630     2.4770     0.1120     0.0340
  296.5000   -52.7830     7.7030     9.2890     8.2030   104.7310     2.4810     0.1100     0.0370
  297.0000   -52.9720     7.6910     9.2530     8.2020   102.4930     2.4840     0.1090     0.0380
  297.5000   -52.3800     7.6790     9.2160     8.2010    99.4190     2.4820     0.1100     0.0370
  298.0000   -51.6660     7.6660     9.1790     8.2000    96.9310     2.4770     0.1120     0.0350
  298.5000   -51.4890     7.6540     9.1420     8.1990    95.8490     2.4720     0.1150     0.0320
  299.0000   -52.3510     7.6420     9.1060     8.1980    96.8590     2.4670     0.1180     0.0290
  299.5000   -52.5860     7.6300     9.0690     8.1970    97.9790     2.4630     0.1220     0.0240
  300.0000   -52.7930     7.6180     9.0320     8.1960    99.1430     2.4570     0.1250     0.0200
  300.5000   -52.9560     7.6060     8.9950     8.1950    99.7460     2.4510     0.1280     0.0150
  301.0000   -52.5000     7.5930     8.9590     8.1940   100.3500     2.4440     0.1320     0.0140
  301.5000   -52.0480     7.5810     8.9180     8.1930   100.9570     2.4430     0.1320     0.0190
  302.0000   -52.0770     7.5690     8.8390     8.1920   101.5610     2.4520     0.1260     0.0260
  302.5000   -52.7350     7.5330     8.7590     8.1920   102.1960     2.4610     0.1220     0.0340
  303.0000   -53.3670     7.4920     8.6790     8.2030   103.6850     2.4710     0.1170     0.0360
  303.5000   -53.5770     7.4510     8.6000     8.2150   105.0490     2.4740     0.1150     0.0350
  304.0000   -53.7720     7.4110     8.5200     8.2260   103.9940     2.4630     0.1220     0.0340
  304.5000   -53.9830     7.3700     8.4400     8.2370   103.3790     2.4520     0.1280     0.0330
  305.0000   -54.5380     7.3290     8.3600     8.2490   103.0930     2.4570     0.1250     0.0330
  305.5000   -55.1630     7.2880     8.2810     8.2430   102.3620     2.4630     0.1200     0.0340
  306.0000   -56.4720     7.2480     8.2010     8.2230   101.3950     2.4630     0.1200     0.0300
  306.5000   -57.7540     7.2070     8.1210     8.2020   104.5740     2.4630     0.1210     0.0220
  307.0000   -58.1080     7.1660     8.0420     8.1820   103.4610     2.4630     0.1210     0.0240
  307.5000   -57.9070     7.1250     7.9990     8.1610   101.7330     2.4620     0.1210     0.0260
  308.0000   -56.9160     7.0850     7.9990     8.1410   105.5780     2.4640     0.1180     0.0290
  308.5000   -55.9390     7.0440     8.0290     8.1200   108.7200     2.4770     0.1130     0.0310
  309.0000   -55.6550     7.0030     8.0750     8.0990   103.0830     2.4750     0.1140     0.0270
  309.5000   -55.5100     6.8980     8.1220     8.0890    96.3460     2.4710     0.1160     0.0250
  310.0000   -55.3990     6.9470     8.1680     8.0780    97.8960     2.4740     0.1150     0.0300
  310.5000   -56.1190     7.0090     8.2150     8.0920   100.4380     2.4780     0.1130     0.0340
  311.0000   -55.9590     7.0710     8.2620     8.1080   101.2590     2.4790     0.1120     0.0380
  311.5000   -54.6350     7.1330     8.3080     8.1230   102.7980     2.4790     0.1120     0.0350
  312.0000   -54.2660     7.1960     8.3550     8.1380   105.2610     2.4840     0.1110     0.0310
  312.5000   -53.9870     7.2580     8.4010     8.1540   106.0960     2.4980     0.1060     0.0280
  313.0000   -54.2250     7.3200     8.4480     8.1690   106.2960     2.5140     0.0950     0.0280
  313.5000   -55.2610     7.3820     8.4940     8.1840   105.0660     2.5260     0.0820     0.0270
  314.0000   -55.9430     7.4440     8.5410     8.2000   105.4620     2.5220     0.0870     0.0270
  314.5000   -56.5500     7.5060     8.5870     8.2150   108.6930     2.5160     0.0940     0.0280
  315.0000   -56.4890     7.5670     8.6340     8.2310   109.6950     2.5100     0.0970     0.0350
  315.5000   -56.0670     7.5670     8.6800     8.2310   105.9180     2.5020     0.1010     0.0340
  316.0000   -55.6190     7.5180     8.7270     8.2310   102.9800     2.4940     0.1050     0.0310
  316.5000   -56.6110     7.4780     8.7750     8.2310   100.7260     2.4860     0.1100     0.0290
  317.0000   -57.3350     7.4380     8.7750     8.2310   103.1700     2.4790     0.1120     0.0310
  317.5000   -57.4710     7.4280     8.7130     8.2310   106.6330     2.4850     0.1100     0.0330
  318.0000   -57.1590     7.4760     8.6480     8.2310   110.2180     2.4940     0.1060     0.0350
  318.5000   -56.4840     7.5110     8.5830     8.2310   111.7460     2.5010     0.1030     0.0350
  319.0000   -55.9530     7.5460     8.5190     8.2310   110.2830     2.4930     0.1050     0.0340
  319.5000   -55.9630     7.5820     8.4540     8.2310   106.9130     2.4860     0.1070     0.0320
  320.0000   -55.9550     7.6170     8.3890     8.2310   104.3330     2.4840     0.1030     0.0310
  320.5000   -56.3820     7.6520     8.3040     8.2310   107.0160     2.4930     0.0990     0.0290
  321.0000   -56.9150     7.6880     8.3170     8.2310   109.5720     2.5030     0.0940     0.0240
  321.5000   -56.6030     7.7080     8.3440     8.2310   109.3970     2.5150     0.0900     0.0170
  322.0000   -56.8890     7.6650     8.3700     8.2310   105.4890     2.5150     0.0900     0.0100
  322.5000   -57.2060     7.6300     8.3960     8.2310   102.6870     2.5090     0.0920     0.0090
  323.0000   -56.6370     7.5950     8.4220     8.2310   103.8030     2.5040     0.0950     0.0200
  323.5000   -56.1530     7.5590     8.4480     8.2310   106.7050     2.4980     0.0970     0.0300
  324.0000   -56.4250     7.5240     8.4740     8.2310   109.6310     2.5020     0.0960     0.0360
  324.5000   -56.7070     7.4890     8.5000     8.2310   111.3620     2.5070     0.0950     0.0420
  325.0000   -56.9510     7.4530     8.5350     8.2310   111.9760     2.5060     0.0930     0.0460
  325.5000   -56.8830     7.4180     8.4910     8.2300   112.1850     2.5040     0.0920     0.0440
  326.0000   -56.8150     7.3830     8.4030     8.2300   111.1670     2.5080     0.0930     0.0420
  326.5000   -56.8160     7.3470     8.3140     8.2290   110.1990     2.5090     0.0950     0.0400
  327.0000   -57.0630     7.3120     8.2260     8.2290   109.4570     2.5050     0.0960     0.0380
  327.5000   -57.2910     7.2540     8.1380     8.2280   109.9790     2.5080     0.0960     0.0370
  328.0000   -58.0770     7.1660     8.0490     8.2270   110.8250     2.5090     0.0950     0.0390
  328.5000   -58.9190     7.0770     7.9610     8.2270   109.0880     2.5040     0.0940     0.0420
  329.0000   -59.0760     6.9880     7.8730     8.2260   107.3540     2.5160     0.0930     0.0440
  329.5000   -59.2040     6.9000     7.7440     8.2260   104.1420     2.5290     0.0920     0.0460
  330.0000   -59.3590     6.8110     7.6030     8.2250    98.3070     2.5160     0.0960     0.0420
  330.5000   -60.3590     6.7230     7.4620     8.2240    99.8900     2.5000     0.1030     0.0390
  331.0000   -61.3180     6.6340     7.3200     8.2240   103.8650     2.4830     0.1100     0.0350
