~VERSION INFORMATION
 VERS.                2.0:   CWLS LOG ASCII STANDARD - VERSION 2.0
 WRAP.                 NO:   ONE LINE PER DEPTH STEP
~WELL INFORMATION
#MNEM.UNIT      DATA TYPE    INFORMATION
#----------   ------------   ------------------------------
 STRT.F            6.0000:   START DEPTH
 STOP.F          522.0000:   STOP DEPTH
 STEP.F            0.5000:   STEP LENGTH
 NULL.          -999.2500:   NO VALUE
 COMP.       F D SERV INC:   COMPANY
 WELL.    88-7 SX-3 #88-3:   WELL
 FLD .             TEAPOT:   FIELD
 LOC .       S3 T38N R78W:   LOCATION
 CNTY.            NATRONA:   COUNTY
 STAT.            WYOMING:   STATE
 CTRY. UNITED STATES OF AMERICA:   COUNTRY
 SRVC.      Western Atlas:   SERVICE COMPANY
 DATE.        30-NOV-1992:   LOGDATE
 API .       490252254100:   API NUMBER
~CURVE INFORMATION
#MNEM.UNIT       API CODE    CURVE DESCRIPTION
#----------   ------------   ------------------------------
 DEPT.F                  :   
 GRR .GAPI   07 310 01 00:   GAMMA RAY
 RILD.OHMM   07 120 46 00:   INDUCTION LOG DEEP RESISTIVITY
 RILM.OHMM   07 120 44 00:   INDUCTION LOG MEDIUM RESISTIVITY
 C13 .IN     45 280 13 00:   CALIPER 13
 ZCOR.G/C3   45 356 01 00:   DENSITY CORRECTION
 ZDEN.G/C3   45 350 01 00:   BULK DENSITY
 PORZ.DEC    45 890 00 00:   DENSITY POROSITY
 NPHI.DEC    42 890 03 00:   NEUTRON POROSITY SANDSTONE
~PARAMETER INFORMATION
#MNEM.UNIT          VALUE    DESCRIPTION
#----------   ------------   ------------------------------
 PD  .                 GL:   PERMANENT DATUM
 EPD .F              5155:   ELEVATION PERMANENT DATUM
 LMF .                 KB:   LOG MEASURED FROM
 DAPD.F                10:   FEET ABOVE PERMANENT DATUM
 DMF .                 KB:   DRILLING MEASURED FROM
 EKB .F              5165:   KELLING BUSHING
 EDF .F              5164:   DRILLING FLOOR
 EGL .F              5155:   GROUND LEVEL
 DATE.        30-NOV-1992:   RUN DATE
 RUN .                  1:   RUN NUMBER
 DD  .F               525:   DEPTH DRILLER
 DL  .F               525:   DEPTH LOGGER
 BLI .F               516:   BOTTOM LOG INTERVAL
 TLI .F                 6:   TOP LOG INTERVAL
 CS  .IN            8.625:   CASING SIZE
 CBD .F                95:   CASING BOTTOM DRILLER
 CBL .F                98:   CASING BOTTOM LOGGER
 BS  .IN            7.875:   BIT SIZE
 BSD .F               525:   BIT SIZE AT DEPTH
 DFT .           AIR FOAM:   DRILLING FLUID TYPE
 MRT .F                68:   MAXIMUM RECORDED TEMPERATURE
 LUN .           HL- 6774:   LOGGING UNIT NUMBER
 LUL .             CASPER:   LOGGING UNIT LOCATION
 ENGI.             RAUTIO:   RECORDING ENGINEER
 WITN.          BOB SYLER:   WITNESSED BY
 CLNT.            A2DTECH:   CLIENT CODE
 ORIG.           5" PRINT:   ORIGIN OF DATA
 UWI .       490252254100:   UNIQUE WELL ID
 DICO. A2D Technologies, Inc.:   DIGITIZING COMPANY
~OTHER INFORMATION
~A    DEPT     GRR       RILD       RILM        C13       ZCOR       ZDEN       PORZ       NPHI   
# ...
  451.5000   113.6593    12.1733    12.0537     8.1165    -0.0026     2.4617     0.1141     0.2625
  452.0000   110.9177    12.0004    11.8835     8.1151    -0.0027     2.4632     0.1129     0.2622
  452.5000   111.8236    11.8301    11.7158     8.1136    -0.0028     2.4677     0.1099     0.2613
  453.0000   114.5532    11.7438    11.7126     8.1121    -0.0059     2.4700     0.1093     0.2601
  453.5000   116.9788    11.7398    11.7093     8.1106    -0.0121     2.4677     0.1117     0.2595
  454.0000   114.1804    11.7357    11.7061     8.1088    -0.0091     2.4646     0.1130     0.2598
  454.5000   111.7549    11.7317    11.7029     8.1073    -0.0077     2.4661     0.1115     0.2602
  455.0000   112.7040    11.7277    11.7816     8.1058    -0.0063     2.4759     0.1057     0.2596
  455.5000   114.5217    11.7236    11.7783     8.1044     0.0011     2.4804     0.1018     0.2590
  456.0000   116.3394    11.7195    11.6932     8.1180     0.0116     2.4797     0.1027     0.2572
  456.5000   118.1571    11.7146    11.6900     8.1367     0.0175     2.4781     0.1036     0.2566
  457.0000   118.4565    11.7106    11.6055     8.1496     0.0091     2.4766     0.1051     0.2566
  457.5000   116.9293    11.7066    11.5210     8.1474     0.0052     2.4734     0.1076     0.2563
  458.0000   114.1877    11.6212    11.5179     8.1451     0.0171     2.4682     0.1082     0.2560
  458.5000   110.2304    11.6172    11.5147     8.1429     0.0155     2.4738     0.1057     0.2579
  459.0000   106.5769    11.6132    11.4316     8.1406     0.0109     2.4773     0.1040     0.2596
  459.5000   105.6591    11.6092    11.4284     8.1384     0.0093     2.4765     0.1040     0.2618
  460.0000   106.2610    11.6052    11.3459     8.1362    -0.0014     2.4765     0.1049     0.2615
  460.5000   108.6866    11.5206    11.3428     8.1339     0.0016     2.4764     0.1052     0.2604
  461.0000   113.2399    11.4366    11.2609     8.1317     0.0105     2.4825     0.1031     0.2592
  461.5000   116.0021    11.3531    11.1796     8.1143     0.0134     2.4862     0.0988     0.2586
  462.0000   114.1397    11.2703    11.0988     8.1121     0.0133     2.4832     0.0995     0.2595
  462.5000   113.5258    11.1103    11.0187     8.0947     0.0147     2.4779     0.1040     0.2606
  463.0000   113.5360    11.0292    10.9391     8.0621     0.0206     2.4748     0.1071     0.2631
  463.5000   114.4579    10.8726    10.7847     8.0447     0.0221     2.4763     0.1040     0.2655
  464.0000   115.6839    10.7925    10.7068     8.0420     0.0204     2.4846     0.0980     0.2659
  464.5000   118.6675    10.5653    10.6240     8.0246     0.0173     2.4914     0.0956     0.2668
  465.0000   122.6129    10.4153    10.4065     8.0224     0.0202     2.4936     0.0938     0.2698
  465.5000   123.2163    10.2674    10.2590     8.0050     0.0201     2.4966     0.0922     0.2729
  466.0000   119.5614    10.1217    10.0439     8.0027     0.0199     2.4981     0.0913     0.2753
  466.5000   117.1238     9.9086     9.9021     8.0005     0.0169     2.4974     0.0932     0.2781
  467.0000   117.1178     9.7679     9.7623     7.9983     0.0152     2.4913     0.0962     0.2802
  467.5000   118.0236     9.5623     9.6244     7.9960     0.0151     2.4897     0.0962     0.2836
  468.0000   119.2334     9.3610     9.4226     7.9938     0.0075     2.4922     0.0944     0.2863
  468.5000   121.6590     9.1002     9.1609     7.9916    -0.0032     2.4958     0.0923     0.2888
  469.0000   125.6044     8.7852     8.8447     8.0045    -0.0033     2.4972     0.0914     0.2900
  469.5000   127.4236     8.4221     8.4800     7.9871    -0.0019     2.4980     0.0914     0.2922
  470.0000   123.7687     7.9621     7.9620     8.0000     0.0071     2.4980     0.0914     0.2949
  470.5000   121.3311     7.3611     7.2701     7.9977     0.0131     2.4964     0.0929     0.3074
  471.0000   120.9929     6.6585     6.4557     8.0107     0.0047     2.4926     0.1017     0.3177
  471.5000   123.7507     5.9745     5.7727     8.0079    -0.0023     2.4593     0.1292     0.3401
  472.0000   127.7120     5.5699     5.2344     8.0057     0.0082     2.4169     0.1555     0.3562
  472.5000   134.5190     5.4148     4.9135     8.0034     0.0201     2.3661     0.1721     0.3486
  473.0000   142.1884     5.4129     4.9541     8.0012     0.0306     2.3805     0.1500     0.3269
  473.5000   152.3102     5.4494     5.3579     7.9989     0.0154     2.4153     0.1264     0.3035
  474.0000   149.8590     5.5236     6.0106     7.9967     0.0125     2.4622     0.1006     0.2916
  474.5000   137.6950     5.6780     6.6714     7.9945    -0.0022     2.4932     0.0909     0.2775
  475.0000   123.0993     6.1718     7.3024     7.9922    -0.0103     2.4970     0.0915     0.2734
  475.5000   119.4459     6.8984     8.0489     8.0057    -0.0114     2.4924     0.0949     0.2746
  476.0000   120.3517     7.9843     8.5678     8.0029    -0.0070     2.4916     0.0967     0.2758
  476.5000   120.9551     9.0496     8.8693     8.0007    -0.0010     2.4916     0.0967     0.2771
  477.0000   122.4674     9.4333     9.1176     7.9984    -0.0026     2.4931     0.0955     0.2783
  477.5000   124.8930     9.6295     9.3729     7.9962    -0.0057     2.4969     0.0913     0.2777
  478.0000   127.0162     9.6981     9.5691     8.0243     0.0032     2.5000     0.0904     0.2796
  478.5000   124.2731     9.7582     9.7680     8.0372     0.0107     2.5006     0.0904     0.2808
  479.0000   122.4434     9.8231     9.8337     8.0344     0.0045     2.4998     0.0901     0.2802
  479.5000   121.2216     9.9577     9.8997     8.0322    -0.0076     2.4998     0.0901     0.2790
  480.0000   119.6958    10.0942    10.0359     8.0148    -0.0077     2.4990     0.0895     0.2748
  480.5000   119.6414    10.3033    10.2453     8.0125    -0.0017     2.4998     0.0889     0.2724
  481.0000   125.1550    10.4445    10.3901     8.0103     0.0102     2.5012     0.0883     0.2712
  481.5000   125.7569    10.5886    10.6112     8.0081    -0.0019     2.5073     0.0865     0.2715
  482.0000   125.7750    10.7337    10.8240     8.0058    -0.0050     2.5118     0.0838     0.2716
  482.5000   126.3931    10.8799    10.8968     8.0036    -0.0021     2.5110     0.0825     0.2701
  483.0000   127.9230    10.9532    11.0460     8.0014     0.0071     2.5072     0.0841     0.2670
  483.5000   129.9867    11.1801    11.1980     7.9991     0.0145     2.5064     0.0856     0.2647
  484.0000   130.8926    11.3334    11.2740     7.9969     0.0094     2.5064     0.0859     0.2667
  484.5000   131.1905    11.4887    11.5084     7.9947     0.0051     2.5102     0.0850     0.2693
  485.0000   129.6647    11.6461    11.5865     7.9924     0.0080     2.5147     0.0826     0.2669
  485.5000   123.5797    11.8057    11.7460     7.9902     0.0139     2.5215     0.0792     0.2642
  486.0000   120.5342    11.8843    11.9068     7.9879     0.0259     2.5305     0.0730     0.2606
  486.5000   120.2243    11.9634    11.9877     7.9852     0.0168     2.5373     0.0681     0.2548
  487.0000   120.5237    11.9583    12.0682     7.9829     0.0106     2.5381     0.0684     0.2570
  487.5000   120.8217    11.9542    12.1485     7.9964    -0.0030     2.5272     0.0735     0.2606
  488.0000   121.4221    11.9501    12.1452     7.9936     0.0029     2.4997     0.0914     0.2643
  488.5000   121.4161    11.9460    12.1418     7.9914     0.0058     2.4911     0.0960     0.2622
  489.0000   121.4101    12.0265    12.1385     7.9891     0.0133     2.4903     0.0966     0.2613
  489.5000   121.1001    12.0214    12.1351     7.9869     0.0102     2.4910     0.0960     0.2622
  490.0000   119.5744    12.1024    12.1317     8.0004     0.0101     2.4940     0.0945     0.2629
  490.5000   116.8328    12.1820    12.1276     7.9976     0.0115     2.4985     0.0918     0.2635
  491.0000   115.6109    12.1778    12.1243     7.9953     0.0144     2.5008     0.0906     0.2672
  491.5000   115.6049    12.2588    12.1210     7.9931     0.0204     2.5008     0.0906     0.2693
