~VERSION INFORMATION
 VERS.                2.0:   CWLS LOG ASCII STANDARD - VERSION 2.0
 WRAP.                 NO:   ONE LINE PER DEPTH STEP
~WELL INFORMATION
#MNEM.UNIT      DATA TYPE    INFORMATION
#----------   ------------   ------------------------------
 STRT.F            4.0000:   START DEPTH
 STOP.F          468.5000:   STOP DEPTH
 STEP.F            0.1000:   STEP LENGTH
 NULL.          -999.2500:   NO VALUE
 COMP. BROWN JOHN E&C INC:   COMPANY
 WELL.  SX-10 #1-14-SX-10:   WELL
 FLD .        N.P.R. No.3:   FIELD
 LOC .      S10 T38N R78W:   LOCATION
 CNTY.            NATRONA:   COUNTY
 STAT.            WYOMING:   STATE
 CTRY. UNITED STATES OF AMERICA:   COUNTRY
 SRVC.     Atlas Wireline:   SERVICE COMPANY
 DATE.        21-SEP-1991:   LOGDATE
 API .       490251125800:   API NUMBER
~CURVE INFORMATION
#MNEM.UNIT       API CODE    CURVE DESCRIPTION
#----------   ------------   ------------------------------
 DEPT.F                  :   
 GRR .GAPI   07 310 01 00:   GAMMA RAY FROM RES. LOG.
 ILD .OHMM   07 120 46 00:   INDUCTION LOG DEEP
 RILM.OHMM   07 120 44 00:   INDUCTION LOG MEDIUM RESISTIVITY
~PARAMETER INFORMATION
#MNEM.UNIT          VALUE    DESCRIPTION
#----------   ------------   ------------------------------
 PD  .                 GL:   PERMANENT DATUM
 EPD .F              5183:   ELEVATION PERMANENT DATUM
 LMF .                 KB:   LOG MEASURED FROM
 DAPD.F                10:   FEET ABOVE PERMANENT DATUM
 DMF .                 KB:   DRILLING MEASURED FROM
 EKB .F              5193:   KELLING BUSHING
 EGL .F              5183:   GROUND LEVEL
 DATE.            9-21-91:   RUN DATE
 RUN .                  1:   RUN NUMBER
 DD  .F               480:   DEPTH DRILLER
 DL  .F               478:   DEPTH LOGGER
 BLI .F               470:   BOTTOM LOG INTERVAL
 CS  .IN                7:   CASING SIZE
 CBD .F                90:   CASING BOTTOM DRILLER
 CBL .F                90:   CASING BOTTOM LOGGER
 BS  .IN             6.25:   BIT SIZE
 BSD .F               480:   BIT SIZE AT DEPTH
 DFT .                AIR:   DRILLING FLUID TYPE
 TCS .HRS               1:   TIME CURCULATED STOPPED
 MRT .F                80:   MAXIMUM RECORDED TEMPERATURE
 LUN .            HL-6307:   LOGGING UNIT NUMBER
 LUL .             CASPER:   LOGGING UNIT LOCATION
 ENGI.             RAUTIO:   RECORDING ENGINEER
 WITN.             STRONG:   WITNESSED BY
 CLNT.            A2DTECH:   CLIENT CODE
 ORIG.        2" 5" PRINT:   ORIGIN OF DATA
 UWI .       490251125800:   UNIQUE WELL ID
 DICO. A2D Technologies, Inc.:   DIGITIZING COMPANY
~OTHER INFORMATION
~A    DEPT       GRR      ILD       RILM   
# ...
  167.8000   138.5756     2.5855     2.7384
  167.9000   138.5111     2.5345     2.6854
  168.0000   138.4467     2.4835     2.6324
  168.1000   137.3772     2.4698     2.5980
  168.2000   136.3077     2.4561     2.5636
  168.3000   135.2382     2.4424     2.5293
  168.4000   134.1687     2.4288     2.4949
  168.5000   133.0992     2.4151     2.4605
  168.6000   131.9775     2.4225     2.4766
  168.7000   130.8559     2.4298     2.4927
  168.8000   129.7342     2.4372     2.5089
  168.9000   128.6126     2.4446     2.5250
  169.0000   127.4909     2.4520     2.5411
  169.1000   126.6954     2.4663     2.5794
  169.2000   125.8999     2.4807     2.6178
  169.3000   125.1044     2.4951     2.6561
  169.4000   124.3089     2.5094     2.6944
  169.5000   123.5134     2.5238     2.7327
  169.6000   123.6951     2.5386     2.7738
  169.7000   123.8767     2.5534     2.8148
  169.8000   124.0583     2.5682     2.8559
  169.9000   124.2400     2.5830     2.8969
  170.0000   124.4216     2.5978     2.9380
  170.1000   125.5318     2.6444     2.9916
  170.2000   126.6420     2.6910     3.0452
  170.3000   127.7523     2.7376     3.0988
  170.4000   128.8625     2.7842     3.1524
  170.5000   129.9727     2.8308     3.2060
  170.6000   131.0565     2.9032     3.3030
  170.7000   132.1402     2.9756     3.3999
  170.8000   133.2240     3.0481     3.4969
  170.9000   134.3077     3.1205     3.5938
  171.0000   135.3915     3.1929     3.6908
  171.1000   136.2668     3.2747     3.8024
  171.2000   137.1421     3.3564     3.9140
  171.3000   138.0174     3.4381     4.0256
  171.4000   138.8927     3.5199     4.1372
  171.5000   139.7680     3.6016     4.2488
  171.6000   139.9155     3.6936     4.3773
  171.7000   140.0629     3.7857     4.5058
  171.8000   140.2103     3.8777     4.6343
  171.9000   140.3578     3.9697     4.7628
  172.0000   140.5052     4.0618     4.8913
  172.1000   140.6637     4.1593     4.9830
  172.2000   140.8222     4.2568     5.0747
  172.3000   140.9807     4.3544     5.1663
  172.4000   141.1392     4.4519     5.2580
  172.5000   141.2977     4.5494     5.3497
  172.6000   141.4587     4.6383     5.4188
  172.7000   141.6197     4.7273     5.4879
  172.8000   141.7807     4.8162     5.5570
  172.9000   141.9417     4.9051     5.6261
  173.0000   142.1026     4.9940     5.6952
  173.1000   142.2585     5.0634     5.7482
  173.2000   142.4143     5.1328     5.8011
  173.3000   142.5701     5.2021     5.8541
  173.4000   142.7259     5.2715     5.9070
  173.5000   142.8817     5.3408     5.9600
  173.6000   143.2764     5.3887     5.9778
  173.7000   143.6711     5.4365     5.9957
  173.8000   144.0658     5.4843     6.0135
  173.9000   144.4605     5.5321     6.0313
  174.0000   144.8553     5.5800     6.0491
  174.1000   145.0645     5.6300     6.0660
  174.2000   145.2737     5.6799     6.0828
  174.3000   145.4830     5.7299     6.0996
  174.4000   145.6922     5.7799     6.1164
  174.5000   145.9015     5.8299     6.1332
  174.6000   145.8994     5.8659     6.1554
  174.7000   145.8973     5.9020     6.1776
  174.8000   145.8952     5.9380     6.1997
  174.9000   145.8931     5.9741     6.2219
  175.0000   145.8910     6.0102     6.2441
  175.1000   145.8902     6.0339     6.2366
  175.2000   145.8893     6.0576     6.2292
  175.3000   145.8885     6.0814     6.2217
  175.4000   145.8876     6.1051     6.2142
  175.5000   145.8868     6.1289     6.2068
  175.6000   145.8902     6.0919     6.1962
  175.7000   145.8936     6.0549     6.1857
  175.8000   145.8970     6.0179     6.1751
  175.9000   145.9004     5.9809     6.1646
  176.0000   145.9038     5.9439     6.1540
  176.1000   146.1542     5.9164     6.1306
  176.2000   146.4047     5.8888     6.1073
  176.3000   146.6551     5.8612     6.0839
  176.4000   146.9055     5.8336     6.0605
  176.5000   147.1560     5.8061     6.0371
  176.6000   147.4404     5.7651     5.9817
  176.7000   147.7249     5.7241     5.9264
  176.8000   148.0094     5.6831     5.8710
  176.9000   148.2939     5.6421     5.8156
  177.0000   148.5784     5.6011     5.7603
  177.1000   148.8442     5.5499     5.7075
  177.2000   149.1099     5.4986     5.6546
  177.3000   149.3757     5.4473     5.6018
  177.4000   149.6414     5.3960     5.5490
  177.5000   149.9072     5.3447     5.4962
  177.6000   150.2494     5.2959     5.4458
  177.7000   150.5916     5.2471     5.3954
  177.8000   150.9338     5.1983     5.3450
  177.9000   151.2761     5.1495     5.2946
  178.0000   151.6183     5.1007     5.2442
  178.1000   152.3314     5.0608     5.1961
  178.2000   153.0445     5.0209     5.1480
  178.3000   153.7576     4.9811     5.0999
  178.4000   154.4708     4.9412     5.0518
  178.5000   155.1839     4.9013     5.0037
  178.6000   155.9372     4.8868     4.9924
  178.7000   156.6905     4.8722     4.9811
  178.8000   157.4438     4.8576     4.9698
  178.9000   158.1970     4.8431     4.9585
  179.0000   158.9503     4.8285     4.9472
  179.1000   159.0942     4.8135     4.9428
  179.2000   159.2381     4.7985     4.9384
  179.3000   159.3819     4.7835     4.9340
  179.4000   159.5258     4.7686     4.9296
  179.5000   159.6696     4.7536     4.9253
  179.6000   158.2644     4.7473     4.9205
  179.7000   156.8592     4.7410     4.9157
  179.8000   155.4540     4.7347     4.9109
  179.9000   154.0487     4.7284     4.9061
  180.0000   152.6435     4.7221     4.9013
  180.1000   151.6019     4.7330     4.9296
  180.2000   150.5602     4.7439     4.9579
  180.3000   149.5185     4.7549     4.9863
  180.4000   148.4769     4.7658     5.0146
  180.5000   147.4352     4.7767     5.0429
  180.6000   146.5129     4.7880     5.0766
  180.7000   145.5905     4.7993     5.1103
  180.8000   144.6682     4.8105     5.1440
  180.9000   143.7458     4.8218     5.1777
  181.0000   142.8235     4.8331     5.2113
  181.1000   142.8306     4.8633     5.2462
  181.2000   142.8377     4.8936     5.2810
  181.3000   142.8448     4.9239     5.3158
  181.4000   142.8519     4.9541     5.3506
  181.5000   142.8590     4.9844     5.3854
  181.6000   143.1896     5.0288     5.4214
  181.7000   143.5203     5.0732     5.4574
  181.8000   143.8510     5.1176     5.4933
  181.9000   144.1817     5.1620     5.5293
  182.0000   144.5124     5.2064     5.5653
  182.1000   144.8384     5.2528     5.6245
  182.2000   145.1645     5.2992     5.6837
  182.3000   145.4906     5.3456     5.7429
  182.4000   145.8166     5.3919     5.8021
  182.5000   146.1427     5.4383     5.8613
  182.6000   146.4440     5.4938     5.9383
  182.7000   146.7453     5.5493     6.0154
  182.8000   147.0466     5.6048     6.0924
  182.9000   147.3479     5.6603     6.1694
  183.0000   147.6492     5.7158     6.2464
  183.1000   147.5779     5.7756     6.3293
  183.2000   147.5066     5.8353     6.4122
  183.3000   147.4352     5.8950     6.4951
  183.4000   147.3639     5.9548     6.5780
  183.5000   147.2926     6.0145     6.6608
  183.6000   146.9474     6.0775     6.7025
  183.7000   146.6023     6.1405     6.7442
  183.8000   146.2571     6.2035     6.7858
  183.9000   145.9120     6.2664     6.8275
  184.0000   145.5668     6.3294     6.8691
  184.1000   145.3772     6.3958     6.9159
  184.2000   145.1875     6.4623     6.9627
  184.3000   144.9977     6.5287     7.0094
  184.4000   144.8080     6.5951     7.0562
  184.5000   144.6183     6.6615     7.1030
  184.6000   144.5041     6.7229     7.1509
  184.7000   144.3898     6.7843     7.1987
  184.8000   144.2756     6.8458     7.2466
  184.9000   144.1613     6.9072     7.2945
  185.0000   144.0471     6.9686     7.3424
  185.1000   143.9320     7.0094     7.3846
  185.2000   143.8170     7.0502     7.4269
  185.3000   143.7019     7.0910     7.4692
  185.4000   143.5868     7.1317     7.5114
  185.5000   143.4718     7.1725     7.5537
  185.6000   143.3487     7.2143     7.5777
  185.7000   143.2256     7.2560     7.6017
  185.8000   143.1024     7.2978     7.6256
  185.9000   142.9793     7.3395     7.6496
