~VERSION INFORMATION
 VERS.                2.0:   CWLS LOG ASCII STANDARD - VERSION 2.0
 WRAP.                 NO:   ONE LINE PER DEPTH STEP
~WELL INFORMATION
#MNEM.UNIT      DATA TYPE    INFORMATION
#----------   ------------   ------------------------------
 STRT.F           21.0000:   START DEPTH
 STOP.F          484.0000:   STOP DEPTH
 STEP.F            0.5000:   STEP LENGTH
 NULL.          -999.2500:   NO VALUE
 COMP.       F D SERV INC:   COMPANY
 WELL. N P R 3 SX-3 #78-3:   WELL
 FLD .             TEAPOT:   FIELD
 LOC .       S3 T38N R78W:   LOCATION
 CNTY.            NATRONA:   COUNTY
 STAT.            WYOMING:   STATE
 CTRY. UNITED STATES OF AMERICA:   COUNTRY
 SRVC.     Atlas Wireline:   SERVICE COMPANY
 DATE.        04-DEC-1992:   LOGDATE
 API .       490252254500:   API NUMBER
~CURVE INFORMATION
#MNEM.UNIT       API CODE    CURVE DESCRIPTION
#----------   ------------   ------------------------------
 DEPT.F                  :   
 DPHI.DEC    45 890 12 00:   DENSITY POROSITY SANDSTONE
 NPHI.DEC    42 890 03 00:   NEUTRON POROSITY SANDSTONE
 C13 .IN     45 280 13 00:   CALIPER 1 - 3
 GRD .GAPI   45 310 01 00:   GAMMA RAY FROM DENSITY LOG
 ZCOR.G/C3   45 356 01 00:   DENSITY CORRECTION
 ZDEN.G/C3   45 350 01 00:   BULK DENSITY
 RILD.OHMM   07 120 46 00:   INDUCTION LOG DEEP RESISTIVITY
 RILM.OHMM   07 120 44 00:   INDUCTION LOG MEDIUM RESISTIVITY
~PARAMETER INFORMATION
#MNEM.UNIT          VALUE    DESCRIPTION
#----------   ------------   ------------------------------
 PD  .                 GL:   PERMANENT DATUM
 EPD .F              5120:   ELEVATION PERMANENT DATUM
 LMF .                 KB:   LOG MEASURED FROM
 DAPD.F                10:   FEET ABOVE PERMANENT DATUM
 DMF .                 KB:   DRILLING MEASURED FROM
 EKB .F              5130:   KELLING BUSHING
 EDF .F              5129:   DRILLING FLOOR
 EGL .F              5120:   GROUND LEVEL
 DATE.        04-DEC-1992:   RUN DATE
 RUN .                  1:   RUN NUMBER
 DD  .F               488:   DEPTH DRILLER
 DL  .F               488:   DEPTH LOGGER
 BLI .F               479:   BOTTOM LOG INTERVAL
 CS  .IN            8.625:   CASING SIZE
 CBD .F                50:   CASING BOTTOM DRILLER
 CBL .F                54:   CASING BOTTOM LOGGER
 BS  .IN            7.875:   BIT SIZE
 BSD .F               488:   BIT SIZE AT DEPTH
 DFT .           AIR FOAM:   DRILLING FLUID TYPE
 MRT .F                66:   MAXIMUM RECORDED TEMPERATURE
 LUN .           HL- 6274:   LOGGING UNIT NUMBER
 LUL .             CASPER:   LOGGING UNIT LOCATION
 ENGI.             RAUTIO:   RECORDING ENGINEER
 WITN.        GARY STRONG:   WITNESSED BY
 CLNT.            A2DTECH:   CLIENT CODE
 ORIG.           5" PRINT:   ORIGIN OF DATA
 UWI .       490252254500:   UNIQUE WELL ID
 DICO. A2D Technologies, Inc.:   DIGITIZING COMPANY
~OTHER INFORMATION
~A   DEPT     DPHI       NPHI        C13        GRD       ZCOR       ZDEN       RILD       RILM   
# ...
  183.0000     0.1077     0.3220     8.1096   154.6480     0.0240     2.4725     6.9393     6.9844
  183.5000     0.1089     0.3214     8.1091   156.7663     0.0285     2.4687     6.8421     6.9834
  184.0000     0.1113     0.3239     8.0935   157.9754     0.0254     2.4633     6.7464     6.8854
  184.5000     0.1156     0.3281     8.0929   160.3967     0.0162     2.4565     6.6059     6.7887
  185.0000     0.1193     0.3321     8.0925   163.7271     0.0011     2.4511     6.4683     6.7389
  185.5000     0.1205     0.3339     8.1073   162.2089     0.0026     2.4503     6.2895     6.5944
  186.0000     0.1183     0.3309     8.1068   159.1756     0.0221     2.4556     6.0732     6.3715
  186.5000     0.1181     0.3303     8.1215   160.6878     0.0134     2.4578     5.8236     6.1086
  187.0000     0.1196     0.3312     8.1210   164.9334    -0.0037     2.4554     5.4686     5.5766
  187.5000     0.1214     0.3343     8.1206   167.3486     0.0204     2.4531     5.0290     5.1627
  188.0000     0.1251     0.3422     8.1202   164.5212     0.0264     2.4464     4.9587     4.8131
  188.5000     0.1357     0.3531     8.1197   160.3722     0.0127     2.4312     4.8216     4.4558
  189.0000     0.1557     0.3604     8.1344   156.4298    -0.0040     2.3970     4.7542     4.5180
  189.5000     0.1721     0.3631     8.1492   154.3056    -0.0116     2.3652     4.7535     4.8111
  190.0000     0.1785     0.3513     8.1487   154.0004     0.0292     2.3553     4.7551     5.0519
  190.5000     0.1618     0.3422     8.1483   154.9065     0.0518     2.3757     4.8190     5.3049
  191.0000     0.1409     0.3356     8.1477   153.6906     0.0442     2.4166     4.9200     5.5705
  191.5000     0.1255     0.3338     8.1473   153.9914     0.0109     2.4408     5.1654     5.9331
  192.0000     0.1231     0.3329     8.1468   154.8976    -0.0043     2.4498     5.6546     6.1900
  192.5000     0.1222     0.3314     8.1464   154.5908     0.0070     2.4498     6.0200     6.3683
  193.0000     0.1210     0.3299     8.1459   153.3757     0.0213     2.4513     6.2763     6.5395
  193.5000     0.1189     0.3283     8.1455   153.6778     0.0242     2.4535     6.4530     6.6308
  194.0000     0.1165     0.3268     8.1450   155.5152     0.0196     2.4574     6.5884     6.7236
  194.5000     0.1137     0.3259     8.1446   157.4010     0.0181     2.4625     6.6803     6.7699
  195.0000     0.1101     0.3244     8.1441   157.9093     0.0195     2.4678     6.7729     6.9123
  195.5000     0.1073     0.3228     8.1437   156.9964     0.0179     2.4746     6.8671     6.9602
  196.0000     0.1075     0.3208     8.1432   157.2973     0.0058     2.4761     6.9142     7.0571
  196.5000     0.1099     0.3236     8.1428   157.8996    -0.0003     2.4707     7.0103     7.1059
  197.0000     0.1102     0.3260     8.1422   157.2906     0.0132     2.4692     7.0584     7.2048
  197.5000     0.1090     0.3266     8.1418   154.5603     0.0283     2.4706     7.1076     7.2544
  198.0000     0.1087     0.3239     8.1414   153.6483     0.0266     2.4721     7.2056     7.3557
  198.5000     0.1106     0.3206     8.1561   154.5551    -0.0006     2.4683     7.2623     7.4063
  199.0000     0.1127     0.3176     8.1556   153.9453     0.0027     2.4637     7.3559     7.5097
  199.5000     0.1136     0.3158     8.1552   152.7302     0.0159     2.4629     7.4063     7.5614
  200.0000     0.1073     0.3164     8.1486   152.7273     0.0310     2.4697     7.5090     7.6235
  200.5000     0.1046     0.3176     8.1235   156.9628     0.0234     2.4766     7.6137     7.7468
  201.0000     0.1037     0.3182     8.1073   158.4735     0.0233     2.4802     7.6659     7.8295
  201.5000     0.1022     0.3188     8.0912   157.5571     0.0278     2.4825     7.6714     7.9399
  202.0000     0.1010     0.3183     8.0903   155.4299     0.0322     2.4847     7.7261     7.9399
  202.5000     0.1022     0.3189     8.0894   152.6968     0.0321     2.4839     7.7272     7.9956
  203.0000     0.1058     0.3234     8.1039   150.5697     0.0260     2.4778     7.7282     7.9956
  203.5000     0.1089     0.3244     8.1182   150.5879     0.0168     2.4725     7.6753     7.9399
  204.0000     0.1080     0.3207     8.1171   153.2836     0.0092     2.4708     7.5703     7.8295
  204.5000     0.1035     0.3159     8.0859   154.7944     0.0137     2.4784     7.5185     7.7207
  205.0000     0.1005     0.3117     8.0698   155.0915     0.0181     2.4868     7.3641     7.5603
  205.5000     0.1059     0.3124     8.0689   155.9932     0.0196     2.4799     7.3137     7.4552
  206.0000     0.1114     0.3186     8.0526   157.2009     0.0135     2.4647     7.2639     7.4552
  206.5000     0.1141     0.3254     8.0366   157.4980     0.0088     2.4624     7.2146     7.3516
  207.0000     0.1142     0.3275     8.0205   157.1876     0.0088     2.4623     7.1157     7.1988
  207.5000     0.1151     0.3272     8.0045   157.1817     0.0087     2.4623     7.0182     7.0963
  208.0000     0.1139     0.3266     8.0036   157.4909     0.0086     2.4630     6.9219     6.9942
  208.5000     0.1115     0.3263     8.0181   159.9414     0.0118     2.4653     6.9229     6.9028
  209.0000     0.1094     0.3282     8.0322   159.5868     0.0190     2.4683     6.8757     6.6654
  209.5000     0.1079     0.3303     8.0464   155.9445     0.0190     2.4720     6.7345     6.4362
  210.0000     0.1073     0.3337     8.0617   153.8174     0.0144     2.4758     6.5047     6.3025
  210.5000     0.1094     0.3370     8.0927   155.0236     0.0128     2.4727     6.2827     6.1715
  211.0000     0.1149     0.3404     8.1196   159.2601     0.0127     2.4636     5.8197     5.7948
  211.5000     0.1188     0.3416     8.1339   159.8618     0.0142     2.4559     5.4285     5.3654
  212.0000     0.1228     0.3428     8.1482   158.6423     0.0171     2.4506     4.9588     4.9678
  212.5000     0.1298     0.3481     8.1471   158.6364     0.0200     2.4437     4.2840     4.4106
  213.0000     0.1398     0.3527     8.1462   161.7252     0.0183     2.4316     3.7529     3.9989
  213.5000     0.1531     0.3623     8.1453   164.9867     0.0108     2.4149     3.3339     3.7286
  214.0000     0.1725     0.3738     8.1596   162.5566     0.0077     2.3936     2.9617     3.1742
  214.5000     0.1980     0.3854     8.1587   157.0961     0.0046     2.3626     2.7243     2.7579
  215.0000     0.2236     0.3908     8.1578   153.4539     0.0000     2.3163     2.5769     2.5533
  215.5000     0.2500     0.3869     8.1567   150.4176     0.0045     2.2435     2.4026     2.5020
  216.0000     0.2641     0.3721     8.1558   147.0784     0.0240     2.2132     2.3357     2.5373
  216.5000     0.2532     0.3508     8.1550   144.0422     0.0421     2.2184     2.3058     2.5911
  217.0000     0.2232     0.3393     8.1541   145.5515     0.0542     2.2639     2.3386     2.6461
  217.5000     0.1951     0.3524     8.1532   151.7273     0.0246     2.3184     2.4904     2.7596
  218.0000     0.1936     0.3642     8.1523   158.2262    -0.0110     2.3335     2.7461     3.0225
  218.5000     0.1918     0.3600     8.1514   162.1989     0.0085     2.3289     3.1356     3.3570
  219.0000     0.1757     0.3452     8.1657   162.1930     0.0281     2.3490     3.5553     3.8885
  219.5000     0.1327     0.3303     8.1648   162.7932     0.0386     2.3939     3.9754     4.3798
  220.0000     0.1145     0.3350     8.1639   164.3024     0.0416     2.4485     4.4143     4.7635
  220.5000     0.1130     0.3397     8.1476   164.2965     0.0249     2.4644     4.7669     5.0732
  221.0000     0.1140     0.3434     8.1467   164.5937     0.0233     2.4651     5.1476     5.3654
  221.5000     0.1149     0.3455     8.1459   166.7090     0.0126     2.4612     5.5200     5.5572
  222.0000     0.1146     0.3465     8.1604   170.3798    -0.0011     2.4620     5.6769     5.8831
  222.5000     0.1140     0.3480     8.1593   170.6366     0.0165     2.4619     5.7574     6.0921
  223.0000     0.1140     0.3492     8.1584   168.5080     0.0321     2.4627     5.7985     6.1715
