~VERSION INFORMATION
 VERS.                2.0:   CWLS LOG ASCII STANDARD - VERSION 2.0
 WRAP.                 NO:   ONE LINE PER DEPTH STEP
~WELL INFORMATION
#MNEM.UNIT      DATA TYPE    INFORMATION
#----------   ------------   ------------------------------
 STRT.F            4.0000:   START DEPTH
 STOP.F          508.0000:   STOP DEPTH
 STEP.F            0.5000:   STEP LENGTH
 NULL.          -999.2500:   NO VALUE
 COMP. LAWRENCE-ALLISON &AS:   COMPANY
 WELL. NPR ##3 58-65-SX-3-UPI:   WELL
 FLD .             TEAPOT:   FIELD
 LOC .       S3 T38N R78W:   LOCATION
 CNTY.            NATRONA:   COUNTY
 STAT.            WYOMING:   STATE
 CTRY. UNITED STATES OF AMERICA:   COUNTRY
 SRVC.      Dresser Atlas:   SERVICE COMPANY
 DATE.        07-DEC-1984:   LOGDATE
 API .       490251102500:   API NUMBER
~CURVE INFORMATION
#MNEM.UNIT       API CODE    CURVE DESCRIPTION
#----------   ------------   ------------------------------
 DEPT.F                  :   
 SPR .MV     07 010 01 00:   SPONTANEOUS POTENTIAL
 RILD.OHMM   07 120 46 00:   INDUCTION LOG DEEP RESISTIVITY
 RILM.OHMM   07 120 44 00:   INDUCTION LOG MEDIUM RESISTIVITY
 RFOC.OHMM   07 220 04 00:   RESISTIVITY FOCUSED LOG
 CALS.IN     60 280 50 00:   CALIPER FROM SONIC LOG
 GRS .GAPI   60 310 01 00:   GAMMA RAY FROM SONIC LOG
 AC  .US/F   60 520 00 00:   ACCOUSTIC SONIC
~PARAMETER INFORMATION
#MNEM.UNIT          VALUE    DESCRIPTION
#----------   ------------   ------------------------------
 PD  .                 GL:   PERMANENT DATUM
 EPD .F              5184:   ELEVATION PERMANENT DATUM
 LMF .                 GL:   LOG MEASURED FROM
 DMF .                 GL:   DRILLING MEASURED FROM
 EGL .F              5184:   GROUND LEVEL
 DATE.        07-DEC-1984:   RUN DATE
 RUN .                  1:   RUN NUMBER
 DD  .F               510:   DEPTH DRILLER
 DL  .F               510:   DEPTH LOGGER
 BLI .F               508:   BOTTOM LOG INTERVAL
 TLI .F                20:   TOP LOG INTERVAL
 CS  .IN            8.625:   CASING SIZE
 CBD .F                20:   CASING BOTTOM DRILLER
 CBL .F                20:   CASING BOTTOM LOGGER
 BS  .IN            7.875:   BIT SIZE
 BSD .F               510:   BIT SIZE AT DEPTH
 DFT .          KCL WATER:   DRILLING FLUID TYPE
 MSS .            MUD PIT:   MUD SAMPLE SOURCE
 RMS .OHMM            .14:   RESISTIVITY MUD SAMPLE
 MST .F                55:   MUD SAMPLE TEMPERATURE
 RMF .OHMM             .1:   RESISTIVITY MUD FILTRATE SAMPLE
 MFST.F                55:   MUD FILTRATE SAMPLE TEMPERATURE
 RMC .OHMM            .17:   RESISTIVITY MUD CAKE
 MCST.F                55:   MUD CAKE SAMPLE TEMPERATURE
 MFSS.               CALC:   MUD FILTRATE SAMPLE SOURCE
 MCSS.               CALC:   MUD CAKE SAMPLE SOURCE
 RMB .OHMM            .08:   RESISTIVITY MUD AT BHT
 BHT .F                86:   BOTTOM HOLE TEMPERATURE
 TCS .HRS               3:   TIME CURCULATED STOPPED
 MRT .F               100:   MAXIMUM RECORDED TEMPERATURE
 LUN .               6270:   LOGGING UNIT NUMBER
 LUL .                 FM:   LOGGING UNIT LOCATION
 ENGI.          E. GOVETT:   RECORDING ENGINEER
 WITN.      GROOMS, LUERS:   WITNESSED BY
 CLNT.            A2DTECH:   CLIENT CODE
 ORIG.           5" PRINT:   ORIGIN OF DATA
 UWI .       490251102500:   UNIQUE WELL ID
 DICO. A2D Technologies, Inc.:   DIGITIZING COMPANY
~OTHER INFORMATION
~A    DEPT     SPR       RILD       RILM       RFOC       CALS         GRS        AC   
# ...
  140.5000   -57.3337     6.9057     5.8244     7.9776     7.6200    96.6765   107.1149
  141.0000   -57.1710     7.1046     5.7078     8.0376     7.6209    91.7776   108.0915
  141.5000   -57.1575     7.3093     5.7110     8.1545     7.6366    88.8092   107.8614
  142.0000   -57.1439     7.5198     5.8342     8.3306     7.6375    90.8950   107.0280
  142.5000   -56.9813     7.6829     6.0854     8.5106     7.6533    94.7628   106.7226
  143.0000   -56.9677     7.7940     6.3473     8.6944     7.6542    95.2120   106.4171
  143.5000   -56.9541     7.5865     6.5294     8.8208     7.6551    94.6232   106.0362
  144.0000   -56.9405     7.3835     6.6703     8.8872     7.6560    93.7362   105.7928
  144.5000   -57.0794     7.2852     6.7672     8.8922     7.6569    92.4034   105.7279
  145.0000   -57.0624     7.2909     6.7624     8.8344     7.6578    90.3276   105.9577
  145.5000   -57.0488     7.2955     6.6753     8.7176     7.6587    89.5881   106.1770
  146.0000   -57.0352     7.3510     6.5438     8.4851     7.6596    91.2282   106.3952
  146.5000   -57.0216     7.3556     6.3707     8.3717     7.6454    94.9474   106.4668
  147.0000   -57.0081     7.3094     6.2438     8.2622     7.6465    96.6151   106.4630
  147.5000   -57.1469     7.2132     6.0765     8.2086     7.6474    95.5746   106.6854
  148.0000   -57.1326     7.0583     5.9137     8.1564     7.6483    92.4140   107.4357
  148.5000   -57.2688     6.8242     5.7155     8.0486     7.6492    92.4680   108.4123
  149.0000   -57.5678     6.4980     5.4103     7.8816     7.6501    93.7999   109.3135
  149.5000   -57.9940     6.0324     5.0860     7.6730     7.6659    95.1317   110.0638
  150.0000   -58.5352     5.7141     4.8326     7.3203     7.6667    95.5721   111.0404
  150.5000   -59.1530     5.3711     4.6850     6.6899     7.6827    92.1651   111.7904
  151.0000   -59.1361     5.3000     4.6556     5.9497     7.7284    84.3004   110.5017
  151.5000   -58.9735     5.2662     4.6916     5.8299     7.7890    80.4477   108.3093
  152.0000   -58.6647     5.2693     4.7932     6.6103     7.8644    86.2532   106.0415
  152.5000   -58.3532     5.3459     4.9654     7.3396     7.9101    93.0988   105.8867
  153.0000   -58.0248     5.5378     5.1437     7.6022     7.9409    96.3783   106.8604
  153.5000   -57.5698     5.8981     5.3284     7.4503     7.9271    96.3888   107.3843
  154.0000   -57.2639     6.2383     5.4816     7.8816     7.8835    91.4959   106.5481
  154.5000   -56.9583     6.5982     5.6003     8.1649     7.8399    91.2066   105.6378
  155.0000   -56.7957     6.9789     5.6821     8.3418     7.8110    91.8142   105.3318
  155.5000   -56.7822     7.3304     5.7245     8.2321     7.7971    95.2423   105.8021
  156.0000   -56.6196     7.5935     5.7280     8.0676     7.7833    99.1161   106.2264
  156.5000   -56.4570     7.8117     5.7315     7.9602     7.7695    99.5698   106.1455
  157.0000   -56.4435     7.9253     5.6955     8.1503     7.7705    93.3422   105.9140
  157.5000   -56.4300     7.9850     5.6991     8.4906     7.7567    88.5663   105.6825
  158.0000   -56.2674     7.9895     5.7027     8.7935     7.7578    86.0798   105.4509
  158.5000   -56.2539     7.9376     5.7063     8.9170     7.7588    87.6457   105.2947
  159.0000   -56.0913     7.9431     5.7496     8.9225     7.7599    90.5766   105.2140
  159.5000   -56.0778     7.9467     5.8741     8.9281     7.7758    92.3522   105.1332
  160.0000   -55.9152     7.9511     6.0430     8.9959     7.7769    96.2260   105.1279
  160.5000   -55.9017     7.9555     6.3474     9.0016     7.7779    99.3569   105.0471
  161.0000   -55.7391     8.0154     6.6211     9.0700     7.7938   100.5562   104.8155
  161.5000   -55.7255     8.0200     6.9066     9.1388     7.7949   100.8639   104.2068
  162.0000   -55.7120     8.0802     7.0561     9.2723     7.7960    98.7942   103.2211
  162.5000   -55.5494     8.1978     7.0606     9.4078     7.7970    96.5759   102.2354
  163.0000   -55.5359     8.3170     7.0151     9.5452     7.7981    94.8034   101.7775
  163.5000   -55.5224     8.4380     7.0206     9.6177     7.7991    94.2169   101.6214
  164.0000   -55.5088     8.5608     7.1231     9.6237     7.8002    95.2702   102.3702
  164.5000   -55.4953     8.6853     7.2774     9.5617     7.7861    96.4695   103.2698
  165.0000   -55.4818     8.8117     7.3836     9.4375     7.7874    96.3314   103.4921
  165.5000   -55.4709     8.8780     7.4914     9.3781     7.7884    96.4906   103.1083
  166.0000   -55.4576     8.7605     7.6007     9.3177     7.7893    97.5412   102.8648
  166.5000   -55.4441     8.6434     7.6584     9.2591     7.7903    98.2947   103.3537
  167.0000   -55.5800     8.4712     7.7155     9.2009     7.7913    97.8296   104.3937
  167.5000   -55.5663     8.4162     7.7285     9.1431     7.7924    97.7188   104.9761
  168.0000   -55.5530     8.3627     7.7789     9.0228     7.7935    98.3358   105.1191
  168.5000   -55.5394     8.3685     7.7299     8.9675     7.7945    98.4828   105.0384
  169.0000   -55.5259     8.3732     7.6283     8.9732     7.7807    96.5617   104.8068
  169.5000   -55.6617     8.3779     7.5280     8.9789     7.7817    95.2350   104.5752
  170.0000   -55.7974     8.2671     7.4291     8.9834     7.7828    95.9885   104.5699
  170.5000   -56.2304     8.1577     7.3314     8.9266     7.7838    97.0391   104.5645
  171.0000   -56.5156     7.9831     7.1851     8.8017     7.7849    97.3468   104.8608
  171.5000   -56.9485     7.7640     6.9931     8.5631     7.7860    96.9116   105.4588
  172.0000   -57.2330     7.3995     6.7592     8.2263     7.7870    95.4363   106.5093
  172.5000   -57.3719     6.9640     6.5331     7.8971     7.7881    93.5152   108.0122
  173.0000   -57.5074     6.5045     6.2710     7.5293     7.8040    91.8912   109.7414
  173.5000   -57.7919     6.1146     5.9365     7.1274     7.8050    93.0905   111.6969
  174.0000   -58.3711     5.7078     5.4662     6.7939     7.8210    94.2897   112.2194
  174.5000   -58.8081     5.2546     4.8282     6.4313     7.8369    93.5573   112.8174
  175.0000   -59.2382     4.3895     4.0627     6.0459     7.8529    93.1221   114.8483
  175.5000   -59.3771     3.6923     3.4663     5.6444     7.8688    92.8355   117.4825
  176.0000   -59.6583     3.2379     3.0617     5.1610     7.8698    91.3601   120.7954
  176.5000   -59.9428     2.8992     2.7611     4.6864     7.8707    88.8104   123.6053
  177.0000   -60.2273     2.7064     2.5958     4.1968     7.8568    84.4190   128.6234
  177.5000   -60.3662     2.5795     2.4917     3.3404     7.8430    79.4529   133.6234
  178.0000   -60.6473     2.5277     2.4585     2.9298     7.8284    78.3239   135.1796
  178.5000   -60.6338     2.4943     2.4602     3.1422     7.8003    84.4266   132.4555
  179.0000   -60.6229     2.5306     2.4814     3.7136     7.7717    92.4609   129.8144
  179.5000   -60.5841     2.6580     2.6258     4.4195     7.7430    98.1178   126.7171
  180.0000   -60.2980     2.9719     2.8788     4.3013     7.6994    99.1684   123.9214
  180.5000   -60.1212     3.3927     3.4430     4.1566     7.6855    99.0278   120.8995
  181.0000   -59.8151     3.9001     4.0366     4.2769     7.6569    99.4867   116.6709
  181.5000   -59.3636     4.3910     4.4506     5.4934     7.6428   102.3204   113.6279
  182.0000   -59.0521     4.8418     4.7730     7.5625     7.6290   107.5315   109.9483
  182.5000   -58.5915     5.1404     5.0135     7.7789     7.6152   109.9195   109.7935
  183.0000   -58.2799     5.5848     5.1576     7.3649     7.6165   110.5244   110.0144
  183.5000   -57.9683     6.0637     5.3060     7.0203     7.6024   109.0491   110.0844
  184.0000   -57.6567     6.4095     5.3834     6.8790     7.5888   106.3850   110.0023
  184.5000   -57.4941     6.7278     5.4620     6.9379     7.5899   106.6927   109.9216
  185.0000   -57.4806     6.8727     5.5034     7.0375     7.5909   108.4863   109.6900
  185.5000   -57.4670     6.7818     5.4311     7.2381     7.5920   109.3858   109.4584
