~VERSION INFORMATION
 VERS.                2.0:   CWLS LOG ASCII STANDARD - VERSION 2.0
 WRAP.                 NO:   ONE LINE PER DEPTH STEP
~WELL INFORMATION
#MNEM.UNIT      DATA TYPE    INFORMATION
#----------   ------------   ------------------------------
 STRT.F            4.0000:   START DEPTH
 STOP.F          468.5000:   STOP DEPTH
 STEP.F            0.1000:   STEP LENGTH
 NULL.          -999.2500:   NO VALUE
 COMP. BROWN JOHN E&C INC:   COMPANY
 WELL.  SX-10 #1-14-SX-10:   WELL
 FLD .        N.P.R. No.3:   FIELD
 LOC .      S10 T38N R78W:   LOCATION
 CNTY.            NATRONA:   COUNTY
 STAT.            WYOMING:   STATE
 CTRY. UNITED STATES OF AMERICA:   COUNTRY
 SRVC.     Atlas Wireline:   SERVICE COMPANY
 DATE.        21-SEP-1991:   LOGDATE
 API .       490251125800:   API NUMBER
~CURVE INFORMATION
#MNEM.UNIT       API CODE    CURVE DESCRIPTION
#----------   ------------   ------------------------------
 DEPT.F                  :   
 GRR .GAPI   07 310 01 00:   GAMMA RAY FROM RES. LOG.
 ILD .OHMM   07 120 46 00:   INDUCTION LOG DEEP
 RILM.OHMM   07 120 44 00:   INDUCTION LOG MEDIUM RESISTIVITY
~PARAMETER INFORMATION
#MNEM.UNIT          VALUE    DESCRIPTION
#----------   ------------   ------------------------------
 PD  .                 GL:   PERMANENT DATUM
 EPD .F              5183:   ELEVATION PERMANENT DATUM
 LMF .                 KB:   LOG MEASURED FROM
 DAPD.F                10:   FEET ABOVE PERMANENT DATUM
 DMF .                 KB:   DRILLING MEASURED FROM
 EKB .F              5193:   KELLING BUSHING
 EGL .F              5183:   GROUND LEVEL
 DATE.            9-21-91:   RUN DATE
 RUN .                  1:   RUN NUMBER
 DD  .F               480:   DEPTH DRILLER
 DL  .F               478:   DEPTH LOGGER
 BLI .F               470:   BOTTOM LOG INTERVAL
 CS  .IN                7:   CASING SIZE
 CBD .F                90:   CASING BOTTOM DRILLER
 CBL .F                90:   CASING BOTTOM LOGGER
 BS  .IN             6.25:   BIT SIZE
 BSD .F               480:   BIT SIZE AT DEPTH
 DFT .                AIR:   DRILLING FLUID TYPE
 TCS .HRS               1:   TIME CURCULATED STOPPED
 MRT .F                80:   MAXIMUM RECORDED TEMPERATURE
 LUN .            HL-6307:   LOGGING UNIT NUMBER
 LUL .             CASPER:   LOGGING UNIT LOCATION
 ENGI.             RAUTIO:   RECORDING ENGINEER
 WITN.             STRONG:   WITNESSED BY
 CLNT.            A2DTECH:   CLIENT CODE
 ORIG.        2" 5" PRINT:   ORIGIN OF DATA
 UWI .       490251125800:   UNIQUE WELL ID
 DICO. A2D Technologies, Inc.:   DIGITIZING COMPANY
~OTHER INFORMATION
~A    DEPT       GRR      ILD       RILM   
# ...
  440.8000   130.9335     9.2615    10.1478
  440.9000   130.5963     9.2561    10.1462
  441.0000   130.2591     9.2508    10.1446
  441.1000   129.9285     9.2398    10.1425
  441.2000   129.5979     9.2288    10.1405
  441.3000   129.2673     9.2178    10.1384
  441.4000   128.9366     9.2068    10.1364
  441.5000   128.6060     9.1958    10.1343
  441.6000   128.9435     9.1732    10.0986
  441.7000   129.2810     9.1507    10.0629
  441.8000   129.6185     9.1281    10.0272
  441.9000   129.9560     9.1056     9.9915
  442.0000   130.2935     9.0830     9.9558
  442.1000   130.8174     9.0607     9.8907
  442.2000   131.3414     9.0385     9.8257
  442.3000   131.8653     9.0162     9.7607
  442.4000   132.3892     8.9939     9.6957
  442.5000   132.9131     8.9717     9.6307
  442.6000   132.9519     8.9497     9.5678
  442.7000   132.9906     8.9277     9.5049
  442.8000   133.0294     8.9057     9.4420
  442.9000   133.0682     8.8837     9.3791
  443.0000   133.1069     8.8617     9.3162
  443.1000   133.1438     8.8399     9.2655
  443.2000   133.1806     8.8182     9.2147
  443.3000   133.2174     8.7965     9.1640
  443.4000   133.2543     8.7747     9.1132
  443.5000   133.2911     8.7530     9.0625
  443.6000   133.9696     8.7316     9.0515
  443.7000   134.6481     8.7101     9.0405
  443.8000   135.3266     8.6886     9.0295
  443.9000   136.0052     8.6672     9.0185
  444.0000   136.6837     8.6457     9.0075
  444.1000   137.4945     8.6245     8.9963
  444.2000   138.3054     8.6033     8.9850
  444.3000   139.1163     8.5821     8.9738
  444.4000   139.9271     8.5609     8.9625
  444.5000   140.7380     8.5397     8.9512
  444.6000   141.2780     8.5188     8.9400
  444.7000   141.8180     8.4978     8.9289
  444.8000   142.3581     8.4769     8.9177
  444.9000   142.8981     8.4560     8.9065
  445.0000   143.4381     8.4350     8.8953
  445.1000   142.7378     8.4143     8.8842
  445.2000   142.0375     8.3937     8.8730
  445.3000   141.3372     8.3730     8.8619
  445.4000   140.6369     8.3523     8.8508
  445.5000   139.9366     8.3316     8.8397
  445.6000   138.8363     8.3112     8.8286
  445.7000   137.7361     8.2907     8.8176
  445.8000   136.6359     8.2703     8.8065
  445.9000   135.5357     8.2499     8.7955
  446.0000   134.4355     8.2295     8.7844
  446.1000   133.8046     8.2093     8.7740
  446.2000   133.1736     8.1891     8.7636
  446.3000   132.5427     8.1689     8.7532
  446.4000   131.9118     8.1487     8.7429
  446.5000   131.2808     8.1286     8.7325
  446.6000   131.4363     8.1086     8.7079
  446.7000   131.5918     8.0887     8.6834
  446.8000   131.7473     8.0688     8.6589
  446.9000   131.9028     8.0488     8.6344
  447.0000   132.0582     8.0289     8.6098
  447.1000   132.4037     7.9989     8.5817
  447.2000   132.7491     7.9689     8.5535
  447.3000   133.0946     7.9389     8.5254
  447.4000   133.4400     7.9089     8.4972
  447.5000   133.7855     7.8788     8.4691
  447.6000   134.1304     7.8190     8.4420
  447.7000   134.4753     7.7591     8.4150
  447.8000   134.8201     7.6992     8.3880
  447.9000   135.1650     7.6394     8.3609
  448.0000   135.5099     7.5795     8.3339
  448.1000   135.8335     7.5219     8.2333
  448.2000   136.1572     7.4643     8.1326
  448.3000   136.4808     7.4068     8.0320
  448.4000   136.8044     7.3492     7.9313
  448.5000   137.1280     7.2916     7.8307
  448.6000   137.4198     7.2362     7.7331
  448.7000   137.7117     7.1808     7.6354
  448.8000   138.0036     7.1254     7.5378
  448.9000   138.2954     7.0700     7.4401
  449.0000   138.5873     7.0146     7.3425
  449.1000   138.8740     7.0081     7.3078
  449.2000   139.1607     7.0017     7.2732
  449.3000   139.4473     6.9953     7.2385
  449.4000   139.7340     6.9888     7.2039
  449.5000   140.0207     6.9824     7.1692
  449.6000   140.2885     6.9823     7.1647
  449.7000   140.5564     6.9822     7.1602
  449.8000   140.8243     6.9822     7.1557
  449.9000   141.0922     6.9821     7.1512
  450.0000   141.3600     6.9821     7.1467
  450.1000   141.5912     6.9821     7.1422
  450.2000   141.8224     6.9821     7.1377
  450.3000   142.0535     6.9821     7.1332
  450.4000   142.2847     6.9822     7.1287
  450.5000   142.5159     6.9822     7.1243
  450.6000   142.6300     6.9822     7.1221
  450.7000   142.7442     6.9822     7.1200
  450.8000   142.8584     6.9822     7.1179
  450.9000   142.9726     6.9822     7.1158
  451.0000   143.0867     6.9822     7.1136
  451.1000   143.3128     6.9823     7.2665
  451.2000   143.5388     6.9824     7.4193
  451.3000   143.7648     6.9825     7.5721
  451.4000   143.9908     6.9826     7.7250
  451.5000   144.2169     6.9827     7.8778
  451.6000   144.1894     6.9822     7.9614
  451.7000   144.1619     6.9817     8.0450
  451.8000   144.1344     6.9812     8.1286
  451.9000   144.1069     6.9807     8.2122
  452.0000   144.0794     6.9802     8.2959
  452.1000  -999.2500     7.0886     8.4056
  452.2000  -999.2500     7.1969     8.5153
  452.3000  -999.2500     7.3053     8.6251
  452.4000  -999.2500     7.4136     8.7348
  452.5000  -999.2500     7.5219     8.8446
  452.6000  -999.2500     7.6066     8.9617
  452.7000  -999.2500     7.6913     9.0788
  452.8000  -999.2500     7.7759     9.1959
  452.9000  -999.2500     7.8606     9.3130
  453.0000  -999.2500     7.9453     9.4301
  453.1000  -999.2500     8.0347     9.5521
  453.2000  -999.2500     8.1241     9.6741
  453.3000  -999.2500     8.2135     9.7961
  453.4000  -999.2500     8.3029     9.9181
  453.5000  -999.2500     8.3923    10.0401
  453.6000  -999.2500     8.4866    10.0731
  453.7000  -999.2500     8.5810    10.1061
  453.8000  -999.2500     8.6754    10.1392
  453.9000  -999.2500     8.7698    10.1722
  454.0000  -999.2500     8.8641    10.2052
  454.1000  -999.2500     8.9444    10.2375
  454.2000  -999.2500     9.0247    10.2697
  454.3000  -999.2500     9.1049    10.3020
  454.4000  -999.2500     9.1852    10.3343
  454.5000  -999.2500     9.2655    10.3666
  454.6000  -999.2500     9.2915    10.3995
  454.7000  -999.2500     9.3175    10.4324
  454.8000  -999.2500     9.3435    10.4652
  454.9000  -999.2500     9.3695    10.4981
  455.0000  -999.2500     9.3955    10.5310
  455.1000  -999.2500     9.4219    10.5515
  455.2000  -999.2500     9.4483    10.5719
  455.3000  -999.2500     9.4746    10.5924
  455.4000  -999.2500     9.5010    10.6129
  455.5000  -999.2500     9.5274    10.6333
  455.6000  -999.2500     9.5563    10.6400
  455.7000  -999.2500     9.5852    10.6468
  455.8000  -999.2500     9.6141    10.6535
  455.9000  -999.2500     9.6431    10.6602
  456.0000  -999.2500     9.6720    10.6670
  456.1000  -999.2500     9.6807    10.6768
  456.2000  -999.2500     9.6895    10.6867
  456.3000  -999.2500     9.6982    10.6966
  456.4000  -999.2500     9.7070    10.7065
  456.5000  -999.2500     9.7157    10.7164
  456.6000  -999.2500     9.7253    10.7029
  456.7000  -999.2500     9.7348    10.6893
  456.8000  -999.2500     9.7443    10.6757
  456.9000  -999.2500     9.7538    10.6622
  457.0000  -999.2500     9.7633    10.6486
  457.1000  -999.2500     9.7688    10.6236
  457.2000  -999.2500     9.7743    10.5985
  457.3000  -999.2500     9.7798    10.5734
  457.4000  -999.2500     9.7854    10.5483
  457.5000  -999.2500     9.7909    10.5232
  457.6000  -999.2500     9.7967    10.4985
  457.7000  -999.2500     9.8025    10.4737
  457.8000  -999.2500     9.8083    10.4489
  457.9000  -999.2500     9.8141    10.4241
  458.0000  -999.2500     9.8199    10.3993
  458.1000  -999.2500     9.8269    10.3748
  458.2000  -999.2500     9.8339    10.3504
  458.3000  -999.2500     9.8408    10.3259
  458.4000  -999.2500     9.8478    10.3014
  458.5000  -999.2500     9.8548    10.2769
  458.6000  -999.2500     9.8327    10.2673
  458.7000  -999.2500     9.8107    10.2577
  458.8000  -999.2500     9.7886    10.2481
  458.9000  -999.2500     9.7665    10.2385
