~VERSION INFORMATION
 VERS.                2.0:   CWLS LOG ASCII STANDARD - VERSION 2.0
 WRAP.                 NO:   ONE LINE PER DEPTH STEP
~WELL INFORMATION
#MNEM.UNIT      DATA TYPE    INFORMATION
#----------   ------------   ------------------------------
 STRT.F           24.5000:   START DEPTH
 STOP.F          506.0000:   STOP DEPTH
 STEP.F            0.5000:   STEP LENGTH
 NULL.          -999.2500:   NO VALUE
 COMP. FENIX & SCISSON INC:   COMPANY
 WELL.    NPR 3 SX #44-10:   WELL
 FLD .        TEAPOT DOME:   FIELD
 LOC .      S10 T38N R78W:   LOCATION
 CNTY.            NATRONA:   COUNTY
 STAT.            WYOMING:   STATE
 CTRY. UNITED STATES OF AMERICA:   COUNTRY
 SRVC.           BIRDWELL:   SERVICE COMPANY
 DATE.        14-NOV-1978:   LOGDATE
 API .       490251074700:   API NUMBER
~CURVE INFORMATION
#MNEM.UNIT       API CODE    CURVE DESCRIPTION
#----------   ------------   ------------------------------
 DEPT.F                  :   
 SPR .MV     05 010 01 00:   SPONTANEOUS POTENTIAL FROM RES.
 IL  .OHMM   05 120 00 00:   INDUCTION LOG
 SN  .OHMM   05 040 16 00:   SHORT NORMAL 16"
 CALD.IN     45 280 60 00:   CALIPER
 GRD .GAPI   45 310 01 00:   GAMMA RAY FROM DENSITY LOG
 RHOB.G/C3   45 350 01 00:   BULK DENSITY
 DPHI.DEC    45 890 12 00:   DENSITY POROSITY SANDSTONE
 DRHO.G/C3   45 356 01 00:   DENSITY CORRECTION
~PARAMETER INFORMATION
#MNEM.UNIT          VALUE    DESCRIPTION
#----------   ------------   ------------------------------
 PD  .                 GL:   PERMANENT DATUM
 EPD .F              5211:   ELEVATION PERMANENT DATUM
 LMF .                 KB:   LOG MEASURED FROM
 DAPD.F                 4:   FEET ABOVE PERMANENT DATUM
 DMF .                 KB:   DRILLING MEASURED FROM
 EKB .F              5215:   KELLING BUSHING
 EGL .F              5211:   GROUND LEVEL
 DATE.           11-14-78:   RUN DATE
 RUN .                  1:   RUN NUMBER
 DD  .F               510:   DEPTH DRILLER
 DL  .F               506:   DEPTH LOGGER
 BLI .F               500:   BOTTOM LOG INTERVAL
 TLI .F                45:   TOP LOG INTERVAL
 CS  .IN            8.625:   CASING SIZE
 CBD .F                40:   CASING BOTTOM DRILLER
 CBL .F                40:   CASING BOTTOM LOGGER
 BS  .IN            7.875:   BIT SIZE
 BSD .F               510:   BIT SIZE AT DEPTH
 DFT .            SEA MUD:   DRILLING FLUID TYPE
 DFD .                8.7:   DRILLING FLUID DENSITY
 DFV .                 35:   DRILLING FLUID VISCOSITY
 DFPH.               10.5:   DRILLING FLUID PH
 MSS .            MUD PIT:   MUD SAMPLE SOURCE
 RMS .OHMM            .51:   RESISTIVITY MUD SAMPLE
 MST .F                54:   MUD SAMPLE TEMPERATURE
 RMF .OHMM            .45:   RESISTIVITY MUD FILTRATE SAMPLE
 MFST.F                54:   MUD FILTRATE SAMPLE TEMPERATURE
 RMC .OHMM             .5:   RESISTIVITY MUD CAKE
 MCST.F                60:   MUD CAKE SAMPLE TEMPERATURE
 MFSS.           MEASURED:   MUD FILTRATE SAMPLE SOURCE
 MCSS.           MEASURED:   MUD CAKE SAMPLE SOURCE
 RMB .OHMM            .49:   RESISTIVITY MUD AT BHT
 BHT .F                56:   BOTTOM HOLE TEMPERATURE
 TCS .HRS               2:   TIME CURCULATED STOPPED
 MRT .F                56:   MAXIMUM RECORDED TEMPERATURE
 LUN .               2958:   LOGGING UNIT NUMBER
 LUL .               CASP:   LOGGING UNIT LOCATION
 ENGI.             MILLER:   RECORDING ENGINEER
 WITN.           DINSMORE:   WITNESSED BY
 CLNT.            A2DTECH:   CLIENT CODE
 ORIG.       2", 5" PRINT:   ORIGIN OF DATA
 UWI .       490251074700:   UNIQUE WELL ID
 DICO. A2D Technologies, Inc.:   DIGITIZING COMPANY
~OTHER INFORMATION
~A   DEPT      SPR         IL         SN       CALD         GRD      RHOB       DPHI       DRHO   
# ...
  348.5000   -26.6170    17.0190    17.5110     8.1010    76.3020     2.4100     0.1560     0.0050
  349.0000   -26.7540    16.8220    17.3530     8.1010    76.2790     2.4180     0.1510     0.0050
  349.5000   -26.8970    16.6240    17.1960     8.1020    75.8900     2.4230     0.1500     0.0050
  350.0000   -27.6390    16.4270    17.0390     8.1030    75.5100     2.4210     0.1520     0.0070
  350.5000   -28.9760    16.2290    16.8810     8.1030    75.1210     2.4160     0.1570     0.0080
  351.0000   -29.8520    16.0320    16.7240     8.1040    75.1770     2.4090     0.1610     0.0090
  351.5000   -26.7500    15.8340    16.5670     8.1050    75.2520     2.4070     0.1620     0.0110
  352.0000   -25.9850    15.6370    16.4090     8.1050    74.7480     2.4050     0.1620     0.0120
  352.5000   -26.1650    15.4390    16.2520     8.1060    72.7720     2.4050     0.1630     0.0130
  353.0000   -26.3600    15.3080    16.1630     8.1070    71.7630     2.4070     0.1590     0.0150
  353.5000   -26.5500    15.3080    16.1180     8.1070    71.8350     2.4120     0.1530     0.0180
  354.0000   -26.7390    15.3080    16.0730     8.1080    72.5680     2.4210     0.1480     0.0210
  354.5000   -26.9270    15.3080    16.0280     8.1090    73.8350     2.4340     0.1420     0.0230
  355.0000   -27.0820    15.3080    15.9830     8.1090    75.3040     2.4400     0.1400     0.0230
  355.5000   -27.2280    15.3070    15.9380     8.1100    75.4330     2.4420     0.1390     0.0220
  356.0000   -27.3740    15.3090    15.8930     8.1080    74.6620     2.4430     0.1400     0.0210
  356.5000   -27.5210    15.2650    15.8180     8.1070    73.9280     2.4440     0.1450     0.0210
  357.0000   -27.6720    15.1480    15.7340     8.1050    74.0250     2.4360     0.1490     0.0200
  357.5000   -28.0200    15.0310    15.6510     8.1030    74.2490     2.4320     0.1490     0.0200
  358.0000   -29.2110    14.9150    15.5670     8.1020    74.6150     2.4290     0.1490     0.0220
  358.5000   -30.4510    14.7980    15.4830     8.1000    74.8980     2.4290     0.1480     0.0230
  359.0000   -29.9090    14.6820    15.4000     8.0990    74.8420     2.4340     0.1450     0.0250
  359.5000   -28.5690    14.5650    15.3160     8.0970    74.7920     2.4370     0.1420     0.0270
  360.0000   -28.6340    14.4490    15.2320     8.0960    74.7470     2.4400     0.1390     0.0290
  360.5000   -28.9090    14.3320    15.1670     8.0940    74.7550     2.4450     0.1340     0.0300
  361.0000   -29.1890    14.2190    15.1420     8.0920    75.7940     2.4550     0.1290     0.0320
  361.5000   -29.3960    14.2090    15.1030     8.0910    77.7690     2.4640     0.1250     0.0340
  362.0000   -29.1040    14.1980    15.0630     8.0890    79.7850     2.4730     0.1200     0.0350
  362.5000   -28.7770    14.1880    15.0230     8.0830    79.8710     2.4800     0.1200     0.0330
  363.0000   -28.4500    14.1770    14.9830     8.0780    79.7460     2.4750     0.1220     0.0310
  363.5000   -28.1250    14.1670    14.9430     8.0720    79.6230     2.4730     0.1240     0.0300
  364.0000   -27.8050    14.1560    14.8900     8.0670    79.5010     2.4740     0.1220     0.0280
  364.5000   -27.7250    14.1460    14.9310     8.0610    79.3790     2.4790     0.1190     0.0310
  365.0000   -28.2770    14.1350    14.9920     8.0560    79.3270     2.4800     0.1180     0.0360
  365.5000   -28.8090    14.1250    15.0540     8.0510    80.5180     2.4750     0.1220     0.0440
  366.0000   -29.3370    14.1150    15.1150     8.0450    81.7990     2.4690     0.1270     0.0540
  366.5000   -29.8650    14.1040    15.1760     8.0400    82.9580     2.4640     0.1310     0.0760
  367.0000   -30.2070    14.0940    15.2370     8.0340    83.0470     2.4580     0.1320     0.1000
  367.5000   -30.2030    14.0830    15.2980     8.0280    83.4590     2.4540     0.1280     0.1250
  368.0000   -30.2060    14.0730    15.3590     8.0190    84.0890     2.4830     0.1190     0.1490
  368.5000   -30.2120    14.0620    15.4210     8.0100    83.2500     2.4930     0.1110     0.1580
  369.0000   -30.2080    14.0520    15.4500     8.0010    79.9610     2.4970     0.1030     0.1560
  369.5000   -31.7110    14.0410    15.2860     7.9920    76.7250     2.5050     0.0950     0.1480
  370.0000   -34.5270    14.0310    15.1400     7.9830    75.9720     2.5130     0.0860     0.1290
  370.5000   -32.3670    14.0200    14.9950     7.9730    79.2490     2.5220     0.0970     0.0960
  371.0000   -32.0360    14.0100    14.8490     7.9730    81.8240     2.5070     0.1110     0.0630
  371.5000   -32.5900    14.0000    14.7040     7.9790    81.8020     2.4840     0.1240     0.0350
  372.0000   -32.0250    13.9890    14.5590     7.9840    81.6960     2.4630     0.1320     0.0140
  372.5000   -31.4390    13.9780    14.3510     7.9890    82.0580     2.4490     0.1360     0.0090
  373.0000   -30.8540    13.9680    14.3990     7.9940    82.6070     2.4490     0.1370     0.0080
  373.5000   -30.2790    13.9570    14.4840     8.0000    82.5850     2.4510     0.1350     0.0080
  374.0000   -30.3120    14.0000    14.5680     8.0050    81.9120     2.4520     0.1320     0.0070
  374.5000   -30.4320    14.0690    14.6520     8.0100    81.2510     2.4540     0.1290     0.0070
  375.0000   -30.5540    14.1370    14.7370     8.0150    81.1450     2.4630     0.1260     0.0070
  375.5000   -30.6770    14.2060    14.9260     8.0210    82.0970     2.4710     0.1230     0.0070
  376.0000   -30.7970    14.6470    15.1410     8.0260    83.3520     2.4730     0.1230     0.0070
  376.5000   -30.5810    15.1670    15.3560     8.0310    86.9980     2.4740     0.1200     0.0070
  377.0000   -30.3340    16.0920    15.5710     8.0360    87.8110     2.4770     0.1180     0.0070
  377.5000   -30.0860    17.0010    15.9750     8.0420    87.4810     2.4790     0.1190     0.0070
  378.0000   -29.8380    17.9100    17.0150     8.0470    85.9870     2.4790     0.1190     0.0070
  378.5000   -29.5910    18.8120    18.0540     8.0520    82.8710     2.4770     0.1240     0.0070
  379.0000   -29.3450    20.1170    19.0940     8.0570    80.6720     2.4550     0.1390     0.0080
  379.5000   -29.0970    21.4220    20.1340     8.0620    78.3630     2.4320     0.1540     0.0080
  380.0000   -29.1980    22.7270    21.1740     8.0680    71.8350     2.4090     0.1640     0.0090
  380.5000   -29.5310    24.0320    22.2140     8.0420    65.2650     2.3860     0.1690     0.0130
  381.0000   -30.8230    24.8340    23.1790     7.9940    58.7990     2.3660     0.1750     0.0270
  381.5000   -32.7270    25.0690    23.8620     7.9460    57.7350     2.3810     0.1660     0.0400
  382.0000   -31.6260    25.3040    24.4990     7.8990    60.1930     2.4120     0.1490     0.0480
  382.5000   -30.4110    25.5380    24.9530     7.8830    62.7610     2.4430     0.1320     0.0480
  383.0000   -30.4000    25.8910    24.9530     7.9150    63.4430     2.4740     0.1150     0.0410
  383.5000   -30.5730    25.8280    24.9530     7.9470    62.0220     2.5020     0.1020     0.0230
  384.0000   -29.9070    25.7020    24.8660     7.9800    62.1690     2.5000     0.1070     0.0100
  384.5000   -29.2270    25.5770    24.7430     7.9760    62.3070     2.4700     0.1300     0.0080
  385.0000   -28.5720    25.4510    24.6190     7.9560    62.4310     2.4400     0.1520     0.0080
  385.5000   -27.9530    25.3260    24.4960     7.9550    62.8260     2.4090     0.1750     0.0080
  386.0000   -27.3510    25.2000    24.3720     7.9670    64.7330     2.3780     0.1900     0.0090
  386.5000   -26.7320    25.0750    24.2480     7.9780    65.2730     2.3500     0.1950     0.0100
  387.0000   -26.5960    24.9490    24.1250     7.9890    65.2780     2.3540     0.1910     0.0100
  387.5000   -26.6210    24.8240    24.0010     8.0000    66.0050     2.3600     0.1870     0.0110
  388.0000   -26.6520    24.6980    23.8780     8.0110    67.0050     2.3650     0.1840     0.0110
  388.5000   -26.6830    24.5730    23.7540     8.0220    68.0150     2.3670     0.1840     0.0120
