~VERSION INFORMATION
 VERS.                2.0:   CWLS LOG ASCII STANDARD - VERSION 2.0
 WRAP.                 NO:   ONE LINE PER DEPTH STEP
~WELL INFORMATION
#MNEM.UNIT      DATA TYPE    INFORMATION
#----------   ------------   ------------------------------
 STRT.F           40.0000:   START DEPTH
 STOP.F          821.0000:   STOP DEPTH
 STEP.F            0.5000:   STEP LENGTH
 NULL.          -999.2500:   NO VALUE
 COMP. FENIX & SCISSON INC:   COMPANY
 WELL. NPR 3 -68 SX #68-27:   WELL
 FLD .             TEAPOT:   FIELD
 LOC .      S27 T39N R78W:   LOCATION
 CNTY.            NATRONA:   COUNTY
 STAT.            WYOMING:   STATE
 CTRY. UNITED STATES OF AMERICA:   COUNTRY
 SRVC.           BIRDWELL:   SERVICE COMPANY
 DATE.        11-SEP-1978:   LOGDATE
 API .       490251069500:   API NUMBER
~CURVE INFORMATION
#MNEM.UNIT       API CODE    CURVE DESCRIPTION
#----------   ------------   ------------------------------
 DEPT.F                  :   
 SPR .MV     05 010 01 00:   SPONTANEOUS POTENTIAL FROM RES.
 SN  .OHMM   05 040 16 00:   SHORT NORMAL 16"
 ILD .OHMM   05 120 46 00:   INDUCTION LOG DEEP
 GRD .GAPI   45 310 01 00:   GAMMA RAY FROM DENSITY LOG
 CALD.IN     45 280 60 00:   CALIPER
 RHOB.G/C3   45 350 01 00:   BULK DENSITY
 CORR.G/C3   45 356 01 00:   DENSITY CORRECTION
 DPHI.DEC    45 890 12 00:   DENSITY POROSITY SANDSTONE
~PARAMETER INFORMATION
#MNEM.UNIT          VALUE    DESCRIPTION
#----------   ------------   ------------------------------
 PD  .                 GL:   PERMANENT DATUM
 EPD .F              5032:   ELEVATION PERMANENT DATUM
 LMF .                 GL:   LOG MEASURED FROM
 DAPD.F                 4:   FEET ABOVE PERMANENT DATUM
 DMF .                 GL:   DRILLING MEASURED FROM
 EKB .F              5036:   KELLING BUSHING
 EGL .F              5032:   GROUND LEVEL
 DATE.            9-11-78:   RUN DATE
 RUN .                  1:   RUN NUMBER
 DD  .F               820:   DEPTH DRILLER
 DL  .F               822:   DEPTH LOGGER
 BLI .F               818:   BOTTOM LOG INTERVAL
 TLI .F                40:   TOP LOG INTERVAL
 CS  .IN            8.625:   CASING SIZE
 CBD .F                40:   CASING BOTTOM DRILLER
 CBL .F                40:   CASING BOTTOM LOGGER
 BS  .IN            7.875:   BIT SIZE
 BSD .F               820:   BIT SIZE AT DEPTH
 DFT .                KCL:   DRILLING FLUID TYPE
 DFD .                8.6:   DRILLING FLUID DENSITY
 DFV .                 34:   DRILLING FLUID VISCOSITY
 DFPH.                  9:   DRILLING FLUID PH
 DFL .                  8:   DRILLING FLUID LOSS
 MSS .           FLOWLINE:   MUD SAMPLE SOURCE
 RMS .OHMM            .24:   RESISTIVITY MUD SAMPLE
 MST .F                62:   MUD SAMPLE TEMPERATURE
 RMF .OHMM            .18:   RESISTIVITY MUD FILTRATE SAMPLE
 MFST.F                64:   MUD FILTRATE SAMPLE TEMPERATURE
 RMC .OHMM             .3:   RESISTIVITY MUD CAKE
 MCST.F                66:   MUD CAKE SAMPLE TEMPERATURE
 MFSS.               MEAS:   MUD FILTRATE SAMPLE SOURCE
 MCSS.               MEAS:   MUD CAKE SAMPLE SOURCE
 RMB .OHMM            .22:   RESISTIVITY MUD AT BHT
 BHT .F                68:   BOTTOM HOLE TEMPERATURE
 TCS .HRS               1:   TIME CURCULATED STOPPED
 MRT .F                68:   MAXIMUM RECORDED TEMPERATURE
 LUN .               3006:   LOGGING UNIT NUMBER
 LUL .               CASP:   LOGGING UNIT LOCATION
 ENGI.            POINTER:   RECORDING ENGINEER
 WITN.              AMEND:   WITNESSED BY
 CLNT.            A2DTECH:   CLIENT CODE
 ORIG.           5" PRINT:   ORIGIN OF DATA
 UWI .       490251069500:   UNIQUE WELL ID
 DICO. A2D Technologies, Inc.:   DIGITIZING COMPANY
~OTHER INFORMATION
~A   DEPT       SPR        SN        ILD         GRD        CALD     RHOB       CORR       DPHI   
# ...
  566.5000   -40.5609     6.9221     5.9486   100.8584     7.9834     2.4437     0.0217     0.1647
  567.0000   -40.3601     6.6351     5.7783   103.6983     7.9858     2.4538     0.0235     0.1606
  567.5000   -40.1811     6.3601     5.6130   106.8021     7.9884     2.4655     0.0231     0.1394
  568.0000   -40.1586     6.1594     5.4524   139.7751     7.9970     2.4797     0.0227     0.1254
  568.5000   -40.1360     6.2645     5.3640   139.1911     8.0205     2.4941     0.0223     0.1167
  569.0000   -40.1128     6.3911     5.3637   130.5485     8.0447     2.5023     0.0220     0.1136
  569.5000   -40.0895     6.5203     5.4822   115.3087     8.0498     2.5049     0.0216     0.1129
  570.0000   -40.0662     6.6521     5.6218   116.7541     8.0353     2.5065     0.0213     0.1124
  570.5000   -40.0428     6.7866     5.7652   113.2457     8.0192     2.5075     0.0209     0.1107
  571.0000   -40.0193     6.9214     5.9123   102.3655     8.0034     2.5100     0.0206     0.1080
  571.5000   -39.9967     7.1971     6.0719   103.1580     7.9907     2.5140     0.0202     0.1053
  572.0000   -40.0174     7.4994     6.3774   103.8283     7.9987     2.5180     0.0199     0.1025
  572.5000   -40.1512     7.8158     6.6982   101.5171     8.0063     2.5210     0.0196     0.1000
  573.0000   -40.2831     8.1175     7.0062    97.1729     8.0138     2.5190     0.0181     0.0992
  573.5000   -40.4150     8.2850     7.1985    95.7777     8.0214     2.5171     0.0190     0.0993
  574.0000   -40.5469     8.4786     7.3455   100.0286     8.0289     2.5152     0.0198     0.0995
  574.5000   -40.6788     8.6575     7.4954   102.9548     8.0365     2.5150     0.0207     0.0996
  575.0000   -40.8108     8.6575     7.6111   104.7339     8.0440     2.5151     0.0214     0.1006
  575.5000   -40.9457     8.6317     7.5647   107.9120     8.0506     2.5152     0.0209     0.1062
  576.0000   -40.9075     8.6083     7.5135   116.1691     8.0528     2.5153     0.0203     0.1090
  576.5000   -40.8030     8.5849     7.4627   119.1832     8.0552     2.5155     0.0197     0.1072
  577.0000   -40.6971     8.4818     7.4121   106.5808     8.0575     2.5156     0.0191     0.1054
  577.5000   -40.5919     8.3289     7.3620   106.3270     8.0598     2.5157     0.0185     0.1037
  578.0000   -40.5311     8.1787     7.3124   106.3853     8.0622     2.5159     0.0180     0.1028
  578.5000   -40.4759     8.0312     7.2574   105.1989     8.0645     2.5160     0.0175     0.1065
  579.0000   -40.4187     7.8864     7.1678   103.7483     8.0668     2.5151     0.0175     0.1105
  579.5000   -40.2651     7.7442     7.0703   106.7815     8.0693     2.5025     0.0175     0.1186
  580.0000   -39.8594     7.6046     6.6792   112.7944     8.0697     2.4776     0.0175     0.1303
  580.5000   -39.4601     7.4398     6.2562   108.3409     8.0876     2.4527     0.0175     0.1420
  581.0000   -39.1626     7.1510     5.8563    99.6708     8.1136     2.4384     0.0175     0.1523
  581.5000   -39.1315     6.8734     5.5590    93.1080     8.1399     2.4543     0.0175     0.1532
  582.0000   -39.0959     6.6066     5.5720    93.3193     8.1663     2.4758     0.0175     0.1489
  582.5000   -39.0602     6.3904     5.5156    95.1836     8.1898     2.4976     0.0175     0.1277
  583.0000   -39.0242     6.3904     5.5806   100.1230     8.1841     2.5128     0.0173     0.1012
  583.5000   -38.9843     6.6252     5.6672   104.8165     8.1587     2.5159     0.0171     0.1017
  584.0000   -39.1793     6.9953     5.7551   108.4404     8.1344     2.5146     0.0168     0.1053
  584.5000   -39.4641     7.3830     5.9369   108.1285     8.1102     2.5131     0.0165     0.1088
  585.0000   -39.7508     7.7918     6.4115   104.8042     8.0860     2.5142     0.0162     0.1095
  585.5000   -40.0378     8.2232     6.9379   102.8769     8.0618     2.5155     0.0160     0.1089
  586.0000   -40.3245     8.6575     7.5048   102.6259     8.0376     2.5161     0.0157     0.1083
  586.5000   -40.5799     8.9017     7.9008   102.6150     8.0133     2.5171     0.0159     0.1078
  587.0000   -40.5824     8.9757     7.8122   103.0361     7.9891     2.5180     0.0186     0.1072
  587.5000   -40.5814     8.9896     7.7274   104.0211     7.9649     2.5190     0.0212     0.1066
  588.0000   -40.5812     9.0615     7.6438   106.4958     7.9405     2.5194     0.0239     0.1068
  588.5000   -40.5812     9.0162     7.6075   108.8460     7.9303     2.5197     0.0265     0.1076
  589.0000   -40.5812     8.9756     7.6014   110.5312     7.9394     2.5201     0.0291     0.1080
  589.5000   -40.5812     8.9352     7.5953   110.5595     7.9661     2.5205     0.0318     0.1073
  590.0000   -40.5812     8.8950     7.5893   110.5584     7.9926     2.5209     0.0344     0.1064
  590.5000   -40.5812     8.8550     7.5833   110.5573     8.0191     2.5212     0.0371     0.1055
  591.0000   -40.5812     8.8152     7.5772   110.7675     8.0456     2.5216     0.0369     0.1046
  591.5000   -40.5812     8.7756     7.5712   111.1702     8.0721     2.5219     0.0363     0.1037
  592.0000   -40.5812     8.7375     7.5652   116.7403     8.0986     2.5210     0.0357     0.1028
  592.5000   -40.5812     8.6826     7.5592   118.1224     8.1253     2.5199     0.0350     0.1019
  593.0000   -40.5812     8.6174     7.5532   116.7674     8.1350     2.5189     0.0344     0.1011
  593.5000   -40.5812     8.5526     7.5471   114.6926     8.1413     2.5180     0.0338     0.1000
  594.0000   -40.5812     8.4884     7.5404   111.6827     8.1475     2.5180     0.0331     0.1011
  594.5000   -40.5812     8.4246     7.5430   108.6607     8.1537     2.5175     0.0325     0.1028
  595.0000   -40.5812     8.3613     7.4257   106.2075     8.1599     2.5170     0.0318     0.1045
  595.5000   -40.5812     8.2985     7.3348   104.4761     8.1661     2.5097     0.0312     0.1060
  596.0000   -40.5812     8.2361     7.2109   102.8386     8.1723     2.4980     0.0306     0.1134
  596.5000   -40.5812     8.1743     6.9976   102.5172     8.1785     2.4878     0.0299     0.1216
  597.0000   -40.5812     8.1175     6.7906   117.8953     8.1847     2.4775     0.0295     0.1297
  597.5000   -40.5812     7.8728     6.5898   118.3490     8.1909     2.4696     0.0295     0.1360
  598.0000   -40.5812     7.6279     6.3870   118.0226     8.1971     2.4830     0.0295     0.1298
  598.5000   -40.5810     7.3906     6.3926   116.0571     8.2034     2.4999     0.0294     0.1100
  599.0000   -40.5809     7.1364     6.3910   113.7693     8.2096     2.5053     0.0280     0.1072
  599.5000   -40.5888     7.1803     6.3904   111.5928     8.2158     2.5100     0.0251     0.1064
  600.0000   -40.6612     7.2442     6.3904   109.3481     8.2220     2.5087     0.0221     0.1080
  600.5000   -40.7305     7.3087     6.3903   105.2403     8.2284     2.5035     0.0196     0.1107
  601.0000   -40.6761     7.3737     6.3899   100.7862     8.2268     2.4957     0.0202     0.1177
  601.5000   -40.4005     7.4393     6.3904   100.8812     8.2162     2.4832     0.0210     0.1339
  602.0000   -39.8318     7.4724     6.1312   101.9749     8.2055     2.4568     0.0226     0.1541
  602.5000   -38.7484     7.2006     5.8555   103.0629     8.1950     2.4288     0.0264     0.1722
  603.0000   -37.7750     6.8106     5.6180   106.1167     8.1844     2.4104     0.0301     0.1736
  603.5000   -37.7080     6.4416     5.5156   109.8110     8.1738     2.4546     0.0334     0.1624
  604.0000   -37.6545     6.0927     5.5156   110.6299     8.1631     2.4941     0.0318     0.1400
  604.5000   -37.5980     5.9917     5.5156   111.5710     8.1537     2.5226     0.0299     0.1176
  605.0000   -37.5408     6.0446     5.5156   111.6159     8.1188     2.5187     0.0280     0.1028
  605.5000   -37.4832     6.1209     5.5156   108.7146     8.0525     2.5142     0.0275     0.0976
  606.0000   -37.4246     6.2767     5.5665   105.2367     7.9839     2.5098     0.0324     0.1008
  606.5000   -37.3765     6.9134     5.8085   103.4696     7.8997     2.5054     0.0385     0.1044
