~VERSION INFORMATION
 VERS.                2.0:   CWLS LOG ASCII STANDARD - VERSION 2.0
 WRAP.                 NO:   ONE LINE PER DEPTH STEP
~WELL INFORMATION
#MNEM.UNIT      DATA TYPE    INFORMATION
#----------   ------------   ------------------------------
 STRT.F          502.0000:   START DEPTH
 STOP.F         5661.0000:   STOP DEPTH
 STEP.F            0.5000:   STEP LENGTH
 NULL.          -999.2500:   NO VALUE
 COMP. FENIX & SCISSON INC:   COMPANY
 WELL.   NPR 3 #32DX22-22:   WELL
 FLD .             TEAPOT:   FIELD
 LOC .      S22 T38N R78W:   LOCATION
 CNTY.            NATRONA:   COUNTY
 STAT.            WYOMING:   STATE
 CTRY. UNITED STATES OF AMERICA:   COUNTRY
 SRVC.       Schlumberger:   SERVICE COMPANY
 DATE.        29-NOV-1978:   LOGDATE
 API .       490251073100:   API NUMBER
~CURVE INFORMATION
#MNEM.UNIT       API CODE    CURVE DESCRIPTION
#----------   ------------   ------------------------------
 DEPT.F                  :   
 SPR .MV     07 010 01 00:   SPONTANEOUS POTENTIAL
 GRR .GAPI   07 310 01 00:   GAMMA RAY FROM RES. LOG.
 SFL .OHMM   07 220 01 00:   SHALLOW FOCUSED LOG RESISTIVITY
 ILD .OHMM   07 120 46 00:   INDUCTION LOG DEEP
 ILM .OHMM   07 120 44 00:   INDUCTION LOG MEDIUM
 NPHI.DEC    42 890 03 00:   NEUTRON POROSITY SANDSTONE
 DPHI.DEC    45 890 12 00:   DENSITY POROSITY SANDSTONE
 RHOB.G/C3   45 350 01 00:   BULK DENSITY
 CORR.G/C3   45 356 01 00:   DENSITY CORRECTION
 CALD.IN     45 280 60 00:   CALIPER
~PARAMETER INFORMATION
#MNEM.UNIT          VALUE    DESCRIPTION
#----------   ------------   ------------------------------
 PD  .                 GL:   PERMANENT DATUM
 EPD .F              5514:   ELEVATION PERMANENT DATUM
 LMF .                 KB:   LOG MEASURED FROM
 DAPD.F                10:   FEET ABOVE PERMANENT DATUM
 DMF .                 KB:   DRILLING MEASURED FROM
 EKB .F              5524:   KELLING BUSHING
 EGL .F              5514:   GROUND LEVEL
 DATE.           11-29-78:   RUN DATE
 RUN .                  1:   RUN NUMBER
 DD  .F              5680:   DEPTH DRILLER
 DL  .F              5667:   DEPTH LOGGER
 BLI .F              5661:   BOTTOM LOG INTERVAL
 TLI .F               530:   TOP LOG INTERVAL
 CS  .IN            8.625:   CASING SIZE
 CBD .F               513:   CASING BOTTOM DRILLER
 CBL .F               530:   CASING BOTTOM LOGGER
 BS  .IN            7.875:   BIT SIZE
 BSD .F              5680:   BIT SIZE AT DEPTH
 DFT .                FGM:   DRILLING FLUID TYPE
 DFD .                9.2:   DRILLING FLUID DENSITY
 DFV .                 50:   DRILLING FLUID VISCOSITY
 DFPH.               11.5:   DRILLING FLUID PH
 DFL .                6.8:   DRILLING FLUID LOSS
 MSS .               TANK:   MUD SAMPLE SOURCE
 RMS .OHMM           1.45:   RESISTIVITY MUD SAMPLE
 MST .F                56:   MUD SAMPLE TEMPERATURE
 RMF .OHMM           1.16:   RESISTIVITY MUD FILTRATE SAMPLE
 MFST.F                56:   MUD FILTRATE SAMPLE TEMPERATURE
 MFSS.               MEAS:   MUD FILTRATE SAMPLE SOURCE
 RMB .OHMM            .62:   RESISTIVITY MUD AT BHT
 BHT .F               132:   BOTTOM HOLE TEMPERATURE
 TCS .HRS            0700:   TIME CURCULATED STOPPED
 TLAB.HRS            1200:   TIME LOGGER AT BOTTOM
 MRT .F               132:   MAXIMUM RECORDED TEMPERATURE
 LUN .               8039:   LOGGING UNIT NUMBER
 LUL .               CSPR:   LOGGING UNIT LOCATION
 ENGI.           STADULIS:   RECORDING ENGINEER
 WITN.           DINSMORE:   WITNESSED BY
 CLNT.            A2DTECH:   CLIENT CODE
 ORIG.       2", 5" PRINT:   ORIGIN OF DATA
 UWI .       490251073100:   UNIQUE WELL ID
 DICO. A2D Technologies, Inc.:   DIGITIZING COMPANY
~OTHER INFORMATION
~A   DEPT      SPR         GRR       SFL        ILD        ILM       NPHI       DPHI       RHOB       CORR       CALD   
# ...
 3919.0000   -45.0120   125.0342     5.5056     4.7362     4.8481     0.2997     0.0796     2.5324     0.0154    10.2206
 3919.5000   -45.1382   126.0628     5.7895     4.7565     4.8815     0.2916     0.0837     2.5570     0.0201    10.2206
 3920.0000   -44.8487   128.2498     5.6835     4.7821     4.9022     0.2779     0.0659     2.5696     0.0257    10.2206
 3920.5000   -44.5502   130.4495     5.5808     4.8409     4.9232     0.2613     0.0501     2.5718     0.0311    10.2206
 3921.0000   -44.2521   129.7342     5.5297     4.9004     4.9443     0.2547     0.0472     2.5722     0.0395    10.2206
 3921.5000   -43.9518   126.0216     5.4682     4.9605     4.9985     0.2527     0.0474     2.5740     0.0461    10.2206
 3922.0000   -44.0034   121.4509     5.4170     5.0218     5.0800     0.2525     0.0460     2.5610     0.0401    10.2206
 3922.5000   -44.1278   120.1250     5.3795     5.0821     5.2318     0.2576     0.0471     2.5489     0.0280    10.2206
 3923.0000   -44.2493   123.7585     5.7355     5.2066     5.3893     0.2732     0.0573     2.5468     0.0176    10.2206
 3923.5000   -44.2874   127.3683     6.0379     5.3422     5.5520     0.2833     0.0619     2.5398     0.0107    10.2206
 3924.0000   -43.9822   130.9753     6.3563     5.4962     5.7197     0.2785     0.0639     2.5328     0.0036    10.2206
 3924.5000   -43.6883   134.5123     6.6927     5.6604     5.8969     0.2729     0.0684     2.5313     0.0012    10.2206
 3925.0000   -43.6174   137.4557     6.9736     5.8296     6.0394     0.2709     0.0715     2.5480     0.0020    10.2206
 3925.5000   -43.7861   137.7959     7.2493     6.0037     6.1891     0.2709     0.0659     2.5643     0.0065    10.2206
 3926.0000   -43.9539   135.6509     7.5065     6.1831     6.3426     0.2658     0.0564     2.5788     0.0140    10.2206
 3926.5000   -44.1227   133.5538     7.7589     6.3679     6.4999     0.2591     0.0468     2.5782     0.0140    10.2221
 3927.0000   -44.2911   133.8808     7.8393     6.4855     6.6509     0.2525     0.0435     2.5457     0.0073    10.2246
 3927.5000   -44.4595   135.8935     7.7455     6.5587     6.7136     0.2440     0.0609     2.5264     0.0040    10.2271
 3928.0000   -44.6276   137.7864     7.6618     6.6326     6.7747     0.2460     0.0743     2.5266     0.0077    10.2296
 3928.5000   -44.7935   137.3500     7.6258     6.7075     6.8363     0.2505     0.0749     2.5426     0.0101    10.2320
 3929.0000   -44.9678   135.5976     7.6266     6.7769     6.8985     0.2556     0.0663     2.5525     0.0097    10.2345
 3929.5000   -45.3762   134.6690     7.6234     6.8227     6.9613     0.2589     0.0580     2.5490     0.0092    10.2370
 3930.0000   -45.7735   137.5975     8.0333     6.8689     7.0209     0.2608     0.0614     2.5459     0.0119    10.2395
 3930.5000   -46.1713   141.2763     8.3359     6.9150     7.0209     0.2608     0.0645     2.5470     0.0201    10.2418
 3931.0000   -46.5548   140.9780     8.6720     6.9567     7.0209     0.2594     0.0604     2.5570     0.0309    10.2440
 3931.5000   -46.4656   136.0878     8.6720     6.9325     7.0209     0.2580     0.0515     2.5744     0.0484    10.2461
 3932.0000   -45.8964   131.8533     8.2803     6.9108     7.0209     0.2565     0.0419     2.5922     0.0652    10.2482
 3932.5000   -45.3264   129.6712     7.6543     6.8938     7.1612     0.2551     0.0327     2.5944     0.0748    10.2503
 3933.0000   -44.9960   132.9830     7.3473     7.2074     7.3476     0.2555     0.0327     2.5698     0.0574    10.2525
 3933.5000   -44.8558   135.7861     7.7550     7.4204     7.5388     0.2613     0.0498     2.5498     0.0398    10.2546
 3934.0000   -44.7785   137.3207     8.5742     7.5404     7.7351     0.2616     0.0620     2.5474     0.0282    10.2567
 3934.5000   -44.6978   139.2808     9.5329     7.6608     7.8493     0.2474     0.0612     2.5524     0.0254    10.2588
 3935.0000   -44.6162   142.0656    10.0445     7.8382     7.8711     0.2349     0.0577     2.5576     0.0263    10.2612
 3935.5000   -44.5340   143.6213    10.0445     7.8250     7.8929     0.2327     0.0552     2.5583     0.0271    10.2700
 3936.0000   -44.4535   142.5802     9.7372     7.7964     7.9111     0.2428     0.0551     2.5587     0.0238    10.2795
 3936.5000   -44.3656   139.6309     9.3624     7.7664     7.7057     0.2498     0.0563     2.5568     0.0152    10.2891
 3937.0000   -44.6733   139.2871     9.0020     7.5290     7.5341     0.2517     0.0571     2.5570     0.0103    10.2985
 3937.5000   -45.1602   140.5167     8.6720     7.2623     7.3662     0.2496     0.0540     2.5699     0.0251    10.3136
 3938.0000   -45.6527   142.2619     7.9270     7.0200     7.1511     0.2496     0.0427     2.5878     0.0423    10.3307
 3938.5000   -46.1477   145.2703     7.2094     7.0201     7.1825     0.2638     0.0343     2.5901     0.0487    10.3422
 3939.0000   -46.3601   146.6530     7.2103     7.0209     7.2288     0.2763     0.0359     2.5733     0.0319    10.3421
 3939.5000   -46.3644   146.6592     7.6175     7.0209     7.2754     0.2776     0.0552     2.5529     0.0174    10.3421
 3940.0000   -46.3641   143.6314     8.0411     7.0334     7.3223     0.2669     0.0589     2.5518     0.0154    10.3421
 3940.5000   -46.3638   136.5399     8.4880     7.1047     7.3883     0.2560     0.0576     2.5659     0.0170    10.3421
 3941.0000   -46.3638   133.0104     8.9597     7.1768     7.4838     0.2500     0.0488     2.5718     0.0229    10.3421
 3941.5000   -46.3667   132.0818     9.4576     7.2170     7.5561     0.2481     0.0460     2.5713     0.0202    10.3421
 3942.0000   -46.2025   134.3158    10.0445     7.0840     7.3366     0.2416     0.0477     2.5691     0.0168    10.3421
 3942.5000   -45.9736   138.7907     9.4343     6.8325     7.0609     0.2315     0.0482     2.5711     0.0166    10.3420
 3943.0000   -45.7432   146.2885     8.4128     6.5887     6.7506     0.2263     0.0451     2.5781     0.0200    10.3421
 3943.5000   -45.5132   150.4859     7.3732     6.2433     6.4537     0.2303     0.0408     2.5822     0.0303    10.3483
 3944.0000   -45.2838   153.6975     6.4621     5.7895     6.0624     0.2412     0.0399     2.5837     0.0622    10.3754
 3944.5000   -45.1089   160.9378     5.6636     5.9365     6.1891     0.2675     0.0398     2.5830     0.0990    10.4017
 3945.0000   -45.0110   161.5128     5.5297     6.1891     6.4049     0.3159     0.0590     2.5503     0.1143    10.4275
 3945.5000   -44.9124   155.8484     6.3241     6.4326     6.7600     0.3355     0.0866     2.4978     0.0782    10.4549
 3946.0000   -44.8140   147.9517     8.2827     6.6799     7.2063     0.2978     0.1046     2.4782     0.0351    10.3642
 3946.5000   -44.7155   128.6158    10.5918     6.9567     7.6513     0.2631     0.0843     2.5136     0.0055    10.2203
 3947.0000   -44.6169   123.7286    10.9277     7.3706     7.8274     0.2192     0.0511     2.5638     0.0136    10.1644
 3947.5000   -44.5169   122.1527    10.3520     7.8484     8.0163     0.2034     0.0338     2.5884     0.0150    10.1395
 3948.0000   -44.4192   121.4423     9.7900     8.2000     8.2064     0.2068     0.0388     2.5913     0.0129    10.1382
 3948.5000   -44.4344   120.7712     9.5937     8.4363     8.4019     0.2134     0.0553     2.5589     0.0053    10.1372
 3949.0000   -44.9190   120.7568     9.5937     8.3918     8.4357     0.2200     0.0588     2.5520     0.0071    10.1363
 3949.5000   -45.3536   120.7625     9.6753     8.3022     8.4388     0.2255     0.0564     2.5566     0.0079    10.1354
 3950.0000   -45.4642   120.5549     9.8009     8.0810     8.2610     0.2302     0.0512     2.5608     0.0065    10.1344
 3950.5000   -45.5648   118.5982     9.8617     7.8685     8.0672     0.2322     0.0538     2.5589     0.0052    10.1335
 3951.0000   -45.6661   118.4217     9.4813     7.6614     7.8767     0.2264     0.0556     2.5570     0.0098    10.1325
 3951.5000   -45.7673   121.2555     8.8007     7.4596     7.6915     0.2217     0.0519     2.5634     0.0262    10.1316
 3952.0000   -45.8684   128.0612     8.0850     7.3508     7.6263     0.2199     0.0480     2.5710     0.0383    10.1306
