~VERSION INFORMATION
 VERS.                2.0:   CWLS LOG ASCII STANDARD - VERSION 2.0
 WRAP.                 NO:   ONE LINE PER DEPTH STEP
~WELL INFORMATION
#MNEM.UNIT      DATA TYPE    INFORMATION
#----------   ------------   ------------------------------
 STRT.F           29.0000:   START DEPTH
 STOP.F          507.0000:   STOP DEPTH
 STEP.F            0.5000:   STEP LENGTH
 NULL.          -999.2500:   NO VALUE
 COMP.    FENIX & SCISSON:   COMPANY
 WELL.       NPR #64-SX-3:   WELL
 FLD .            WILDCAT:   FIELD
 LOC .       S3 T38N R78W:   LOCATION
 CNTY.            NATRONA:   COUNTY
 STAT.            WYOMING:   STATE
 CTRY. UNITED STATES OF AMERICA:   COUNTRY
 SRVC.           BIRDWELL:   SERVICE COMPANY
 DATE.        28-MAR-1977:   LOGDATE
 API .       490251032200:   API NUMBER
~CURVE INFORMATION
#MNEM.UNIT       API CODE    CURVE DESCRIPTION
#----------   ------------   ------------------------------
 DEPT.F                  :   
 SPR .MV     05 010 01 00:   SPONTANEOUS POTENTIAL FROM RES.
 ILD .OHMM   05 120 46 00:   INDUCTION LOG DEEP
 SN  .OHMM   05 040 16 00:   SHORT NORMAL 16"
 GRD .GAPI   45 310 01 00:   GAMMA RAY FROM DENSITY LOG
 CALD.IN     45 280 60 00:   CALIPER FROM DENSITY LOG
 CORR.G/C3   45 356 01 00:   DENSITY CORRECTION
 RHOB.G/C3   45 350 01 00:   BULK DENSITY
 DPHI.DEC    45 890 12 00:   DENSITY POROSITY SANDSTONE
~PARAMETER INFORMATION
#MNEM.UNIT          VALUE    DESCRIPTION
#----------   ------------   ------------------------------
 PD  .                 GL:   PERMANENT DATUM
 EPD .F              5145:   ELEVATION PERMANENT DATUM
 LMF .                 GL:   LOG MEASURED FROM
 DMF .                 GL:   DRILLING MEASURED FROM
 EKB .F              5150:   KELLING BUSHING
 EDF .F              5149:   DRILLING FLOOR
 EGL .F              5145:   GROUND LEVEL
 DATE.        28-MAR-1977:   RUN DATE
 RUN .                  1:   RUN NUMBER
 DD  .F               507:   DEPTH DRILLER
 DL  .F               507:   DEPTH LOGGER
 BLI .F               501:   BOTTOM LOG INTERVAL
 TLI .F                40:   TOP LOG INTERVAL
 CS  .IN            8.625:   CASING SIZE
 CBD .F                40:   CASING BOTTOM DRILLER
 CBL .F                43:   CASING BOTTOM LOGGER
 BS  .IN            7.875:   BIT SIZE
 BSD .F               507:   BIT SIZE AT DEPTH
 DFT .                KCL:   DRILLING FLUID TYPE
 DFD .                8.5:   DRILLING FLUID DENSITY
 DFV .                 31:   DRILLING FLUID VISCOSITY
 DFPH.                 10:   DRILLING FLUID PH
 DFL .                 78:   DRILLING FLUID LOSS
 MSS .                PIT:   MUD SAMPLE SOURCE
 RMS .OHMM            .54:   RESISTIVITY MUD SAMPLE
 MST .F                60:   MUD SAMPLE TEMPERATURE
 RMF .OHMM            .46:   RESISTIVITY MUD FILTRATE SAMPLE
 MFST.F                64:   MUD FILTRATE SAMPLE TEMPERATURE
 RMC .OHMM            .52:   RESISTIVITY MUD CAKE
 MCST.F                64:   MUD CAKE SAMPLE TEMPERATURE
 MFSS.               MEAS:   MUD FILTRATE SAMPLE SOURCE
 MCSS.               MEAS:   MUD CAKE SAMPLE SOURCE
 RMB .OHMM            .51:   RESISTIVITY MUD AT BHT
 BHT .F                63:   BOTTOM HOLE TEMPERATURE
 TCS .HRS            0300:   TIME CURCULATED STOPPED
 MRT .F                63:   MAXIMUM RECORDED TEMPERATURE
 LUN .               3026:   LOGGING UNIT NUMBER
 LUL .             CASPER:   LOGGING UNIT LOCATION
 ENGI.             RAWSON:   RECORDING ENGINEER
 WITN.         STUERINCER:   WITNESSED BY
 CLNT.            A2DTECH:   CLIENT CODE
 ORIG.           5" PRINT:   ORIGIN OF DATA
 UWI .       490251032200:   UNIQUE WELL ID
 DICO. A2D Technologies, Inc.:   DIGITIZING COMPANY
~OTHER INFORMATION
~A   DEPT      SPR        ILD         SN        GRD       CALD       CORR       RHOB       DPHI   
# ...
  474.5000   -53.4639    12.2245    13.6544    67.9572     7.6704    -0.0420     2.4769     0.0942
  475.0000   -53.4639    12.2229    13.6533    67.5904     7.6718    -0.0392     2.4883     0.0962
  475.5000   -53.4639    12.2209    13.6524    68.8704     7.6731    -0.0408     2.4929     0.1004
  476.0000   -53.6145    12.2193    13.6515    67.2311     7.6591    -0.0304     2.4870     0.1019
  476.5000   -53.6145    12.2177    13.6506    67.2386     7.6608    -0.0245     2.4833     0.1010
  477.0000   -53.7651    12.2161    13.6497    65.6742     7.6772    -0.0307     2.4811     0.1027
  477.5000   -53.9157    12.1300    13.6485    64.7834     7.6785    -0.0294     2.4789     0.1075
  478.0000   -53.9157    12.1280    13.6476    64.6393     7.6645    -0.0205     2.4752     0.1069
  478.5000   -54.0663    11.9594    13.6468    64.7983     7.6662    -0.0237     2.4670     0.1066
  479.0000   -54.0663    11.7931    13.6554    65.0304     7.6675    -0.0298     2.4618     0.1080
  479.5000   -54.2169    11.6291    13.6339    64.6636     7.6689    -0.0345     2.4657     0.1089
  480.0000   -54.2169    11.4621    13.3627    65.1201     7.6702    -0.0136     2.4688     0.1101
  480.5000   -54.2169    11.2294    13.1776    65.8761     7.6866    -0.0092     2.4681     0.1110
  481.0000   -54.3675    11.0733    12.9052    66.1830     7.6879    -0.0109     2.4652     0.1124
  481.5000   -54.3675    10.8438    12.7265    66.5647     7.6893    -0.0065     2.4615     0.1127
  482.0000   -54.5181    10.6191    12.5500    67.2458     7.6906    -0.0051     2.4578     0.1121
  482.5000   -54.5181    10.4714    12.3762    67.4778     7.7069    -0.0068     2.4601     0.1078
  483.0000   -54.5181    10.3255    12.2047    67.5601     7.7233    -0.0115     2.4632     0.1017
  483.5000   -54.5181    10.1819    12.2039    67.7921     7.7246    -0.0146     2.4686     0.1002
  484.0000   -54.5181    10.0403    12.1131    67.9493     7.7260    -0.0193     2.4732     0.1011
  484.5000   -54.6687     9.9007    11.9507    68.2561     7.7423    -0.0209     2.4756     0.1040
  485.0000   -54.9699     9.7540    11.8672    68.6378     7.7437    -0.0181     2.4756     0.1049
  485.5000   -55.2711     9.6270    11.7029    68.8738     7.7450    -0.0107     2.4757     0.1040
  486.0000   -55.4217     9.4931    11.6212    67.5300     7.7463    -0.0274     2.4728     0.1018
  486.5000   -55.8735     9.4263    11.5400    66.6393     7.7477    -0.0321     2.4714     0.1006
  487.0000   -56.0241     9.3599    11.3800    66.4222     7.7490    -0.0202     2.4790     0.1012
  487.5000   -56.1747     9.2937    11.3005    66.5793     7.7504    -0.0143     2.4844     0.1029
  488.0000   -56.3253     9.2924    11.2216    67.7885     7.7517    -0.0099     2.4731     0.1041
  488.5000   -56.4759     9.2912    11.2209    68.7730     7.7531    -0.0086     2.4717     0.1047
  489.0000   -56.4759     9.2258    11.1424    70.1318     7.7544    -0.0118     2.4710     0.1056
  489.5000   -56.4759     9.1608    11.1416    69.8827     7.7558    -0.0179     2.4688     0.1055
  490.0000   -56.4759     9.0960    11.1409    68.3382     7.7421    -0.0166     2.4674     0.1073
  490.5000   -56.4759     9.0319    11.0631    68.7948     7.7285    -0.0077     2.4683     0.1082
  491.0000   -56.4759     8.9063    10.9099    67.6795     7.7148    -0.0214     2.4623     0.1087
  491.5000   -56.1747     8.8436    10.8335    68.9167     7.7012    -0.0246     2.4692     0.1081
  492.0000   -55.8735     8.7206    10.6835    69.8650     7.6875    -0.0322     2.4693     0.1078
  492.5000   -55.8735     8.5991    10.6089    68.8995     7.6739    -0.0580     2.4686     0.1065
  493.0000   -56.0241     8.4795    10.6082    69.9771     7.6602    -0.0732     2.4709     0.1065
  493.5000   -56.4794     8.4198    10.3887    70.4114     7.6466    -0.0764     2.4718     0.1086
  494.0000   -56.7771     8.2453    10.3162    69.0070     7.6004    -0.0840     2.4643     0.1119
  494.5000   -56.9277     8.1873    10.3155    67.8538     7.5743    -0.1053     2.4569     0.1130
  495.0000   -57.0783     8.0174    10.3148    68.4147     7.5760    -0.1295     2.4592     0.1103
  495.5000   -57.0783     7.8512    10.3142    69.1706     7.5620    -0.1447     2.4638     0.1109
  496.0000   -57.0783     7.7421    10.3133    69.0265     7.5487    -0.1569     2.4677     0.1102
  496.5000   -57.2289     7.6875    10.3126    69.7844     7.5347    -0.1571     2.4685     0.1096
  497.0000   -57.2289     7.5282    10.0296    70.3906     7.4764    -0.1587     2.4648     0.1089
  497.5000   -56.9277     7.4233     9.8223    70.6975     7.4028    -0.1649     2.4649     0.1077
  498.0000   -54.6687     7.3201     9.8900    71.2289     7.2992    -0.1726     2.4680     0.1056
  498.5000   -54.3589     7.2685     9.8892    71.5357     7.2552    -0.1712     2.4703     0.1070
  499.0000   -53.7651     7.2174     9.8202    72.2169     7.2416    -0.1639     2.4704     0.1121
  499.5000   -53.0120     7.1170     9.8195    71.4758     7.2433    -0.1520     2.4645     0.1163
  500.0000   -51.2048     7.1158     9.8189    71.1090     7.2446    -0.1491     2.4540     0.1196
  500.5000   -47.2892     7.0657     9.8865    70.6674     7.2310    -0.1462     2.4435     0.1220
  501.0000   -46.5251     7.0648     9.8859    70.5233     7.2020    -0.1433     2.4413     0.1209
  501.5000  -999.2500  -999.2500  -999.2500  -999.2500  -999.2500    -0.1405     2.4460     0.1156
  502.0000  -999.2500  -999.2500  -999.2500  -999.2500  -999.2500    -0.1392     2.4506     0.1123
  502.5000  -999.2500  -999.2500  -999.2500  -999.2500  -999.2500    -0.1471     2.4544     0.1138
  503.0000  -999.2500  -999.2500  -999.2500  -999.2500  -999.2500    -0.1591     2.4552     0.1156
  503.5000  -999.2500  -999.2500  -999.2500  -999.2500  -999.2500    -0.1669     2.4538     0.1174
  504.0000  -999.2500  -999.2500  -999.2500  -999.2500  -999.2500    -0.1793     2.4516     0.1195
  504.5000  -999.2500  -999.2500  -999.2500  -999.2500  -999.2500    -0.2007     2.4495     0.1219
  505.0000  -999.2500  -999.2500  -999.2500  -999.2500  -999.2500    -0.2265     2.4473     0.1258
  505.5000  -999.2500  -999.2500  -999.2500  -999.2500  -999.2500    -0.2443     2.4451     0.1357
  506.0000  -999.2500  -999.2500  -999.2500  -999.2500  -999.2500    -0.2445     2.4407     0.1486
  506.5000  -999.2500  -999.2500  -999.2500  -999.2500  -999.2500    -0.2539     2.4317     0.1588
  507.0000  -999.2500  -999.2500  -999.2500  -999.2500  -999.2500    -0.2646     2.4009     0.1731
