~VERSION INFORMATION
 VERS.                2.0:   CWLS LOG ASCII STANDARD - VERSION 2.0
 WRAP.                 NO:   ONE LINE PER DEPTH STEP
~WELL INFORMATION
#MNEM.UNIT      DATA TYPE    INFORMATION
#----------   ------------   ------------------------------
 STRT.F           32.0000:   START DEPTH
 STOP.F          517.0000:   STOP DEPTH
 STEP.F            0.5000:   STEP LENGTH
 NULL.          -999.2500:   NO VALUE
 COMP.    FENIX & SCISSON:   COMPANY
 WELL.        NPR #75-S-3:   WELL
 FLD .             TEAPOT:   FIELD
 LOC .       S3 T38N R78W:   LOCATION
 CNTY.            NATRONA:   COUNTY
 STAT.            WYOMING:   STATE
 CTRY. UNITED STATES OF AMERICA:   COUNTRY
 SRVC.              Welex:   SERVICE COMPANY
 DATE.        08-MAR-1977:   LOGDATE
 API .       490251030900:   API NUMBER
~CURVE INFORMATION
#MNEM.UNIT       API CODE    CURVE DESCRIPTION
#----------   ------------   ------------------------------
 DEPT.F                  :   
 SPR .MV     07 010 01 00:   SPONTANEOUS POTENTIAL
 ILD .OHMM   07 120 46 00:   INDUCTION LOG DEEP RES
 ILM .OHMM   07 120 44 00:   INDUCTION LOG MEDIUM RES
 SGRD.OHMM   07 220 05 00:   SHALLOW  GUARD RESISTIVITY
 CALD.IN     45 280 60 00:   CALIPER FROM DENSITY
 GRD .GAPI   45 310 01 00:   GAMMA RAY FROM DENSITY LOG
 CORR.G/C3   45 356 01 00:   DENSITY CORRECTION
 DPHI.DEC    45 890 12 00:   DENSITY POROSITY SANDSTONE
 RHOB.G/C3   45 350 01 00:   BULK DENSITY
~PARAMETER INFORMATION
#MNEM.UNIT          VALUE    DESCRIPTION
#----------   ------------   ------------------------------
 PD  .                 GL:   PERMANENT DATUM
 EPD .F              5141:   ELEVATION PERMANENT DATUM
 LMF .                 GL:   LOG MEASURED FROM
 DMF .                 GL:   DRILLING MEASURED FROM
 EGL .F              5141:   GROUND LEVEL
 DATE.         03-08-1977:   RUN DATE
 RUN .                  1:   RUN NUMBER
 DD  .F               521:   DEPTH DRILLER
 DL  .F               521:   DEPTH LOGGER
 BLI .F               519:   BOTTOM LOG INTERVAL
 TLI .F                35:   TOP LOG INTERVAL
 CS  .IN            8.625:   CASING SIZE
 CBD .F                40:   CASING BOTTOM DRILLER
 CBL .F                42:   CASING BOTTOM LOGGER
 BS  .IN            7.875:   BIT SIZE
 BSD .F               521:   BIT SIZE AT DEPTH
 DFT .            KCL MUD:   DRILLING FLUID TYPE
 DFD .                8.5:   DRILLING FLUID DENSITY
 DFV .                 32:   DRILLING FLUID VISCOSITY
 DFPH.                  8:   DRILLING FLUID PH
 DFL .                8.5:   DRILLING FLUID LOSS
 MSS .            MUD PIT:   MUD SAMPLE SOURCE
 RMS .OHMM            .65:   RESISTIVITY MUD SAMPLE
 MST .F                53:   MUD SAMPLE TEMPERATURE
 RMF .OHMM            .51:   RESISTIVITY MUD FILTRATE SAMPLE
 MFST.F                58:   MUD FILTRATE SAMPLE TEMPERATURE
 RMC .OHMM            .67:   RESISTIVITY MUD CAKE
 MCST.F                54:   MUD CAKE SAMPLE TEMPERATURE
 MFSS.           FANN KIT:   MUD FILTRATE SAMPLE SOURCE
 MCSS.           FANN KIT:   MUD CAKE SAMPLE SOURCE
 RMB .OHMM            .53:   RESISTIVITY MUD AT BHT
 BHT .F                64:   BOTTOM HOLE TEMPERATURE
 TCS .HRS             1.5:   TIME CURCULATED STOPPED
 MRT .F                64:   MAXIMUM RECORDED TEMPERATURE
 LUN .               8611:   LOGGING UNIT NUMBER
 LUL .           GILLETTE:   LOGGING UNIT LOCATION
 ENGI.               DOAK:   RECORDING ENGINEER
 WITN.           S. BURKE:   WITNESSED BY
 CLNT.            A2DTECH:   CLIENT CODE
 ORIG.           5" PRINT:   ORIGIN OF DATA
 UWI .       490251030900:   UNIQUE WELL ID
 DICO. A2D Technologies, Inc.:   DIGITIZING COMPANY
~OTHER INFORMATION
~A   DEPT      SPR        ILD        ILM       SGRD       CALD        GRD        CORR        DPHI       RHOB 
# ...
  433.5000   -38.9352    12.1135    13.7423    16.4175     7.9835    91.7089     0.0632     0.1000     2.4936
  434.0000   -38.9260    12.2057    13.9372    16.4266     7.9848    89.2746     0.0664     0.0946     2.4952
  434.5000   -38.9178    12.2986    13.1048    16.4357     7.9862    85.5537     0.0651     0.0913     2.4938
  435.0000   -39.0557    12.3071    13.6649    16.6731     7.9875    88.3851     0.0623     0.0921     2.4856
  435.5000   -39.1943    12.3156    14.3459    16.9139     7.9888    91.1293     0.0565     0.0951     2.4879
  436.0000   -39.1854    12.2374    14.3519    17.1582     7.9901    92.0188     0.0506     0.0894     2.4992
  436.5000   -39.3240    12.1618    13.9676    17.0497     7.9915    91.5009     0.0448     0.0887     2.4978
  437.0000   -39.3151    12.0866    13.6875    16.5952     7.9928    89.9048     0.0375     0.0932     2.4896
  437.5000   -39.4537    12.0120    13.3210    16.1505     7.9941    91.3819     0.0347     0.1061     2.4792
  438.0000   -39.4448    11.9398    13.1428    16.0484     7.9954    96.8232     0.0364     0.1097     2.4649
  438.5000   -39.4359    11.9481    13.2405    16.1706     7.9967    95.0458     0.0397     0.1087     2.4763
  439.0000   -39.4271    11.8722    13.9004    16.2914     7.9981    92.6152     0.0444     0.1057     2.4748
  439.5000   -39.5657    11.7988    14.0976    16.3004     7.9994    93.3127     0.0507     0.1023     2.4779
  440.0000   -39.7043    11.8090    13.6274    15.9756     8.0007    97.6395     0.0554     0.0987     2.4870
  440.5000   -39.8429    11.7340    13.1714    15.6572     8.0020    98.4003     0.0586     0.0933     2.4961
  441.0000   -39.8340    11.6615    12.6434    15.4514     8.0034    97.8237     0.0618     0.0875     2.5014
  441.5000   -39.8266    11.5099    12.3886    15.3537     8.0047    96.7969     0.0621     0.0821     2.5075
  442.0000   -39.8177    11.4388    12.4807    15.3622     8.0060   100.8311     0.0607     0.0850     2.5098
  442.5000   -39.8081    11.2901    13.0127    15.3707     8.0073   104.1178     0.0580     0.0904     2.4934
  443.0000   -39.7999    11.2203    13.1081    15.3792     8.0086   105.1713     0.0536     0.0937     2.4881
  443.5000   -39.7907    11.2284    13.1135    15.3877     8.0100   103.1133     0.0539     0.0958     2.4837
  444.0000   -39.7814    11.1587    13.1190    14.8724     8.0113   100.6051     0.0525     0.0981     2.4755
  444.5000   -39.7729    11.1667    13.3985    15.7266     8.0059    98.2455     0.0528     0.1014     2.4748
  445.0000   -39.7640    11.1847    13.8737    16.2871     8.0002    96.0345     0.0545     0.1029     2.4749
  445.5000   -39.7551    11.3467    13.8795    16.5224     7.9946    94.7105     0.0547     0.0986     2.4802
  446.0000   -39.8937    11.5025    13.5079    16.4157     7.9889    99.1904     0.0549     0.0950     2.4893
  446.5000   -39.8848    11.5900    12.8773    16.1998     7.9833   100.0998     0.0551     0.0923     2.4939
  447.0000   -39.8760    11.5979    12.6178    15.8792     7.9776    98.6317     0.0538     0.0916     2.4925
  447.5000   -40.0146    11.5261    13.3396    15.4558     7.9719    97.1636     0.0510     0.1021     2.4790
  448.0000   -40.1532    11.4508    13.5302    15.1457     7.9663    95.9666     0.0467     0.1093     2.4648
  448.5000   -40.2929    11.3029    13.2590    15.2610     7.9606    94.8196     0.0438     0.1141     2.4596
  449.0000   -40.2840    11.2341    12.4671    15.5885     7.9549    93.6392     0.0441     0.1095     2.4709
  449.5000   -40.4241    11.0900    12.0499    15.5972     7.9493    98.8678     0.0443     0.1047     2.4778
  450.0000   -40.4138    11.0215    12.3069    15.4986     7.9436    96.9539     0.0460     0.1017     2.4808
  450.5000   -40.2561    10.8996    12.4846    15.0851     7.9436    93.1072     0.0462     0.0983     2.4817
  451.0000   -40.2458    10.6896    12.6648    15.0981     7.9436    92.6332     0.0464     0.0971     2.4810
  451.5000   -40.2355    10.4796    12.5848    15.0021     7.9435    95.3691     0.0466     0.0971     2.4818
  452.0000   -40.3727    10.3789    12.5036    15.0150     7.9435    98.2089     0.0513     0.0970     2.4819
  452.5000   -40.3612    10.3126    12.5122    14.8170     7.9435   100.1571     0.0545     0.0967     2.4822
  453.0000   -40.4984    10.3176    12.3478    14.6267     7.9435   101.5109     0.0592     0.0943     2.4883
  453.5000   -40.4881    10.2517    12.1019    14.4363     7.9435   100.1902     0.0639     0.0885     2.4966
  454.0000   -40.6253    10.2567    11.6183    14.1505     7.9434    99.4596     0.0656     0.0843     2.5063
  454.5000   -40.7625    10.1911    11.1541    13.8680     7.9434   103.0464     0.0657     0.0803     2.5093
  455.0000   -40.8997    10.1961    10.7083    13.7822     7.9434   105.8862     0.0644     0.0800     2.5101
  455.5000   -41.1106    10.2010    10.3515    13.6028     7.9434   106.9387     0.0646     0.0872     2.5072
  456.0000   -41.3216    10.1357    10.0743    13.5187     7.9433   104.2848     0.0618     0.0977     2.4893
  456.5000   -41.5325     9.9332     9.8073    13.2533     7.9433   101.9239     0.0604     0.0989     2.4815
  457.0000   -41.8173     9.6587     9.6645    13.0808     7.9433   102.5348     0.0591     0.0955     2.4887
  457.5000   -42.1757     9.3260     9.4608    12.8219     7.9433   104.0373     0.0577     0.0925     2.4925
  458.0000   -42.6066     8.8194     8.8371    12.5680     7.9432   105.6842     0.0534     0.0913     2.4948
  458.5000   -42.8913     8.1875     8.1979    12.3192     7.9432   104.6606     0.0491     0.0957     2.4941
  459.0000   -43.0286     7.6792     7.6494    11.8282     7.9432   105.2719     0.0448     0.1059     2.4830
  459.5000   -43.3133     7.0805     7.0411    11.2012     7.9432   105.2883     0.0404     0.1128     2.4605
  460.0000   -43.3030     6.2828     6.3114    10.3189     7.9431   106.0476     0.0346     0.1278     2.4388
  460.5000   -43.1452     5.7871     5.9109     9.0583     7.9431   113.6421     0.0272     0.1362     2.4141
  461.0000   -42.9874     5.2215     5.7981     6.7391     7.9431   121.6824     0.0229     0.1448     2.4006
  461.5000   -42.6822     5.4071     6.0967     5.1895     7.9431   126.3052     0.0230     0.1515     2.3917
  462.0000   -42.3769     5.8355     6.4447     8.7694     7.9430   128.1931     0.0232     0.1463     2.3902
  462.5000   -42.0716     6.1691     6.8127    12.6460     7.9430   122.3264     0.0249     0.1340     2.4106
  463.0000   -41.7664     6.5218     7.2514    14.0334     7.9430   116.1023     0.0296     0.1239     2.4437
  463.5000   -41.4611     6.8473     7.6655    13.3814     7.9434   106.3120     0.0361     0.1127     2.4866
  464.0000   -41.1558     7.2387     8.1031    12.8480     7.9445   101.8709     0.0435     0.0906     2.4950
  464.5000   -40.9981     7.6525     8.6223    12.9458     7.9453    99.5100     0.0433     0.0945     2.4853
  465.0000   -40.8403     8.0344     8.9926    13.3169     7.9461   100.2695     0.0347     0.0972     2.4801
  465.5000   -40.5350     8.2629     9.4408    13.8888     7.9468   104.5951     0.0305     0.0908     2.4902
  466.0000   -40.5247     8.4395     9.9113    13.6139     7.9476   100.0055     0.0322     0.0866     2.5006
  466.5000   -40.5145     8.7999    10.4052    12.9814     7.9484    99.4235     0.0384     0.0838     2.5029
  467.0000   -40.5042     9.1756    10.9248    13.0802     7.9492   104.0504     0.0446     0.0871     2.5029
  467.5000   -40.4939     9.6336    11.2362    13.6420     7.9500   106.7416     0.0463     0.0865     2.5038
  468.0000   -40.4836    10.0449    11.5565    14.0330     7.9508   108.6270     0.0495     0.0831     2.5053
  468.5000   -40.4733    10.4738    11.8043    14.4353     7.9516   109.7652     0.0512     0.0822     2.5062
  469.0000   -40.4630    10.7716    12.0575    14.5452     7.9523   110.0565     0.0514     0.0891     2.5047
  469.5000   -40.4528    10.9263    12.2315    14.5552     7.9531   109.3078     0.0531     0.0906     2.5003
