~VERSION INFORMATION
 VERS.                2.0:   CWLS LOG ASCII STANDARD - VERSION 2.0
 WRAP.                 NO:   ONE LINE PER DEPTH STEP
~WELL INFORMATION
#MNEM.UNIT      DATA TYPE    INFORMATION
#----------   ------------   ------------------------------
 STRT.F            0.0000:   START DEPTH
 STOP.F          412.0000:   STOP DEPTH
 STEP.F            0.5000:   STEP LENGTH
 NULL.          -999.2500:   NO VALUE
 COMP. DEPARTMENT OF ENERGY:   COMPANY
 WELL. 65-24 SXS C-3 #65-3:   WELL
 FLD .        TEAPOT EAST:   FIELD
 LOC .       S3 T38N R78W:   LOCATION
 CNTY.            NATRONA:   COUNTY
 STAT.            WYOMING:   STATE
 CTRY. UNITED STATES OF AMERICA:   COUNTRY
 SRVC.      Dresser Atlas:   SERVICE COMPANY
 DATE.        30-JUN-1985:   LOGDATE
 API .       490251134700:   API NUMBER
~CURVE INFORMATION
#MNEM.UNIT       API CODE    CURVE DESCRIPTION
#----------   ------------   ------------------------------
 DEPT.F                  :   
 CALD.IN     45 280 60 00:   CALIPER FROM DENSITY LOG
 CNC .DEC    42 890 03 00:   NEUTRON POROSITY SANDSTONE
 CORR.G/C3   45 356 01 00:   DENSITY CORRECTION
 PORD.DEC    45 890 12 00:   POROSITY DENSITY SANDSTONE
 DEN .G/C3   45 350 01 00:   COMPENSATED BULK DENSTIY
 GRR .GAPI   07 310 01 00:   GAMMA RAY
 RILD.OHMM   07 120 46 00:   INDUCTION LOG DEEP RESISTIVITY
 RILM.OHMM   07 120 44 00:   INDUCTION LOG MEDIUM RESISTIVITY
~PARAMETER INFORMATION
#MNEM.UNIT          VALUE    DESCRIPTION
#----------   ------------   ------------------------------
 PD  .                 GL:   PERMANENT DATUM
 EPD .F              5161:   ELEVATION PERMANENT DATUM
 LMF .                 GL:   LOG MEASURED FROM
 DMF .                 GL:   DRILLING MEASURED FROM
 EGL .F              5161:   GROUND LEVEL
 DATE.        30-JUN-1985:   RUN DATE
 RUN .              1-424:   RUN NUMBER
 DD  .F               424:   DEPTH DRILLER
 DL  .F               422:   DEPTH LOGGER
 BLI .F               414:   BOTTOM LOG INTERVAL
 CS  .IN                7:   CASING SIZE
 CBD .F                80:   CASING BOTTOM DRILLER
 CBL .F                85:   CASING BOTTOM LOGGER
 BS  .IN            4.875:   BIT SIZE
 BSD .F               424:   BIT SIZE AT DEPTH
 DFT .                OIL:   DRILLING FLUID TYPE
 TCS .HRS               3:   TIME CURCULATED STOPPED
 LUN .               6274:   LOGGING UNIT NUMBER
 LUL .           GILLETTE:   LOGGING UNIT LOCATION
 ENGI.             RAUTIO:   RECORDING ENGINEER
 WITN.             GROOMS:   WITNESSED BY
 CLNT.            A2DTECH:   CLIENT CODE
 ORIG.           5" PRINT:   ORIGIN OF DATA
 UWI .       490251134700:   UNIQUE WELL ID
 DICO. A2D Technologies, Inc.:   DIGITIZING COMPANY
~OTHER INFORMATION
~A    DEPT    CALD        CNC       CORR       PORD        DEN         GRR      RILD       RILM   
# ...
  283.5000     5.0843     0.0709    -0.0040     0.3673     2.0422    72.1386    59.7007   104.2747
  284.0000     5.0844     0.0726    -0.0206     0.3555     2.0769    71.2340    60.4945    96.6334
  284.5000     5.0846     0.0735    -0.0327     0.3438     2.0807    70.0242    57.6370    82.9504
  285.0000     5.0999     0.0747    -0.0276     0.3453     2.0656    69.0678    47.4560    57.3829
  285.5000     5.1303     0.0762    -0.0024     0.3616     2.0476    68.5163    31.4989    41.6658
  286.0000     5.1607     0.0786    -0.0039     0.3749     2.0348    71.5632    21.3480    25.7608
  286.5000     5.1760     0.0851    -0.0084     0.3791     2.0273    75.5205    18.0726    11.7520
  287.0000     5.1610     0.1027    -0.0144     0.3591     2.0789    77.0461    15.1938    10.5182
  287.5000     5.1460     0.1340    -0.0234     0.3255     2.1584    77.6585    12.5972     9.8155
  288.0000     5.1310     0.1576    -0.0296     0.2693     2.2037    73.7145    10.5445     9.0332
  288.5000     5.1160     0.1799    -0.0112     0.2635     2.2158    67.0335     8.8426     8.3712
  289.0000     5.1011     0.1889     0.0105     0.2680     2.2075    68.3161     8.2510     7.7578
  289.5000     5.0861     0.1940     0.0266     0.2743     2.2000    70.9981     7.5927     7.3923
  290.0000     5.0863     0.1937     0.0251     0.2804     2.1925    70.7001     6.9870     7.1428
  290.5000     5.0864     0.1854     0.0236     0.2858     2.1789    68.8823     6.3408     6.6127
  291.0000     5.0865     0.1806     0.0221     0.2898     2.1691    68.5827     5.6356     5.4185
  291.5000     5.0867     0.1863     0.0161     0.2821     2.1737    71.0217     5.1860     4.5500
  292.0000     5.0868     0.1966    -0.0050     0.2533     2.2182    75.8909     4.7063     4.1295
  292.5000     5.0870     0.2086    -0.0140     0.2298     2.2619    79.5442     4.3551     3.9076
  293.0000     5.0871     0.2267    -0.0185     0.2216     2.2725    83.2177     4.1116     3.7495
  293.5000     5.0873     0.2370    -0.0291     0.2182     2.2816    85.6809     3.9044     3.5729
  294.0000     5.0875     0.2403    -0.0336     0.2158     2.2906    84.1227     3.9055     3.5996
  294.5000     5.0876     0.2332    -0.0200     0.2176     2.2921    80.7851     3.9612     3.9424
  295.0000     5.0846     0.2246    -0.0184     0.2209     2.2876    78.0555     4.0725     4.0840
  295.5000     5.0728     0.2181    -0.0169     0.2184     2.2884    75.9337     4.1596     4.0860
  296.0000     5.0729     0.2121    -0.0018     0.2135     2.2967    75.0277     4.1902     4.0880
  296.5000     5.0580     0.2063     0.0104     0.2141     2.2983    75.0337     4.1336     4.0058
  297.0000     5.0581     0.2042     0.0074     0.2168     2.2953    75.0396     4.0495     3.8976
  297.5000     5.0583     0.2123    -0.0077     0.2201     2.2907    75.9827     3.9671     3.6882
  298.0000     5.0432     0.2267    -0.0258     0.2119     2.2917    79.0042     3.8062     3.3942
  298.5000     5.0434     0.2361    -0.0046     0.2007     2.3164    81.1378     3.5517     3.1896
  299.0000     5.0436     0.2416     0.0226     0.1948     2.3285    83.2714     3.2891     3.0393
  299.5000     5.0438     0.2475     0.0277     0.1904     2.3338    82.6694     3.1144     2.9368
  300.0000     5.0439     0.2508     0.0076     0.1879     2.3387    83.0693     3.0089     2.8575
  300.5000     5.0439     0.2517     0.0129     0.1837     2.3459    85.5120     2.9070     2.7591
  301.0000     5.0439     0.2528     0.0220     0.1761     2.3602    86.3163     2.8282     2.7052
  301.5000     5.0439     0.2539     0.0243     0.1709     2.3656    86.0087     2.7704     2.6878
  302.0000     5.0439     0.2549     0.0167     0.1712     2.3632    84.7900     2.7522     2.6893
  302.5000     5.0287     0.2552    -0.0195     0.1751     2.3557    86.0028     2.7531     2.7094
  303.0000     5.0136     0.2552    -0.0074     0.1825     2.3482    87.2158     2.7541     2.7213
  303.5000     4.8018     0.2542     0.0289     0.1868     2.3429    86.3009     2.7550     2.7269
  304.0000     4.7564     0.2531     0.0320     0.1856     2.3406    88.4249     2.7750     2.7467
  304.5000     4.9834     0.2527     0.0396     0.1850     2.3451    88.4220     2.7952     2.7668
  305.0000     5.0741     0.2527     0.0532     0.1856     2.3429    85.9874     2.8156     2.8063
  305.5000     5.0741     0.2533     0.0668     0.1876     2.3391    83.8569     2.8558     2.8663
  306.0000     5.0741     0.2542     0.0291     0.1894     2.3361    85.9816     2.8578     2.8871
  306.5000     5.0590     0.2551     0.0140     0.1915     2.3346    87.4985     2.8978     2.9284
  307.0000     5.0741     0.2560    -0.0011     0.1959     2.3301    88.4073     2.9189     2.9702
  307.5000     5.0741     0.2575    -0.0222     0.2048     2.3195    88.0997     2.9606     3.0159
  308.0000     5.0893     0.2596    -0.0222     0.2060     2.3112    87.1849     3.0030     3.0773
  308.5000     5.0893     0.2592    -0.0101     0.2053     2.3120    85.9662     3.0249     3.0996
  309.0000     5.0893     0.2580    -0.0010     0.2005     2.3195    86.2679     3.0895     3.1005
  309.5000     5.0893     0.2583     0.0066     0.1941     2.3301    87.7840     3.1337     3.1013
  310.0000     5.0893     0.2601     0.0112     0.1895     2.3376    88.0851     3.1568     3.0806
  310.5000     5.0893     0.2610     0.0203     0.1883     2.3406    87.4498     3.1798     3.0814
  311.0000     5.0893     0.2604     0.0294     0.1877     2.3421    85.9508     3.1807     3.0609
  311.5000     5.0741     0.2594     0.0417     0.1867     2.3436    83.8202     3.2039     3.0619
  312.0000     5.0590     0.2603     0.0732     0.1864     2.3436    82.2975     3.2048     3.0627
  312.5000     5.0590     0.2633     0.0778     0.1894     2.3399    84.7262     3.2282     3.0848
  313.0000     5.0590     0.2633     0.0431     0.1933     2.3338    85.0280     3.2292     3.0642
  313.5000     5.0741     0.2621    -0.0037     0.1948     2.3301    83.5045     3.2304     3.0652
  314.0000     5.0741     0.2612    -0.0279     0.1857     2.3325    81.3415     3.2087     3.0660
  314.5000     5.0741     0.2608    -0.0248     0.1778     2.3527    84.7137     3.2099     3.0669
  315.0000     5.0741     0.2608    -0.0127     0.1742     2.3617    87.7503     3.2109     3.0679
  315.5000     5.0741     0.2620     0.0046     0.1730     2.3647    88.3560     3.2119     3.0687
  316.0000     5.0893     0.2626     0.0206     0.1766     2.3557    86.8326     3.2353     3.0480
  316.5000     5.0893     0.2605     0.0282     0.1829     2.3451    86.2218     3.2377     3.0491
  317.0000     5.0893     0.2586     0.0207     0.1862     2.3421    87.4346     3.2828     3.0499
  317.5000     5.0893     0.2574     0.0116     0.1853     2.3540    88.6880     3.3067     3.0720
  318.0000     5.1044     0.2577     0.0132     0.1756     2.3647    89.2525     3.3077     3.1194
  318.5000     5.1195     0.2607     0.0147     0.1704     2.3640    88.6409     3.3087     3.2050
  319.0000     5.1195     0.2634     0.0132     0.1719     2.3549    87.4222     3.3097     3.2283
  319.5000     5.1346     0.2667     0.0087     0.1770     2.3436    87.1153     3.3107     3.2067
  320.0000     5.1498     0.2698    -0.0033     0.1875     2.3368    88.6321     3.3117     3.1632
  320.5000     5.1506     0.2682     0.0118     0.1908     2.3353    89.8450     3.3129     3.1641
  321.0000     5.1800     0.2639     0.0330     0.1887     2.3474    89.8419     3.3603     3.1870
  321.5000     5.1800     0.2612     0.0481     0.1823     2.3542    89.5344     3.3848     3.2363
  322.0000     5.1800     0.2581     0.0466     0.1775     2.3549    85.2762     3.4571     3.3482
  322.5000     5.1649     0.2536     0.0195     0.1781     2.3512    82.2337     3.5066     3.4678
  323.0000     5.1649     0.2491     0.0074     0.1814     2.3647    84.3585     3.6066     3.6166
  323.5000     5.1498     0.2351     0.0271     0.1770     2.4096    87.0911     3.7112     3.7458
