~VERSION INFORMATION
 VERS.                2.0:   CWLS LOG ASCII STANDARD - VERSION 2.0
 WRAP.                 NO:   ONE LINE PER DEPTH STEP
~WELL INFORMATION
#MNEM.UNIT      DATA TYPE    INFORMATION
#----------   ------------   ------------------------------
 STRT.F            0.0000:   START DEPTH
 STOP.F         1008.0000:   STOP DEPTH
 STEP.F            0.5000:   STEP LENGTH
 NULL.          -999.2500:   NO VALUE
 COMP. LAWRENCE/ALLISON INC:   COMPANY
 WELL. NPR 3 #51-61-SX-14:   WELL
 FLD .             TEAPOT:   FIELD
 LOC .      S14 T38N R78W:   LOCATION
 CNTY.            NATRONA:   COUNTY
 STAT.            WYOMING:   STATE
 CTRY. UNITED STATES OF AMERICA:   COUNTRY
 SRVC.      Dresser Atlas:   SERVICE COMPANY
 DATE.        05-FEB-1986:   LOGDATE
 API .       490251106600:   API NUMBER
~CURVE INFORMATION
#MNEM.UNIT       API CODE    CURVE DESCRIPTION
#----------   ------------   ------------------------------
 DEPT.F                  :   
 GRR .GAPI   07 310 01 00:   GAMMA RAY FROM RES. LOG.
 RILD.OHMM   10 120 46 00:   INDUCTION LOG DEEP RESISTIVITY
 RILM.OHMM   07 120 44 00:   INDUCTION LOG MEDIUM RESISTIVITY
 CALD.IN     45 280 60 00:   CALIPER
 DEN .G/C3   45 350 01 00:   COMPENSATED BULK DENSTIY
 CORR.G/C3   45 356 01 00:   DENSITY CORRECTION
 PORD.DEC    45 890 10 00:   POROSITY DENSITY LIMESTONE
~PARAMETER INFORMATION
#MNEM.UNIT          VALUE    DESCRIPTION
#----------   ------------   ------------------------------
 PD  .                 GL:   PERMANENT DATUM
 EPD .F              5225:   ELEVATION PERMANENT DATUM
 LMF .                 GL:   LOG MEASURED FROM
 DMF .                 GL:   DRILLING MEASURED FROM
 EGL .F              5225:   GROUND LEVEL
 DATE.             2-5-86:   RUN DATE
 RUN .                  1:   RUN NUMBER
 DD  .F              1010:   DEPTH DRILLER
 DL  .F              1008:   DEPTH LOGGER
 BLI .F              1008:   BOTTOM LOG INTERVAL
 CS  .IN            8.625:   CASING SIZE
 CBD .F                86:   CASING BOTTOM DRILLER
 CBL .F                84:   CASING BOTTOM LOGGER
 BS  .IN             6.25:   BIT SIZE
 BSD .F              1010:   BIT SIZE AT DEPTH
 DFT .                AIR:   DRILLING FLUID TYPE
 LUN .            HL 6264:   LOGGING UNIT NUMBER
 LUL .           GILLETTE:   LOGGING UNIT LOCATION
 ENGI.           FAHLSING:   RECORDING ENGINEER
 WITN.              FIVAS:   WITNESSED BY
 CLNT.            A2DTECH:   CLIENT CODE
 ORIG.       2", 5" PRINT:   ORIGIN OF DATA
 UWI .       490251106600:   UNIQUE WELL ID
 DICO. A2D Technologies, Inc.:   DIGITIZING COMPANY
~OTHER INFORMATION
~A    DEPT      GRR      RILD       RILM       CALD        DEN       CORR       PORD   
# ...
  364.0000   109.7529     5.9122     5.6226     6.6441     2.4158     0.0936     0.1573
  364.5000   110.4228     6.0637     5.7361     6.6444     2.4145     0.0986     0.1601
  365.0000   111.0497     6.2130     5.8716     6.6447     2.4273     0.0956     0.1518
  365.5000   113.9846     6.3559     6.0094     6.6451     2.4363     0.0958     0.1437
  366.0000   115.9628     6.5020     6.1504     6.6454     2.4453     0.1119     0.1391
  366.5000   112.5061     6.6299     6.2738     6.6458     2.4542     0.1197     0.1350
  367.0000   108.1194     6.6101     6.2608     6.6461     2.4612     0.1259     0.1309
  367.5000   105.5288     6.5840     6.2494     6.6464     2.4684     0.1220     0.1268
  368.0000   115.4203     6.5581     6.2380     6.6467     2.4710     0.0983     0.1247
  368.5000   122.6683     6.5323     6.2266     6.6471     2.4681     0.0775     0.1251
  369.0000   121.6661     6.5066     6.2153     6.6474     2.4648     0.0928     0.1281
  369.5000   114.6205     6.4810     6.2040     6.6477     2.4614     0.1081     0.1314
  370.0000   109.4578     6.4555     6.1927     6.6481     2.4579     0.1236     0.1347
  370.5000   108.0678     6.4301     6.1814     6.6484     2.4511     0.1268     0.1380
  371.0000   108.0590     6.4048     6.1704     6.6487     2.4441     0.0917     0.1413
  371.5000   112.7352     6.3757     6.1594     6.6491     2.4371     0.0717     0.1445
  372.0000   115.6079     6.3144     6.1025     6.6495     2.4357     0.0581     0.1466
  372.5000   115.3329     6.2537     6.0486     6.6498     2.4372     0.0597     0.1450
  373.0000   116.2331     6.1935     5.9951     6.6471     2.4411     0.0733     0.1418
  373.5000   117.9067     6.1340     5.9422     6.6328     2.4471     0.0903     0.1387
  374.0000   117.2360     6.0750     5.8897     6.6520     2.4531     0.1063     0.1356
  374.5000   114.7926     6.0166     5.8376     6.6837     2.4540     0.1066     0.1343
  375.0000   112.5258     5.9588     5.7861     6.6900     2.4539     0.1037     0.1341
  375.5000   111.1278     5.9369     5.7350     6.6901     2.4522     0.1004     0.1362
  376.0000   114.1139     5.9597     5.6843     6.6900     2.4464     0.0790     0.1393
  376.5000   117.5098     5.9757     5.6699     6.6900     2.4450     0.0769     0.1405
  377.0000   120.9225     5.9917     5.8019     6.6900     2.4475     0.0918     0.1384
  377.5000   124.2803     6.1009     5.9028     6.6900     2.4498     0.1078     0.1363
  378.0000   125.5636     6.2384     6.0055     6.6901     2.4448     0.0987     0.1414
  378.5000   123.4114     6.3791     6.1101     6.6900     2.4341     0.0825     0.1476
  379.0000   116.6925     6.5229     6.2164     6.6864     2.4254     0.0760     0.1514
  379.5000   108.6344     6.6700     6.3246     6.6699     2.4213     0.0702     0.1544
  380.0000   104.0467     6.8203     6.4346     6.6534     2.4170     0.0689     0.1574
  380.5000   106.5859     6.9741     6.5466     6.6518     2.4134     0.0770     0.1574
  381.0000   109.5051     7.1313     6.6605     6.6542     2.4218     0.0900     0.1526
  381.5000   109.9169     7.2921     6.8155     6.6566     2.4305     0.0914     0.1484
  382.0000   113.9520     7.4724     6.7730     6.6590     2.4328     0.0811     0.1477
  382.5000   118.6106     7.5155     6.7097     6.6614     2.4390     0.0816     0.1452
  383.0000   119.9697     7.5414     6.6469     6.6638     2.4479     0.0900     0.1395
  383.5000   112.1307     7.5414     6.5848     6.6662     2.4569     0.0969     0.1339
  384.0000   108.3313     7.2620     6.5232     6.6686     2.4597     0.0978     0.1308
  384.5000   110.0486     7.0025     6.4622     6.6700     2.4594     0.0987     0.1318
  385.0000   111.6094     6.7530     6.4018     6.6700     2.4588     0.1040     0.1330
  385.5000   108.5124     6.5128     6.2445     6.6700     2.4548     0.1027     0.1341
  386.0000   103.4713     6.0750     5.6339     6.6700     2.4508     0.0998     0.1359
  386.5000   104.5833     5.4625     4.9872     6.6700     2.4469     0.1068     0.1387
  387.0000   106.2113     4.9118     4.2207     6.6700     2.4429     0.1137     0.1412
  387.5000   106.5995     4.1468     3.5745     6.6700     2.4376     0.1206     0.1448
  388.0000   107.5836     3.3678     3.0273     6.6700     2.4280     0.1276     0.1485
  388.5000   111.5330     2.7800     2.5648     6.6700     2.4186     0.1349     0.1556
  389.0000   118.6604     2.5304     2.2450     6.6700     2.4007     0.1143     0.1748
  389.5000   125.7482     2.3032     2.0209     6.6700     2.3634     0.0888     0.1949
  390.0000   133.0936     2.0975     1.9302     6.6700     2.3049     0.0763     0.2236
  390.5000   137.5866     2.0023     1.9145     6.6699     2.2354     0.0745     0.2717
  391.0000   141.1444     2.0052     2.0046     6.6695     2.1674     0.0747     0.3073
  391.5000   138.0069     2.0021     2.1380     6.6850     2.1271     0.0685     0.3275
  392.0000   130.1847     2.4426     2.5928     6.7373     2.1156     0.0683     0.3358
  392.5000   122.4808     2.8050     3.1106     6.7386     2.1325     0.0788     0.3270
  393.0000   116.0952     3.2211     3.7318     6.7190     2.1793     0.0891     0.2997
  393.5000   112.0631     3.7866     4.4770     6.6989     2.2668     0.0995     0.2548
  394.0000   106.9109     4.7979     5.3711     6.6790     2.3433     0.1106     0.1829
  394.5000   100.3594     6.0792     6.4437     6.6591     2.3830     0.1188     0.1759
  395.0000    97.6479     7.7027     7.7306     6.6512     2.3889     0.1029     0.1735
  395.5000    97.5544     9.2388     8.8259     6.6541     2.3906     0.0872     0.1729
  396.0000    95.9663    10.2996     9.6682     6.6571     2.3944     0.0734     0.1689
  396.5000    92.5350    11.3052     9.6665     6.6602     2.4067     0.0886     0.1634
  397.0000    89.3358    10.7969     9.9448     6.6632     2.4187     0.1051     0.1549
  397.5000    91.4191    10.1401     9.9470     6.6663     2.4303     0.0991     0.1479
  398.0000    93.8275     8.9355     8.0049     6.6693     2.4359     0.0434     0.1457
  398.5000    94.1721     7.5942     6.7714     6.6724     2.4252     0.0021     0.1521
  399.0000    94.2179     6.4619     5.7280     6.6754     2.4140     0.0225     0.1603
  399.5000    95.6233     5.5007     4.8453     6.6784     2.4029     0.0580     0.1671
  400.0000   102.8363     4.4573     4.0339     6.6815     2.3895     0.0948     0.1764
  400.5000   115.5202     4.4593     3.9970     6.6846     2.3513     0.1012     0.1860
  401.0000   127.8579     4.9369     4.5248     6.6876     2.3007     0.1170     0.2224
  401.5000   133.5412     5.3963     4.9718     6.6831     2.2508     0.1392     0.2609
  402.0000   118.7865     5.8985     5.4630     6.6431     2.2283     0.1402     0.2698
  402.5000   105.8746     6.4475     6.0028     6.6287     2.2722     0.1096     0.2352
  403.0000   101.1984     7.0475     6.5959     6.6264     2.3253     0.1058     0.2075
  403.5000    99.7871     7.7637     7.2475     6.6244     2.3622     0.1017     0.1885
  404.0000    97.3358     8.5884     7.9636     6.6223     2.3666     0.0850     0.1849
  404.5000    93.9660     9.5796     8.7504     6.6202     2.3729     0.0719     0.1813
  405.0000    93.7242     9.8341     9.3242     6.6180     2.3813     0.0789     0.1777
  405.5000    94.4634    10.1195     9.6028     6.6159     2.3879     0.0801     0.1733
  406.0000    93.2586    10.4119     9.8898     6.6138     2.3821     0.0733     0.1777
  406.5000    91.4414    10.7136    10.1853     6.6117     2.3744     0.0774     0.1833
  407.0000    92.4315    11.0241    10.4896     6.6114     2.3749     0.0906     0.1833
  407.5000    90.4891    11.3442    10.8039     6.6200     2.3789     0.1069     0.1788
  408.0000    88.7705    11.5287    11.0993     6.6283     2.3832     0.1229     0.1745
  408.5000    89.2066    11.5783    11.0543     6.6367     2.3808     0.1328     0.1768
  409.0000    88.4333    11.6216    11.0111     6.6451     2.3769     0.1329     0.1797
