~VERSION INFORMATION
 VERS.                2.0:   CWLS LOG ASCII STANDARD - VERSION 2.0
 WRAP.                 NO:   ONE LINE PER DEPTH STEP
~WELL INFORMATION
#MNEM.UNIT      DATA TYPE    INFORMATION
#----------   ------------   ------------------------------
 STRT.F           67.0000:   START DEPTH
 STOP.F          510.0000:   STOP DEPTH
 STEP.F            0.5000:   STEP LENGTH
 NULL.          -999.2500:   NO VALUE
 COMP.       F D SERV INC:   COMPANY
 WELL.    77-5 SX 3 #77-3:   WELL
 FLD .             TEAPOT:   FIELD
 LOC .       S3 T38N R78W:   LOCATION
 CNTY.            NATRONA:   COUNTY
 STAT.            WYOMING:   STATE
 CTRY. UNITED STATES OF AMERICA:   COUNTRY
 SRVC.     Atlas Wireline:   SERVICE COMPANY
 DATE.        24-NOV-1992:   LOGDATE
 API .       490252254400:   API NUMBER
~CURVE INFORMATION
#MNEM.UNIT       API CODE    CURVE DESCRIPTION
#----------   ------------   ------------------------------
 DEPT.F                  :   
 PORZ.DEC    45 890 12 00:   DENSITY POROSITY
 NPOR.DEC    42 890 03 00:   NEUTRON POROSITY SANDSTONE
 C13 .IN     45 280 13 00:   CALIPER 1 - 3
 GRD .GAPI   45 310 01 00:   GAMMA RAY FROM DENSITY LOG
 ZCOR.G/C3   45 356 01 00:   DENSITY CORRECTION
 ZDEN.G/C3   45 350 01 00:   BULK DENSITY
~PARAMETER INFORMATION
#MNEM.UNIT          VALUE    DESCRIPTION
#----------   ------------   ------------------------------
 PD  .                 GL:   PERMANENT DATUM
 EPD .F              5137:   ELEVATION PERMANENT DATUM
 LMF .                 KB:   LOG MEASURED FROM
 DAPD.F                10:   FEET ABOVE PERMANENT DATUM
 DMF .                 KB:   DRILLING MEASURED FROM
 EKB .F              5147:   KELLING BUSHING
 EDF .F              5146:   DRILLING FLOOR
 EGL .F              5137:   GROUND LEVEL
 DATE.        24-NOV-1992:   RUN DATE
 RUN .                  1:   RUN NUMBER
 DD  .F               510:   DEPTH DRILLER
 DL  .F               512:   DEPTH LOGGER
 BLI .F               510:   BOTTOM LOG INTERVAL
 TLI .F                99:   TOP LOG INTERVAL
 CS  .IN            8.625:   CASING SIZE
 CBD .F                97:   CASING BOTTOM DRILLER
 CBL .F                99:   CASING BOTTOM LOGGER
 BS  .IN            7.875:   BIT SIZE
 BSD .F               510:   BIT SIZE AT DEPTH
 DFT .           AIR FOAM:   DRILLING FLUID TYPE
 MRT .F                70:   MAXIMUM RECORDED TEMPERATURE
 LUN .            HL-6274:   LOGGING UNIT NUMBER
 LUL .             CASPER:   LOGGING UNIT LOCATION
 WITN.           G.STRONG:   WITNESSED BY
 CLNT.            A2DTECH:   CLIENT CODE
 ORIG.           5" PRINT:   ORIGIN OF DATA
 UWI .       490252254400:   UNIQUE WELL ID
 DICO. A2D Technologies, Inc.:   DIGITIZING COMPANY
~OTHER INFORMATION
~A   DEPT     PORZ       NPOR        C13        GRD       ZCOR       ZDEN   
# ...
  327.0000     0.1656     0.2547     8.0878   129.5199     0.0081     2.3734
  327.5000     0.1635     0.2544     8.0874   130.4259     0.0050     2.3780
  328.0000     0.1623     0.2538     8.0717   129.5080     0.0112     2.3802
  328.5000     0.1641     0.2535     8.0713   127.3776     0.0199     2.3810
  329.0000     0.1666     0.2532     8.0708   125.2472     0.0259     2.3794
  329.5000     0.1690     0.2542     8.0856   123.7238     0.0289     2.3749
  330.0000     0.1663     0.2566     8.0850   123.1109     0.0273     2.3703
  330.5000     0.1611     0.2578     8.0846   124.0577     0.0272     2.3763
  331.0000     0.1581     0.2581     8.0841   126.1324     0.0257     2.3854
  331.5000     0.1578     0.2582     8.0837   130.3753     0.0271     2.3900
  332.0000     0.1600     0.2594     8.0832   131.5848     0.0271     2.3877
  332.5000     0.1630     0.2600     8.0828   129.1494     0.0285     2.3814
  333.0000     0.1661     0.2594     8.0823   129.7504     0.0284     2.3762
  333.5000     0.1694     0.2582     8.0819   132.1724     0.0284     2.3702
  334.0000     0.1728     0.2570     8.0814   133.3804     0.0283     2.3671
  334.5000     0.1752     0.2564     8.0962   133.0709     0.0267     2.3618
  335.0000     0.1773     0.2580     8.0957   131.2440     0.0252     2.3573
  335.5000     0.1766     0.2601     8.0953   129.4171     0.0236     2.3550
  336.0000     0.1726     0.2619     8.0947   128.8042     0.0190     2.3618
  336.5000     0.1692     0.2635     8.0943   128.4885     0.0114     2.3678
  337.0000     0.1704     0.2631     8.0938   127.8817     0.0083     2.3701
  337.5000     0.1722     0.2622     8.0934   127.8755     0.0068     2.3670
  338.0000     0.1728     0.2626     8.0930   129.6893     0.0082     2.3632
  338.5000     0.1701     0.2641     8.0925   133.3252     0.0112     2.3685
  339.0000     0.1665     0.2657     8.0921   134.5332     0.0157     2.3738
  339.5000     0.1632     0.2663     8.0916   133.3133     0.0186     2.3792
  340.0000     0.1605     0.2660     8.0912   128.7550     0.0231     2.3851
  340.5000     0.1593     0.2654     8.0907   125.4106     0.0260     2.3882
  341.0000     0.1587     0.2645     8.1055   124.7977     0.0290     2.3874
  341.5000     0.1575     0.2633     8.1054   125.7022     0.0289     2.3889
  342.0000     0.1523     0.2646     8.1052   129.3381     0.0289     2.3987
  342.5000     0.1456     0.2676     8.1051   132.6706     0.0273     2.4063
  343.0000     0.1450     0.2697     8.1050   135.0925     0.0287     2.4108
  343.5000     0.1502     0.2713     8.1049   134.4513     0.0317     2.4023
  344.0000     0.1604     0.2701     8.1047   132.3126     0.0332     2.3856
  344.5000     0.1703     0.2661     8.1046   131.4313     0.0271     2.3683
  345.0000     0.1767     0.2652     8.1045   132.0338     0.0270     2.3608
  345.5000     0.1757     0.2653     8.1043   130.2054     0.0284     2.3592
  346.0000     0.1701     0.2653     8.1042   128.9855     0.0329     2.3647
  346.5000     0.1646     0.2653     8.1041   128.6760     0.0296     2.3760
  347.0000     0.1661     0.2647     8.1040   129.8840     0.0267     2.3766
  347.5000     0.1667     0.2629     8.1038   131.3955     0.0282     2.3758
  348.0000     0.1634     0.2617     8.1037   132.6050     0.0219     2.3796
  348.5000     0.1582     0.2626     8.1036   130.7766     0.0143     2.3879
  349.0000     0.1537     0.2629     8.1034   128.9497     0.0113     2.3947
  349.5000     0.1498     0.2630     8.1033   128.6403     0.0204     2.4000
  350.0000     0.1458     0.2630     8.1032   129.2413     0.0264     2.4053
  350.5000     0.1477     0.2642     8.1031   131.3597     0.0217     2.4091
  351.0000     0.1550     0.2648     8.1029   130.1396     0.0141     2.4007
  351.5000     0.1598     0.2641     8.1028   129.8289     0.0098     2.3886
  352.0000     0.1623     0.2627     8.1027   131.3404     0.0158     2.3818
  352.5000     0.1577     0.2641     8.1025   131.6394     0.0234     2.3871
  353.0000     0.1486     0.2667     8.1024   130.4180     0.0279     2.4002
  353.5000     0.1429     0.2670     8.1023   129.8050     0.0279     2.4101
  354.0000     0.1405     0.2661     8.1022   129.7991     0.0264     2.4173
  354.5000     0.1390     0.2664     8.1020   130.4001     0.0279     2.4211
  355.0000     0.1375     0.2646     8.1019   131.3061     0.0189     2.4233
  355.5000     0.1369     0.2634     8.1018   131.2986     0.0113     2.4241
  356.0000     0.1384     0.2641     8.1016   131.2927     0.0143     2.4210
  356.5000     0.1393     0.2656     8.1015   130.9832     0.0280     2.4195
  357.0000     0.1396     0.2645     8.1014   130.9772     0.0294     2.4195
  357.5000     0.1405     0.2631     8.1011   131.2748     0.0234     2.4180
  358.0000     0.1439     0.2617     8.1155   131.9282     0.0098     2.4119
  358.5000     0.1469     0.2605     8.1146   130.6544     0.0068     2.4088
  359.0000     0.1467     0.2596     8.1291   128.8275     0.0053     2.4088
  359.5000     0.1458     0.2590     8.1131   127.3041     0.0113     2.4088
  360.0000     0.1455     0.2590     8.0972   126.3877     0.0158     2.4104
  360.5000     0.1430     0.2606     8.0812   125.1678     0.0173     2.4163
  361.0000     0.1385     0.2597     8.0653   124.5548     0.0128     2.4269
  361.5000     0.1331     0.2579     8.0342   127.5837     0.0173     2.4342
  362.0000     0.1273     0.2573     8.0334   131.2197     0.0189     2.4417
  362.5000     0.1313     0.2600     8.0327   132.7312     0.0098     2.4356
  363.0000     0.1413     0.2622     8.0319   133.6357     0.0068     2.4204
  363.5000     0.1449     0.2613     8.0312   136.0576     0.0068     2.4113
  364.0000     0.1441     0.2585     8.0304   135.7155     0.0128     2.4135
  364.5000     0.1324     0.2576     8.0295   132.9723     0.0204     2.4309
  365.0000     0.1196     0.2583     8.0287   132.3964     0.0264     2.4478
  365.5000     0.1104     0.2614     8.0280   134.2114     0.0294     2.4633
  366.0000     0.1062     0.2647     8.0273   135.7229     0.0294     2.4786
  366.5000     0.1083     0.2656     8.0265   137.8413     0.0204     2.4748
  367.0000     0.1135     0.2656     8.0410   138.4438     0.0189     2.4649
  367.5000     0.1171     0.2656     8.0554   136.3120     0.0219     2.4542
  368.0000     0.1215     0.2656     8.0547   134.7885     0.0415     2.4489
  368.5000     0.1238     0.2641     8.0387   133.2651     0.0415     2.4458
  369.0000     0.1187     0.2599     8.0076   132.3487     0.0338     2.4451
  369.5000     0.1081     0.2542     7.9916   132.3427     0.0213     2.4625
  370.0000     0.0993     0.2517     7.9909   132.3368     0.0038     2.4776
  370.5000     0.0972     0.2524     7.9901   130.2044     0.0023     2.4897
  371.0000     0.1087     0.2577     8.0046   128.9864     0.0113     2.4728
  371.5000     0.1227     0.2636     8.0191   130.2408     0.0158     2.4497
  372.0000     0.1327     0.2664     8.0485   132.0079     0.0143     2.4365
  372.5000     0.1361     0.2673     8.0478   132.9125     0.0158     2.4259
  373.0000     0.1349     0.2676     8.0624   133.5150     0.0158     2.4289
  373.5000     0.1284     0.2679     8.0615   133.5075     0.0053     2.4387
  374.0000     0.1232     0.2704     8.0455   133.8065     0.0038     2.4470
  374.5000     0.1203     0.2728     8.0448   133.7991     0.0113     2.4500
  375.0000     0.1164     0.2744     8.0440   133.7931     0.0189     2.4553
  375.5000     0.1106     0.2735     8.0433   133.7872     0.0235     2.4674
  376.0000     0.1073     0.2726     8.0424   136.5126     0.0279     2.4712
  376.5000     0.1070     0.2729     8.0418   139.2381     0.0279     2.4726
  377.0000     0.1085     0.2744     8.0432   140.7497     0.0279     2.4726
  377.5000     0.1083     0.2726     8.0705   139.2059     0.0279     2.4726
  378.0000     0.1071     0.2708     8.0850   137.1990     0.0249     2.4725
  378.5000     0.1071     0.2693     8.0994   135.8755     0.0204     2.4718
