~VERSION INFORMATION
 VERS.                2.0:   CWLS LOG ASCII STANDARD - VERSION 2.0
 WRAP.                 NO:   ONE LINE PER DEPTH STEP
~WELL INFORMATION
#MNEM.UNIT      DATA TYPE    INFORMATION
#----------   ------------   ------------------------------
 STRT.F           30.0000:   START DEPTH
 STOP.F          562.0000:   STOP DEPTH
 STEP.F            0.5000:   STEP LENGTH
 NULL.          -999.2500:   NO VALUE
 COMP. LAWRENCE/ALLISON INC:   COMPANY
 WELL. NPR 3 #53-16-SX-10:   WELL
 FLD .             TEAPOT:   FIELD
 LOC .      S10 T38N R78W:   LOCATION
 CNTY.            NATRONA:   COUNTY
 STAT.            WYOMING:   STATE
 CTRY. UNITED STATES OF AMERICA:   COUNTRY
 SRVC.      Dresser Atlas:   SERVICE COMPANY
 DATE.        27-AUG-1984:   LOGDATE
 API .       490251098200:   API NUMBER
~CURVE INFORMATION
#MNEM.UNIT       API CODE    CURVE DESCRIPTION
#----------   ------------   ------------------------------
 DEPT.F                  :   
 RILD.OHMM   07 120 46 00:   INDUCTION LOG DEEP RESISTIVITY
 RILM.OHMM   07 120 44 00:   INDUCTION LOG MEDIUM RESISTIVITY
 RFOC.OHMM   07 220 04 00:   RESISTIVITY FOCUSED LOG
 SPR .MV     07 010 01 00:   SPONTANEOUS POTENTIAL
 AC  .US/F   60 520 00 00:   ACOUSTIC SONIC
 DEN .G/C3   45 350 01 00:   COMPENSATED BULK DENSTIY
 CORR.G/C3   45 356 01 00:   DENSITY CORRECTION
 CNC .DEC    42 890 01 00:   NEUTRON POROSITY LIMESTONE
 CALD.IN     45 280 60 00:   CALIPER
 GRD .GAPI   45 310 01 00:   GAMMA RAY FROM DENSITY LOG
 PORD.DEC    45 890 10 00:   POROSITY DENSITY LIMESTONE
~PARAMETER INFORMATION
#MNEM.UNIT          VALUE    DESCRIPTION
#----------   ------------   ------------------------------
 PD  .                 GL:   PERMANENT DATUM
 EPD .F              5199:   ELEVATION PERMANENT DATUM
 LMF .                 GL:   LOG MEASURED FROM
 DMF .                 GL:   DRILLING MEASURED FROM
 EGL .F              5199:   GROUND LEVEL
 DATE.            8-27-84:   RUN DATE
 RUN .                  1:   RUN NUMBER
 DD  .F               550:   DEPTH DRILLER
 DL  .F               549:   DEPTH LOGGER
 BLI .F               547:   BOTTOM LOG INTERVAL
 TLI .F                30:   TOP LOG INTERVAL
 CS  .IN            9.625:   CASING SIZE
 CBD .F                40:   CASING BOTTOM DRILLER
 CBL .F                44:   CASING BOTTOM LOGGER
 BS  .IN            7.875:   BIT SIZE
 BSD .F               550:   BIT SIZE AT DEPTH
 DFT .          KCL/WATER:   DRILLING FLUID TYPE
 MSS .           MUD TANK:   MUD SAMPLE SOURCE
 RMS .OHMM            .28:   RESISTIVITY MUD SAMPLE
 MST .F                78:   MUD SAMPLE TEMPERATURE
 TCS .HRS               4:   TIME CURCULATED STOPPED
 LUN .               4082:   LOGGING UNIT NUMBER
 LUL .          ROOSEVELT:   LOGGING UNIT LOCATION
 ENGI.            FRANCIS:   RECORDING ENGINEER
 WITN.              FIVAS:   WITNESSED BY
 CLNT.            A2DTECH:   CLIENT CODE
 ORIG.       2", 5" PRINT:   ORIGIN OF DATA
 UWI .       490251098200:   UNIQUE WELL ID
 DICO. A2D Technologies, Inc.:   DIGITIZING COMPANY
~OTHER INFORMATION
~A   DEPT     RILD       RILM       RFOC        SPR         AC        DEN       CORR          CNC     CALD         GRD      PORD   
# ...
  182.5000     3.1385     3.6361     5.0924   -44.3429   119.9576     2.4010     0.0626     0.2687     8.6434   111.1065     0.1876
  183.0000     3.5601     4.1446     4.9541   -43.6831   116.1532     2.4330     0.0967     0.2539     8.6424   115.8647     0.1675
  183.5000     4.0385     4.7242     5.3849   -43.0211   114.1285     2.4654     0.0986     0.2389     8.6414   117.2983     0.1474
  184.0000     4.5812     5.2941     6.3888   -42.3609   112.1038     2.4790     0.0600     0.2304     8.6405   117.3103     0.1287
  184.5000     5.1960     5.6794     7.6410   -41.7494   110.0790     2.4732     0.0232     0.2430     8.6395   117.2762     0.1208
  185.0000     5.9080     6.0625     7.9536   -41.3579   108.2264     2.4673     0.0179     0.2569     8.6386   118.6467     0.1236
  185.5000     6.1161     6.3083     7.6848   -40.9621   108.1183     2.4729     0.0163     0.2654     8.6376   120.4004     0.1257
  186.0000     6.3159     6.5676     7.3741   -40.5660   108.3629     2.4803     0.0199     0.2665     8.6366   121.3595     0.1243
  186.5000     6.5399     6.8365     7.1069   -40.1699   108.6074     2.4846     0.0253     0.2637     8.6357   119.8130     0.1193
  187.0000     6.5399     6.9790     7.1069   -39.7733   108.6370     2.4855     0.0316     0.2555     8.6347   117.7070     0.1170
  187.5000     6.4202     6.9802     7.3745   -39.3779   108.4776     2.4842     0.0381     0.2492     8.6338   115.9268     0.1158
  188.0000     6.1534     6.9102     7.5805   -38.9802   108.1500     2.4810     0.0367     0.2492     8.6328   115.7908     0.1164
  188.5000     5.6913     6.2370     7.7923   -38.8244   108.0018     2.4732     0.0337     0.2580     8.6318   119.5584     0.1189
  189.0000     5.2639     5.6459     7.9401   -38.8514   108.6211     2.4553     0.0307     0.2660     8.6309   124.6903     0.1233
  189.5000     4.8667     5.1131     7.2716   -38.8819   110.1010     2.4249     0.0318     0.2740     8.6299   128.7388     0.1291
  190.0000     4.6171     4.8639     5.9960   -38.9124   112.3869     2.3947     0.0473     0.2797     8.6290   125.8776     0.1434
  190.5000     4.5430     4.7481     4.9441   -38.9426   114.6657     2.3855     0.0522     0.2779     8.6280   122.6932     0.1609
  191.0000     4.4705     4.6465     4.8214   -38.9730   116.9265     2.4186     0.0432     0.2782     8.6270   120.7696     0.1750
  191.5000     4.3960     4.6465     5.4588   -39.0034   117.4175     2.4533     0.0453     0.2813     8.6261   119.5583     0.1610
  192.0000     4.4555     4.7851     6.1089   -39.0129   115.2514     2.4880     0.0472     0.2809     8.6258   115.1500     0.1386
  192.5000     4.5203     4.9731     6.2447   -38.8575   113.5058     2.4965     0.0492     0.2697     8.6257   110.7151     0.1162
  193.0000     4.7803     5.1700     6.2447   -38.5808   111.8938     2.4905     0.0537     0.2641     8.6257   108.8278     0.1096
  193.5000     5.0480     5.3867     6.5532   -38.3019   111.2756     2.4784     0.0586     0.2606     8.6257   111.3067     0.1116
  194.0000     5.3371     5.6234     6.8069   -38.0133   111.0980     2.4689     0.0622     0.2534     8.6257   115.1214     0.1198
  194.5000     5.6199     5.9601     6.9343   -37.6787   110.9393     2.4606     0.0575     0.2462     8.6257   118.9244     0.1269
  195.0000     5.9261     6.3169     7.0641   -37.1726   109.0794     2.4592     0.0384     0.2444     8.6257   119.7335     0.1321
  195.5000     6.2489     6.6951     7.3083   -36.6249   107.2862     2.4680     0.0270     0.2535     8.6257   117.8239     0.1326
  196.0000     6.5893     7.0960     7.7436   -36.0763   105.7445     2.4837     0.0294     0.2540     8.6257   116.1770     0.1237
  196.5000     6.9483     7.5216     8.2050   -35.5292   104.6162     2.5003     0.0329     0.2382     8.6257   117.5609     0.1135
  197.0000     7.3055     7.9392     8.5455   -34.9759   103.7776     2.5079     0.0364     0.2260     8.6257   118.8661     0.1032
  197.5000     7.6051     8.2409     8.7277   -34.7357   103.7776     2.5077     0.0400     0.2255     8.6257   118.6258     0.1028
  198.0000     7.9401     8.3168     8.9138   -34.6287   103.8119     2.5064     0.0360     0.2299     8.6257   117.9060     0.1030
  198.5000     7.9106     8.1980     9.0364   -34.5266   104.1216     2.5055     0.0284     0.2342     8.6257   117.1811     0.1032
  199.0000     7.8788     8.0410     8.8256   -34.4238   104.4312     2.5062     0.0283     0.2411     8.6257   117.0157     0.1029
  199.5000     7.7623     7.8870     8.6730   -34.3207   104.7409     2.5093     0.0404     0.2501     8.6257   117.7297     0.1011
  200.0000     7.5985     7.7359     8.5230   -34.2176   105.0802     2.5135     0.0625     0.2565     8.6257   118.4291     0.0990
  200.5000     7.4381     7.5877     8.3756   -34.1146   107.1526     2.5124     0.0684     0.2544     8.6257   119.1477     0.0993
  201.0000     7.2811     7.4424     8.2307   -34.0108   109.9641     2.5004     0.0529     0.2505     8.6257   119.6591     0.1067
  201.5000     7.1272     7.2999     8.0883   -33.9723   113.2966     2.4847     0.0378     0.2490     8.6257   120.0889     0.1140
  202.0000     6.9778     7.1601     7.9619   -33.9718   112.0281     2.4911     0.0378     0.2556     8.6257   119.3335     0.1169
  202.5000     6.8478     7.0231     7.8526   -33.9736   110.4709     2.5010     0.0553     0.2610     8.6257   118.4267     0.1076
  203.0000     6.7737     6.8889     7.7446   -33.9644   108.7876     2.5084     0.0721     0.2581     8.6257   118.8058     0.1012
  203.5000     6.5755     6.7551     7.6391   -33.6720   108.4833     2.5068     0.0812     0.2557     8.6257   119.8761     0.1021
  204.0000     6.2361     6.5641     7.5167   -33.3652   109.8242     2.5051     0.0752     0.2597     8.6257   120.9716     0.1052
  204.5000     5.9120     6.1998     7.3800   -33.0597   111.1662     2.4948     0.0625     0.2670     8.6257   122.4553     0.1096
  205.0000     5.6055     5.8599     7.2452   -32.7545   111.8221     2.4799     0.0498     0.2729     8.6258   125.2797     0.1183
  205.5000     5.3148     5.5378     7.1128   -32.4493   112.3423     2.4615     0.0389     0.2720     8.6258   127.8127     0.1270
  206.0000     5.0385     5.2333     6.6932   -32.1442   113.8385     2.4432     0.0458     0.2721     8.6255   127.5979     0.1357
  206.5000     4.9560     5.1424     5.9858   -31.8391   115.4349     2.4251     0.0630     0.2733     8.6241   127.4364     0.1460
  207.0000     5.0308     5.1423     5.3371   -31.5330   116.0020     2.4115     0.0624     0.2672     8.6227   126.0186     0.1569
  207.5000     5.0890     5.3071     5.3371   -31.1790   115.0902     2.4130     0.0383     0.2535     8.6213   121.4104     0.1610
  208.0000     5.1435     5.5522     6.0339   -30.7478   112.7125     2.4402     0.0278     0.2404     8.6199   117.3442     0.1513
  208.5000     5.4881     5.9415     6.7445   -30.3175   109.6675     2.4591     0.0338     0.2404     8.6185   117.9653     0.1393
  209.0000     5.8327     6.3581     7.5378   -29.8868   106.6224     2.4711     0.0349     0.2513     8.6171   120.2620     0.1274
  209.5000     6.1990     6.7085     8.2368   -29.4567   105.5812     2.4679     0.0212     0.2533     8.6157   122.5941     0.1255
  210.0000     6.5883     7.0072     8.1634   -29.0754   105.9463     2.4659     0.0072     0.2400     8.6143   124.8993     0.1283
  210.5000     7.0019     7.3190     8.1015   -28.8398   106.4077     2.4692     0.0098     0.2316     8.6129   125.9698     0.1276
  211.0000     7.4278     7.6475     8.0138   -28.6535   106.8691     2.4668     0.0198     0.2336     8.6115   126.9936     0.1270
  211.5000     7.6004     7.8010     8.0418   -28.5050   107.1296     2.4659     0.0282     0.2362     8.6100   128.0399     0.1283
  212.0000     7.6329     7.9054     8.0895   -28.3584   106.7227     2.4738     0.0365     0.2416     8.6086   128.9686     0.1289
  212.5000     7.6656     8.0104     8.3941   -28.2118   106.2323     2.4824     0.0523     0.2517     8.6072   127.7521     0.1218
