~VERSION INFORMATION
 VERS.                2.0:   CWLS LOG ASCII STANDARD - VERSION 2.0
 WRAP.                 NO:   ONE LINE PER DEPTH STEP
~WELL INFORMATION
#MNEM.UNIT      DATA TYPE    INFORMATION
#----------   ------------   ------------------------------
 STRT.F           29.0000:   START DEPTH
 STOP.F          503.0000:   STOP DEPTH
 STEP.F            0.5000:   STEP LENGTH
 NULL.          -999.2500:   NO VALUE
 COMP. FENIX & SCISSON INC:   COMPANY
 WELL.      78 SX 3 #78-3:   WELL
 FLD .             TEAPOT:   FIELD
 LOC .       S3 T38N R78W:   LOCATION
 CNTY.            NATRONA:   COUNTY
 STAT.            WYOMING:   STATE
 CTRY. UNITED STATES OF AMERICA:   COUNTRY
 SRVC.            Unknown:   SERVICE COMPANY
 DATE.        17-OCT-1978:   LOGDATE
 API .       490251072400:   API NUMBER
~CURVE INFORMATION
#MNEM.UNIT       API CODE    CURVE DESCRIPTION
#----------   ------------   ------------------------------
 DEPT.F                  :   
 CALD.IN     45 280 60 00:   CALIPER
 GRD .GAPI   45 310 01 00:   GAMMA RAY FROM DENSITY LOG
 CORR.G/C3   45 356 01 00:   DENSITY CORRECTION
 RHOB.G/C3   45 350 01 00:   BULK DENSITY
 DPHI.DEC    45 890 12 00:   DENSITY POROSITY SANDSTONE
 SPR .MV     05 010 01 00:   SPONTANEOUS POTENTIAL FROM RES.
 IL  .OHMM   05 120 00 00:   INDUCTION LOG
 SN  .OHMM   05 040 16 00:   SHORT NORMAL 16"
~PARAMETER INFORMATION
#MNEM.UNIT          VALUE    DESCRIPTION
#----------   ------------   ------------------------------
 PD  .                 GL:   PERMANENT DATUM
 EPD .F              5154:   ELEVATION PERMANENT DATUM
 LMF .                 KB:   LOG MEASURED FROM
 DAPD.F                 4:   FEET ABOVE PERMANENT DATUM
 DMF .                 KB:   DRILLING MEASURED FROM
 EKB .F              5158:   KELLING BUSHING
 EGL .F              5154:   GROUND LEVEL
 DATE.           10-17-78:   RUN DATE
 RUN .                  1:   RUN NUMBER
 DD  .F               498:   DEPTH DRILLER
 DL  .F               503:   DEPTH LOGGER
 BLI .F               497:   BOTTOM LOG INTERVAL
 TLI .F                46:   TOP LOG INTERVAL
 CS  .IN            8.625:   CASING SIZE
 CBD .F                40:   CASING BOTTOM DRILLER
 BS  .IN            7.875:   BIT SIZE
 BSD .F               498:   BIT SIZE AT DEPTH
 DFT .                KCL:   DRILLING FLUID TYPE
 DFD .                8.7:   DRILLING FLUID DENSITY
 DFV .                 38:   DRILLING FLUID VISCOSITY
 DFPH.                  9:   DRILLING FLUID PH
 DFL .                9.6:   DRILLING FLUID LOSS
 MSS .          FLOW LINE:   MUD SAMPLE SOURCE
 RMS .OHMM             .2:   RESISTIVITY MUD SAMPLE
 MST .F                52:   MUD SAMPLE TEMPERATURE
 RMF .OHMM            .18:   RESISTIVITY MUD FILTRATE SAMPLE
 MFST.F                58:   MUD FILTRATE SAMPLE TEMPERATURE
 RMC .OHMM            .16:   RESISTIVITY MUD CAKE
 MCST.F                64:   MUD CAKE SAMPLE TEMPERATURE
 MFSS.               MEAS:   MUD FILTRATE SAMPLE SOURCE
 MCSS.               MEAS:   MUD CAKE SAMPLE SOURCE
 TCS .HRS               1:   TIME CURCULATED STOPPED
 MRT .F                72:   MAXIMUM RECORDED TEMPERATURE
 LUN .               2958:   LOGGING UNIT NUMBER
 LUL .               CASP:   LOGGING UNIT LOCATION
 ENGI.             MILLER:   RECORDING ENGINEER
 WITN.           DINSMORE:   WITNESSED BY
 CLNT.            A2DTECH:   CLIENT CODE
 ORIG.           5" PRINT:   ORIGIN OF DATA
 UWI .       490251072400:   UNIQUE WELL ID
 DICO. A2D Technologies, Inc.:   DIGITIZING COMPANY
~OTHER INFORMATION
~A   DEPT     CALD         GRD      CORR       RHOB       DPHI        SPR         IL         SN   
# ...
  231.5000     7.8651   126.3683     0.0186     2.4894     0.1104   -29.3478     7.0168     7.4928
  232.0000     7.8445   119.6673     0.0229     2.4849     0.1099   -29.3981     7.2739     7.7433
  232.5000     7.8239   116.9202     0.0281     2.4879     0.1077   -29.4421     7.5405     7.7430
  233.0000     7.8034   118.0054     0.0371     2.4913     0.1056   -29.8239     7.8167     7.7422
  233.5000     7.7827   119.1499     0.0386     2.4948     0.1047   -30.2763     7.9780     7.7429
  234.0000     7.7754   120.2222     0.0296     2.4932     0.1077   -30.3100     8.0162     7.6828
  234.5000     7.7775   118.7370     0.0190     2.4890     0.1099   -30.3516     8.0547     7.6436
  235.0000     7.7798   117.5408     0.0082     2.4847     0.1094   -30.3940     8.0934     7.6012
  235.5000     7.7821   117.4625     0.0047     2.4843     0.1089   -30.4373     8.1321     7.4675
  236.0000     7.7844   117.4183     0.0052     2.4853     0.1084   -30.2046     8.1814     7.3249
  236.5000     7.7867   117.3747     0.0056     2.4863     0.1117   -28.9699     8.1563     7.2476
  237.0000     7.7890   117.3162     0.0061     2.4850     0.1149   -27.8858     8.1222     7.2252
  237.5000     7.7912   116.5410     0.0064     2.4752     0.1180   -27.8715     8.0881     7.2030
  238.0000     7.7931   114.5889     0.0099     2.4718     0.1132   -27.8765     8.0541     7.1808
  238.5000     7.8129   112.6222     0.0140     2.4883     0.1087   -27.8757     8.0195     7.1587
  239.0000     7.8363   112.2002     0.0181     2.4922     0.1044   -27.7746     7.9392     7.1367
  239.5000     7.8598   115.0422     0.0222     2.4960     0.1068   -27.4359     7.8598     7.1147
  240.0000     7.8833   118.0169     0.0242     2.4938     0.1113   -27.2563     7.7809     7.0932
  240.5000     7.9069   119.1206     0.0235     2.4809     0.1205   -27.2004     7.7035     7.0716
  241.0000     7.9307   117.6744     0.0229     2.4583     0.1315   -27.1450     7.6708     6.9971
  241.5000     7.9296   115.9392     0.0233     2.4363     0.1425   -27.0669     7.6714     6.6834
  242.0000     7.9240   116.0997     0.0272     2.4194     0.1479   -28.2350     7.6714     6.3824
  242.5000     7.9182   117.9409     0.0311     2.4205     0.1394   -29.7384     7.6714     6.3240
  243.0000     7.9125   119.7798     0.0349     2.4604     0.1296   -31.1931     7.6714     6.3763
  243.5000     7.9068   121.6197     0.0382     2.4858     0.1199   -31.5240     7.3609     6.4286
  244.0000     7.9011   123.4928     0.0363     2.4867     0.1108   -31.3884     6.8851     6.5009
  244.5000     7.8954   123.3720     0.0342     2.4684     0.1277   -31.3008     6.6874     6.4380
  245.0000     7.8897   122.3014     0.0327     2.4481     0.1434   -32.6044     6.5461     6.3395
  245.5000     7.8840   121.3230     0.0382     2.4278     0.1515   -32.6936     6.4414     6.2661
  246.0000     7.8783   122.0927     0.0437     2.4129     0.1446   -32.7344     6.4211     6.2661
  246.5000     7.8726   125.6961     0.0356     2.4130     0.1392   -32.7794     6.3899     6.2661
  247.0000     7.8669   128.3089     0.0222     2.4319     0.1338   -32.8259     6.3589     6.2661
  247.5000     7.8612   128.4233     0.0122     2.4519     0.1283   -32.8724     6.3222     6.3119
  248.0000     7.8555   127.3282     0.0123     2.4701     0.1229   -32.9189     6.3218     6.4953
  248.5000     7.8498   123.1506     0.0177     2.4729     0.1179   -32.9659     6.5325     6.6811
  249.0000     7.8441   119.1267     0.0236     2.4753     0.1132   -33.0097     6.7350     6.8727
  249.5000     7.8384   115.0567     0.0295     2.4818     0.1088   -33.0516     6.9425     6.9609
  250.0000     7.8327   113.9502     0.0355     2.4898     0.1095   -32.1906     7.1564     7.0013
  250.5000     7.8271   114.7162     0.0371     2.4972     0.1108   -31.0113     7.3768     7.0620
  251.0000     7.8213   114.3653     0.0348     2.4913     0.1167   -29.8126     7.6714     6.9494
  251.5000     7.8155   112.9373     0.0325     2.4734     0.1283   -28.5633     7.3208     6.7323
  252.0000     7.8194   111.4417     0.0302     2.4446     0.1437   -28.4453     6.8535     6.5219
  252.5000     7.8372   111.1086     0.0350     2.4154     0.1603   -28.6929     6.3824     6.3123
  253.0000     7.8548   111.8630     0.0413     2.4036     0.1580   -28.7986     6.2324     6.0975
  253.5000     7.8724   117.1974     0.0476     2.4035     0.1554   -25.3076     6.0955     5.8717
  254.0000     7.8900   125.0447     0.0539     2.4120     0.1426   -24.7999     6.1380     5.8710
  254.5000     7.9076   133.1326     0.0602     2.4210     0.1263   -24.6980     6.2682     5.9910
  255.0000     7.9253   134.7834     0.0644     2.4451     0.1100   -24.6991     6.4111     6.1710
  255.5000     7.9427   130.5428     0.0643     2.4789     0.0933   -24.6990     6.6203     6.3591
  256.0000     7.9538   126.6529     0.0643     2.5089     0.0923   -25.3116     6.8364     6.5524
  256.5000     7.9515   125.6512     0.0642     2.5135     0.0934   -27.6993     7.0596     6.7516
  257.0000     7.9494   124.7997     0.0617     2.5138     0.0943   -28.4812     7.2895     6.9569
  257.5000     7.9473   123.9118     0.0589     2.5126     0.0953   -28.4830     7.6521     7.1684
  258.0000     7.9452   122.8556     0.0562     2.5115     0.0963   -28.4930     8.2586     7.3943
  258.5000     7.9431   121.7682     0.0535     2.5103     0.0972   -28.5010     8.2483     7.4722
  259.0000     7.9410   121.6879     0.0508     2.5092     0.0982   -28.5096     8.2251     7.5538
  259.5000     7.9389   122.7413     0.0481     2.5081     0.0989   -28.5182     8.2061     7.6363
  260.0000     7.9369   123.8011     0.0453     2.5070     0.0991   -28.5268     8.1875     7.6714
  260.5000     7.9348   124.8879     0.0426     2.5061     0.0994   -28.5354     8.1691     7.6051
  261.0000     7.9327   125.6967     0.0399     2.5052     0.0996   -28.5440     8.1507     7.5574
  261.5000     7.9306   119.8736     0.0372     2.5043     0.0998   -28.5525     8.1324     7.5100
  262.0000     7.9285   114.6344     0.0344     2.5035     0.1005   -28.5611     8.1073     7.4626
  262.5000     7.9264   114.8631     0.0324     2.5020     0.1025   -28.5697     8.1335     7.4496
  263.0000     7.9243   116.0874     0.0324     2.4999     0.1040   -28.5783     8.1795     7.4332
  263.5000     7.9222   117.5657     0.0324     2.4977     0.1035   -28.5869     8.2254     7.4169
  264.0000     7.9201   119.0495     0.0324     2.4971     0.1028   -28.5955     8.2716     7.4006
  264.5000     7.9180   120.5458     0.0324     2.4982     0.1020   -28.6041     8.3183     7.3843
  265.0000     7.9159   121.0550     0.0324     2.4993     0.1012   -28.6126     8.3663     7.3681
  265.5000     7.9153   121.0059     0.0324     2.5004     0.1005   -28.6212     8.4093     7.3517
  266.0000     7.9209   120.9465     0.0324     2.4998     0.1026   -28.6298     8.1069     7.3364
  266.5000     7.9263   120.8989     0.0324     2.4973     0.1053   -28.6384     7.8209     7.2881
  267.0000     7.9318   120.8976     0.0324     2.4910     0.1221   -28.6470     7.5450     7.2005
  267.5000     7.9372   120.8902     0.0341     2.4689     0.1378   -28.6556     7.2829     7.1132
  268.0000     7.9427   120.9186     0.0376     2.4347     0.1534   -28.6644     7.0350     6.9975
  268.5000     7.9481   121.7451     0.0428     2.4007     0.1690   -28.6725     6.9725     7.0199
  269.0000     7.9535   126.7305     0.0512     2.3653     0.1855   -28.6696     6.9433     7.0561
  269.5000     7.9590   131.6028     0.0596     2.3564     0.1595   -28.5378     6.9142     7.0914
  270.0000     7.9644   136.0249     0.0680     2.3677     0.1314   -27.9224     6.8853     7.1289
  270.5000     7.9699   136.4572     0.0765     2.4445     0.1035   -27.4466     6.8698     7.4676
  271.0000     7.9753   124.9749     0.0796     2.5237     0.0793   -27.3472     7.7196     7.8073
  271.5000     7.9807   120.2131     0.0778     2.5327     0.0789   -27.2428     8.4664     8.1606
