~VERSION INFORMATION
 VERS.                2.0:   CWLS LOG ASCII STANDARD - VERSION 2.0
 WRAP.                 NO:   ONE LINE PER DEPTH STEP
~WELL INFORMATION
#MNEM.UNIT      DATA TYPE    INFORMATION
#----------   ------------   ------------------------------
 STRT.F            0.0000:   START DEPTH
 STOP.F          551.0000:   STOP DEPTH
 STEP.F            0.1000:   STEP LENGTH
 NULL.          -999.2500:   NO VALUE
 COMP.       F D SERV INC:   COMPANY
 WELL.    62-2 SX-3 #62-3:   WELL
 FLD .          N.P.R. #3:   FIELD
 LOC .       S3 T38N R78W:   LOCATION
 CNTY.            NATRONA:   COUNTY
 STAT.            WYOMING:   STATE
 CTRY. UNITED STATES OF AMERICA:   COUNTRY
 SRVC.     Atlas Wireline:   SERVICE COMPANY
 DATE.        17-APR-1992:   LOGDATE
 API .       490252250700:   API NUMBER
~CURVE INFORMATION
#MNEM.UNIT       API CODE    CURVE DESCRIPTION
#----------   ------------   ------------------------------
 DEPT.F                  :   
 GRR .GAPI   07 310 01 00:   GAMMA RAY
 RILD.OHMM   07 120 46 00:   INDUCTION LOG DEEP RESISTIVITY
 RILM.OHMM   07 120 44 00:   INDUCTION LOG MEDIUM RESISTIVITY
~PARAMETER INFORMATION
#MNEM.UNIT          VALUE    DESCRIPTION
#----------   ------------   ------------------------------
 PD  .                 GL:   PERMANENT DATUM
 EPD .F              5130:   ELEVATION PERMANENT DATUM
 LMF .                 KB:   LOG MEASURED FROM
 DAPD.F                 5:   FEET ABOVE PERMANENT DATUM
 DMF .                 KB:   DRILLING MEASURED FROM
 EKB .F              5135:   KELLING BUSHING
 EDF .F              5134:   DRILLING FLOOR
 EGL .F              5130:   GROUND LEVEL
 DATE.        17-APR-1992:   RUN DATE
 RUN .                  1:   RUN NUMBER
 DD  .F               560:   DEPTH DRILLER
 DL  .F               560:   DEPTH LOGGER
 BLI .F               558:   BOTTOM LOG INTERVAL
 CS  .IN            8.625:   CASING SIZE
 CBD .F                47:   CASING BOTTOM DRILLER
 CBL .F                50:   CASING BOTTOM LOGGER
 BS  .IN            7.875:   BIT SIZE
 BSD .F               560:   BIT SIZE AT DEPTH
 DFT .                AIR:   DRILLING FLUID TYPE
 TCS .HRS               2:   TIME CURCULATED STOPPED
 MRT .F                83:   MAXIMUM RECORDED TEMPERATURE
 LUN .           HL- 6274:   LOGGING UNIT NUMBER
 LUL .             CASPER:   LOGGING UNIT LOCATION
 ENGI.            LEBSOCK:   RECORDING ENGINEER
 WITN.        GARY STRONG:   WITNESSED BY
 CLNT.            A2DTECH:   CLIENT CODE
 ORIG.           5" PRINT:   ORIGIN OF DATA
 UWI .       490252250700:   UNIQUE WELL ID
 DICO. A2D Technologies, Inc.:   DIGITIZING COMPANY
~OTHER INFORMATION
~A    DEPT      GRR      RILD       RILM   
# ...
  455.0000    95.8548    14.5388    13.4446
  455.1000    95.8596    14.4453    13.3693
  455.2000    96.0540    14.3760    13.3003
  455.3000    96.3049    14.3464    13.3017
  455.4000    96.4793    14.3148    13.3026
  455.5000    96.5245    14.2345    13.3037
  455.6000    97.0948    14.1501    13.2747
  455.7000    97.0990    14.1510    13.2131
  455.8000    97.2571    14.0944    13.2145
  455.9000    97.5080    14.0543    13.1445
  456.0000    97.7992    14.0343    13.1246
  456.1000    98.3289    13.9582    13.1257
  456.2000    98.3335    13.9594    13.1070
  456.3000    98.5117    13.9602    13.0364
  456.4000    98.7626    13.9152    13.0378
  456.5000    98.9531    13.8647    13.0387
  456.6000    98.9580    13.8657    12.9963
  456.7000    98.9628    13.8668    12.9501
  456.8000    98.7739    13.7970    12.9511
  456.9000    98.5326    13.7719    12.9523
  457.0000    98.2106    13.7728    12.9533
  457.1000    97.7475    13.7738    12.9544
  457.2000    97.4748    13.7748    12.9555
  457.3000    97.2652    13.6985    12.9398
  457.4000    96.8666    13.6806    12.8674
  457.5000    96.3792    13.6816    12.8685
  457.6000    95.9363    13.6826    12.8696
  457.7000    95.6831    13.6835    12.8707
  457.8000    95.4538    13.6846    12.8482
  457.9000    95.2125    13.6854    12.7831
  458.0000    94.9713    13.6380    12.7844
  458.1000    94.7946    13.5919    12.7853
  458.2000    94.7994    13.5928    12.7864
  458.3000    94.8052    13.5938    12.7874
  458.4000    94.8091    13.5947    12.7747
  458.5000    94.8139    13.5957    12.7006
  458.6000    94.8187    13.5966    12.7016
  458.7000    94.8236    13.5976    12.7027
  458.8000    94.8290    13.5985    12.7037
  458.9000    94.8333    13.5997    12.6843
  459.0000    94.8381    13.6004    12.6173
  459.1000    94.9478    13.6014    12.6186
  459.2000    95.1988    13.6023    12.6195
  459.3000    95.4579    13.6033    12.6205
  459.4000    95.9387    13.6043    12.6216
  459.5000    96.0726    13.6052    12.6227
  459.6000    96.3276    13.6061    12.6238
  459.7000    96.8248    13.6071    12.6248
  459.8000    97.3215    13.6081    12.6258
  459.9000    97.9083    13.6090    12.5931
  460.0000    98.3158    13.6100    12.5401
  460.1000    98.9581    13.6109    12.5411
  460.2000    99.6124    13.6119    12.5422
  460.3000   100.1092    13.6128    12.5432
  460.4000   100.6552    13.6138    12.5442
  460.5000   100.8814    13.6149    12.5453
  460.6000   101.4633    13.6157    12.5463
  460.7000   101.9886    13.6166    12.5475
  460.8000   102.2395    13.6176    12.5484
  460.9000   102.4945    13.6185    12.5495
  461.0000   102.4992    13.6195    12.5506
  461.1000   102.3186    13.6204    12.5516
  461.2000   102.0774    13.6214    12.5527
  461.3000   101.7634    13.6224    12.5537
  461.4000   101.2759    13.6233    12.5548
  461.5000   100.7088    13.6242    12.5559
  461.6000   100.0954    13.6252    12.5569
  461.7000    99.5114    13.6262    12.5579
  461.8000    99.0241    13.6271    12.5591
  461.9000    98.5366    13.6280    12.4996
  462.0000    98.0095    13.6290    12.4736
  462.1000    97.7880    13.6301    12.4746
  462.2000    97.5467    13.6310    12.4757
  462.3000    97.4184    13.6319    12.4768
  462.4000    97.4233    13.6328    12.4778
  462.5000    97.4281    13.6338    12.5299
  462.6000    97.9250    13.6348    12.5674
  462.7000    98.6116    13.6357    12.5685
  462.8000    99.3548    13.6366    12.5695
  462.9000   100.0978    13.6376    12.5708
  463.0000   100.8412    13.6386    12.5717
  463.1000   101.6939    13.6396    12.5727
  463.2000   102.3273    13.6406    12.5737
  463.3000   102.7639    13.6414    12.5747
  463.4000   102.9180    13.6424    12.5759
  463.5000   102.8826    13.6433    12.5769
  463.6000   102.6254    13.6443    12.5779
  463.7000   102.4000    13.6453    12.5790
  463.8000   102.1586    13.6462    12.5800
  463.9000   101.8003    13.6472    12.5811
  464.0000   101.3132    13.6481    12.6539
  464.1000   100.8259    13.6490    12.6714
  464.2000   100.3385    13.6500    12.6725
  464.3000   100.0448    13.6510    12.6736
  464.4000    99.9407    13.6519    12.6747
  464.5000    99.9455    13.6529    12.6759
  464.6000    99.9504    13.6538    12.6768
  464.7000    99.9558    13.6548    12.6779
  464.8000   100.1738    13.6559    12.6789
  464.9000   100.5821    13.6567    12.6800
  465.0000   101.0792    13.7088    12.6811
  465.1000   101.6204    13.7545    12.6821
  465.2000   102.4002    13.7555    12.6832
  465.3000   102.8726    13.7565    12.6842
  465.4000   103.3698    13.7575    12.6853
  465.5000   103.8668    13.7584    12.6864
  465.6000   104.3638    13.7594    12.6876
  465.7000   104.8774    13.7603    12.6885
  465.8000   106.0609    13.7613    12.6895
  465.9000   106.6578    13.7624    12.6906
  466.0000   107.1185    13.7632    12.6917
  466.1000   107.4541    13.7642    12.6928
  466.2000   107.9229    13.7355    12.6938
  466.3000   108.2027    13.6700    12.6948
  466.4000   108.4249    13.6711    12.6959
  466.5000   108.5144    13.6720    12.6970
  466.6000   108.4144    13.6730    12.6980
  466.7000   108.1730    13.6740    12.6991
  466.8000   107.9239    13.6561    12.7001
  466.9000   107.4525    13.5804    12.7012
  467.0000   107.1467    13.5814    12.7024
  467.1000   106.7804    13.5824    12.7034
  467.2000   106.2929    13.5401    12.7046
  467.3000   105.7938    13.4895    12.7055
  467.4000   104.9279    13.4905    12.6593
  467.5000   104.5285    13.4915    12.6192
  467.6000   103.8959    13.4924    12.6202
  467.7000   102.9848    13.4933    12.6213
  467.8000   101.7596    13.4942    12.5524
  467.9000   100.4132    13.4802    12.5355
  468.0000   100.1958    13.4020    12.5366
  468.1000   100.1198    13.4029    12.5165
  468.2000   100.3423    13.4039    12.4512
  468.3000   100.8396    13.4048    12.4525
  468.4000   101.3447    13.4058    12.4534
  468.5000   101.8336    13.4067    12.4108
  468.6000   102.3307    13.4078    12.3687
  468.7000   102.8277    13.3454    12.3698
  468.8000   103.2520    13.3160    12.3709
  468.9000   103.5031    13.3169    12.3060
  469.0000   103.7950    13.3178    12.2868
  469.1000   104.0049    13.3189    12.2540
  469.2000   104.2558    13.3197    12.1854
  469.3000   104.5066    13.2682    12.1192
  469.4000   104.7575    13.2287    12.1205
  469.5000   105.0291    13.2296    12.0659
  469.6000   105.0336    13.2305    12.0379
  469.7000   105.0384    13.1556    12.0389
  469.8000   105.1563    13.1401    12.0399
  469.9000   105.3507    13.0996    12.0410
  470.0000   105.3555    13.0503    11.9804
  470.1000   105.8524    13.0438    11.9591
  470.2000   106.5390    12.9612    11.9298
  470.3000   107.2822    12.9620    11.8778
  470.4000   108.1018    12.9629    11.8788
  470.5000   109.0712    12.9638    11.8798
  470.6000   109.9239    12.9647    11.8851
  470.7000   110.1378    12.9656    11.8918
  470.8000   110.5420    12.9665    11.8984
  470.9000   110.9422    12.9675    11.9051
  471.0000   111.1520    12.9310    11.9118
  471.1000   110.8554    12.8788    11.9184
  471.2000   110.3999    12.8796    11.9251
  471.3000   110.0860    12.8807    11.9318
  471.4000   109.8448    12.8211    11.9384
  471.5000   109.5432    12.7925    11.9451
  471.6000   109.0638    12.7934    11.9518
  471.7000   109.0687    12.7943    11.9584
  471.8000   109.0735    12.7953    11.9651
  471.9000   109.3527    12.7296    11.9718
  472.0000   109.7691    12.7078    11.9781
  472.1000   110.0199    12.7087    11.9793
  472.2000   110.3038    12.7095    11.9802
  472.3000   110.7356    12.7104    11.9812
  472.4000   111.0753    12.7113    11.9822
  472.5000   111.4270    12.7122    11.9832
  472.6000   111.8797    12.6734    11.9843
  472.7000   112.1431    12.6253    11.9852
  472.8000   111.9137    12.6262    11.9862
  472.9000   111.6724    12.6272    11.9872
  473.0000   111.4312    12.6280    11.9882
  473.1000   111.1899    12.6289    11.9892
