~VERSION INFORMATION
 VERS.                2.0:   CWLS LOG ASCII STANDARD - VERSION 2.0
 WRAP.                 NO:   ONE LINE PER DEPTH STEP
~WELL INFORMATION
#MNEM.UNIT      DATA TYPE    INFORMATION
#----------   ------------   ------------------------------
 STRT.F           11.0000:   START DEPTH
 STOP.F          804.0000:   STOP DEPTH
 STEP.F            0.1000:   STEP LENGTH
 NULL.          -999.2500:   NO VALUE
 COMP. BROWN JOHN E&C INC:   COMPANY
 WELL. 72-1 STX-34 #72-34:   WELL
 FLD .             TEAPOT:   FIELD
 LOC .      S34 T39N R78W:   LOCATION
 CNTY.            NATRONA:   COUNTY
 STAT.            WYOMING:   STATE
 CTRY. UNITED STATES OF AMERICA:   COUNTRY
 SRVC.     Atlas Wireline:   SERVICE COMPANY
 DATE.        31-JAN-1992:   LOGDATE
 API .       490252250200:   API NUMBER
~CURVE INFORMATION
#MNEM.UNIT       API CODE    CURVE DESCRIPTION
#----------   ------------   ------------------------------
 DEPT.F                  :   
 GRR .GAPI   07 310 01 00:   GAMMA RAY
 RILD.OHMM   07 120 46 00:   INDUCTION LOG DEEP RESISTIVITY
 RILM.OHMM   07 120 44 00:   INDUCTION LOG MEDIUM RESISTIVITY
~PARAMETER INFORMATION
#MNEM.UNIT          VALUE    DESCRIPTION
#----------   ------------   ------------------------------
 PD  .                 GL:   PERMANENT DATUM
 EPD .F              5069:   ELEVATION PERMANENT DATUM
 LMF .                 KB:   LOG MEASURED FROM
 DAPD.F                10:   FEET ABOVE PERMANENT DATUM
 DMF .                 KB:   DRILLING MEASURED FROM
 EKB .F              5079:   KELLING BUSHING
 EDF .F              5078:   DRILLING FLOOR
 EGL .F              5069:   GROUND LEVEL
 DATE.        31-JAN-1992:   RUN DATE
 RUN .                  1:   RUN NUMBER
 DD  .F               814:   DEPTH DRILLER
 DL  .F               813:   DEPTH LOGGER
 BLI .F               804:   BOTTOM LOG INTERVAL
 CS  .IN            9.625:   CASING SIZE
 CBD .F               100:   CASING BOTTOM DRILLER
 CBL .F               104:   CASING BOTTOM LOGGER
 BS  .IN             8.75:   BIT SIZE
 BSD .F               814:   BIT SIZE AT DEPTH
 DFT .                AIR:   DRILLING FLUID TYPE
 MRT .F                90:   MAXIMUM RECORDED TEMPERATURE
 LUN .           HL- 6274:   LOGGING UNIT NUMBER
 LUL .             CASPER:   LOGGING UNIT LOCATION
 ENGI.             RAUTIO:   RECORDING ENGINEER
 WITN.        GARY STRONG:   WITNESSED BY
 CLNT.            A2DTECH:   CLIENT CODE
 ORIG.           5" PRINT:   ORIGIN OF DATA
 UWI .       490252250200:   UNIQUE WELL ID
 DICO. A2D Technologies, Inc.:   DIGITIZING COMPANY
~OTHER INFORMATION
~A   DEPT       GRR      RILD       RILM   
# ...
  702.6000    94.4497    13.0033    13.0530
  702.7000    94.6877    13.0026    13.0524
  702.8000    95.2883    13.0021    13.0519
  702.9000    95.7843    12.9573    13.0104
  703.0000    96.1512    12.8837    12.9600
  703.1000    96.8873    12.8104    12.9533
  703.2000    97.8659    12.7304    12.8687
  703.3000    98.4685    12.7300    12.8683
  703.4000    99.0873    12.6816    12.8235
  703.5000    99.8213    12.6403    12.7777
  703.6000   100.5315    12.6257    12.7772
  703.7000   100.8239    12.5513    12.7766
  703.8000   100.8254    12.5508    12.7113
  703.9000   100.8272    12.5502    12.6868
  704.0000   100.7483    12.5498    12.6557
  704.1000   100.4837    12.5491    12.5839
  704.2000    99.9252    12.5487    12.5094
  704.3000    99.7191    12.5048    12.5089
  704.4000    99.0295    12.4603    12.4578
  704.5000    97.9639    12.4598    12.4209
  704.6000    96.7776    12.4592    12.4204
  704.7000    95.6982    12.3949    12.4198
  704.8000    94.6109    12.3715    12.4193
  704.9000    93.7108    12.3710    12.3649
  705.0000    93.0811    12.3561    12.3319
  705.1000    92.6793    12.2839    12.3107
  705.2000    92.6815    12.2833    12.2452
  705.3000    92.4554    12.2828    12.2445
  705.4000    92.3824    12.2824    12.1872
  705.5000    92.3842    12.2818    12.1585
  705.6000    92.5435    12.2813    12.1338
  705.7000    93.2957    12.2808    12.0729
  705.8000    93.5355    12.2803    12.0723
  705.9000    93.7814    12.2798    12.0719
  706.0000    94.2697    12.2792    12.0714
  706.1000    94.9411    12.2788    12.0709
  706.2000    95.4304    12.2782    12.0589
  706.3000    95.9206    12.2777    11.9859
  706.4000    96.6002    12.2772    11.9854
  706.5000    97.0720    12.2496    11.9850
  706.6000    97.3903    12.1907    11.9845
  706.7000    97.8806    12.1902    11.9689
  706.8000    98.4596    12.1898    11.9001
  706.9000    98.4611    12.1892    11.8996
  707.0000    98.3218    12.1887    11.8991
  707.1000    98.1622    12.1882    11.8642
  707.2000    98.1640    12.1877    11.8154
  707.3000    98.1661    12.1872    11.8149
  707.4000    98.1676    12.1352    11.8143
  707.5000    98.1694    12.1013    11.8139
  707.6000    98.1713    12.1009    11.8134
  707.7000    98.1731    12.0973    11.8129
  707.8000    98.1751    12.0156    11.8125
  707.9000    98.3968    12.0151    11.8119
  708.0000    98.4811    12.0146    11.8114
  708.1000    98.7911    12.0141    11.8109
  708.2000    99.4368    12.0136    11.8104
  708.3000    99.6969    12.0131    11.8099
  708.4000   100.3889    12.0126    11.8094
  708.5000   100.7797    12.0121    11.8699
  708.6000   101.2515    12.0116    11.8912
  708.7000   101.8766    12.0111    11.8907
  708.8000   102.1265    12.0106    11.9037
  708.9000   102.3683    12.0101    11.9729
  709.0000   102.7957    12.0096    11.9724
  709.1000   103.1626    12.0091    11.9719
  709.2000   103.4086    12.0086    12.0048
  709.3000   103.6607    12.0081    12.0548
  709.4000   104.1505    12.0076    12.0542
  709.5000   104.2572    12.0071    12.0537
  709.6000   104.2590    12.0066    12.0532
  709.7000   104.1113    12.0260    12.0527
  709.8000   103.6411    12.0897    12.0522
  709.9000   103.3570    12.0891    12.0566
  710.0000   103.3585    12.1452    12.1355
  710.1000   103.3603    12.1729    12.1351
  710.2000   103.3621    12.1724    12.1346
  710.3000   103.3904    12.1801    12.1588
  710.4000   103.6686    12.2566    12.2186
  710.5000   104.0939    12.2562    12.2179
  710.6000   104.4304    12.2556    12.2789
  710.7000   104.5815    12.2840    12.3025
  710.8000   104.6925    12.3406    12.3309
  710.9000   105.4930    12.3399    12.3877
  711.0000   105.7166    12.4058    12.3871
  711.1000   105.7991    12.4756    12.3866
  711.2000   105.9058    12.5119    12.3861
  711.3000   106.1516    12.5114    12.4184
  711.4000   106.4098    12.5109    12.4882
  711.5000   106.6435    12.5820    12.5585
  711.6000   106.7159    12.5975    12.5580
  711.7000   106.6026    12.5969    12.5575
  711.8000   106.3605    12.5964    12.5569
  711.9000   106.1162    12.5959    12.5564
  712.0000   105.8759    12.5953    12.5559
  712.1000   105.4499    12.5948    12.5553
  712.2000   104.8383    12.5943    12.5548
  712.3000   104.1082    12.5678    12.5543
  712.4000   103.3383    12.5056    12.5538
  712.5000   101.3874    12.5051    12.5460
  712.6000   100.0168    12.5046    12.4654
  712.7000    98.5279    12.5041    12.4650
  712.8000    96.9750    12.4734    12.4644
  712.9000    95.7744    12.4160    12.4639
  713.0000    94.6387    12.4155    12.4524
  713.1000    94.0290    12.4150    12.3762
  713.2000    93.5892    12.3638    12.3757
  713.3000    93.1737    12.3276    12.3752
  713.4000    92.5275    12.3094    12.3746
  713.5000    92.5297    12.2408    12.3741
  713.6000    92.3177    12.2402    12.3736
  713.7000    92.2306    12.2397    12.3731
  713.8000    92.2324    12.2392    12.3213
  713.9000    92.2342    12.2169    12.2861
  714.0000    92.2362    12.1531    12.2856
  714.1000    92.2378    12.1524    12.2850
  714.2000    92.2397    12.1520    12.2845
  714.3000    92.2415    12.1515    12.2840
  714.4000    92.2916    12.1510    12.2835
  714.5000    92.5477    12.1406    12.2829
  714.6000    92.5495    12.0654    12.2825
  714.7000    92.5513    12.0650    12.2818
  714.8000    92.5531    12.0644    12.2814
  714.9000    92.6721    12.0340    12.2390
  715.0000    93.1619    11.9795    12.1950
  715.1000    93.4077    11.9789    12.1944
  715.2000    93.6536    11.9784    12.1939
  715.3000    93.8995    11.9779    12.1319
  715.4000    94.2141    11.9436    12.0632
  715.5000    94.6940    11.8936    12.0235
  715.6000    94.9886    11.8931    11.9976
  715.7000    95.1857    11.8926    11.8558
  715.8000    95.5688    11.8921    11.7290
  715.9000    95.9014    11.8538    11.6906
  716.0000    95.9032    11.7864    11.6901
  716.1000    95.9053    11.7258    11.6896
  716.2000    96.1125    11.7252    11.6891
  716.3000    96.2112    11.7247    11.6886
  716.4000    96.2131    11.6829    11.6376
  716.5000    96.2148    11.6422    11.6063
  716.6000    96.2169    11.6417    11.6059
  716.7000    96.2185    11.6412    11.6054
  716.8000    96.3777    11.6408    11.6048
  716.9000    96.7223    11.6402    11.5508
  717.0000    97.1718    11.6100    11.5232
  717.1000    97.4361    11.5583    11.5228
  717.2000    97.4378    11.5578    11.5223
  717.3000    97.9424    11.5573    11.5218
  717.4000    98.4582    11.5568    11.5214
  717.5000    98.8551    11.5563    11.5209
  717.6000    99.8657    11.5376    11.5204
  717.7000   100.5754    11.4750    11.5092
  717.8000   100.9544    11.4744    11.4393
  717.9000   101.5569    11.4740    11.4388
  718.0000   102.2935    11.4735    11.4384
  718.1000   102.2993    11.4730    11.4379
  718.2000   102.7895    11.4656    11.4374
  718.3000   103.0917    11.3922    11.4369
  718.4000   103.3375    11.3918    11.4364
  718.5000   103.3012    11.3503    11.3880
  718.6000   102.5456    11.3115    11.3560
  718.7000   101.0963    11.3003    11.3555
  718.8000   100.3072    11.2318    11.3527
  718.9000    99.3326    11.2314    11.2755
  719.0000    98.6001    11.2310    11.2751
  719.1000    98.3133    11.2010    11.2746
  719.2000    97.4744    11.1519    11.2535
  719.3000    97.2683    11.1514    11.1954
  719.4000    97.1752    11.0883    11.1948
  719.5000    97.1770    11.0728    11.1944
  719.6000    97.1788    11.0724    11.1551
  719.7000    97.1808    11.0537    11.0918
  719.8000    97.1825    10.9945    11.0378
  719.9000    97.3436    10.9939    11.0373
  720.0000    97.4887    10.9935    11.0369
  720.1000    97.7030    10.9930    11.0365
  720.2000    99.0053    10.9926    11.0091
  720.3000   100.3740    10.9921    10.9588
  720.4000   101.5018    10.9916    10.9583
  720.5000   102.4798    10.9912    10.9579
  720.6000   103.3006    10.9907    10.9574
  720.7000   103.5528    11.0162    10.9570
