~VERSION INFORMATION
 VERS.                2.0:   CWLS LOG ASCII STANDARD - VERSION 2.0
 WRAP.                 NO:   ONE LINE PER DEPTH STEP
~WELL INFORMATION
#MNEM.UNIT      DATA TYPE    INFORMATION
#----------   ------------   ------------------------------
 STRT.F           43.0000:   START DEPTH
 STOP.F          620.0000:   STOP DEPTH
 STEP.F            0.5000:   STEP LENGTH
 NULL.          -999.2500:   NO VALUE
 COMP. FENIX & SCISSON INC:   COMPANY
 WELL.      16 SX 2 #16-2:   WELL
 FLD .             TEAPOT:   FIELD
 LOC .       S2 T38N R78W:   LOCATION
 CNTY.            NATRONA:   COUNTY
 STAT.            WYOMING:   STATE
 CTRY. UNITED STATES OF AMERICA:   COUNTRY
 SRVC.            Unknown:   SERVICE COMPANY
 DATE.        11-OCT-1978:   LOGDATE
 API .       490251071400:   API NUMBER
~CURVE INFORMATION
#MNEM.UNIT       API CODE    CURVE DESCRIPTION
#----------   ------------   ------------------------------
 DEPT.F                  :   
 SPR .MV     05 010 01 00:   SPONTANEOUS POTENTIAL FROM RES.
 SN  .OHMM   05 040 16 00:   SHORT NORMAL 16"
 ILD .OHMM   05 120 46 00:   INDUCTION LOG DEEP
 CALD.IN     45 280 60 00:   CALIPER
 GRD .GAPI   45 310 01 00:   GAMMA RAY FROM DENSITY LOG
 DPHI.DEC    45 890 12 00:   DENSITY POROSITY SANDSTONE
 RHOB.G/C3   45 350 01 00:   BULK DENSITY
 DRHO.G/C3   45 356 01 00:   DENSITY CORRECTION
~PARAMETER INFORMATION
#MNEM.UNIT          VALUE    DESCRIPTION
#----------   ------------   ------------------------------
 PD  .                 GL:   PERMANENT DATUM
 EPD .F              5135:   ELEVATION PERMANENT DATUM
 LMF .                 KB:   LOG MEASURED FROM
 DAPD.F                 4:   FEET ABOVE PERMANENT DATUM
 DMF .                 KB:   DRILLING MEASURED FROM
 EKB .F              5139:   KELLING BUSHING
 EGL .F              5135:   GROUND LEVEL
 DATE.           10-11-78:   RUN DATE
 RUN .                  1:   RUN NUMBER
 DD  .F               620:   DEPTH DRILLER
 DL  .F               620:   DEPTH LOGGER
 BLI .F               614:   BOTTOM LOG INTERVAL
 TLI .F                40:   TOP LOG INTERVAL
 CS  .IN            8.625:   CASING SIZE
 CBD .F                40:   CASING BOTTOM DRILLER
 CBL .F                40:   CASING BOTTOM LOGGER
 BS  .IN            7.875:   BIT SIZE
 BSD .F               620:   BIT SIZE AT DEPTH
 DFT .                KCL:   DRILLING FLUID TYPE
 RMS .OHMM            .16:   RESISTIVITY MUD SAMPLE
 MST .F                66:   MUD SAMPLE TEMPERATURE
 RMF .OHMM            .16:   RESISTIVITY MUD FILTRATE SAMPLE
 MFST.F                70:   MUD FILTRATE SAMPLE TEMPERATURE
 RMC .OHMM             .2:   RESISTIVITY MUD CAKE
 MCST.F                71:   MUD CAKE SAMPLE TEMPERATURE
 TCS .HRS               1:   TIME CURCULATED STOPPED
 MRT .F                70:   MAXIMUM RECORDED TEMPERATURE
 LUN .               2958:   LOGGING UNIT NUMBER
 LUL .               CASP:   LOGGING UNIT LOCATION
 ENGI.             MILLER:   RECORDING ENGINEER
 WITN.              AMEND:   WITNESSED BY
 CLNT.            A2DTECH:   CLIENT CODE
 ORIG.           5" PRINT:   ORIGIN OF DATA
 UWI .       490251071400:   UNIQUE WELL ID
 DICO. A2D Technologies, Inc.:   DIGITIZING COMPANY
~OTHER INFORMATION
~A   DEPT      SPR         SN        ILD       CALD         GRD      DPHI       RHOB       DRHO   
# ...
  488.5000   -29.7795    13.5122    20.6624     7.5946    84.6112     0.1761     2.3956     0.0300
  489.0000   -29.9176    13.3737    20.6043     7.5823    86.1778     0.1721     2.4076     0.0277
  489.5000   -30.1475    13.2367    20.5464     7.5985    88.4891     0.1612     2.4196     0.0255
  490.0000   -30.3927    13.1010    20.4891     7.6142    89.6768     0.1504     2.4315     0.0232
  490.5000   -30.9477    12.9668    20.4329     7.6299    88.4422     0.1376     2.4434     0.0251
  491.0000   -31.4042    12.8339    20.3722     7.6455    87.3420     0.1465     2.4493     0.0294
  491.5000   -31.4937    12.7023    19.7971     7.6611    88.2057     0.1573     2.4249     0.0337
  492.0000   -31.5880    12.5722    19.2248     7.6768    92.7568     0.1681     2.4000     0.0381
  492.5000   -31.6829    12.4433    18.6692     7.6816    97.1677     0.1789     2.3752     0.0503
  493.0000   -31.7780    12.3158    18.5780     7.6844    99.4050     0.1870     2.3720     0.0732
  493.5000   -31.8730    12.1896    18.7304     7.6872    95.6005     0.1701     2.3977     0.0960
  494.0000   -31.9681    12.0646    19.3257     7.6899    89.4209     0.1572     2.4161     0.1191
  494.5000   -32.0631    11.9410    19.8165     7.6927    87.3023     0.1464     2.4326     0.1135
  495.0000   -32.1582    11.8186    19.2888     7.6955    90.5617     0.1510     2.4258     0.1005
  495.5000   -32.2533    11.6975    18.7213     7.6985    92.7997     0.1554     2.4186     0.0873
  496.0000   -32.3483    11.5772    18.4075     7.6905    94.8607     0.1597     2.4114     0.0791
  496.5000   -32.4434    11.4715    18.4573     7.6777    95.0800     0.1641     2.4055     0.0739
  497.0000   -32.5384    11.3865    18.5007     7.6648    95.2260     0.1655     2.4061     0.0711
  497.5000   -32.6335    11.3024    18.5442     7.6519    96.4046     0.1592     2.4139     0.0695
  498.0000   -32.7284    11.2190    18.5780     7.6390    97.6898     0.1543     2.4214     0.0678
  498.5000   -32.8235    11.1362    17.6727     7.6258    98.8726     0.1488     2.4282     0.0664
  499.0000   -32.9205    11.0540    16.9669     7.6015    99.2531     0.1519     2.4283     0.0686
  499.5000   -33.0769    10.9724    16.2883     7.5665    99.6082     0.1536     2.4282     0.0708
  500.0000   -33.3048    10.8834    15.6372     7.4636    99.9591     0.1515     2.4308     0.0730
  500.5000   -33.5314    10.7593    15.2615     7.3566    98.9911     0.1496     2.4344     0.0752
  501.0000   -33.7588    10.6221    15.1218     7.2565    95.2449     0.1477     2.4368     0.0721
  501.5000   -33.9860    10.5445    14.9815     7.2447    91.5572     0.1458     2.4381     0.0640
  502.0000   -34.2133    10.4858    14.8426     7.2310    88.7272     0.1473     2.4328     0.0577
  502.5000   -34.4404    10.4279    14.7047     7.2209    89.9962     0.1521     2.4268     0.0571
  503.0000   -34.6681    10.3704    14.5681     7.2211    90.4864     0.1569     2.4182     0.0634
  503.5000   -34.8597    10.3131    14.4329     7.2207    88.3726     0.1617     2.4084     0.0701
  504.0000   -35.0286    10.2562    14.3511     7.2394    86.1752     0.1664     2.3987     0.0830
  504.5000   -35.1969    10.1996    14.3511     7.2648    83.8958     0.1712     2.3898     0.1026
  505.0000   -35.3652    10.1433    14.3510     7.2893    81.7822     0.1763     2.3934     0.1344
  505.5000   -35.5335    10.0873    14.3514     7.3142    81.1578     0.1759     2.4234     0.1659
  506.0000   -35.7019    10.0316    14.3508     7.3394    81.0915     0.1546     2.4536     0.1979
  506.5000   -35.8702     9.9760    14.3532     7.3641    81.0534     0.1360     2.4905     0.2058
  507.0000   -36.0385     9.9261    14.1008     7.3807    81.0120     0.1165     2.4773     0.1389
  507.5000   -36.2068     9.8188    13.7299     7.3804    80.9694     0.1361     2.4508     0.1074
  508.0000   -36.3752     9.6997    13.3687     7.3805    80.9697     0.1412     2.4599     0.0983
  508.5000   -36.5435     9.5813    13.2730     7.3805    81.2477     0.1352     2.4739     0.1406
  509.0000   -36.7117     9.4772    13.2086     7.3812    82.8930     0.1273     2.4881     0.1718
  509.5000   -36.8798     9.4727    13.1446     7.3860    87.5453     0.1193     2.5021     0.2040
  510.0000   -37.0853     9.4682    13.0809     7.3908    92.2201     0.1115     2.5120     0.2009
  510.5000   -37.3185     9.4637    13.0175     7.3955    96.5005     0.1046     2.5144     0.1895
  511.0000   -37.5516     9.4592    12.9544     7.4007    94.1577     0.1113     2.5161     0.1734
  511.5000   -37.7847     9.4547    12.8916     7.4168    91.2963     0.1198     2.5000     0.1354
  512.0000   -38.0178     9.4502    12.8290     7.4335    88.8198     0.1284     2.4733     0.0976
  512.5000   -38.2510     9.4457    12.7664     7.4501    90.5702     0.1369     2.4462     0.0612
  513.0000   -38.4847     9.4412    12.7303     7.4589    92.6981     0.1454     2.4283     0.0690
  513.5000   -38.7161     9.4367    12.7539     7.4551    94.8091     0.1492     2.4420     0.0806
  514.0000   -38.7831     9.4322    12.7711     7.4516    96.9189     0.1407     2.4593     0.0921
  514.5000   -38.8256     9.4277    12.7881     7.4480    99.0136     0.1302     2.4767     0.1034
  515.0000   -38.8680     9.4233    12.8051     7.4443   100.4927     0.1196     2.4942     0.1047
  515.5000   -38.9106     9.4188    12.8217     7.4401    99.3771     0.1094     2.4952     0.0910
  516.0000   -38.9533     9.4143    12.8393     7.4685    98.3160     0.1140     2.4931     0.0776
  516.5000   -38.9959     9.4098    12.8481     7.5027    97.2496     0.1165     2.4914     0.0641
  517.0000   -39.0386     9.4053    12.6267     7.5371    96.8746     0.1091     2.4978     0.0506
  517.5000   -39.0813     9.4009    12.4803     7.5714    96.8566     0.1042     2.5009     0.0392
  518.0000   -39.1240     9.3964    12.3358     7.6057    96.9572     0.1119     2.4899     0.0358
  518.5000   -39.1666     9.3920    12.1912     7.6401    99.0454     0.1192     2.4791     0.0538
  519.0000   -39.2093     9.3822    12.1566     7.6748   101.1517     0.1253     2.4683     0.0744
  519.5000   -39.2520     9.3707    12.1566     7.6683   101.7170     0.1269     2.4881     0.0949
  520.0000   -39.2942     9.3592    12.1566     7.6552   102.0214     0.1111     2.5126     0.1064
  520.5000   -39.3332     9.3477    12.1566     7.6420   102.3214     0.1002     2.5299     0.0958
  521.0000   -39.4866     9.3362    12.0547     7.6291   102.6275     0.0928     2.5231     0.0806
  521.5000   -39.6515     9.3248    11.9275     7.6227   103.0183     0.0952     2.5169     0.0651
  522.0000   -39.8168     9.3133    11.8018     7.6382   103.7484     0.0975     2.5107     0.0496
  522.5000   -39.9817     9.3019    11.6773     7.6529   104.4596     0.0992     2.5118     0.0343
  523.0000   -40.1466     9.2905    11.6090     7.6676   105.1655     0.1007     2.5138     0.0310
  523.5000   -40.3115     9.2791    11.6090     7.6824   105.8548     0.1022     2.5151     0.0294
  524.0000   -40.4764     9.2677    11.6250     7.6970   105.1941     0.1037     2.5086     0.0279
  524.5000   -40.6416     9.2563    11.6400     7.7116   103.0552     0.1097     2.4996     0.0264
  525.0000   -40.8062     9.2450    11.6552     7.7132   100.9302     0.1138     2.4950     0.0248
  525.5000   -40.9435     9.2336    11.6703     7.7011    98.7796     0.1124     2.4959     0.0233
  526.0000   -40.9621     9.2223    11.6860     7.6892    96.5831     0.1106     2.4977     0.0217
  526.5000   -40.9828     9.2110    11.7005     7.6772    96.4222     0.1087     2.4996     0.0201
  527.0000   -41.0038     9.1997    11.7165     7.6651    98.1817     0.1069     2.5014     0.0185
  527.5000   -41.0249     9.1884    11.5051     7.6594   100.5681     0.1050     2.5028     0.0195
  528.0000   -41.0459     9.1771    11.3683     7.6751   102.9766     0.1034     2.5010     0.0207
  528.5000   -41.0669     9.1659    11.2330     7.7050   105.3676     0.1075     2.4993     0.0218
