~VERSION INFORMATION
 VERS.                2.0:   CWLS LOG ASCII STANDARD - VERSION 2.0
 WRAP.                 NO:   ONE LINE PER DEPTH STEP
~WELL INFORMATION
#MNEM.UNIT      DATA TYPE    INFORMATION
#----------   ------------   ------------------------------
 STRT.F          250.0000:   START DEPTH
 STOP.F         2527.0000:   STOP DEPTH
 STEP.F            0.5000:   STEP LENGTH
 NULL.          -999.2500:   NO VALUE
 COMP. FENIX & SCISSON INC:   COMPANY
 WELL.       NPR 3 #18-28:   WELL
 FLD .            WILDCAT:   FIELD
 LOC .      S28 T39N R78W:   LOCATION
 CNTY.            NATRONA:   COUNTY
 STAT.            WYOMING:   STATE
 CTRY. UNITED STATES OF AMERICA:   COUNTRY
 SRVC.            Unknown:   SERVICE COMPANY
 DATE.        01-MAY-1979:   LOGDATE
 API .       490251078000:   API NUMBER
~CURVE INFORMATION
#MNEM.UNIT       API CODE    CURVE DESCRIPTION
#----------   ------------   ------------------------------
 DEPT.F                  :   
 CORR.G/C3   45 356 01 00:   DENSITY CORRECTION
 DPHI.DEC    45 890 12 00:   DENSITY POROSITY SANDSTONE
 RHOB.G/C3   45 350 01 00:   BULK DENSITY
 CALD.IN     45 280 60 00:   CALIPER FROM DENSITY LOG
 GRD .GAPI   45 310 01 00:   GAMMA RAY FROM DENSITY LOG
~PARAMETER INFORMATION
#MNEM.UNIT          VALUE    DESCRIPTION
#----------   ------------   ------------------------------
 PD  .                 GL:   PERMANENT DATUM
 EPD .F              5079:   ELEVATION PERMANENT DATUM
 LMF .                 KB:   LOG MEASURED FROM
 DAPD.F                10:   FEET ABOVE PERMANENT DATUM
 DMF .                 KB:   DRILLING MEASURED FROM
 EKB .F              5089:   KELLING BUSHING
 EGL .F              5079:   GROUND LEVEL
 DATE.             5-1-79:   RUN DATE
 RUN .                  1:   RUN NUMBER
 DL  .F              2527:   DEPTH LOGGER
 BLI .F              2527:   BOTTOM LOG INTERVAL
 TLI .F               250:   TOP LOG INTERVAL
 CS  .IN            9.625:   CASING SIZE
 CBD .F               500:   CASING BOTTOM DRILLER
 CBL .F               495:   CASING BOTTOM LOGGER
 BS  .IN             8.75:   BIT SIZE
 DFT .                AIR:   DRILLING FLUID TYPE
 TCS .HRS              12:   TIME CURCULATED STOPPED
 LUL .             CASPER:   LOGGING UNIT LOCATION
 ENGI.         B. ROLLINS:   RECORDING ENGINEER
 WITN.           DINSMORE:   WITNESSED BY
 CLNT.            A2DTECH:   CLIENT CODE
 ORIG.           5" PRINT:   ORIGIN OF DATA
 UWI .       490251078000:   UNIQUE WELL ID
 DICO. A2D Technologies, Inc.:   DIGITIZING COMPANY
~OTHER INFORMATION
~A   DEPT     CORR       DPHI       RHOB       CALD         GRD  
# ...
  494.0000  -999.2500  -999.2500  -999.2500  -999.2500   100.4621
  494.5000  -999.2500  -999.2500  -999.2500  -999.2500   111.6410
  495.0000     0.4881     0.0981  -999.2500     9.5126   122.4603
  495.5000     0.4881    -0.0055     2.0987     9.6555   133.2664
  496.0000     0.4881    -0.0976     2.2477     9.7983   143.4282
  496.5000     0.4881    -0.0799     2.6144     9.9121   144.9605
  497.0000     0.4881     0.0509     2.6001    10.0541   145.9120
  497.5000     0.4881     0.0485     2.4697    10.1893   146.3323
  498.0000     0.4882     0.0206     2.5359    10.9524   145.9883
  498.5000     0.4873     0.0117     2.5612    11.9851   146.6172
  499.0000     0.4947     0.0855     2.3863    12.6217   147.4106
  499.5000     0.4476     0.1243     2.2235    12.7118   148.1604
  500.0000     0.4645     0.1135     2.2371    12.7636   147.7454
  500.5000     0.4093     0.0930     2.4053    12.8135   143.7739
  501.0000     0.3961     0.0725     2.4346    12.8160   139.3406
  501.5000     0.3701     0.0527     2.4634    12.8203   134.8949
  502.0000     0.3234     0.0521     2.4703    12.8251   133.0817
  502.5000     0.2805     0.0963     2.3896    12.8304   135.3653
  503.0000     0.2902     0.1307     2.3065    12.8333   138.6599
  503.5000     0.3649     0.1652     2.2687    12.7397   140.0547
  504.0000     0.4831     0.1997     2.2316    12.6433   139.9197
  504.5000     0.4830     0.2067     2.1950    12.6399   142.4963
  505.0000     0.4843     0.2019     2.1561    12.6597   145.9274
  505.5000     0.4329     0.1755     2.2054    12.6873   145.0952
  506.0000     0.2960     0.1338     2.3414    12.7152   144.2023
  506.5000     0.1641     0.0921     2.4007    12.7431   146.8904
  507.0000     0.1592     0.0668     2.4392    12.7706   150.2557
  507.5000     0.1682     0.0739     2.4422    12.8007   150.5678
  508.0000     0.1763     0.0701     2.4295    12.8154   146.5370
  508.5000     0.1769     0.0668     2.4537    12.8146   142.2096
  509.0000     0.1639     0.0664     2.4423    12.8361   137.7811
  509.5000     0.1511     0.0618     2.4556    12.8365   135.8094
  510.0000     0.1382     0.0575     2.4568    12.8409   136.2979
  510.5000     0.1422     0.0531     2.4623    12.8449   155.2627
  511.0000     0.1484     0.0506     2.4697    12.8490   173.9854
  511.5000     0.1508     0.0584     2.4647    12.8531   180.9213
  512.0000     0.1312     0.0662     2.4475    12.8572   188.0069
  512.5000     0.1245     0.0728     2.4362    12.8613   191.7058
  513.0000     0.1409     0.0605     2.4492    12.8654   191.3328
  513.5000     0.1588     0.0476     2.4742    12.8695   190.4131
  514.0000     0.1754     0.0308     2.4973    12.8736   184.7306
  514.5000     0.1651     0.0382     2.4988    12.8777   178.7537
  515.0000     0.1505     0.0483     2.4829    12.8818   175.3724
  515.5000     0.1356     0.0542     2.4630    12.8859   176.8387
  516.0000     0.1346     0.0588     2.4594    12.8901   199.6573
  516.5000     0.1558     0.0393     2.4947    12.8941   199.0922
  517.0000     0.1774     0.0243     2.5222    12.8638   199.2270
  517.5000     0.1975     0.0171     2.5349    12.8282   199.2868
  518.0000     0.2091     0.0113     2.5361    12.7924   199.6014
  518.5000     0.2069     0.0177     2.5340    12.7843   185.7643
  519.0000     0.1972     0.0240     2.5193    12.8048   161.8424
  519.5000     0.1874     0.0303     2.5044    12.8255   144.3309
  520.0000     0.1879     0.0347     2.5026    12.8462   136.9645
  520.5000     0.1926     0.0268     2.5162    12.8669   137.2575
  521.0000     0.1948     0.0272     2.5096    12.8875   143.8972
  521.5000     0.1862     0.0316     2.4977    12.9082   148.8164
  522.0000     0.1780     0.0343     2.5062    12.9290   165.8144
  522.5000     0.1825     0.0265     2.5175    12.9504   180.8475
  523.0000     0.1874     0.0242     2.5191    12.9495   184.0351
  523.5000     0.2088     0.0220     2.5207    12.9469   184.8447
  524.0000     0.2591     0.0183     2.5300    12.9445   199.1777
  524.5000     0.3119     0.0141     2.5400    12.9421   199.2231
  525.0000     0.3648     0.0098     2.5502    12.9397   199.2953
  525.5000     0.4139     0.0037     2.5541    12.9373   199.4206
  526.0000     0.4583    -0.0083     2.5581    12.9348   199.4758
  526.5000     0.4789    -0.0260     2.6105    12.9326   199.0177
  527.0000     0.4568    -0.0374     2.6261    12.9195   173.0240
  527.5000     0.4208    -0.0301     2.6125    12.9001   147.5300
  528.0000     0.3875    -0.0217     2.6047    12.8806   133.9628
  528.5000     0.3903    -0.0140     2.5780    12.8610   134.2820
  529.0000     0.4588     0.0002     2.5414    12.8414   132.2013
  529.5000     0.4683     0.0090     2.5410    12.8220   128.3046
  530.0000     0.4747     0.0058     2.5745    12.7949   124.5736
  530.5000     0.4863    -0.0336     2.6277    12.7649   120.6941
  531.0000     0.4923    -0.0757     2.6976    12.7345   120.4577
  531.5000     0.4923    -0.0761     2.6905    12.7034   123.3863
  532.0000     0.4821    -0.0331     2.6531    12.7158   126.0793
  532.5000     0.3440     0.0165     2.5231    12.7371   125.7742
  533.0000     0.2029     0.0624     2.4508    12.7535   121.4311
  533.5000     0.1002     0.0660     2.4450    12.5553   118.1108
  534.0000     0.1032     0.0696     2.4385    12.3383   114.3483
  534.5000     0.1265     0.0819     2.4166    12.1404   111.2907
  535.0000     0.1520     0.1005     2.3858    12.1175   108.5315
  535.5000     0.2280     0.1009     2.3830    12.0770   105.7002
  536.0000     0.3058     0.0787     2.4271    12.0633   102.8351
  536.5000     0.3309     0.1330     2.3241    12.0009   101.6291
  537.0000     0.3406     0.1287     2.3261    11.9808   102.4737
  537.5000     0.4143     0.1270     2.3426    11.9824   103.2139
  538.0000     0.4856     0.1491     2.3440    11.9557   102.6859
  538.5000     0.3860     0.1700     2.2189    11.8348   102.0954
  539.0000     0.1973     0.1881     2.1095    11.5490   101.6965
  539.5000     0.2348     0.1869     2.0886    11.2842   104.9053
  540.0000     0.2947     0.1014     2.2722    10.4780   108.6513
  540.5000     0.1452     0.0596     2.4407     9.8888   105.2452
  541.0000     0.1393     0.0364     2.4901     9.6650   102.1229
  541.5000     0.2054    -0.0124     2.5542     9.5964   102.0156
  542.0000     0.2534    -0.0304     2.6166     9.5640   103.1932
  542.5000     0.2517    -0.0330     2.6166     9.5307   104.5897
  543.0000     0.2130    -0.0162     2.5974     9.4971   105.9984
  543.5000     0.1851     0.0035     2.5641     9.4631   107.2593
  544.0000     0.1761     0.0113     2.5388     9.4386   105.5834
  544.5000     0.1856     0.0193     2.5185     9.4162   104.5484
  545.0000     0.1880     0.0273     2.5006     9.3937   106.7326
  545.5000     0.1819     0.0359     2.4985     9.3713   108.7627
  546.0000     0.1951     0.0191     2.5491     9.3488   110.0429
  546.5000     0.2332    -0.0117     2.5927     9.3406   108.6688
  547.0000     0.1932    -0.0231     2.6014     9.3422   107.2422
  547.5000     0.1188     0.0081     2.5509     9.3440   105.9046
  548.0000     0.0730     0.0456     2.5033     9.3458   105.7903
  548.5000     0.0456     0.0683     2.4565     9.3476   107.7402
  549.0000     0.0406     0.0869     2.4107     9.3494   109.8600
  549.5000     0.0554     0.0858     2.4064     9.3511   110.7386
  550.0000     0.0802     0.0614     2.4397     9.3529   108.4416
  550.5000     0.1047     0.0405     2.4843     9.3547   106.0705
  551.0000     0.0973     0.0366     2.5043     9.3564   105.5361
  551.5000     0.0875     0.0394     2.4928     9.3583   106.7454
  552.0000     0.0787     0.0419     2.4862     9.3629   108.2785
  552.5000     0.0934     0.0309     2.5022     9.3715   108.2680
  553.0000     0.1097     0.0252     2.5157     9.3800   107.8888
  553.5000     0.1026     0.0323     2.5070     9.3886   108.4611
  554.0000     0.0783     0.0426     2.4924     9.3971   109.2128
  554.5000     0.0581     0.0434     2.4807     9.4057   109.5685
