~VERSION INFORMATION
 VERS.                2.0:   CWLS LOG ASCII STANDARD - VERSION 2.0
 WRAP.                 NO:   ONE LINE PER DEPTH STEP
~WELL INFORMATION
#MNEM.UNIT      DATA TYPE    INFORMATION
#----------   ------------   ------------------------------
 STRT.F           33.0000:   START DEPTH
 STOP.F          694.0000:   STOP DEPTH
 STEP.F            0.5000:   STEP LENGTH
 NULL.          -999.2500:   NO VALUE
 COMP. FENIX & SCISSON INC:   COMPANY
 WELL.  NPR 3 #64 S 34-34:   WELL
 FLD .             TEAPOT:   FIELD
 LOC .      S34 T39N R78W:   LOCATION
 CNTY.            NATRONA:   COUNTY
 STAT.            WYOMING:   STATE
 CTRY. UNITED STATES OF AMERICA:   COUNTRY
 SRVC.              Welex:   SERVICE COMPANY
 DATE.        28-APR-1977:   LOGDATE
 API .       490251034600:   API NUMBER
~CURVE INFORMATION
#MNEM.UNIT       API CODE    CURVE DESCRIPTION
#----------   ------------   ------------------------------
 DEPT.F                  :   
 CALD.IN     45 280 60 00:   CALIPER FROM DENSITY LOG
 GRD .GAPI   45 310 01 00:   GAMMA RAY FROM DENSITY LOG
 CORR.G/C3   45 356 01 00:   DENSITY CORRECTION
 DPHI.DEC    45 890 12 00:   DENSITY POROSITY SANDSTONE
 RHOB.G/C3   45 350 01 00:   BULK DENSITY
 SPR .MV     07 010 01 00:   SPONTANEOUS POTENTIAL
 ILD .OHMM   07 120 46 00:   INDUCTION LOG DEEP
 ILM .OHMM   07 120 44 00:   INDUCTION LOG MEDIUM
 SGRD.OHMM   07 221 05 00:   SHALLOW SHORT GUARD RESISTIVITY
~PARAMETER INFORMATION
#MNEM.UNIT          VALUE    DESCRIPTION
#----------   ------------   ------------------------------
 PD  .                 GL:   PERMANENT DATUM
 EPD .F              5079:   ELEVATION PERMANENT DATUM
 LMF .                 GL:   LOG MEASURED FROM
 DMF .                 GL:   DRILLING MEASURED FROM
 EGL .F              5079:   GROUND LEVEL
 DATE.        28-APR-1977:   RUN DATE
 RUN .                  1:   RUN NUMBER
 DD  .F               735:   DEPTH DRILLER
 DL  .F               697:   DEPTH LOGGER
 BLI .F               695:   BOTTOM LOG INTERVAL
 TLI .F                32:   TOP LOG INTERVAL
 CS  .IN            8.625:   CASING SIZE
 BS  .IN               12:   BIT SIZE
 BSD .F               735:   BIT SIZE AT DEPTH
 DFT .            KCL MUD:   DRILLING FLUID TYPE
 DFD .                9.0:   DRILLING FLUID DENSITY
 BHT .F                74:   BOTTOM HOLE TEMPERATURE
 TCS .HRS            0100:   TIME CURCULATED STOPPED
 MRT .F                74:   MAXIMUM RECORDED TEMPERATURE
 ENGI.            C. DOAK:   RECORDING ENGINEER
 WITN.           ROB LYON:   WITNESSED BY
 CLNT.            A2DTECH:   CLIENT CODE
 ORIG.           5" PRINT:   ORIGIN OF DATA
 UWI .       490251034600:   UNIQUE WELL ID
 DICO. A2D Technologies, Inc.:   DIGITIZING COMPANY
~OTHER INFORMATION
~A   DEPT     CALD        GRD       CORR       DPHI       RHOB        SPR        ILD        ILM       SGRD   
   33.0000  -999.2500  -999.2500  -999.2500  -999.2500  -999.2500  -999.2500  -999.2500  -999.2500  -999.2500
   33.5000     7.9772    89.5669  -999.2500  -999.2500     2.0781  -999.2500  -999.2500  -999.2500  -999.2500
   34.0000     7.9938    83.7991  -999.2500  -999.2500     2.0647  -999.2500  -999.2500  -999.2500  -999.2500
   34.5000     8.0104    89.3036    -0.4581  -999.2500     2.0700  -999.2500  -999.2500  -999.2500  -999.2500
   35.0000     8.0271    92.5826    -0.4565  -999.2500     2.0738  -999.2500  -999.2500  -999.2500  -999.2500
   35.5000     8.0289    89.3334    -0.4474  -999.2500     2.0806  -999.2500  -999.2500  -999.2500  -999.2500
   36.0000     8.0307    87.4158    -0.4217  -999.2500     2.0860  -999.2500  -999.2500  -999.2500  -999.2500
   36.5000     8.0324    91.4403    -0.3900  -999.2500     2.0830  -999.2500  -999.2500  -999.2500  -999.2500
   37.0000     8.0342    93.2356    -0.3569  -999.2500     2.0823  -999.2500  -999.2500  -999.2500  -999.2500
   37.5000     8.0207    94.5858    -0.3177  -999.2500     2.0870  -999.2500  -999.2500  -999.2500  -999.2500
   38.0000     8.0229    92.3752    -0.2619  -999.2500     2.0773  -999.2500  -999.2500  -999.2500  -999.2500
   38.5000     8.0247    91.2031    -0.2032  -999.2500     2.0758  -999.2500  -999.2500  -999.2500  -999.2500
   39.0000     8.0265    91.0659    -0.1173  -999.2500     2.0790  -999.2500  -999.2500  -999.2500  -999.2500
   39.5000     8.2511    88.8590    -0.0405  -999.2500     2.0865  -999.2500  -999.2500  -999.2500  -999.2500
   40.0000     8.7136    85.9065     0.0934  -999.2500     2.0963  -999.2500  -999.2500  -999.2500  -999.2500
   40.5000     8.6262    84.7308     0.1025  -999.2500     2.0403  -999.2500  -999.2500  -999.2500  -999.2500
   41.0000     8.7320    88.1618     0.0921  -999.2500     2.0030  -999.2500  -999.2500  -999.2500  -999.2500
   41.5000     9.0458    90.5506     0.0952  -999.2500     2.0000  -999.2500  -999.2500  -999.2500  -999.2500
   42.0000     9.3150    91.3036     0.0863  -999.2500     2.0000  -999.2500  -999.2500  -999.2500  -999.2500
   42.5000     9.5843    85.5359     0.0744  -999.2500     2.0000   -41.3936     0.4605     2.2893     2.1797
   43.0000     9.8089    85.8475     0.0640  -999.2500     2.0250   -41.5328     0.2663     3.2794     2.7606
   43.5000    10.2416    87.0493     0.0565  -999.2500     2.0692   -41.5160     0.2256     3.9838     2.6498
   44.0000     9.9314    88.3995     0.0612  -999.2500     2.1112   -41.5025     0.2000     3.7461     2.8026
   44.5000     9.2051    86.4856     0.0673  -999.2500     2.1038   -41.4890     0.2898     3.5712     3.0901
   45.0000     8.9691    89.1711     0.0659  -999.2500     2.0785   -41.6282     0.4876     3.4520     3.0495
   45.5000     8.8372    89.6274     0.0615  -999.2500     2.0666   -41.4621     1.3242     3.5762     2.9069
   46.0000     8.8088    88.4553     0.0570  -999.2500     2.0607   -41.6013     2.6321     3.7049     2.8287
   46.5000     8.9150    89.9539     0.0556  -999.2500     2.0727   -41.5845     3.3798     3.8381     2.9105
   47.0000     9.0060    88.4851     0.0558  -999.2500     2.0780   -41.4218     3.7786     3.6844     2.9942
   47.5000     9.0221    90.1358     0.0528  -999.2500     2.0811   -41.5609     3.6715     3.3229     3.0378
   48.0000     8.9501    94.7501     0.0500  -999.2500     2.0730   -41.5441     3.4006     3.3017     3.0187
   48.5000     8.9073    95.6552     0.0485  -999.2500     2.0828   -41.5307     3.5129     3.5417     2.8976
   49.0000     8.8645    96.1151     0.0487  -999.2500     2.0888   -41.3680     3.8361     3.7985     2.9603
   49.5000     8.8366    96.1300     0.0473  -999.2500     2.0927   -41.3545     3.8910     3.8803     3.0454
   50.0000     8.8532    92.7325     0.0474  -999.2500     2.1059   -41.3410     3.6315     3.4045     3.0899
   50.5000     8.9293    90.9669     0.0505  -999.2500     2.1175   -41.3276     3.2512     3.1350     3.0488
   51.0000     8.9756    89.0530     0.0566  -999.2500     2.1251   -41.3141     3.5840     3.1810     3.2251
   51.5000     8.9328    87.1391     0.0627  -999.2500     2.1326   -41.3007     3.8963     3.3183     3.5806
   52.0000     8.7860    85.2252     0.0734  -999.2500     2.1395   -41.2872     4.1201     3.4140     4.0308
   52.5000     8.7135    83.7564     0.0825  -999.2500     2.1418   -41.1245     4.2374     3.4640     4.2633
   53.0000     8.6851    83.6192     0.0931  -999.2500     2.1366   -41.1111     4.3280     3.4419     4.4163
   53.5000     8.8062    83.7862     0.0962  -999.2500     2.1143   -40.9483     4.2992     3.3276     4.5749
   54.0000     8.9269    81.5756     0.0948  -999.2500     2.1009   -40.9349     4.2124     3.2383     4.4218
   54.5000     8.9728    76.6943     0.0934  -999.2500     2.1152   -40.9214     4.2727     3.3787     4.1564
   55.0000     8.9151    73.9763     0.0996  -999.2500     2.1257   -40.7587     4.6164     3.5003     4.5204
   55.5000     8.9021    69.8506     0.1132  -999.2500     2.1326   -40.7453     4.9415     3.5763     5.0887
   56.0000     9.0083    64.4610     0.1223  -999.2500     2.1229   -40.5826     5.1192     3.6030     5.4953
   56.5000     9.0695    59.4451     0.1450  -999.2500     2.1118   -40.5691     5.0174     3.4593     5.4987
   57.0000     8.9376    57.7527     0.1541  -999.2500     2.0834   -40.7049     4.7503     3.2978     5.4255
   57.5000     8.9691    56.7310     0.1542  -999.2500     2.0656   -40.5422     4.3745     2.8929     4.8599
   58.0000     9.3572    56.4684     0.1573  -999.2500     2.0866   -40.6814     3.7155     2.5028     4.1752
   58.5000     9.8790    58.7408     0.1665  -999.2500     2.0934   -40.6645     2.7928     2.2089     3.4409
   59.0000    10.5792    58.8721     0.1651  -999.2500     2.0868   -40.6511     2.5016     1.8556     3.0183
   59.5000    11.2347    58.2935     0.1591  -999.2500     2.0801   -40.6376     2.3684     1.4812     2.5397
   60.0000    11.5783    58.4669     0.1502  -999.2500     2.0690   -40.6269     2.1962     1.1329     2.3063
   60.5000    11.9664    63.1029     0.1413  -999.2500     2.0526   -40.6134     1.9947     1.0200     2.1089
   61.0000    12.2802    64.5816     0.1279  -999.2500     2.0273   -40.6000     1.8755     1.1089     1.9964
   61.5000    12.2964    65.1859     0.1130  -999.2500     2.0154   -40.5866     1.9563     1.2655     1.9563
   62.0000    12.1798    66.2809     0.0965  -999.2500     2.0065   -40.7230     2.0407     1.4209     2.4952
   62.5000    12.6867    71.4392     0.0846  -999.2500     2.0020   -40.7090     2.0995     1.5220     2.9486
   63.0000    12.4359    72.3443     0.0847  -999.2500     2.0351   -40.6955     2.2053     1.6435     2.8897
   63.5000     9.4658    74.2859     0.0908  -999.2500     2.0501   -40.8319     2.3980     1.7910     2.7733
   64.0000     7.5211    78.5469     0.0954  -999.2500     2.0427   -40.8179     2.6624     1.9432     3.7132
   64.5000     6.7502    83.2210     0.0910  -999.2500     2.0308   -40.8050     2.9971     1.9952     3.6140
   65.0000     6.2765    85.7384     0.0791  -999.2500     2.0331   -40.9407     3.2590     2.0003     3.0621
   65.5000     6.0000    90.0770     0.0672  -999.2500     2.0385   -40.9269     3.4951     2.2578     2.8589
   66.0000     6.1463    95.5815     0.0553  -999.2500     2.0543   -40.9134     3.4975     2.5745     2.7441
   66.5000     7.7677   100.0474     0.0478  -999.2500     2.1074   -41.0496     3.4758     2.8360     2.8427
   67.0000     8.8839   102.8813     0.0510  -999.2500     2.1531   -41.0358     3.3832     2.9948     3.4060
   67.5000     9.0343   105.2374     0.0511     0.2843     2.1951   -41.0224     3.3159     3.0810     4.0529
   68.0000     9.0802   107.1177     0.0467     0.2702     2.2199   -41.1585     3.2720     3.0790     4.1694
   68.5000     8.1463   107.8447     0.0422     0.2726     2.2201   -41.1448     3.1848     3.0196     3.8391
   69.0000     7.9846   107.1217     0.0408     0.2857     2.1998   -41.2809     3.1432     2.9992     3.6092
