~VERSION INFORMATION
 VERS.                2.0:   CWLS LOG ASCII STANDARD - VERSION 2.0
 WRAP.                 NO:   ONE LINE PER DEPTH STEP
~WELL INFORMATION
#MNEM.UNIT      DATA TYPE    INFORMATION
#----------   ------------   ------------------------------
 STRT.F          717.0000:   START DEPTH
 STOP.F         2448.0000:   STOP DEPTH
 STEP.F            0.5000:   STEP LENGTH
 NULL.          -999.2500:   NO VALUE
 COMP.   FLUOR DANIEL INC:   COMPANY
 WELL. NAVAL PETROLEUM RESERVE 3X27 #34-27:   WELL
 FLD .             TEAPOT:   FIELD
 LOC .      S27 T39N R78W:   LOCATION
 CNTY.            NATRONA:   COUNTY
 STAT.            WYOMING:   STATE
 CTRY. UNITED STATES OF AMERICA:   COUNTRY
 SRVC.            Unknown:   SERVICE COMPANY
 DATE.        17-MAY-1996:   LOGDATE
 API .       490252279300:   API NUMBER
~CURVE INFORMATION
#MNEM.UNIT       API CODE    CURVE DESCRIPTION
#----------   ------------   ------------------------------
 DEPT.F                  :   
 TGAS.TC/CC  91 830 01 00:   TOTAL GAS UNIT
 ROP .FT/HR  91 810 01 00:   RAT OF DRILLING PENETRATION
~PARAMETER INFORMATION
#MNEM.UNIT          VALUE    DESCRIPTION
#----------   ------------   ------------------------------
 EPD .F              5039:   ELEVATION PERMANENT DATUM
 EKB .F              5049:   KELLING BUSHING
 EGL .F              5039:   GROUND LEVEL
 DATE.        17-MAY-1996:   RUN DATE
 RUN .                  1:   RUN NUMBER
 ENGI.     R.HUSK/C.TOWER:   RECORDING ENGINEER
 CLNT.            A2DTECH:   CLIENT CODE
 ORIG.           5" PRINT:   ORIGIN OF DATA
 UWI .       490252279300:   UNIQUE WELL ID
 DICO. A2D Technologies, Inc.:   DIGITIZING COMPANY
~OTHER INFORMATION
~A   DEPT       TGAS        ROP 
# ...
 2053.5000     1.9974     0.7888
 2054.0000     2.1068     0.7887
 2054.5000     2.1902     0.7886
 2055.0000     2.1846     0.7885
 2055.5000     2.1790     0.7978
 2056.0000     2.3605     0.7977
 2056.5000     2.3537     0.7976
 2057.0000     2.5363     0.7976
 2057.5000     2.5295     0.7978
 2058.0000     2.5240     0.7974
 2058.5000     2.5185     0.8067
 2059.0000     2.5131     0.8066
 2059.5000     2.5076     0.7971
 2060.0000     2.5021     0.7970
 2060.5000     2.4965     0.7969
 2061.0000     2.4899     0.7874
 2061.5000     2.4844     0.7873
 2062.0000     2.4790     0.7872
 2062.5000     2.4735     0.7871
 2063.0000     2.4680     0.7776
 2063.5000     2.4626     0.7775
 2064.0000     2.4571     0.7774
 2064.5000     2.4517     0.6176
 2065.0000     2.4461     0.6175
 2065.5000     2.2526     0.6174
 2066.0000     2.2472     0.6173
 2066.5000     2.0550     0.7488
 2067.0000     2.0495     0.7487
 2067.5000     2.0441     0.7392
 2068.0000     1.6652     0.7391
 2068.5000     1.6597     0.7860
 2069.0000     1.6543     0.7765
 2069.5000     1.6488     0.7764
 2070.0000     1.6432     0.7857
 2070.5000     1.6365     1.0488
 2071.0000     1.6311     1.0487
 2071.5000     1.6256     1.0486
 2072.0000     1.6201     1.0485
 2072.5000     1.6147     0.9356
 2073.0000     1.6092     0.8979
 2073.5000     1.6037     0.8978
 2074.0000     1.5983     0.7568
 2074.5000     1.5927     0.7567
 2075.0000     1.5871     0.7566
 2075.5000     1.5805     0.7565
 2076.0000     1.5751     0.8134
 2076.5000     1.5696     1.0853
 2077.0000     1.5642     1.0946
 2077.5000     1.5587     1.0944
 2078.0000     1.5532     1.0192
 2078.5000     1.5478     0.8969
 2079.0000     1.5423     0.8968
 2079.5000     1.5367     0.8967
 2080.0000     1.5300     0.8778
 2080.5000     1.5246     0.8589
 2081.0000     1.5191     0.8588
 2081.5000     1.5136     0.8587
 2082.0000     1.5082     0.8116
 2082.5000     1.5027     0.7646
 2083.0000     1.4973     0.7645
 2083.5000     1.4918     0.7644
 2084.0000     1.4863     0.7643
 2084.5000     1.4807     0.7642
 2085.0000     1.4741     0.7641
 2085.5000     1.6567     0.7640
 2086.0000     1.4631     0.7639
 2086.5000     1.4577     0.7732
 2087.0000     1.4522     0.7825
 2087.5000     1.6348     0.7809
 2088.0000     1.6280     0.7635
 2088.5000     1.6226     0.7634
 2089.0000     1.6170     0.7633
 2089.5000     1.7984     0.7632
 2090.0000     1.7915     0.6222
 2090.5000     1.7861     0.6315
 2091.0000     1.9687     0.6314
 2091.5000     1.9619     0.6313
 2092.0000     2.1445     0.6450
 2092.5000     2.1377     0.6593
 2093.0000     2.1110     0.6728
 2093.5000     2.1268     0.6731
 2094.0000     2.1212     0.6733
 2094.5000     1.9277     0.5984
 2095.0000     1.9223     0.5987
 2095.5000     1.9168     0.5990
 2096.0000     1.7246     0.5993
 2096.5000     1.7192     0.5995
 2097.0000     1.5270     0.5998
 2097.5000     1.5215     0.6001
 2098.0000     1.5161     0.6004
 2098.5000     1.3239     0.6007
 2099.0000     1.3183     0.6010
 2099.5000     1.4983     0.6013
 2100.0000     1.4929     0.6109
 2100.5000     1.4874     0.6112
 2101.0000     1.4819     0.6115
 2101.5000     1.4765     0.6117
 2102.0000     1.4710     0.6120
 2102.5000     1.6525     0.6218
 2103.0000     1.6468     0.6220
 2103.5000     1.8281     0.6223
 2104.0000     2.0093     0.7730
 2104.5000     2.0711     0.7826
 2105.0000     2.0729     0.7829
 2105.5000     2.2615     0.7832
 2106.0000     2.2633     0.7835
 2106.5000     2.2652     0.7837
 2107.0000     2.2670     0.7835
 2107.5000     2.0821     0.7833
 2108.0000     2.0839     0.7831
 2108.5000     2.0858     0.7829
 2109.0000     2.0876     0.7827
 2109.5000     2.0895     0.7825
 2110.0000     2.0913     0.7823
 2110.5000     2.0932     0.7821
 2111.0000     2.0950     0.7821
 2111.5000     2.0973     0.7822
 2112.0000     2.0991     0.7823
 2112.5000     2.1009     0.7824
 2113.0000     2.2895     0.7825
 2113.5000     2.1046     0.7826
 2114.0000     2.1064     0.7827
 2114.5000     2.1083     0.7828
 2115.0000     2.1101     0.7829
 2115.5000     2.1119     0.7830
 2116.0000     2.1138     0.7831
 2116.5000     2.1156     0.7832
 2117.0000     2.3042     0.7833
 2117.5000     2.3060     0.7834
 2118.0000     2.3079     1.7703
 2118.5000     2.4965     1.7610
 2119.0000     2.4987     1.7611
 2119.5000     2.3134     1.7612
 2120.0000     2.3157     1.7425
 2120.5000     2.5038     1.3290
 2121.0000     2.3189     1.3291
 2121.5000     2.3212     1.3292
 2122.0000     2.1358     1.5079
 2122.5000     2.1381     1.4986
 2123.0000     2.1400     1.4987
 2123.5000     2.1418     1.4988
 2124.0000     2.1436     1.4989
 2124.5000     2.1455     1.4990
 2125.0000     2.1473     1.4991
 2125.5000     2.1492     1.4992
 2126.0000     2.1510     1.4993
 2126.5000     1.7794     0.7850
 2127.0000     1.5945     0.7852
 2127.5000     1.4096     0.7852
 2128.0000     1.5986     0.7854
 2128.5000     1.4133     0.6069
 2129.0000     1.4156     0.5975
 2129.5000     1.4174     0.6071
 2130.0000     1.4192     0.6072
 2130.5000     1.4211     0.6072
 2131.0000     1.4229     0.5979
 2131.5000     1.4247     0.5980
 2132.0000     1.4266     0.7485
 2132.5000     1.4284     0.7298
 2133.0000     1.4303     0.7299
 2133.5000     1.4322     0.7300
 2134.0000     1.4344     1.0120
 2134.5000     1.4362     1.0121
 2135.0000     1.4381     1.0028
 2135.5000     1.4399     1.0123
 2136.0000     1.4417     1.0124
 2136.5000     1.4436     1.2381
 2137.0000     1.4454     1.2382
 2137.5000     1.4472     1.2383
 2138.0000     1.4491     1.2383
 2138.5000     1.4509     1.0035
 2139.0000     1.4528     0.9942
 2139.5000     1.4546     0.9943
 2140.0000     1.4564     0.9944
 2140.5000     1.4583     1.2388
 2141.0000     1.4602     1.2389
 2141.5000     1.4624     1.2390
 2142.0000     1.4642     1.0511
 2142.5000     1.4661     0.9666
 2143.0000     1.4679     0.9573
 2143.5000     1.4697     0.9668
 2144.0000     1.6583     0.9669
 2144.5000     1.6601     0.9764
 2145.0000     1.8487     0.9765
 2145.5000     2.2240     0.9672
 2146.0000     2.2258     0.9673
 2146.5000     2.2001     0.7982
 2147.0000     2.1420     0.7983
 2147.5000     2.0839     0.8078
 2148.0000     2.0463     0.7985
 2148.5000     2.0486     0.7986
 2149.0000     2.0504     0.7987
 2149.5000     2.2390     0.7988
 2150.0000     2.0536     0.7989
 2150.5000     2.2427     0.7998
 2151.0000     2.2445     0.8085
 2151.5000     2.2463     0.8086
 2152.0000     2.0614     0.8087
 2152.5000     1.8766     0.8088
 2153.0000     1.6917     0.8088
 2153.5000     1.6936     0.8089
 2154.0000     1.6958     0.8090
 2154.5000     1.6976     0.7997
 2155.0000     1.6995     0.7998
 2155.5000     1.7013     0.7999
 2156.0000     1.8899     0.8000
 2156.5000     1.8917     0.7907
 2157.0000     1.8935     0.8002
 2157.5000     1.8954     0.8097
 2158.0000     2.0839     0.8098
 2158.5000     2.0581     0.8005
 2159.0000     2.0304     0.8006
 2159.5000     2.0027     0.8007
 2160.0000     1.9790     0.6598
 2160.5000     1.7886     0.6411
 2161.0000     1.7850     0.6412
 2161.5000     1.7813     0.6413
 2162.0000     1.9644     0.6414
 2162.5000     1.9606     0.7542
 2163.0000     1.9562     0.7543
 2163.5000     1.9525     0.7450
 2164.0000     1.9627     0.7451
 2164.5000     1.9971     0.7452
 2165.0000     2.0315     0.7453
 2165.5000     2.0660     0.7454
 2166.0000     2.1004     0.7455
 2166.5000     2.3040     0.7540
 2167.0000     2.1136     0.7494
 2167.5000     2.1100     0.7453
 2168.0000     2.1062     1.1962
 2168.5000     2.1018     1.1960
 2169.0000     2.0981     1.1959
 2169.5000     2.0945     0.9231
 2170.0000     2.0908     0.9041
 2170.5000     2.0871     0.8945
 2171.0000     2.0835     0.8943
 2171.5000     2.0798     0.8472
 2172.0000     2.0762     0.7812
 2172.5000     2.0725     0.7810
 2173.0000     2.0689     0.7808
 2173.5000     2.0651     0.7822
 2174.0000     2.0614     0.7804
 2174.5000     2.0570     0.7803
