~VERSION INFORMATION
 VERS.                2.0:   CWLS LOG ASCII STANDARD - VERSION 2.0
 WRAP.                 NO:   ONE LINE PER DEPTH STEP
~WELL INFORMATION
#MNEM.UNIT      DATA TYPE    INFORMATION
#----------   ------------   ------------------------------
 STRT.F            2.0000:   START DEPTH
 STOP.F          500.0000:   STOP DEPTH
 STEP.F            0.1000:   STEP LENGTH
 NULL.          -999.2500:   NO VALUE
 COMP.   FLUOR DANIEL INC:   COMPANY
 WELL.   73-5 X 10 #73-10:   WELL
 FLD .             TEAPOT:   FIELD
 LOC .      S10 T38N R78W:   LOCATION
 CNTY.            NATRONA:   COUNTY
 STAT.            WYOMING:   STATE
 CTRY. UNITED STATES OF AMERICA:   COUNTRY
 SRVC.      Western Atlas:   SERVICE COMPANY
 DATE.        07-JUN-1995:   LOGDATE
 API .       490252271400:   API NUMBER
~CURVE INFORMATION
#MNEM.UNIT       API CODE    CURVE DESCRIPTION
#----------   ------------   ------------------------------
 DEPT.F                  :   
 GRR .GAPI   07 310 01 00:   GAMMA RAY
 RILD.OHMM   07 120 46 00:   INDUCTION LOG DEEP RESISTIVITY
 RILM.OHMM   07 120 44 00:   RESITIVITY LONG MEDIUM
~PARAMETER INFORMATION
#MNEM.UNIT          VALUE    DESCRIPTION
#----------   ------------   ------------------------------
 PD  .                 GL:   PERMANENT DATUM
 EPD .F              5175:   ELEVATION PERMANENT DATUM
 LMF .                 KB:   LOG MEASURED FROM
 DAPD.F                10:   FEET ABOVE PERMANENT DATUM
 DMF .                 KB:   DRILLING MEASURED FROM
 EKB .F              5185:   KELLING BUSHING
 EDF .F              5184:   DRILLING FLOOR
 EGL .F              5175:   GROUND LEVEL
 DATE.        07-JUN-1995:   RUN DATE
 RUN .                  1:   RUN NUMBER
 DD  .F               511:   DEPTH DRILLER
 DL  .F               508:   DEPTH LOGGER
 BLI .F               500:   BOTTOM LOG INTERVAL
 TLI .F                96:   TOP LOG INTERVAL
 CS  .IN            9.625:   CASING SIZE
 CBD .F                96:   CASING BOTTOM DRILLER
 CBL .F                96:   CASING BOTTOM LOGGER
 BS  .IN             8.75:   BIT SIZE
 BSD .F               511:   BIT SIZE AT DEPTH
 DFT .                AIR:   DRILLING FLUID TYPE
 MRT .F               116:   MAXIMUM RECORDED TEMPERATURE
 LUN .            HL 6530:   LOGGING UNIT NUMBER
 LUL .             CASPER:   LOGGING UNIT LOCATION
 ENGI.        VERN RAUTIO:   RECORDING ENGINEER
 WITN.        GARY STRONG:   WITNESSED BY
 CLNT.            A2DTECH:   CLIENT CODE
 ORIG.           5" PRINT:   ORIGIN OF DATA
 UWI .       490252271400:   UNIQUE WELL ID
 DICO. A2D Technologies, Inc.:   DIGITIZING COMPANY
~OTHER INFORMATION
~A    DEPT       GRR     RILD       RILM   
# ...
  165.8000   129.7085     7.3955     7.3555
  165.9000   129.2523     7.3959     7.3558
  166.0000   128.2450     7.3962     7.3698
  166.1000   127.1369     7.3965     7.4075
  166.2000   126.2181     7.3968     7.4079
  166.3000   125.4930     7.3971     7.4081
  166.4000   125.2490     7.3974     7.4084
  166.5000   124.6175     7.3977     7.4088
  166.6000   124.0209     7.3980     7.4091
  166.7000   123.5317     7.3983     7.4094
  166.8000   123.0682     7.3986     7.4097
  166.9000   122.7941     7.3989     7.4100
  167.0000   122.3655     7.3993     7.4103
  167.1000   122.0352     7.3995     7.4106
  167.2000   121.7912     7.3998     7.4109
  167.3000   121.5937     7.4002     7.4112
  167.4000   121.5952     7.4005     7.4115
  167.5000   121.5964     7.4008     7.4118
  167.6000   121.7775     7.4011     7.4121
  167.7000   121.9000     7.4336     7.4124
  167.8000   122.0369     7.4532     7.4128
  167.9000   122.5167     7.4535     7.4131
  168.0000   122.8074     7.4538     7.4134
  168.1000   123.0095     7.4541     7.3995
  168.2000   123.2558     7.4544     7.3628
  168.3000   123.5912     7.4547     7.3632
  168.4000   124.0827     7.4550     7.3635
  168.5000   124.6206     7.4553     7.3638
  168.6000   125.7322     7.4557     7.3641
  168.7000   127.1253     7.4560     7.3644
  168.8000   128.3775     7.4563     7.3647
  168.9000   129.2514     7.4367     7.3650
  169.0000   129.7470     7.4054     7.3653
  169.1000   130.2345     7.4050     7.3656
  169.2000   130.7261     7.3637     7.3659
  169.3000   131.2177     7.3552     7.3662
  169.4000   131.5590     7.3324     7.3665
  169.5000   131.5602     7.3050     7.3355
  169.6000   131.5616     7.3012     7.3163
  169.7000   131.5626     7.2552     7.3047
  169.8000   131.4117     7.2554     7.2641
  169.9000   131.1677     7.2557     7.2167
  170.0000   130.8836     7.2393     7.2170
  170.1000   130.3627     7.2062     7.1936
  170.2000   129.6759     7.2065     7.1678
  170.3000   128.7683     7.1683     7.1586
  170.4000   127.9060     7.1573     7.0699
  170.5000   127.2329     7.1379     7.0702
  170.6000   126.7438     7.0980     7.0448
  170.7000   126.2546     7.0597     7.0057
  170.8000   126.1542     7.0601     6.9668
  170.9000   126.2938     6.9968     6.9261
  171.0000   126.6225     6.9409     6.8897
  171.1000   127.1403     6.9022     6.8789
  171.2000   127.9664     6.8637     6.8608
  171.3000   128.6139     6.8210     6.8227
  171.4000   129.5101     6.7536     6.7845
  171.5000   130.4919     6.6782     6.7093
  171.6000   131.4265     6.6194     6.6635
  171.7000   132.1892     6.5752     6.6067
  171.8000   132.9000     6.4993     6.5444
  171.9000   133.4562     6.4643     6.5055
  172.0000   133.8233     6.4016     6.4214
  172.1000   133.9327     6.3482     6.3619
  172.2000   133.6763     6.3029     6.2913
  172.3000   133.1002     6.2325     6.2088
  172.4000   132.6980     6.1504     6.1098
  172.5000   131.9177     6.0941     6.0349
  172.6000   131.1173     6.0261     5.9450
  172.7000   130.5946     5.9588     5.8462
  172.8000   129.7929     5.8921     5.7489
  172.9000   129.1259     5.8198     5.6532
  173.0000   128.5582     5.7613     5.5552
  173.1000   128.1797     5.6970     5.4961
  173.2000   127.9904     5.6334     5.4351
  173.3000   127.9916     5.5704     5.3747
  173.4000   128.2366     5.5071     5.3225
  173.5000   128.6707     5.4467     5.2930
  173.6000   129.1622     5.4087     5.2636
  173.7000   129.6538     5.3785     5.2575
  173.8000   130.1650     5.3485     5.2415
  173.9000   131.0110     5.3187     5.2217
  174.0000   131.4297     5.2841     5.2219
  174.1000   131.9213     5.2843     5.2222
  174.2000   132.3161     5.2665     5.2223
  174.3000   132.5215     5.2483     5.2226
  174.4000   132.2218     5.2485     5.2339
  174.5000   131.7630     5.2487     5.2593
  174.6000   130.9260     5.2489     5.2595
  174.7000   129.8287     5.2491     5.3137
  174.8000   128.5422     5.2630     5.3535
  174.9000   127.0780     5.2929     5.3838
  175.0000   125.8534     5.3231     5.4206
  175.1000   125.0187     5.3534     5.4836
  175.2000   124.5622     5.4074     5.5439
  175.3000   124.3183     5.4522     5.6067
  175.4000   124.1011     5.4832     5.6701
  175.5000   124.1025     5.5170     5.7343
  175.6000   124.3197     5.5891     5.7980
  175.7000   124.5661     5.6162     5.8308
  175.8000   124.8125     5.6482     5.9168
  175.9000   125.0588     5.6931     6.0175
  176.0000   125.3133     5.7524     6.1083
  176.1000   125.5516     5.7873     6.1773
  176.2000   125.7980     5.8182     6.2570
  176.3000   126.0444     5.8747     6.3180
  176.4000   126.2908     5.9415     6.3895
  176.5000   126.5371     6.0007     6.4618
  176.6000   126.8267     6.0354     6.5290
  176.7000   126.8277     6.1042     6.5689
  176.8000   126.9751     6.1463     6.6375
  176.9000   127.2215     6.2008     6.6867
  177.0000   127.4679     6.2597     6.7418
  177.1000   127.7362     6.2988     6.8096
  177.2000   127.9606     6.3799     6.8488
  177.3000   128.3743     6.4115     6.8869
  177.4000   128.8659     6.4714     6.9552
  177.5000   129.3022     6.5298     7.0135
  177.6000   129.5494     6.5737     7.0532
  177.7000   129.7950     6.6522     7.0913
  177.8000   130.0414     6.6882     7.0917
  177.9000   130.0231     6.7263     7.1568
  178.0000   129.7791     6.7835     7.2144
  178.1000   129.5553     6.8504     7.2413
  178.2000   129.5568     6.8881     7.2459
  178.3000   129.3484     6.8885     7.2922
  178.4000   129.1044     6.9515     7.2925
  178.5000   128.7630     7.0078     7.3189
  178.6000   128.2324     7.0477     7.3604
  178.7000   127.4543     7.0832     7.4020
  178.8000   126.7638     7.0836     7.4467
  178.9000   126.3785     7.1193     7.4470
  179.0000   126.2530     7.1598     7.4766
  179.1000   126.1918     7.2006     7.4993
  179.2000   125.9542     7.2416     7.5094
  179.3000   125.9554     7.2842     7.5520
  179.4000   126.1522     7.2844     7.5523
  179.5000   126.3986     7.3151     7.5850
  179.6000   126.6450     7.3568     7.6054
  179.7000   126.9739     7.3870     7.6182
  179.8000   128.0700     7.3894     7.6589
  179.9000   128.2878     7.4391     7.6592
  180.0000   128.8554     7.4393     7.6950
  180.1000   129.4875     7.4396     7.7130
  180.2000   129.9305     7.4551     7.7133
  180.3000   130.1844     7.4920     7.7136
  180.4000   130.6610     7.4923     7.7140
  180.5000   131.3343     7.4926     7.7143
  180.6000   131.8197     7.5214     7.7146
  180.7000   132.2055     7.5454     7.7330
  180.8000   132.9149     7.5548     7.7688
  180.9000   133.2038     7.5985     7.7692
  181.0000   133.6104     7.5988     7.7695
  181.1000   133.9552     7.6315     7.7698
  181.2000   134.2016     7.6523     7.7910
  181.3000   134.4480     7.6654     7.8244
  181.4000   134.7158     7.7061     7.8247
  181.5000   134.7169     7.7065     7.8250
  181.6000   134.7181     7.7068     7.8594
  181.7000   134.6075     7.7335     7.8800
  181.8000   134.4193     7.7610     7.8804
  181.9000   134.4205     7.7678     7.8838
  182.0000   134.1767     7.8157     7.9358
  182.1000   133.9327     7.8160     7.9361
  182.2000   133.6888     7.8467     7.9364
  182.3000   133.3679     7.8710     7.9531
  182.4000   132.8787     7.8713     7.9922
  182.5000   132.3195     7.8716     7.9925
  182.6000   131.6904     7.8719     7.9928
  182.7000   130.8019     7.9066     8.0230
  182.8000   129.7245     7.9273     8.0490
  182.9000   128.5838     7.9277     8.0493
  183.0000   127.8073     7.9280     8.0497
  183.1000   127.5773     7.9284     8.0500
  183.2000   127.5084     7.9669     8.0831
  183.3000   127.5096     7.9841     8.1066
  183.4000   127.5108     7.9845     8.1069
  183.5000   127.5191     7.9922     8.1073
  183.6000   127.8147     8.0407     8.1076
  183.7000   128.0118     8.0410     8.1079
  183.8000   128.2582     8.0734     8.1334
  183.9000   128.5888     8.0976     8.1649
