~VERSION INFORMATION
 VERS.                2.0:   CWLS LOG ASCII STANDARD - VERSION 2.0
 WRAP.                 NO:   ONE LINE PER DEPTH STEP
~WELL INFORMATION
#MNEM.UNIT      DATA TYPE    INFORMATION
#----------   ------------   ------------------------------
 STRT.F            4.0000:   START DEPTH
 STOP.F          468.5000:   STOP DEPTH
 STEP.F            0.1000:   STEP LENGTH
 NULL.          -999.2500:   NO VALUE
 COMP. BROWN JOHN E&C INC:   COMPANY
 WELL.  SX-10 #1-14-SX-10:   WELL
 FLD .        N.P.R. No.3:   FIELD
 LOC .      S10 T38N R78W:   LOCATION
 CNTY.            NATRONA:   COUNTY
 STAT.            WYOMING:   STATE
 CTRY. UNITED STATES OF AMERICA:   COUNTRY
 SRVC.     Atlas Wireline:   SERVICE COMPANY
 DATE.        21-SEP-1991:   LOGDATE
 API .       490251125800:   API NUMBER
~CURVE INFORMATION
#MNEM.UNIT       API CODE    CURVE DESCRIPTION
#----------   ------------   ------------------------------
 DEPT.F                  :   
 GRR .GAPI   07 310 01 00:   GAMMA RAY FROM RES. LOG.
 ILD .OHMM   07 120 46 00:   INDUCTION LOG DEEP
 RILM.OHMM   07 120 44 00:   INDUCTION LOG MEDIUM RESISTIVITY
~PARAMETER INFORMATION
#MNEM.UNIT          VALUE    DESCRIPTION
#----------   ------------   ------------------------------
 PD  .                 GL:   PERMANENT DATUM
 EPD .F              5183:   ELEVATION PERMANENT DATUM
 LMF .                 KB:   LOG MEASURED FROM
 DAPD.F                10:   FEET ABOVE PERMANENT DATUM
 DMF .                 KB:   DRILLING MEASURED FROM
 EKB .F              5193:   KELLING BUSHING
 EGL .F              5183:   GROUND LEVEL
 DATE.            9-21-91:   RUN DATE
 RUN .                  1:   RUN NUMBER
 DD  .F               480:   DEPTH DRILLER
 DL  .F               478:   DEPTH LOGGER
 BLI .F               470:   BOTTOM LOG INTERVAL
 CS  .IN                7:   CASING SIZE
 CBD .F                90:   CASING BOTTOM DRILLER
 CBL .F                90:   CASING BOTTOM LOGGER
 BS  .IN             6.25:   BIT SIZE
 BSD .F               480:   BIT SIZE AT DEPTH
 DFT .                AIR:   DRILLING FLUID TYPE
 TCS .HRS               1:   TIME CURCULATED STOPPED
 MRT .F                80:   MAXIMUM RECORDED TEMPERATURE
 LUN .            HL-6307:   LOGGING UNIT NUMBER
 LUL .             CASPER:   LOGGING UNIT LOCATION
 ENGI.             RAUTIO:   RECORDING ENGINEER
 WITN.             STRONG:   WITNESSED BY
 CLNT.            A2DTECH:   CLIENT CODE
 ORIG.        2" 5" PRINT:   ORIGIN OF DATA
 UWI .       490251125800:   UNIQUE WELL ID
 DICO. A2D Technologies, Inc.:   DIGITIZING COMPANY
~OTHER INFORMATION
~A    DEPT       GRR      ILD       RILM   
# ...
  331.6000   110.9847    16.8975    20.4252
  331.7000   110.6315    17.2892    21.0248
  331.8000   110.2783    17.6809    21.6243
  331.9000   109.9251    18.0726    22.2239
  332.0000   109.5719    18.4643    22.8234
  332.1000   108.6115    18.9025    23.5136
  332.2000   107.6510    19.3406    24.2038
  332.3000   106.6906    19.7788    24.8940
  332.4000   105.7301    20.2170    25.5842
  332.5000   104.7697    20.6551    26.2744
  332.6000   103.8190    21.1688    27.0690
  332.7000   102.8683    21.6825    27.8636
  332.8000   101.9176    22.1962    28.6581
  332.9000   100.9669    22.7099    29.4527
  333.0000   100.0162    23.2236    30.2473
  333.1000    99.0486    23.8172    30.7883
  333.2000    98.0809    24.4108    31.3294
  333.3000    97.1133    25.0044    31.8704
  333.4000    96.1456    25.5981    32.4115
  333.5000    95.1780    26.1917    32.9525
  333.6000    94.5434    26.8612    33.4610
  333.7000    93.9088    27.5307    33.9694
  333.8000    93.2742    28.2002    34.4778
  333.9000    92.6396    28.8697    34.9863
  334.0000    92.0051    29.5392    35.4947
  334.1000    91.7316    30.0034    35.8610
  334.2000    91.4582    30.4677    36.2272
  334.3000    91.1847    30.9320    36.5935
  334.4000    90.9113    31.3963    36.9597
  334.5000    90.6378    31.8606    37.3259
  334.6000    90.8448    32.0074    37.3889
  334.7000    91.0519    32.1542    37.4518
  334.8000    91.2589    32.3010    37.5147
  334.9000    91.4659    32.4478    37.5776
  335.0000    91.6730    32.5946    37.6405
  335.1000    92.2523    32.7341    37.7089
  335.2000    92.8316    32.8736    37.7774
  335.3000    93.4109    33.0131    37.8458
  335.4000    93.9902    33.1526    37.9142
  335.5000    94.5695    33.2922    37.9827
  335.6000    95.0124    33.3328    38.0538
  335.7000    95.4554    33.3734    38.1250
  335.8000    95.8984    33.4140    38.1962
  335.9000    96.3413    33.4546    38.2673
  336.0000    96.7843    33.4952    38.3385
  336.1000    96.5871    33.5307    38.4109
  336.2000    96.3899    33.5662    38.4834
  336.3000    96.1927    33.6018    38.5559
  336.4000    95.9955    33.6373    38.6283
  336.5000    95.7983    33.6729    38.7008
  336.6000    95.6452    33.7081    38.7592
  336.7000    95.4921    33.7434    38.8177
  336.8000    95.3390    33.7786    38.8762
  336.9000    95.1860    33.8139    38.9346
  337.0000    95.0329    33.8491    38.9931
  337.1000    95.0062    33.8810    39.0666
  337.2000    94.9795    33.9130    39.1402
  337.3000    94.9529    33.9449    39.2137
  337.4000    94.9262    33.9768    39.2873
  337.5000    94.8995    34.0088    39.3608
  337.6000    94.1608    33.8943    39.4567
  337.7000    93.4220    33.7799    39.5526
  337.8000    92.6833    33.6654    39.6485
  337.9000    91.9445    33.5510    39.7444
  338.0000    91.2057    33.4365    39.8403
  338.1000    90.3197    33.3121    39.6245
  338.2000    89.4337    33.1878    39.4087
  338.3000    88.5477    33.0634    39.1929
  338.4000    87.6617    32.9390    38.9771
  338.5000    86.7757    32.8146    38.7613
  338.6000    86.2806    32.6926    38.4673
  338.7000    85.7855    32.5705    38.1734
  338.8000    85.2904    32.4484    37.8795
  338.9000    84.7953    32.3264    37.5855
  339.0000    84.3002    32.2043    37.2916
  339.1000    85.0339    32.0845    37.0088
  339.2000    85.7675    31.9647    36.7260
  339.3000    86.5012    31.8449    36.4432
  339.4000    87.2348    31.7251    36.1604
  339.5000    87.9685    31.6053    35.8777
  339.6000    88.8992    31.4877    35.6671
  339.7000    89.8298    31.3702    35.4566
  339.8000    90.7605    31.2526    35.2460
  339.9000    91.6912    31.1350    35.0355
  340.0000    92.6218    31.0175    34.8249
  340.1000    94.1426    30.9021    34.7394
  340.2000    95.6633    30.7867    34.6539
  340.3000    97.1841    30.6713    34.5684
  340.4000    98.7048    30.5559    34.4829
  340.5000   100.2256    30.4406    34.3974
  340.6000   100.3338    30.3273    34.3130
  340.7000   100.4421    30.2141    34.2285
  340.8000   100.5503    30.1009    34.1441
  340.9000   100.6586    29.9876    34.0596
  341.0000   100.7668    29.8744    33.9752
  341.1000   100.3480    29.7633    33.8919
  341.2000    99.9292    29.6521    33.8086
  341.3000    99.5104    29.5410    33.7254
  341.4000    99.0916    29.4299    33.6421
  341.5000    98.6728    29.3187    33.5588
  341.6000    98.2305    29.2097    33.4173
  341.7000    97.7882    29.1006    33.2759
  341.8000    97.3459    28.9916    33.1344
  341.9000    96.9036    28.8825    32.9929
  342.0000    96.4614    28.7734    32.8515
  342.1000    96.2772    28.6664    32.6688
  342.2000    96.0931    28.5594    32.4860
  342.3000    95.9090    28.4523    32.3033
  342.4000    95.7248    28.3453    32.1206
  342.5000    95.5407    28.2383    31.9379
  342.6000    95.4861    28.1320    31.7605
  342.7000    95.4314    28.0257    31.5831
  342.8000    95.3768    27.9194    31.4057
  342.9000    95.3222    27.8131    31.2284
  343.0000    95.2676    27.7069    31.0510
  343.1000    95.1392    27.7069    30.8785
  343.2000    95.0108    27.7069    30.7061
  343.3000    94.8823    27.7069    30.5336
  343.4000    94.7539    27.7069    30.3612
  343.5000    94.6255    27.7069    30.1887
  343.6000    94.1870    27.7069    30.1210
  343.7000    93.7485    27.7069    30.0532
  343.8000    93.3099    27.7069    29.9854
  343.9000    92.8714    27.7069    29.9177
  344.0000    92.4329    27.7069    29.8499
  344.1000    92.3925    27.7068    30.0656
  344.2000    92.3521    27.7068    30.2813
  344.3000    92.3116    27.7067    30.4970
  344.4000    92.2712    27.7067    30.7127
  344.5000    92.2308    27.7067    30.9284
  344.6000    92.4451    27.7063    31.0918
  344.7000    92.6595    27.7059    31.2552
  344.8000    92.8738    27.7056    31.4186
  344.9000    93.0882    27.7052    31.5820
  345.0000    93.3025    27.7049    31.7455
  345.1000    93.4697    27.7048    31.9132
  345.2000    93.6367    27.7048    32.0809
  345.3000    93.8039    27.7048    32.2487
  345.4000    93.9710    27.7047    32.4164
  345.5000    94.1381    27.7047    32.5841
  345.6000    94.1146    27.7051    32.6813
  345.7000    94.0911    27.7056    32.7784
  345.8000    94.0676    27.7060    32.8756
  345.9000    94.0441    27.7064    32.9727
  346.0000    94.0206    27.7069    33.0699
  346.1000    93.0850    27.5647    32.7182
  346.2000    92.1495    27.4226    32.3666
  346.3000    91.2139    27.2805    32.0150
  346.4000    90.2783    27.1384    31.6633
  346.5000    89.3427    26.9963    31.3117
  346.6000    88.2953    26.8993    31.0774
  346.7000    87.2479    26.8022    30.8430
  346.8000    86.2004    26.7052    30.6087
  346.9000    85.1530    26.6081    30.3744
  347.0000    84.1056    26.5111    30.1401
  347.1000    83.5656    26.4158    29.9309
  347.2000    83.0257    26.3205    29.7218
  347.3000    82.4858    26.2252    29.5127
  347.4000    81.9459    26.1299    29.3036
  347.5000    81.4060    26.0346    29.0944
  347.6000    81.8587    25.9411    28.9384
  347.7000    82.3114    25.8475    28.7825
  347.8000    82.7641    25.7539    28.6265
  347.9000    83.2168    25.6603    28.4705
  348.0000    83.6696    25.5667    28.3145
  348.1000    85.5693    25.4748    28.1627
  348.2000    87.4691    25.3829    28.0109
  348.3000    89.3688    25.2910    27.8590
  348.4000    91.2686    25.1991    27.7072
  348.5000    93.1683    25.1072    27.5554
  348.6000    94.5207    25.0170    27.4074
  348.7000    95.8730    24.9267    27.2594
  348.8000    97.2253    24.8365    27.1113
  348.9000    98.5776    24.7463    26.9633
  349.0000    99.9300    24.6560    26.8153
  349.1000   100.7469    24.5674    26.7409
  349.2000   101.5639    24.4788    26.6664
  349.3000   102.3809    24.3901    26.5920
  349.4000   103.1978    24.3015    26.5176
  349.5000   104.0148    24.2129    26.4432
  349.6000   104.3002    24.1003    26.4775
  349.7000   104.5857    23.9877    26.5118
