~VERSION INFORMATION
 VERS.                2.0:   CWLS LOG ASCII STANDARD - VERSION 2.0
 WRAP.                 NO:   ONE LINE PER DEPTH STEP
~WELL INFORMATION
#MNEM.UNIT      DATA TYPE    INFORMATION
#----------   ------------   ------------------------------
 STRT.F          438.0000:   START DEPTH
 STOP.F         2175.0000:   STOP DEPTH
 STEP.F            0.5000:   STEP LENGTH
 NULL.          -999.2500:   NO VALUE
 COMP.   FLUOR DANIEL INC:   COMPANY
 WELL. NAVAL PETROLEUM RESERVE 3 X29 #74-29:   WELL
 FLD .            WLIDCAT:   FIELD
 LOC .      S29 T39N R78W:   LOCATION
 CNTY.            NATRONA:   COUNTY
 STAT.            WYOMING:   STATE
 CTRY. UNITED STATES OF AMERICA:   COUNTRY
 SRVC.            Unknown:   SERVICE COMPANY
 DATE.        05-JUN-1995:   LOGDATE
 API .       490252272900:   API NUMBER
~CURVE INFORMATION
#MNEM.UNIT       API CODE    CURVE DESCRIPTION
#----------   ------------   ------------------------------
 DEPT.F                  :   
 ROP .FT/HR  91 810 01 00:   RAT OF DRILLING PENETRATION
 TGAS.TC/CC  91 830 01 00:   TOTAL GAS UNIT
~PARAMETER INFORMATION
#MNEM.UNIT          VALUE    DESCRIPTION
#----------   ------------   ------------------------------
 EKB .F              5036:   KELLING BUSHING
 EGL .F              5026:   GROUND LEVEL
 DATE.        05-JUN-1995:   RUN DATE
 RUN .                  1:   RUN NUMBER
 BLI .F              2160:   BOTTOM LOG INTERVAL
 TLI .F               440:   TOP LOG INTERVAL
 ENGI.     R.HUSK/C.TOWER:   RECORDING ENGINEER
 CLNT.            A2DTECH:   CLIENT CODE
 ORIG.           5" PRINT:   ORIGIN OF DATA
 UWI .       490252272900:   UNIQUE WELL ID
 DICO. A2D Technologies, Inc.:   DIGITIZING COMPANY
~OTHER INFORMATION
~A   DEPT        ROP       TGAS 
# ...
 1531.5000     0.3811     2.5226
 1532.0000     0.3812     2.5149
 1532.5000     0.3812     2.5079
 1533.0000     0.3813     2.4996
 1533.5000     0.3814     2.4921
 1534.0000     0.3816     2.4843
 1534.5000     0.3816     2.4764
 1535.0000     0.3914     2.4683
 1535.5000     0.3914     2.4593
 1536.0000     0.4012     2.4528
 1536.5000     0.4013     2.4440
 1537.0000     0.4013     2.4357
 1537.5000     0.4014     2.4292
 1538.0000     0.4016     2.4210
 1538.5000     0.4016     2.4134
 1539.0000     0.4017     2.4057
 1539.5000     0.4018     2.3978
 1540.0000     0.4019     2.3899
 1540.5000     0.4020     2.3808
 1541.0000     0.4021     2.3731
 1541.5000     0.4022     2.3655
 1542.0000     0.4023     2.3585
 1542.5000     0.4024     2.3501
 1543.0000     0.4025     2.3428
 1543.5000     0.4026     2.1461
 1544.0000     0.4123     2.1384
 1544.5000     0.4124     2.1305
 1545.0000     0.4125     2.1212
 1545.5000     0.4222     2.1135
 1546.0000     0.4223     2.1059
 1546.5000     0.4224     2.0982
 1547.0000     0.4225     2.0905
 1547.5000     0.4226     2.2735
 1548.0000     0.4227     2.2639
 1548.5000     0.4228     2.3407
 1549.0000     0.4229     2.6272
 1549.5000     0.4230     2.6179
 1550.0000     0.4231     2.6635
 1550.5000     0.4232     2.7909
 1551.0000     0.4233     2.9720
 1551.5000     0.4234     2.9638
 1552.0000     0.4235     3.0656
 1552.5000     0.4236     3.3251
 1553.0000     0.4237     3.3176
 1553.5000     0.4238     3.3097
 1554.0000     0.4239     3.4908
 1554.5000     0.4240     3.4818
 1555.0000     0.4240     3.4735
 1555.5000     0.4225     3.4670
 1556.0000     0.4203     3.4591
 1556.5000     0.4180     3.4499
 1557.0000     0.4157     3.4434
 1557.5000     0.4135     3.4355
 1558.0000     0.4119     3.2388
 1558.5000     0.4022     3.2311
 1559.0000     0.4021     3.2233
 1559.5000     0.4020     3.2139
 1560.0000     0.4019     2.9913
 1560.5000     0.4018     2.6267
 1561.0000     0.4017     2.6130
 1561.5000     0.4016     2.4104
 1562.0000     0.4015     2.3962
 1562.5000     0.4014     2.5707
 1563.0000     0.4013     2.5547
 1563.5000     0.4012     2.5425
 1564.0000     0.4011     2.5261
 1564.5000     0.4107     2.7442
 1565.0000     0.4106     2.8774
 1565.5000     0.4105     2.8632
 1566.0000     0.4104     2.8491
 1566.5000     0.4007     2.8327
 1567.0000     0.4006     2.5873
 1567.5000     0.4005     2.4279
 1568.0000     0.4004     2.4130
 1568.5000     0.4003     2.2123
 1569.0000     0.4098     2.0094
 1569.5000     0.4193     1.9934
 1570.0000     0.5538     1.9811
 1570.5000     0.5441     1.9660
 1571.0000     0.5344     1.9500
 1571.5000     0.5343     1.9387
 1572.0000     0.5342     1.9237
 1572.5000     0.5245     2.0991
 1573.0000     0.5244     2.2737
 1573.5000     0.5147     2.2594
 1574.0000     0.5146     2.6202
 1574.5000     0.5145     2.6085
 1575.0000     0.5240     2.5943
 1575.5000     0.5336     2.5791
 1576.0000     0.5238     2.5660
 1576.5000     0.5141     2.5516
 1577.0000     0.5140     2.7266
 1577.5000     0.5139     2.7123
 1578.0000     0.5235     2.6958
 1578.5000     0.5234     2.6840
 1579.0000     0.5233     2.4797
 1579.5000     0.5328     2.4660
 1580.0000     0.5423     2.4528
 1580.5000     0.6480     2.4387
 1581.0000     0.6479     2.4245
 1581.5000     0.6478     2.0303
 1582.0000     0.6477     2.0189
 1582.5000     0.6476     2.0029
 1583.0000     0.6475     1.9906
 1583.5000     0.6474     1.9755
 1584.0000     0.6473     1.9618
 1584.5000     0.8203     1.9951
 1585.0000     0.8010     2.1226
 1585.5000     0.8009     2.1059
 1586.0000     0.8008     2.0922
 1586.5000     1.0314     1.8915
 1587.0000     1.0313     1.8761
 1587.5000     1.0312     2.0519
 1588.0000     0.6946     2.0377
 1588.5000     0.6849     2.2124
 1589.0000     0.6848     2.1981
 1589.5000     0.6943     1.9928
 1590.0000     0.6942     1.8921
 1590.5000     0.5499     1.7767
 1591.0000     0.5498     1.7630
 1591.5000     0.5497     1.6742
 1592.0000     0.5496     1.5469
 1592.5000     0.5495     1.5330
 1593.0000     0.5494     1.5161
 1593.5000     0.5493     1.5047
 1594.0000     0.5588     1.6104
 1594.5000     0.5587     1.6651
 1595.0000     0.5586     1.6509
 1595.5000     0.5585     1.6362
 1596.0000     0.5681     1.6214
 1596.5000     0.5584     1.6085
 1597.0000     0.5679     1.5917
 1597.5000     0.5678     1.5802
 1598.0000     0.5677     1.5660
 1598.5000     0.5580     1.5519
 1599.0000     0.5579     1.5357
 1599.5000     0.5578     1.5236
 1600.0000     0.5673     1.5094
 1600.5000     0.5672     1.4953
 1601.0000     0.5671     1.4811
 1601.5000     0.5670     1.4670
 1602.0000     0.5958     1.4500
 1602.5000     0.6918     1.4387
 1603.0000     0.6821     1.4245
 1603.5000     0.6724     1.4100
 1604.0000     0.6627     1.3962
 1604.5000     0.6626     1.3821
 1605.0000     0.6625     1.3679
 1605.5000     0.6624     1.3518
 1606.0000     0.6623     1.3381
 1606.5000     0.6586     1.3244
 1607.0000     0.6524     1.3107
 1607.5000     0.6480     1.1423
 1608.0000     0.6476     0.9506
 1608.5000     0.7723     0.9396
 1609.0000     0.7719     0.9283
 1609.5000     0.7812     1.0535
 1610.0000     0.7808     1.2810
 1610.5000     0.7804     1.2717
 1611.0000     0.7800     1.4780
 1611.5000     0.7795     1.6264
 1612.0000     0.7792     1.6141
 1612.5000     0.7788     1.6038
 1613.0000     0.7784     1.5920
 1613.5000     0.7780     1.7698
 1614.0000     0.6238     1.7585
 1614.5000     0.5658     1.9358
 1615.0000     0.5654     1.9224
 1615.5000     0.5650     1.9114
 1616.0000     0.5645     1.9003
 1616.5000     0.5642     1.8892
 1617.0000     0.5638     1.8782
 1617.5000     0.5634     1.8671
 1618.0000     0.5631     1.8561
 1618.5000     0.5627     1.8450
 1619.0000     0.5623     1.8340
 1619.5000     0.5619     2.2003
 1620.0000     0.5615     2.1865
 1620.5000     0.5612     2.1754
 1621.0000     0.5607     2.3558
 1621.5000     0.5603     2.5334
 1622.0000     0.5503     2.5196
 1622.5000     0.5403     2.5086
 1623.0000     0.5400     2.4975
 1623.5000     0.5396     2.4865
 1624.0000     0.5392     2.4754
 1624.5000     0.5388     2.4642
 1625.0000     0.5385     2.4843
 1625.5000     0.5285     2.8168
 1626.0000     0.5280     2.8075
 1626.5000     0.5180     2.7947
 1627.0000     0.5177     2.7837
 1627.5000     0.5173     2.7726
 1628.0000     0.5169     2.7616
 1628.5000     0.5165     2.7505
 1629.0000     0.5162     2.5508
 1629.5000     0.5158     2.3509
 1630.0000     0.8230     2.2327
 1630.5000     0.7938     1.9488
 1631.0000     0.7838     1.9191
 1631.5000     0.7834     1.7380
 1632.0000     0.7680     1.7283
 1632.5000     0.7635     1.7170
 1633.0000     0.7631     1.7049
 1633.5000     0.7627     1.8830
 1634.0000     0.7733     1.8717
 1634.5000     0.7812     1.8604
 1635.0000     0.7807     1.8491
 1635.5000     0.7803     1.8355
 1636.0000     0.7897     1.8126
 1636.5000     1.0489     1.6264
 1637.0000     1.0292     1.6151
 1637.5000     1.0192     1.7913
 1638.0000     1.0092     1.7811
 1638.5000     1.0088     1.7692
 1639.0000     1.0085     1.7581
 1639.5000     1.0080     1.7462
 1640.0000     1.0076     1.7358
 1640.5000     1.0073     1.7245
 1641.0000     1.0102     1.7112
 1641.5000     1.0162     1.7001
 1642.0000     1.0158     1.5004
 1642.5000     1.0154     1.4893
 1643.0000     1.0246     1.6669
 1643.5000     1.0242     1.6559
 1644.0000     0.8122     1.6448
 1644.5000     0.8119     1.6338
 1645.0000     0.8115     1.4340
 1645.5000     0.8111     1.2340
 1646.0000     0.8108     1.5979
 1646.5000     0.8104     1.5868
 1647.0000     0.8100     1.5758
 1647.5000     0.8096     1.5647
 1648.0000     0.9438     1.5536
 1648.5000     1.0204     1.5434
 1649.0000     1.0007     1.5321
 1649.5000     1.0004     1.5208
 1650.0000     1.0000     1.5094
 1650.5000     0.9996     1.6852
 1651.0000     0.9992     1.7430
 1651.5000     0.9988     1.8528
 1652.0000     0.7935     1.8417
 1652.5000     0.7673     2.0766
