~VERSION INFORMATION
 VERS.                2.0:   CWLS LOG ASCII STANDARD - VERSION 2.0
 WRAP.                 NO:   ONE LINE PER DEPTH STEP
~WELL INFORMATION
#MNEM.UNIT      DATA TYPE    INFORMATION
#----------   ------------   ------------------------------
 STRT.F          436.0000:   START DEPTH
 STOP.F         2160.0000:   STOP DEPTH
 STEP.F            0.5000:   STEP LENGTH
 NULL.          -999.2500:   NO VALUE
 COMP.   FLUOR DANIEL INC:   COMPANY
 WELL. NAVAL PETROLEUM RESERVE 3 X-29 #31-29:   WELL
 FLD .            WILDCAT:   FIELD
 LOC .      S29 T39N R78W:   LOCATION
 CNTY.            NATRONA:   COUNTY
 STAT.            WYOMING:   STATE
 CTRY. UNITED STATES OF AMERICA:   COUNTRY
 SRVC.            Unknown:   SERVICE COMPANY
 DATE.        25-JUN-1995:   LOGDATE
 API .       490252272300:   API NUMBER
~CURVE INFORMATION
#MNEM.UNIT       API CODE    CURVE DESCRIPTION
#----------   ------------   ------------------------------
 DEPT.F                  :   
 ROP .FT/HR  91 810 01 00:   RAT OF DRILLING PENETRATION
 TGAS.TC/CC  91 830 01 00:   TOTAL GAS UNIT
~PARAMETER INFORMATION
#MNEM.UNIT          VALUE    DESCRIPTION
#----------   ------------   ------------------------------
 EPD .F              5058:   ELEVATION PERMANENT DATUM
 EKB .F              5068:   KELLING BUSHING
 EGL .F              5058:   GROUND LEVEL
 DATE.        25-JUN-1995:   RUN DATE
 RUN .                  1:   RUN NUMBER
 ENGI.     C.TOWER/R.HUSK:   RECORDING ENGINEER
 CLNT.            A2DTECH:   CLIENT CODE
 ORIG.           5" PRINT:   ORIGIN OF DATA
 UWI .       490252272300:   UNIQUE WELL ID
 DICO. A2D Technologies, Inc.:   DIGITIZING COMPANY
~OTHER INFORMATION
~A   DEPT        ROP     TGAS   
# ...
 2015.5000     0.5146     6.4737
 2016.0000     0.5142     6.4756
 2016.5000     0.5139     6.4774
 2017.0000     0.5135     6.7601
 2017.5000     0.5132     6.8585
 2018.0000     0.5128     6.8604
 2018.5000     0.5218     6.8626
 2019.0000     0.5214     6.8645
 2019.5000     0.5211     6.8663
 2020.0000     0.5206     6.8681
 2020.5000     0.5202     6.8700
 2021.0000     0.5199     6.8718
 2021.5000     0.5195     6.8737
 2022.0000     0.5192     6.8755
 2022.5000     0.5188     6.8774
 2023.0000     0.5184     6.8792
 2023.5000     0.5180     6.8815
 2024.0000     0.5177     6.8833
 2024.5000     0.5173     6.6960
 2025.0000     0.5169     6.6983
 2025.5000     0.5259     6.8889
 2026.0000     0.5161     6.8907
 2026.5000     0.5157     6.8179
 2027.0000     0.5154     6.7057
 2027.5000     0.5150     6.5189
 2028.0000     0.5241     6.5208
 2028.5000     0.5237     6.3339
 2029.0000     0.5233     6.3362
 2029.5000     0.5229     6.3380
 2030.0000     0.5226     6.3396
 2030.5000     0.5222     6.5304
 2031.0000     0.5312     6.5322
 2031.5000     0.5403     6.5341
 2032.0000     0.5398     6.5358
 2032.5000     0.5489     6.5378
 2033.0000     0.5580     6.5396
 2033.5000     0.5575     6.5415
 2034.0000     0.5571     6.3546
 2034.5000     0.5568     5.9796
 2035.0000     0.5564     5.7923
 2035.5000     0.5560     5.4167
 2036.0000     0.5556     5.4190
 2036.5000     0.5552     5.4209
 2037.0000     0.5548     5.8001
 2037.5000     0.5545     5.8019
 2038.0000     0.5541     5.6151
 2038.5000     0.5537     5.4075
 2039.0000     0.5534     5.0527
 2039.5000     0.5530     4.6777
 2040.0000     0.5526     4.8682
 2040.5000     0.5523     4.8700
 2041.0000     0.5519     5.0606
 2041.5000     0.5502     5.0624
 2042.0000     0.5417     5.0642
 2042.5000     0.5413     5.0661
 2043.0000     0.5504     4.8793
 2043.5000     0.5406     4.8811
 2044.0000     0.5402     4.8830
 2044.5000     0.5398     4.8849
 2045.0000     0.5395     4.8871
 2045.5000     0.5391     4.8889
 2046.0000     0.5481     4.7016
 2046.5000     0.5477     4.7039
 2047.0000     0.5474     4.8159
 2047.5000     0.5469     4.8962
 2048.0000     0.5372     4.8981
 2048.5000     0.5368     4.9000
 2049.0000     0.5364     5.0906
 2049.5000     0.5455     5.0925
 2050.0000     0.9962     5.0946
 2050.5000     0.9962     5.0965
 2051.0000     0.9962     5.2870
 2051.5000     0.9962     5.4775
 2052.0000     1.5508     5.4794
 2052.5000     1.5508     5.4812
 2053.0000     1.5508     5.4831
 2053.5000     1.5508     5.2962
 2054.0000     1.2782     5.2981
 2054.5000     1.0526     5.3004
 2055.0000     1.0526     5.1135
 2055.5000     1.0526     5.1154
 2056.0000     0.6673     5.3059
 2056.5000     0.6579     5.1186
 2057.0000     0.6579     4.9318
 2057.5000     0.6579     4.7449
 2058.0000     0.6861     4.7472
 2058.5000     0.7801     4.7491
 2059.0000     0.7707     4.9396
 2059.5000     0.7895     4.9415
 2060.0000     0.6203     4.9437
 2060.5000     0.4981     5.1343
 2061.0000     0.4605     5.1361
 2061.5000     0.4417     5.3266
 2062.0000     0.4417     5.3283
 2062.5000     0.4417     5.5190
 2063.0000     0.4417     5.3321
 2063.5000     0.4417     5.3340
 2064.0000     0.4417     5.1472
 2064.5000     0.4323     4.7716
 2065.0000     0.4417     4.7739
 2065.5000     0.4511     4.7758
 2066.0000     0.4511     4.7776
 2066.5000     0.4511     4.7795
 2067.0000     0.4699     4.7813
 2067.5000     0.4511     4.7831
 2068.0000     0.4417     4.7850
 2068.5000     0.4323     4.9755
 2069.0000     0.4323     4.7887
 2069.5000     0.4323     4.7906
 2070.0000     0.4323     4.6037
 2070.5000     0.4323     4.6060
 2071.0000     0.4323     4.6078
 2071.5000     0.4323     4.6097
 2072.0000     0.4323     4.8002
 2072.5000     0.4417     4.8020
 2073.0000     0.4417     4.8039
 2073.5000     0.4417     4.8057
 2074.0000     0.4511     4.8076
 2074.5000     0.4511     4.8094
 2075.0000     0.4605     4.8113
 2075.5000     0.4605     4.8135
 2076.0000     0.4605     4.8154
 2076.5000     0.4699     4.8172
 2077.0000     0.4605     4.8191
 2077.5000     0.4699     4.8209
 2078.0000     0.4699     4.8228
 2078.5000     0.4605     4.8246
 2079.0000     0.4605     4.8264
 2079.5000     0.4699     4.8283
 2080.0000     0.4699     4.8302
 2080.5000     0.4699     4.8324
 2081.0000     0.4699     4.8343
 2081.5000     0.4699     4.6470
 2082.0000     0.4699     4.4606
 2082.5000     0.4699     4.4623
 2083.0000     0.4605     4.4643
 2083.5000     0.4699     4.4661
 2084.0000     0.4699     4.6566
 2084.5000     0.4699     4.8472
 2085.0000     0.4699     4.8492
 2085.5000     0.4699     5.0396
 2086.0000     0.4605     4.8527
 2086.5000     0.4605     4.8550
 2087.0000     0.4699     4.8568
 2087.5000     0.4793     4.8585
 2088.0000     0.5451     4.8605
 2088.5000     0.5545     4.8623
 2089.0000     0.5451     4.8642
 2089.5000     0.5451     4.8661
 2090.0000     0.5451     4.8679
 2090.5000     0.5357     4.8698
 2091.0000     0.5357     4.8717
 2091.5000     0.5357     5.0626
 2092.0000     0.5357     5.0642
 2092.5000     0.5357     5.0662
 2093.0000     0.5357     5.0681
 2093.5000     0.5263     4.8808
 2094.0000     0.5263     4.8830
 2094.5000     0.5263     4.8849
 2095.0000     0.5263     5.0755
 2095.5000     0.5357     5.2660
 2096.0000     0.5357     5.0791
 2096.5000     0.5263     5.0814
 2097.0000     0.5263     4.8941
 2097.5000     0.5263     4.8964
 2098.0000     0.5263     4.8983
 2098.5000     0.5357     4.9000
 2099.0000     0.5357     4.9020
 2099.5000     0.5357     4.9038
 2100.0000     0.5451     4.9057
 2100.5000     0.5393     4.9075
 2101.0000     0.5334     4.9098
 2101.5000     0.5275     4.9347
 2102.0000     0.5248     5.0367
 2102.5000     0.5244     5.1387
 2103.0000     0.5240     5.2407
 2103.5000     0.5236     5.3100
 2104.0000     0.5233     5.1250
 2104.5000     0.5135     5.1287
 2105.0000     0.5131     5.1324
 2105.5000     0.5128     5.1360
 2106.0000     0.5124     5.1397
 2106.5000     0.5214     5.1434
 2107.0000     0.5211     5.1472
 2107.5000     0.5206     5.1517
 2108.0000     0.5297     5.1553
 2108.5000     0.5388     5.1590
 2109.0000     0.5383     5.1627
 2109.5000     0.5379     5.1664
 2110.0000     0.5376     5.1701
 2110.5000     0.5372     5.1737
 2111.0000     0.5368     5.1774
 2111.5000     0.5365     4.9924
 2112.0000     0.5361     4.9962
 2112.5000     0.5357     5.0007
 2113.0000     0.5353     5.0044
 2113.5000     0.5349     5.0080
 2114.0000     0.5345     5.0117
 2114.5000     0.5342     5.0154
 2115.0000     0.5338     5.0191
 2115.5000     0.5334     5.0228
 2116.0000     0.5237     5.0264
 2116.5000     0.5233     5.0302
 2117.0000     0.5229     5.0347
 2117.5000     0.5320     5.0384
 2118.0000     0.5316     5.2308
 2118.5000     0.5312     5.2344
 2119.0000     0.5308     5.2381
 2119.5000     0.4552     5.2418
 2120.0000     0.4360     5.2455
 2120.5000     0.4357     5.2491
 2121.0000     0.4353     5.2528
 2121.5000     0.4349     5.2774
 2122.0000     0.4440     5.4498
 2122.5000     0.4531     5.4535
 2123.0000     0.4620     5.2675
 2123.5000     0.4616     5.2721
 2124.0000     0.4707     5.0862
 2124.5000     0.4703     5.0908
 2125.0000     0.4699     5.0943
 2125.5000     0.4695     5.0982
 2126.0000     0.4691     5.1019
 2126.5000     0.4687     5.1057
 2127.0000     0.4684     5.1101
 2127.5000     0.4680     5.3025
 2128.0000     0.4677     5.3062
 2128.5000     0.4673     5.4985
 2129.0000     0.4669     5.5022
 2129.5000     0.4571     5.5059
 2130.0000     0.4568     5.5096
 2130.5000     0.4564     5.5132
 2131.0000     0.4560     5.5170
 2131.5000     0.4556     5.5208
 2132.0000     0.4646     5.5252
 2132.5000     0.4642     5.5289
 2133.0000     0.4639     5.5325
 2133.5000     0.4663     5.5358
 2134.0000     0.4765     5.5396
 2134.5000     0.4816     5.4683
 2135.0000     0.4906     5.3585
 2135.5000     0.4996     5.1736
 2136.0000     0.4992     5.1774
 2136.5000     0.4989     4.9923
