~VERSION INFORMATION
 VERS.                2.0:   CWLS LOG ASCII STANDARD - VERSION 2.0
 WRAP.                 NO:   ONE LINE PER DEPTH STEP
~WELL INFORMATION
#MNEM.UNIT      DATA TYPE    INFORMATION
#----------   ------------   ------------------------------
 STRT.F         1939.0000:   START DEPTH
 STOP.F         2285.5000:   STOP DEPTH
 STEP.F            0.5000:   STEP LENGTH
 NULL.          -999.2500:   NO VALUE
 COMP. BROWN JOHN E&C INC:   COMPANY
 WELL.    STX-34 #46-1-34:   WELL
 FLD .             TEAPOT:   FIELD
 LOC .      S34 T39N R78W:   LOCATION
 CNTY.            NATRONA:   COUNTY
 STAT.            WYOMING:   STATE
 CTRY. UNITED STATES OF AMERICA:   COUNTRY
 SRVC.            Unknown:   SERVICE COMPANY
 DATE.        31-AUG-1991:   LOGDATE
 API .       490251105200:   API NUMBER
~CURVE INFORMATION
#MNEM.UNIT       API CODE    CURVE DESCRIPTION
#----------   ------------   ------------------------------
 DEPT.F                  :   
 ROP .MIN/FT 91 810 01 00:   RATE OF DRILLING PENETRATION
 TGAS.UNITS  91 830 01 00:   TOTAL GAS FROM HOTWIRE
~PARAMETER INFORMATION
#MNEM.UNIT          VALUE    DESCRIPTION
#----------   ------------   ------------------------------
 EKB .F              5091:   KELLING BUSHING
 EGL .F              5081:   GROUND LEVEL
 DATE.            8-31-91:   RUN DATE
 DD  .F              2284:   DEPTH DRILLER
 BLI .F              2284:   BOTTOM LOG INTERVAL
 TLI .F              1940:   TOP LOG INTERVAL
 CS  .IN            8.625:   CASING SIZE
 CBD .F               645:   CASING BOTTOM DRILLER
 TCS .HRS            1500:   TIME CURCULATED STOPPED
 TLAB.HRS            0515:   TIME LOGGER AT BOTTOM
 ENGI.              TOWER:   RECORDING ENGINEER
 WITN.               HUSK:   WITNESSED BY
 CLNT.            A2DTECH:   CLIENT CODE
 ORIG.         2.5" PRINT:   ORIGIN OF DATA
 UWI .       490251105200:   UNIQUE WELL ID
 DICO. A2D Technologies, Inc.:   DIGITIZING COMPANY
~OTHER INFORMATION
~A  DEPT         ROP      TGAS  
 1939.0000     1.0190    29.3620
 1939.5000     1.0413    29.3926
 1940.0000     1.0524    29.4243
 1940.5000     1.0517    29.4559
 1941.0000     1.0511    29.4875
 1941.5000     1.0505    29.5192
 1942.0000     1.0498    29.5508
 1942.5000     1.0491    29.5825
 1943.0000     1.0485    29.6141
 1943.5000     1.0217    29.6458
 1944.0000     0.9563    29.6774
 1944.5000     0.8966    29.7091
 1945.0000     0.8960    29.7407
 1945.5000     0.8954    29.7724
 1946.0000     0.8948    29.8040
 1946.5000     0.8940    29.8356
 1947.0000     0.8934    29.8673
 1947.5000     0.8928    29.8989
 1948.0000     0.8921    29.9306
 1948.5000     0.8825    29.9622
 1949.0000     0.8158    29.9939
 1949.5000     0.7403    30.0255
 1950.0000     0.6804    30.0572
 1950.5000     0.6641    30.0888
 1951.0000     0.6634    30.1205
 1951.5000     0.6628    30.1521
 1952.0000     0.6809    30.1838
 1952.5000     0.6991    30.2154
 1953.0000     0.6983    30.2470
 1953.5000     0.6977    30.2787
 1954.0000     0.6783    30.3103
 1954.5000     0.6400    30.3420
 1955.0000     0.5833    30.3736
 1955.5000     0.5075    30.4053
 1956.0000     0.4885    30.4369
 1956.5000     0.5065    30.4686
 1957.0000     0.5432    30.5002
 1957.5000     0.5613    30.5319
 1958.0000     0.5391    30.5635
 1958.5000     0.5154    30.5951
 1959.0000     0.4843    30.6268
 1959.5000     0.4650    30.6584
 1960.0000     0.4444    30.6863
 1960.5000     0.4263    29.1595
 1961.0000     0.4257    26.8375
 1961.5000     0.4249    26.0575
 1962.0000     0.4243    26.9115
 1962.5000     0.4237    27.8165
 1963.0000     0.4230    30.5427
 1963.5000     0.4411    30.5474
 1964.0000     0.4779    30.5878
 1964.5000     0.4960    30.6283
 1965.0000     0.5019    30.6688
 1965.5000     0.5134    30.7093
 1966.0000     0.5127    30.7498
 1966.5000     0.5121    30.7903
 1967.0000     0.4927    30.8308
 1967.5000     0.4828    30.8713
 1968.0000     0.4164    30.9118
 1968.5000     0.3971    30.9523
 1969.0000     0.3777    30.9928
 1969.5000     0.3846    31.0332
 1970.0000     0.4137    31.0737
 1970.5000     0.4319    31.1142
 1971.0000     0.4517    31.1547
 1971.5000     0.4869    31.1952
 1972.0000     0.4861    31.2357
 1972.5000     0.4854    31.2762
 1973.0000     0.4848    31.3167
 1973.5000     0.4842    31.3572
 1974.0000     0.4835    31.3977
 1974.5000     0.4828    31.4381
 1975.0000     0.4822    31.4786
 1975.5000     0.4816    30.7347
 1976.0000     0.4809    29.9342
 1976.5000     0.4801    27.6532
 1977.0000     0.4983    26.8709
 1977.5000     0.5362    25.3260
 1978.0000     0.5639    24.5459
 1978.5000     0.6183    23.6620
 1979.0000     0.6268    21.9518
 1979.5000     0.6636    20.6810
 1980.0000     0.6817    20.6582
 1980.5000     0.6890    20.6354
 1981.0000     0.6991    20.6127
 1981.5000     0.6984    20.5899
 1982.0000     0.6978    20.5671
 1982.5000     0.6971    20.5443
 1983.0000     0.6963    20.5215
 1983.5000     0.6957    20.4987
 1984.0000     0.6946    20.4760
 1984.5000     0.6757    20.4532
 1985.0000     0.6564    20.4304
 1985.5000     0.6556    20.4076
 1986.0000     0.6550    20.3848
 1986.5000     0.6544    20.3620
 1987.0000     0.6612    20.3392
 1987.5000     0.6905    20.3165
 1988.0000     0.6898    20.2937
 1988.5000     0.7080    20.2709
 1989.0000     0.7073    20.2481
 1989.5000     0.7167    20.2253
 1990.0000     0.7621    20.2025
 1990.5000     0.7615    20.1797
 1991.0000     0.7797    20.1570
 1991.5000     0.7789    20.1342
 1992.0000     0.7782    20.1114
 1992.5000     0.7589    20.0886
 1993.0000     0.7582    20.0658
 1993.5000     0.7507    20.0430
 1994.0000     0.7006    20.0203
 1994.5000     0.6813    19.9975
 1995.0000     0.6414    19.9747
 1995.5000     0.5999    19.9519
 1996.0000     0.5670    19.9291
 1996.5000     0.5476    19.9063
 1997.0000     0.5470    19.8835
 1997.5000     0.5463    19.8608
 1998.0000     0.5536    19.8380
 1998.5000     0.5638    19.8152
 1999.0000     0.5818    19.7924
 1999.5000     0.5999    19.7696
 2000.0000     0.6181    19.7468
 2000.5000     0.6284    19.6620
 2001.0000     0.6437    19.5264
 2001.5000     0.6589    19.3907
 2002.0000     0.6741    19.2551
 2002.5000     0.6893    19.1195
 2003.0000     0.7045    18.9838
 2003.5000     0.7197    18.8482
 2004.0000     0.7350    18.7126
 2004.5000     0.7502    18.5770
 2005.0000     0.7612    18.4413
 2005.5000     0.7605    18.3057
 2006.0000     0.7793    18.1701
 2006.5000     0.7968    18.0299
 2007.0000     0.7961    19.6484
 2007.5000     0.7766    21.3229
 2008.0000     0.7573    24.0580
 2008.5000     0.6975    24.0501
 2009.0000     0.6365    24.0472
 2009.5000     0.5680    24.0444
 2010.0000     0.5486    24.0415
 2010.5000     0.5480    24.0386
 2011.0000     0.5474    24.0357
 2011.5000     0.5562    24.0328
 2012.0000     0.5648    24.0299
 2012.5000     0.5641    24.0271
 2013.0000     0.6044    24.0242
 2013.5000     0.6454    24.0213
 2014.0000     0.7119    24.0184
 2014.5000     0.7488    24.0155
 2015.0000     0.7856    24.0126
 2015.5000     0.7849    24.0097
 2016.0000     0.7743    24.0069
 2016.5000     0.7461    24.0040
 2017.0000     0.7080    24.0011
 2017.5000     0.7035    23.9982
 2018.0000     0.6799    23.9953
 2018.5000     0.6498    23.9924
 2019.0000     0.6492    23.9895
 2019.5000     0.6506    23.9867
 2020.0000     0.6729    23.9838
 2020.5000     0.7221    23.9809
 2021.0000     0.7589    23.9780
 2021.5000     0.7959    23.9751
 2022.0000     0.8327    23.9722
 2022.5000     0.8319    23.9694
 2023.0000     0.7937    23.9665
 2023.5000     0.7744    23.9636
 2024.0000     0.7763    23.9607
 2024.5000     0.8173    23.9578
 2025.0000     0.8660    23.9549
 2025.5000     0.8654    23.9520
 2026.0000     0.8461    23.9492
 2026.5000     0.8031    23.9463
 2027.0000     0.7608    23.9434
 2027.5000     0.7317    23.9405
 2028.0000     0.7311    23.9376
 2028.5000     0.7117    23.9347
 2029.0000     0.7182    23.9318
 2029.5000     0.7291    23.9290
 2030.0000     0.7284    23.9261
 2030.5000     0.7664    23.9232
 2031.0000     0.8261    23.9203
 2031.5000     0.8484    23.9174
 2032.0000     0.8569    23.9145
 2032.5000     0.8563    23.9117
 2033.0000     0.8335    23.9088
 2033.5000     0.7911    23.9059
 2034.0000     0.7418    23.9030
 2034.5000     0.7225    23.9001
 2035.0000     0.7032    23.8972
 2035.5000     0.7213    23.8943
 2036.0000     0.7206    23.8915
 2036.5000     0.7761    23.8886
 2037.0000     0.8316    23.8857
 2037.5000     0.8536    23.8828
 2038.0000     0.8679    23.8799
 2038.5000     0.8670    23.8770
 2039.0000     0.8664    23.8741
 2039.5000     0.8638    22.4034
 2040.0000     0.8464    20.1350
 2040.5000     0.8269    17.8667
 2041.0000     0.8076    15.5984
 2041.5000     0.7883    13.3300
 2042.0000     0.7645    11.6390
 2042.5000     0.7222    11.6378
 2043.0000     0.6552    11.6366
 2043.5000     0.6171    11.6355
 2044.0000     0.5765    11.6343
 2044.5000     0.5342    11.6331
 2045.0000     0.5214    11.6319
 2045.5000     0.5208    11.6307
 2046.0000     0.5202    11.6295
 2046.5000     0.5244    11.6283
 2047.0000     0.5467    11.6272
 2047.5000     0.5932    11.6260
 2048.0000     0.6674    11.6248
 2048.5000     0.6855    11.6236
 2049.0000     0.6661    11.6224
 2049.5000     0.6653    11.6212
 2050.0000     0.6460    11.6200
 2050.5000     0.6080    11.6189
 2051.0000     0.5886    11.6177
 2051.5000     0.5879    11.6165
 2052.0000     0.5872    11.6153
 2052.5000     0.5866    11.6141
 2053.0000     0.5860    11.6129
 2053.5000     0.6041    11.6117
 2054.0000     0.6220    11.6106
 2054.5000     0.6401    11.6094
 2055.0000     0.6395    11.6082
 2055.5000     0.6273    11.6070
 2056.0000     0.5820    11.6058
 2056.5000     0.5438    11.6046
 2057.0000     0.5620    11.6034
 2057.5000     0.5801    11.6023
 2058.0000     0.6062    11.6011
 2058.5000     0.6536    11.5999
 2059.0000     0.6530    11.5987
 2059.5000     0.6523    11.5975
 2060.0000     0.6517    11.5963
