~VERSION INFORMATION
 VERS.                2.0:   CWLS LOG ASCII STANDARD - VERSION 2.0
 WRAP.                 NO:   ONE LINE PER DEPTH STEP
~WELL INFORMATION
#MNEM.UNIT      DATA TYPE    INFORMATION
#----------   ------------   ------------------------------
 STRT.F            0.0000:   START DEPTH
 STOP.F          516.0000:   STOP DEPTH
 STEP.F            0.5000:   STEP LENGTH
 NULL.          -999.2500:   NO VALUE
 COMP.       F D SERV INC:   COMPANY
 WELL. NAVAL PETROLEUM RESERVE 3 SX-3 #77-2-3:   WELL
 FLD .             TEAPOT:   FIELD
 LOC .       S3 T38N R78W:   LOCATION
 CNTY.            NATRONA:   COUNTY
 STAT.            WYOMING:   STATE
 CTRY. UNITED STATES OF AMERICA:   COUNTRY
 SRVC.      Western Atlas:   SERVICE COMPANY
 DATE.        22-OCT-1992:   LOGDATE
 API .       490252255600:   API NUMBER
~CURVE INFORMATION
#MNEM.UNIT       API CODE    CURVE DESCRIPTION
#----------   ------------   ------------------------------
 DEPT.F                  :   
 GRR .GAPI   06 310 01 00:   GAMMA RAY FROM RESISTIVITY
 RILD.OHMM   06 120 46 00:   DEEP INDUCTION RESISTIVITY
 RILM.OHMM   06 120 44 00:   INDUCTION LOG MEDIUM RESISTIVITY
~PARAMETER INFORMATION
#MNEM.UNIT          VALUE    DESCRIPTION
#----------   ------------   ------------------------------
 PD  .                 GL:   PERMANENT DATUM
 EPD .F              5139:   ELEVATION PERMANENT DATUM
 LMF .                 KB:   LOG MEASURED FROM
 DAPD.F                10:   FEET ABOVE PERMANENT DATUM
 DMF .                 KB:   DRILLING MEASURED FROM
 EKB .F              5149:   KELLING BUSHING
 EDF .F              5148:   DRILLING FLOOR
 EGL .F              5139:   GROUND LEVEL
 DATE.        22-DEC-1992:   RUN DATE
 RUN .                  1:   RUN NUMBER
 DD  .F               525:   DEPTH DRILLER
 DL  .F               524:   DEPTH LOGGER
 CS  .IN            8.625:   CASING SIZE
 CBL .F                98:   CASING BOTTOM LOGGER
 BS  .IN            9.875:   BIT SIZE
 BSD .F               525:   BIT SIZE AT DEPTH
 DFT .           AIR FOAM:   DRILLING FLUID TYPE
 TCS .HRS               2:   TIME CURCULATED STOPPED
 LUN .            HL-6274:   LOGGING UNIT NUMBER
 LUL .             CASPER:   LOGGING UNIT LOCATION
 ENGI.             RASTIC:   RECORDING ENGINEER
 WITN.        GARY STRONG:   WITNESSED BY
 CLNT.            A2DTECH:   CLIENT CODE
 ORIG.           5" PRINT:   ORIGIN OF DATA
 UWI .       490252255600:   UNIQUE WELL ID
 DICO. A2D Technologies, Inc.:   DIGITIZING COMPANY
~OTHER INFORMATION
~A    DEPT      GRR      RILD       RILM   
# ...
  182.0000   127.4107     7.0955     6.9556
  182.5000   130.4198     6.7676     6.6736
  183.0000   128.6312     6.4501     6.1857
  183.5000   125.9410     6.0630     5.5771
  184.0000   123.8505     5.6070     5.0983
  184.5000   118.1229     5.4318     5.0957
  185.0000   116.3712     5.4722     5.3149
  185.5000   117.2813     5.5123     5.5402
  186.0000   120.8880     5.5585     5.8554
  186.5000   123.9160     5.7114     6.2315
  187.0000   126.0044     5.9972     6.6319
  187.5000   127.5121     6.5190     6.9610
  188.0000   129.6195     6.8934     7.3064
  188.5000   131.4852     7.2384     7.5116
  189.0000   131.7354     7.5482     7.5643
  189.5000   128.7475     7.7631     7.6701
  190.0000   127.5565     7.9298     7.7238
  190.5000   126.0290     7.9880     7.8317
  191.0000   123.0778     8.0466     7.9414
  191.5000   122.4844     8.1621     8.0524
  192.0000   126.3930     8.3366     8.1088
  192.5000   127.3031     8.3986     8.1655
  193.0000   127.3116     8.4602     8.2228
  193.5000   128.5195     8.5223     8.2803
  194.0000   128.5279     8.6450     8.4543
  194.5000   127.6389     8.7084     8.5135
  195.0000   127.9472     8.7723     8.6327
  195.5000   129.1551     8.8980     8.6931
  196.0000   125.8652     8.9642     8.7539
  196.5000   122.8772     8.9058     8.7545
  197.0000   121.9840     8.8470     8.7552
  197.5000   124.0936     8.9747     8.8776
  198.0000   125.6013     9.0405     8.8782
  198.5000   123.5129     8.9511     8.8788
  199.0000   122.9195     8.8920     8.8183
  199.5000   125.0290     8.8340     8.7580
  200.0000   129.5367     8.8376     8.8197
  200.5000   131.9439     8.8405     8.7015
  201.0000   131.6526     8.6609     8.5775
  201.5000   129.2304     8.5405     8.4115
  202.0000   125.9745     8.3713     8.2988
  202.5000   121.7851     8.2584     8.1318
  203.0000   121.1918     8.1470     7.9102
  203.5000   123.6132     7.9795     7.7002
  204.0000   128.4094     7.6056     7.4412
  204.5000   132.3159     7.2467     7.0921
  205.0000   134.1235     6.5769     6.8063
  205.5000   134.1320     5.8437     5.9714
  206.0000   128.1456     4.9841     5.1310
  206.5000   126.3529     4.4300     4.2007
  207.0000   126.9632     3.9376     3.6095
  207.5000   126.9716     3.6489     3.5123
  208.0000   125.1832     3.4529     3.3247
  208.5000   122.7928     3.3361     3.1688
  209.0000   117.1042     3.2232     3.0202
  209.5000   114.7139     3.1577     2.9797
  210.0000   119.9998     3.3396     3.1942
  210.5000   131.5246     3.6314     3.5197
  211.0000   136.6305     3.9485     4.0148
  211.5000   134.2402     4.1757     4.6755
  212.0000   132.4496     4.6365     5.0120
  212.5000   136.0584     5.1477     5.2985
  213.0000   138.4657     5.5974     5.6403
  213.5000   138.7740     6.0442     6.0042
  214.0000   138.1509     6.3542     6.2219
  214.5000   135.4948     6.5748     6.3941
  215.0000   133.7041     6.7155     6.5302
  215.5000   132.5132     6.6712     6.5776
  216.0000   132.2219     6.5303     6.5797
  216.5000   131.0331     6.2713     6.4025
  217.0000   130.1399     6.0590     6.0606
  217.5000   131.0508     5.8540     5.7764
  218.0000   135.5570     5.6131     5.3925
  218.5000   143.0617     5.3894     4.9999
  219.0000   148.1679     5.2071     4.8317
  219.5000   147.5786     5.0659     4.7665
  220.0000   145.1883     4.9630     4.7356
  220.5000   142.7979     4.9650     4.7701
  221.0000   137.8889     5.0013     4.8384
  221.5000   133.2218     5.1440     5.0101
  222.0000   134.7296     5.4038     5.2966
  222.5000   136.8370     5.7135     5.6793
  223.0000   137.4573     6.0422     5.9611
  223.5000   139.5547     6.4344     6.0879
  224.0000   143.4613     6.8534     6.6164
  224.5000   141.6707     7.2974     7.0432
  225.0000   137.7811     7.6107     7.4981
  225.5000   137.7917     7.8279     7.8181
  226.0000   138.3999     7.9954     7.9294
  226.5000   139.6078     8.1107     7.9320
  227.0000   140.5158     7.9459     7.9206
  227.5000   139.3270     7.8381     7.6149
  228.0000   138.1361     7.7870     7.6708
  228.5000   137.5428     7.6820     7.6205
  229.0000   138.1531     7.4744     7.3131
  229.5000   137.5619     7.3730     7.0680
  230.0000   136.0732     7.1738     7.0210
  230.5000   136.3816     7.0281     6.9749
  231.0000   140.5880     6.8381     6.8820
  231.5000   142.9953     6.6067     6.3810
  232.0000   140.6071     6.2950     5.9569
  232.5000   138.8143     5.8909     5.4469
  233.0000   139.7245     5.3689     4.9806
  233.5000   144.3269     4.9753     4.6152
  234.0000   147.2398     4.7736     4.4319
  234.5000   146.0489     4.8274     4.4025
  235.0000   143.9585     4.8778     4.5277
  235.5000   144.5787     4.9822     4.8198
  236.0000   142.1784     5.1244     5.3483
  236.5000   138.8886     5.4644     5.8125
  237.0000   136.4983     5.9341     6.3171
  237.5000   135.3074     6.6344     6.7712
  238.0000   138.0166     7.2139     7.0259
  238.5000   144.0221     7.4751     7.3113
  239.0000   147.3289     7.6853     7.4668
  239.5000   147.0376     7.7414     7.5211
  240.0000   143.7477     7.7439     7.5757
  240.5000   142.5589     7.8573     7.6313
  241.0000   139.2690     8.0237     7.7937
  241.5000   139.2533     8.0823     7.8503
  242.0000   140.1877     8.1414     7.8529
  242.5000   138.9968     8.1441     7.9106
  243.0000   137.8037     8.1474     7.9680
  243.5000   139.6134     8.1501     7.9706
  244.0000   143.8561     8.0956     7.7559
  244.5000   145.0298     8.0428     7.7585
  245.0000   147.1373     8.0461     7.7616
  245.5000   148.0453     7.9923     7.7100
  246.0000   147.4303     7.9956     7.6594
  246.5000   143.2668     7.9428     7.6626
  247.0000   140.2747     7.9461     7.7188
  247.5000   142.0844     7.9487     7.7749
  248.0000   146.9145     7.8956     7.7774
  248.5000   149.8996     7.8441     7.7800
  249.0000   150.5056     7.7383     7.6763
  249.5000   147.2179     7.4770     7.4695
  250.0000   141.8296     7.0749     7.3181
  250.5000   142.7347     6.6944     6.5990
  251.0000   144.2410     6.2042     6.0747
  251.5000   143.9467     5.9114     5.5536
  252.0000   144.2521     5.7913     5.2921
  252.5000   148.9055     5.6669     5.3296
  253.0000   153.8599     5.5908     5.5177
  253.5000   155.0649     5.5540     5.7520
  254.0000   155.3704     5.5175     5.9996
  254.5000   154.7777     5.4064     6.1228
  255.0000   151.4849     5.3704     6.0814
  255.5000   150.2897     5.2622     5.9164
  256.0000   153.3273     5.1920     5.2892
  256.5000   153.9019     5.1936     4.9793
  257.0000   151.8085     5.2314     4.9114
  257.5000   151.5142     5.2695     4.9806
  258.0000   151.5213     5.2716     5.3748
  258.5000   151.8253     5.3099     5.7600
  259.0000   149.1337     5.3856     6.0882
  259.5000   146.9725     5.5104     6.4350
  260.0000   143.7490     5.8969     6.7085
  260.5000   142.2539     6.2779     6.9933
  261.0000   141.3614     6.6834     7.2401
  261.5000   137.4703     7.0667     7.3418
  262.0000   135.9766     7.2173     7.3939
  262.5000   134.7829     7.1698     7.3439
  263.0000   134.7886     7.0736     7.1942
  263.5000   135.3951     6.7887     6.9498
  264.0000   138.6991     6.3368     6.5328
  264.5000   142.6027     5.8743     6.0138
  265.0000   147.4073     5.5559     5.2746
  265.5000   150.4114     5.4473     5.0262
  266.0000   153.4155     5.3375     5.0970
  266.5000   155.5582     5.3024     5.3502
  267.0000   156.1268     5.3414     5.7735
  267.5000   156.1324     5.6083     6.2821
  268.0000   154.9386     6.0121     6.7233
  268.5000   150.4478     6.5348     7.0574
  269.0000   145.6558     7.1034     7.5111
  269.5000   143.5624     7.4584     7.7838
  270.0000   139.9301     7.7771     7.9954
  270.5000   137.8779     8.0019     8.1639
  271.0000   135.1848     8.2258     8.1650
  271.5000   133.0915     8.2856     8.3951
  272.0000   132.1975     8.4038     8.3962
  272.5000   133.1041     8.4656     8.3973
