~VERSION INFORMATION
 VERS.                2.0:   CWLS LOG ASCII STANDARD - VERSION 2.0
 WRAP.                 NO:   ONE LINE PER DEPTH STEP
~WELL INFORMATION
#MNEM.UNIT      DATA TYPE    INFORMATION
#----------   ------------   ------------------------------
 STRT.F           41.0000:   START DEPTH
 STOP.F          468.0000:   STOP DEPTH
 STEP.F            0.1000:   STEP LENGTH
 NULL.          -999.2500:   NO VALUE
 COMP.       F D SERV INC:   COMPANY
 WELL. NAVAL PETROLEUM RESERVE 3 SX-1 #53-1-10:   WELL
 FLD .             TEAPOT:   FIELD
 LOC .      S10 T38N R78W:   LOCATION
 CNTY.            NATRONA:   COUNTY
 STAT.            WYOMING:   STATE
 CTRY. UNITED STATES OF AMERICA:   COUNTRY
 SRVC.     Atlas Wireline:   SERVICE COMPANY
 DATE.        22-DEC-1992:   LOGDATE
 API .       490252256900:   API NUMBER
~CURVE INFORMATION
#MNEM.UNIT       API CODE    CURVE DESCRIPTION
#----------   ------------   ------------------------------
 DEPT.F                  :   
 GRR .GAPI   07 310 01 00:   GAMMA RAY
 RILD.OHMM   07 120 46 00:   INDUCTION LOG DEEP RESISTIVITY
 RILM.OHMM   07 120 44 00:   RESITIVITY LONG MEDIUM
~PARAMETER INFORMATION
#MNEM.UNIT          VALUE    DESCRIPTION
#----------   ------------   ------------------------------
 PD  .                 GL:   PERMANENT DATUM
 EPD .F              5185:   ELEVATION PERMANENT DATUM
 LMF .                 KB:   LOG MEASURED FROM
 DAPD.F                10:   FEET ABOVE PERMANENT DATUM
 DMF .                 KB:   DRILLING MEASURED FROM
 EKB .F              5195:   KELLING BUSHING
 EDF .F              5194:   DRILLING FLOOR
 EGL .F              5185:   GROUND LEVEL
 DATE.        22-DEC-1992:   RUN DATE
 RUN .                  1:   RUN NUMBER
 DD  .F               475:   DEPTH DRILLER
 DL  .F               472:   DEPTH LOGGER
 BLI .F               470:   BOTTOM LOG INTERVAL
 CS  .IN            8.625:   CASING SIZE
 CBL .F                80:   CASING BOTTOM LOGGER
 BS  .IN            7.875:   BIT SIZE
 BSD .F               475:   BIT SIZE AT DEPTH
 DFT .        AIR DRILLED:   DRILLING FLUID TYPE
 LUN .            HL 6321:   LOGGING UNIT NUMBER
 LUL .       RCK, SPRINGS:   LOGGING UNIT LOCATION
 ENGI.      JOHN THOMPSON:   RECORDING ENGINEER
 WITN.          G. STRONG:   WITNESSED BY
 CLNT.            A2DTECH:   CLIENT CODE
 ORIG.           5" PRINT:   ORIGIN OF DATA
 UWI .       490252256900:   UNIQUE WELL ID
 DICO. A2D Technologies, Inc.:   DIGITIZING COMPANY
~OTHER INFORMATION
~A   DEPT      GRR       RILD       RILM   
# ...
  386.8000   129.7430    11.5792    12.5192
  386.9000   129.4055    11.5517    12.5197
  387.0000   128.7940    11.5281    12.4942
  387.1000   128.1137    11.4724    12.4338
  387.2000   127.6097    11.4730    12.4345
  387.3000   126.7347    11.4734    12.3685
  387.4000   126.1225    11.4739    12.2984
  387.5000   125.5303    11.4412    12.2641
  387.6000   125.2315    11.3952    12.2442
  387.7000   125.2358    11.3957    12.1746
  387.8000   125.2402    11.3962    12.0961
  387.9000   125.2442    11.3966    12.0965
  388.0000   125.8061    11.3549    12.0970
  388.1000   126.6904    11.3184    12.0676
  388.2000   127.4566    11.3048    12.0141
  388.3000   127.7347    11.2408    12.0146
  388.4000   128.2962    11.2413    11.9462
  388.5000   128.3000    11.2417    11.9322
  388.6000   128.4707    11.2422    11.8935
  388.7000   128.4988    11.2427    11.8504
  388.8000   128.3127    11.2431    11.8411
  388.9000   128.3169    11.2436    11.7692
  389.0000   128.0190    11.2441    11.7697
  389.1000   127.8216    11.2446    11.7702
  389.2000   127.5766    11.2450    11.7707
  389.3000   127.3315    11.2455    11.7712
  389.4000   127.1254    11.2460    11.7717
  389.5000   127.1305    11.2465    11.7722
  389.6000   127.3697    11.2469    11.7727
  389.7000   127.4418    11.2474    11.7731
  389.8000   127.5738    11.2478    11.7736
  389.9000   127.8273    11.2483    11.7741
  390.0000   128.0808    11.2488    11.7746
  390.1000   128.3684    11.1850    11.7751
  390.2000   128.3721    11.1716    11.7756
  390.3000   128.3764    11.1721    11.7761
  390.4000   128.3806    11.1726    11.7766
  390.5000   128.3848    11.1730    11.7771
  390.6000   128.3891    11.1735    11.7776
  390.7000   128.1432    11.1147    11.7781
  390.8000   128.0945    11.0968    11.7786
  390.9000   127.9562    11.0973    11.7790
  391.0000   127.8000    11.0978    11.7795
  391.1000   127.8042    11.0939    11.7800
  391.2000   127.8088    11.0217    11.7806
  391.3000   127.8127    11.0221    11.7235
  391.4000   127.9939    10.9823    11.6998
  391.5000   128.4940    10.9465    11.7003
  391.6000   129.3851    10.9470    11.6867
  391.7000   130.6198    10.9474    11.6201
  391.8000   131.7740    10.8855    11.6205
  391.9000   132.4116    10.8723    11.6210
  392.0000   133.0061    10.8728    11.5839
  392.1000   133.5089    10.8732    11.5414
  392.2000   133.9616    10.8737    11.5328
  392.3000   134.2188    10.8742    11.4623
  392.4000   134.2230    10.8746    11.4627
  392.5000   134.2273    10.8750    11.4168
  392.6000   133.5408    10.8755    11.3842
  392.7000   132.3828    10.8586    11.3665
  392.8000   131.4205    10.8009    11.3061
  392.9000   130.6083    10.8014    11.3067
  393.0000   130.1596    10.8018    11.2522
  393.1000   129.6653    10.8022    11.2291
  393.2000   129.2897    10.7767    11.2296
  393.3000   129.0446    10.7281    11.2300
  393.4000   128.7996    10.7286    11.2305
  393.5000   128.5128    10.6682    11.2310
  393.6000   128.5164    10.6550    11.2315
  393.7000   128.6738    10.6212    11.2319
  393.8000   128.8279    10.5819    11.2324
  393.9000   129.4256    10.5743    11.2329
  394.0000   132.7759    10.5094    11.2334
  394.1000   136.6395    10.5098    11.2338
  394.2000   139.3203    10.5102    11.1891
  394.3000   141.4342    10.5106    11.1568
  394.4000   143.2727    10.5111    11.1573
  394.5000   144.7731    10.5115    11.1577
  394.6000   146.4380    10.5120    11.1583
  394.7000   147.1073    10.4616    11.1587
  394.8000   147.5232    10.4398    11.1189
  394.9000   147.6624    10.4154    11.0822
  395.0000   147.6667    10.3562    11.0698
  395.1000   147.6502    10.2967    11.0062
  395.2000   146.7669    10.2971    10.9446
  395.3000   146.1631    10.2520    10.9308
  395.4000   144.9734    10.1938    10.8963
  395.5000   143.3869    10.1359    10.8345
  395.6000   141.5224    10.0858    10.7730
  395.7000   138.9087    10.0863    10.7067
  395.8000   137.4921    10.0339    10.5955
  395.9000   136.0004     9.9769    10.5172
  396.0000   134.7676     9.9479    10.4286
  396.1000   133.7748     9.9329    10.3261
  396.2000   132.8473     9.8765    10.2674
  396.3000   132.5708     9.8116    10.2000
  396.4000   132.3572     9.7647    10.1513
  396.5000   132.2758     9.7442    10.1300
  396.6000   132.1701     9.7216    10.1304
  396.7000   132.0936     9.6664    10.1309
  396.8000   132.6014     9.6106    10.1313
  396.9000   133.6026     9.5569    10.0748
  397.0000   134.6040     9.5027    10.0618
  397.1000   135.7497     9.4487    10.0623
  397.2000   137.0909     9.3950    10.0627
  397.3000   138.5542     9.3417    10.0631
  397.4000   139.8900     9.2839    10.0636
  397.5000   140.1262     9.2359    10.0639
  397.6000   140.5584     9.1835    10.0644
  397.7000   140.9364     9.1566    10.0648
  397.8000   141.1188     9.1429    10.0498
  397.9000   141.1404     9.0910     9.9958
  398.0000   141.4309     9.0310     9.9963
  398.1000   141.2216     8.9881     9.9966
  398.2000   141.1358     8.9371     9.9614
  398.3000   141.1400     8.8863     9.9049
  398.4000   141.1443     8.8358     9.8487
  398.5000   141.1485     8.7846     9.7917
  398.6000   140.9055     8.7358     9.6288
  398.7000   140.8539     8.6862     9.5065
  398.8000   140.7184     8.6369     9.3692
  398.9000   140.4733     8.5878     9.2098
  399.0000   140.2601     8.5332     9.0592
  399.1000   140.2652     8.4271     8.9467
  399.2000   140.0412     8.3404     8.7636
  399.3000   139.9703     8.2456     8.5992
  399.4000   139.9745     8.1519     8.4529
  399.5000   139.9788     8.0592     8.2967
  399.6000   139.9959     7.9653     8.1086
  399.7000   140.2910     7.8074     7.8950
  399.8000   141.3370     7.6968     7.7464
  399.9000   143.3616     7.5926     7.5448
  400.0000   145.8586     7.3620     7.3649
  400.1000   148.1192     7.1105     7.1590
  400.2000   149.4025     6.9756     6.9586
  400.3000   150.8636     6.8067     6.7848
  400.4000   152.3635     6.5628     6.6449
  400.5000   153.7283     6.3238     6.5325
  400.6000   154.8974     6.1014     6.4115
  400.7000   155.8152     5.9292     6.2817
  400.8000   156.0950     5.7957     6.1171
  400.9000   156.5456     5.6704     5.9455
  401.0000   156.8788     5.6335     5.8022
  401.1000   157.2483     5.6071     5.7376
  401.2000   157.7512     5.5562     5.6992
  401.3000   158.2539     5.5060     5.6736
  401.4000   158.8481     5.4806     5.6418
  401.5000   159.2596     5.4813     5.6220
  401.6000   159.7625     5.4519     5.6178
  401.7000   160.4287     5.4443     5.5841
  401.8000   160.7263     5.4448     5.5552
  401.9000   161.2410     5.4360     5.5464
  402.0000   161.4848     5.4080     5.5315
  402.1000   161.9248     5.4087     5.5090
  402.2000   162.5607     5.4091     5.5095
  402.3000   163.4742     5.3899     5.5102
  402.4000   164.7231     5.3856     5.5106
  402.5000   166.0986     5.4107     5.5304
  402.6000   167.4456     5.4112     5.5626
  402.7000   168.9442     5.4118     5.5950
  402.8000   170.7940     5.4360     5.6291
  402.9000   172.5318     5.4507     5.6912
  403.0000   172.7727     5.4512     5.7814
  403.1000   172.7745     5.4517     5.8993
  403.2000   172.9818     5.4523     6.0258
  403.3000   173.0803     5.4528     6.1303
  403.4000   172.9828     5.4742     6.2525
  403.5000   172.5530     5.5061     6.3454
  403.6000   171.2667     5.5309     6.5272
  403.7000   168.6127     5.5320     6.7388
  403.8000   166.6213     5.5962     6.9422
  403.9000   164.0700     5.6355     7.1899
  404.0000   161.1512     5.6869     7.3120
  404.1000   158.5537     5.7645     7.4717
  404.2000   152.4880     5.8646     7.6213
  404.3000   146.6850     5.9756     7.7680
  404.4000   142.2359     6.0703     7.9432
  404.5000   138.9770     6.2007     8.0981
  404.6000   136.0474     6.3796     8.2635
  404.7000   133.3684     6.5925     8.4553
  404.8000   132.1942     6.7810     8.6294
  404.9000   131.3752     6.9212     8.7680
