~VERSION INFORMATION
 VERS.                2.0:   CWLS LOG ASCII STANDARD - VERSION 2.0
 WRAP.                 NO:   ONE LINE PER DEPTH STEP
~WELL INFORMATION
#MNEM.UNIT      DATA TYPE    INFORMATION
#----------   ------------   ------------------------------
 STRT.F           12.0000:   START DEPTH
 STOP.F          754.0000:   STOP DEPTH
 STEP.F            0.5000:   STEP LENGTH
 NULL.          -999.2500:   NO VALUE
 COMP. FENIX & SCISSON INC:   COMPANY
 WELL.    62 SX 34 #62-34:   WELL
 FLD .             TEAPOT:   FIELD
 LOC .      S34 T39N R78W:   LOCATION
 CNTY.            NATRONA:   COUNTY
 STAT.            WYOMING:   STATE
 CTRY. UNITED STATES OF AMERICA:   COUNTRY
 SRVC.            Unknown:   SERVICE COMPANY
 DATE.        20-AUG-1978:   LOGDATE
 API .       490251070200:   API NUMBER
~CURVE INFORMATION
#MNEM.UNIT       API CODE    CURVE DESCRIPTION
#----------   ------------   ------------------------------
 DEPT.F                  :   
 SPR .MV     05 010 01 00:   SPONTANEOUS POTENTIAL FROM RES.
 SN  .OHMM   05 040 16 00:   SHORT NORMAL 16"
 ILD .OHMM   05 120 46 00:   INDUCTION LOG DEEP
 GRD .GAPI   45 310 01 00:   GAMMA RAY FROM DENSITY LOG
 CALD.IN     45 280 60 00:   CALIPER
 RHOB.G/C3   45 350 01 00:   BULK DENSITY
 DPHI.DEC    45 890 12 00:   DENSITY POROSITY SANDSTONE
 CORR.G/C3   45 356 01 00:   DENSITY CORRECTION
~PARAMETER INFORMATION
#MNEM.UNIT          VALUE    DESCRIPTION
#----------   ------------   ------------------------------
 PD  .                 GL:   PERMANENT DATUM
 EPD .F              5039:   ELEVATION PERMANENT DATUM
 LMF .                 KB:   LOG MEASURED FROM
 DAPD.F                 4:   FEET ABOVE PERMANENT DATUM
 DMF .                 KB:   DRILLING MEASURED FROM
 EKB .F              5043:   KELLING BUSHING
 EGL .F              5039:   GROUND LEVEL
 DATE.            8-20-78:   RUN DATE
 RUN .                  1:   RUN NUMBER
 DD  .F               750:   DEPTH DRILLER
 DL  .F               755:   DEPTH LOGGER
 BLI .F               749:   BOTTOM LOG INTERVAL
 TLI .F                30:   TOP LOG INTERVAL
 CS  .IN            8.625:   CASING SIZE
 CBD .F                30:   CASING BOTTOM DRILLER
 CBL .F                34:   CASING BOTTOM LOGGER
 BS  .IN            7.875:   BIT SIZE
 BSD .F               750:   BIT SIZE AT DEPTH
 DFT .            KCL MUD:   DRILLING FLUID TYPE
 DFD .                8.6:   DRILLING FLUID DENSITY
 DFV .                 30:   DRILLING FLUID VISCOSITY
 DFPH.                9.5:   DRILLING FLUID PH
 DFL .               10.4:   DRILLING FLUID LOSS
 MSS .          FLOW LINE:   MUD SAMPLE SOURCE
 RMS .OHMM            .28:   RESISTIVITY MUD SAMPLE
 MST .F                76:   MUD SAMPLE TEMPERATURE
 RMF .OHMM            .24:   RESISTIVITY MUD FILTRATE SAMPLE
 MFST.F                80:   MUD FILTRATE SAMPLE TEMPERATURE
 RMC .OHMM            .34:   RESISTIVITY MUD CAKE
 MCST.F                82:   MUD CAKE SAMPLE TEMPERATURE
 MFSS.               MEAS:   MUD FILTRATE SAMPLE SOURCE
 MCSS.               MEAS:   MUD CAKE SAMPLE SOURCE
 BHT .F                72:   BOTTOM HOLE TEMPERATURE
 TCS .HRS               3:   TIME CURCULATED STOPPED
 MRT .F                72:   MAXIMUM RECORDED TEMPERATURE
 LUN .               2958:   LOGGING UNIT NUMBER
 LUL .               CASP:   LOGGING UNIT LOCATION
 ENGI.           REYNOLDS:   RECORDING ENGINEER
 WITN.              AMEND:   WITNESSED BY
 CLNT.            A2DTECH:   CLIENT CODE
 ORIG.           5" PRINT:   ORIGIN OF DATA
 UWI .       490251070200:   UNIQUE WELL ID
 DICO. A2D Technologies, Inc.:   DIGITIZING COMPANY
~OTHER INFORMATION
~A   DEPT      SPR         SN        ILD         GRD      CALD       RHOB       DPHI       CORR   
# ...
  214.5000   -61.6923     6.1383     6.6275    97.1091     7.5292     2.4631     0.1305     0.0263
  215.0000   -61.7707     6.2024     6.6231    96.8020     7.5521     2.4547     0.1365     0.0255
  215.5000   -61.8491     6.2676     6.6188    95.0184     7.5750     2.4464     0.1425     0.0261
  216.0000   -61.9277     6.3316     6.6144    93.1951     7.5959     2.4380     0.1485     0.0269
  216.5000   -62.0084     6.2980     6.6101    91.3758     7.6265     2.4296     0.1548     0.0277
  217.0000   -62.0174     6.2639     6.6057    89.6743     7.6617     2.4214     0.1573     0.0284
  217.5000   -62.0087     6.2304     6.6014    89.6178     7.6970     2.4163     0.1568     0.0290
  218.0000   -61.9995     6.1970     6.5970    90.0776     7.7323     2.4360     0.1431     0.0273
  218.5000   -61.9904     6.1639     6.5927    90.8271     7.7676     2.4497     0.1411     0.0212
  219.0000   -61.9814     6.1309     6.5884    91.8428     7.8029     2.4451     0.1432     0.0153
  219.5000   -61.9724     6.0981     6.5840    91.7110     7.8382     2.4408     0.1451     0.0116
  220.0000   -61.9634     6.0655     6.5797    91.9487     7.8735     2.4404     0.1438     0.0121
  220.5000   -61.9543     6.0331     6.5754    93.6461     7.9088     2.4469     0.1383     0.0124
  221.0000   -61.9453     6.0008     6.5710    96.3920     7.9441     2.4534     0.1353     0.0128
  221.5000   -61.9363     5.9687     6.5676    96.2777     7.9796     2.4562     0.1341     0.0133
  222.0000   -61.9273     5.9369     6.5577    91.4332     8.0110     2.4574     0.1329     0.0158
  222.5000   -61.9183     5.9369     6.5479    88.0163     8.0385     2.4586     0.1324     0.0221
  223.0000   -61.9093     5.9368     6.5382    84.6191     8.0660     2.4575     0.1335     0.0283
  223.5000   -61.9003     5.9369     6.5286    83.9589     8.0936     2.4552     0.1332     0.0345
  224.0000   -61.8913     5.9369     6.5189    87.5345     8.1167     2.4630     0.1292     0.0395
  224.5000   -61.8822     5.9369     6.5092    91.2903     8.0899     2.4705     0.1268     0.0386
  225.0000   -61.8732     5.9369     6.4995    94.6276     8.0634     2.4594     0.1360     0.0378
  225.5000   -61.8642     5.9369     6.4899    93.7512     8.0372     2.4460     0.1457     0.0398
  226.0000   -61.8552     5.9369     6.4803    92.5305     8.0109     2.4312     0.1515     0.0554
  226.5000   -61.8462     5.9369     6.4707    92.3266     7.9686     2.4488     0.1418     0.0782
  227.0000   -61.8372     5.9369     6.4611    91.9674     7.9104     2.4720     0.1276     0.1015
  227.5000   -61.8282     5.9369     6.4514    91.7891     7.8523     2.4946     0.1135     0.1059
  228.0000   -61.8191     5.9369     6.4494    92.0078     7.7942     2.4961     0.1080     0.0849
  228.5000   -61.8101     5.9369     6.4494    93.1918     7.7368     2.4962     0.1177     0.0596
  229.0000   -61.8011     5.9369     6.4494    93.2549     7.6960     2.4852     0.1273     0.0344
  229.5000   -61.7921     5.9369     6.4494    93.2504     7.7346     2.4695     0.1360     0.0193
  230.0000   -61.7831     5.9368     6.4494    93.2502     7.7836     2.4542     0.1360     0.0195
  230.5000   -61.7741     5.9365     6.4494    93.1383     7.7960     2.4532     0.1352     0.0194
  231.0000   -61.7651     5.9369     6.4494    92.1218     7.7273     2.4535     0.1343     0.0200
  231.5000   -61.7561     5.9905     6.4494    89.9470     7.6979     2.4538     0.1359     0.0218
  232.0000   -61.7470     6.0401     6.4494    87.6869     7.6970     2.4532     0.1396     0.0223
  232.5000   -61.7380     6.0902     6.4495    87.5814     7.7140     2.4490     0.1424     0.0228
  233.0000   -61.7290     6.1030     6.4496    91.1046     7.7360     2.4451     0.1424     0.0233
  233.5000   -61.7200     6.0242     6.4507    93.5473     7.7581     2.4464     0.1406     0.0278
  234.0000   -61.7110     5.9665     6.3969    93.4704     7.7800     2.4491     0.1375     0.0378
  234.5000   -61.7020     5.9094     6.3297    93.2541     7.8021     2.4522     0.1352     0.0479
  235.0000   -61.6930     5.8528     6.2632    93.0443     7.8241     2.4535     0.1380     0.0525
  235.5000   -61.6839     5.7968     6.1974    92.8718     7.8636     2.4509     0.1407     0.0572
  236.0000   -61.6749     5.7412     6.1323    93.5826     7.9071     2.4487     0.1420     0.0657
  236.5000   -61.6659     5.7223     6.0680    94.3428     7.9384     2.4496     0.1317     0.0744
  237.0000   -61.6569     5.7401     6.0472    95.1083     7.9233     2.4683     0.1252     0.0686
  237.5000   -61.6479     5.7523     6.0625    95.8784     7.8869     2.4714     0.1260     0.0605
  238.0000   -61.6389     5.7646     6.0746    93.8809     7.8942     2.4718     0.1293     0.0524
  238.5000   -61.6297     5.7755     6.0867    91.3902     8.1030     2.4696     0.1305     0.0442
  239.0000   -61.6385     5.7753     6.0988    90.4632     8.1286     2.4630     0.1279     0.0403
  239.5000   -61.6594     5.7752     6.1110    90.7770     8.1135     2.4630     0.1310     0.0385
  240.0000   -61.6804     5.7752     6.1231    91.4103     8.0973     2.4593     0.1362     0.0386
  240.5000   -61.7015     5.7752     6.1354    93.3243     8.0816     2.4510     0.1414     0.0410
  241.0000   -61.7225     5.7751     6.1479    95.2034     8.0659     2.4427     0.1465     0.0440
  241.5000   -61.7435     5.7748     6.1611    97.0874     8.0495     2.4353     0.1504     0.0563
  242.0000   -61.7645     5.7748     6.2328    99.0001     8.0226     2.4474     0.1476     0.0619
  242.5000   -61.7851     5.8410     6.3316    98.2667     8.0215     2.4697     0.1444     0.0452
  243.0000   -61.8059     5.8944     6.4590    97.0707     8.0263     2.4584     0.1413     0.0322
  243.5000   -61.8564     5.9485     6.5900    95.8542     8.0310     2.4520     0.1384     0.0280
  244.0000   -62.1182     6.0030     6.6437    92.9684     8.0356     2.4559     0.1352     0.0287
  244.5000   -62.3825     6.0579     6.6706    92.2326     8.0373     2.4558     0.1352     0.0301
  245.0000   -62.6456     6.1135     6.6976    93.4897     8.0334     2.4540     0.1352     0.0316
  245.5000   -62.9107     6.1695     6.7249    94.9556     8.0297     2.4556     0.1352     0.0330
  246.0000   -63.0262     6.2164     6.7531    96.4241     8.0260     2.4647     0.1302     0.0344
  246.5000   -63.0419     6.2164     6.7472    97.8895     8.0222     2.4786     0.1137     0.0334
  247.0000   -63.0557     6.2164     6.7400    99.3592     8.0185     2.4902     0.1089     0.0245
  247.5000   -63.0693     6.2164     6.7327   100.8056     8.0180     2.4770     0.1264     0.0159
  248.0000   -63.0830     6.2164     6.7254   101.3986     8.0180     2.4651     0.1324     0.0146
  248.5000   -63.0968     6.2164     6.7181    99.2853     8.0180     2.4667     0.1272     0.0208
  249.0000   -63.1106     6.2164     6.7108    97.2708     8.0180     2.4693     0.1275     0.0222
  249.5000   -63.1244     6.2164     6.7035    95.2566     8.0180     2.4710     0.1279     0.0229
  250.0000   -63.1382     6.2164     6.6964    94.1790     8.0180     2.4699     0.1284     0.0236
  250.5000   -63.1520     6.2164     6.6911    94.0277     8.0180     2.4689     0.1270     0.0244
  251.0000   -63.1658     6.2164     6.6912    95.1655     8.0180     2.4715     0.1238     0.0251
  251.5000   -63.1795     6.1847     6.6912    96.4285     8.0180     2.4815     0.1127     0.0250
  252.0000   -63.1933     6.3041     6.6912    97.7091     8.0178     2.4994     0.1068     0.0242
  252.5000   -63.2071     6.4259     6.8996    98.8369     8.0168     2.5265     0.0877     0.0235
  253.0000   -63.2209     6.5500     7.2023    99.4521     8.0595     2.5535     0.0698     0.0235
  253.5000   -63.2347     6.7085     7.2879   100.0255     8.1063     2.5676     0.0648     0.0234
  254.0000   -63.2485     6.9277     7.3909    97.5559     8.1524     2.5685     0.0725     0.0264
  254.5000   -63.2622     7.1559     7.5339    91.9656     8.1341     2.5531     0.0836     0.0327
