~VERSION INFORMATION
 VERS.                2.0:   CWLS LOG ASCII STANDARD - VERSION 2.0
 WRAP.                 NO:   ONE LINE PER DEPTH STEP
~WELL INFORMATION
#MNEM.UNIT      DATA TYPE    INFORMATION
#----------   ------------   ------------------------------
 STRT.F            7.0000:   START DEPTH
 STOP.F          549.0000:   STOP DEPTH
 STEP.F            0.5000:   STEP LENGTH
 NULL.          -999.2500:   NO VALUE
 COMP. LAWRENCE-ALLISON &AS:   COMPANY
 WELL. NPR 3 #51-62-SX-10-LP3:   WELL
 FLD .             TEAPOT:   FIELD
 LOC .      S10 T38N R78W:   LOCATION
 CNTY.            NATRONA:   COUNTY
 STAT.            WYOMING:   STATE
 CTRY. UNITED STATES OF AMERICA:   COUNTRY
 SRVC.      Dresser Atlas:   SERVICE COMPANY
 DATE.        10-DEC-1984:   LOGDATE
 API .       490251099500:   API NUMBER
~CURVE INFORMATION
#MNEM.UNIT       API CODE    CURVE DESCRIPTION
#----------   ------------   ------------------------------
 DEPT.F                  :   
 SPR .MV     07 010 01 00:   SPONTANEOUS POTENTIAL
 RILD.OHMM   07 120 46 00:   INDUCTION LOG DEEP RESISTIVITY
 RILM.OHMM   07 120 44 00:   INDUCTION LOG MEDIUM RESISTIVITY
 RFOC.OHMM   07 220 04 00:   RESISTIVITY FOCUSED LOG
 DT  .US/F   60 520 00 00:   INTERVAL TRANSIT TIME
 PORD.DEC    45 890 12 00:   POROSITY DENSITY SANDSTONE
 CNCF.DEC    42 890 03 00:   NEUTRON POROSITY SANDSTONE
 CALD.IN     45 280 60 00:   CALIPER FROM DENSITY LOG
 GRD .GAPI   45 310 01 00:   GAMMA RAY FROM DENSITY LOG
 CORR.G/C3   45 356 01 00:   DENSITY CORRECTION
 DEN .G/C3   45 350 01 00:   COMPENSATED BULK DENSTIY
~PARAMETER INFORMATION
#MNEM.UNIT          VALUE    DESCRIPTION
#----------   ------------   ------------------------------
 PD  .                 GL:   PERMANENT DATUM
 EPD .F              5179:   ELEVATION PERMANENT DATUM
 LMF .                 GL:   LOG MEASURED FROM
 DMF .                 GL:   DRILLING MEASURED FROM
 EGL .F              5179:   GROUND LEVEL
 DATE.        10-DEC-1984:   RUN DATE
 RUN .                  1:   RUN NUMBER
 DD  .F               554:   DEPTH DRILLER
 DL  .F               551:   DEPTH LOGGER
 BLI .F               549:   BOTTOM LOG INTERVAL
 TLI .F                20:   TOP LOG INTERVAL
 CS  .IN            8.625:   CASING SIZE
 CBD .F                20:   CASING BOTTOM DRILLER
 CBL .F                20:   CASING BOTTOM LOGGER
 BS  .IN            7.875:   BIT SIZE
 BSD .F               554:   BIT SIZE AT DEPTH
 DFT .         KCL- WATER:   DRILLING FLUID TYPE
 MSS .           MUD TANK:   MUD SAMPLE SOURCE
 RMS .OHMM           .168:   RESISTIVITY MUD SAMPLE
 MST .F                77:   MUD SAMPLE TEMPERATURE
 RMF .OHMM           .126:   RESISTIVITY MUD FILTRATE SAMPLE
 MFST.F                77:   MUD FILTRATE SAMPLE TEMPERATURE
 RMC .OHMM            .21:   RESISTIVITY MUD CAKE
 MCST.F                77:   MUD CAKE SAMPLE TEMPERATURE
 MFSS.               CALC:   MUD FILTRATE SAMPLE SOURCE
 MCSS.               CALC:   MUD CAKE SAMPLE SOURCE
 RMB .OHMM            .15:   RESISTIVITY MUD AT BHT
 BHT .F                85:   BOTTOM HOLE TEMPERATURE
 TCS .HRS             3.5:   TIME CURCULATED STOPPED
 MRT .F               100:   MAXIMUM RECORDED TEMPERATURE
 LUN .               6270:   LOGGING UNIT NUMBER
 LUL .                 FM:   LOGGING UNIT LOCATION
 ENGI.          E. GOVETT:   RECORDING ENGINEER
 WITN.             GROOMS:   WITNESSED BY
 CLNT.            A2DTECH:   CLIENT CODE
 ORIG.           5" PRINT:   ORIGIN OF DATA
 UWI .       490251099500:   UNIQUE WELL ID
 DICO. A2D Technologies, Inc.:   DIGITIZING COMPANY
~OTHER INFORMATION
~A    DEPT     SPR       RILD       RILM       RFOC         DT       PORD         CNCF     CALD        GRD       CORR        DEN   
# ...
  495.0000   -60.2811     7.0680     6.4550     8.8466    99.5329     0.1059     0.2748     7.6349    97.3670     0.0325     2.5037
  495.5000   -60.1283     6.9247     6.2369     8.7904    99.3765     0.0939     0.2775     7.6336    97.2092     0.0308     2.5257
  496.0000   -60.1239     6.7850     6.0259     8.4373    99.8969     0.0879     0.2851     7.6322    99.4574     0.0307     2.5345
  496.5000   -59.9711     6.6950     5.9029     7.7688   101.0187     0.0954     0.2887     7.6309   102.4575     0.0351     2.5202
  497.0000   -59.8184     6.6508     5.8232     7.0061   102.5165     0.1038     0.2899     7.6296   105.1568     0.0486     2.5064
  497.5000   -59.8140     6.6543     5.8649     6.8185   104.1647     0.1069     0.2909     7.6283   109.8110     0.0620     2.5001
  498.0000   -59.8095     6.7033     5.9069     6.7742   105.2114     0.1129     0.2947     7.6269   111.3073     0.0710     2.4854
  498.5000   -59.6568     6.8470     6.0321     7.5732   105.5076     0.1210     0.2994     7.6256   108.7435     0.0497     2.4741
  499.0000   -59.5040     7.0423     6.2893     8.1207   104.8235     0.1238     0.2991     7.6243   107.5331     0.0405     2.4741
  499.5000   -59.2029     7.2936     6.6489     8.4699   103.2386     0.1226     0.2955     7.6229   107.6760     0.0299     2.4770
  500.0000   -58.8726     7.4999     7.0647     8.5652   102.0493     0.1208     0.2982     7.6216   106.4162     0.0257     2.4793
  500.5000   -58.6002     7.8080     7.2787     8.7635   101.0329     0.1207     0.2991     7.6047   103.3684     0.0188     2.4788
  501.0000   -58.2990     8.0456     7.4852     8.9617   100.2612     0.1205     0.2943     7.6030   100.0361     0.0116     2.4777
  501.5000   -58.1461     8.2746     7.7511     9.4159    99.4896     0.1217     0.2786     7.6012    94.1066     0.0131     2.4686
  502.0000   -58.1417     8.5102     7.9710     9.9571    98.5478     0.1253     0.2666     7.5994    93.3481     0.0190     2.4715
  502.5000   -58.1372     8.6920     8.1406     9.9620    97.7904     0.1232     0.2741     7.5973    95.8934     0.0295     2.4752
  503.0000   -58.1328     8.8776     8.1994    10.0361    97.1833     0.1214     0.2811     7.5655   102.3507     0.0433     2.4782
  503.5000   -58.1283     9.0673     8.2587    10.1107    96.6515     0.1229     0.2835     7.5487   106.1013     0.0521     2.4744
  504.0000   -58.2734     9.1335     8.2610    10.1859    96.4204     0.1268     0.2744     7.5320   106.3954     0.0362     2.4660
  504.5000   -58.4173     9.2002     8.2632    10.1206    96.4914     0.1316     0.2548     7.5302   105.0310     0.0248     2.4592
  505.0000   -58.8568     9.2674     8.3230    10.1255    96.7100     0.1355     0.2524     7.5285   104.1199     0.0172     2.4531
  505.5000   -59.0019     9.2706     8.3253    10.1304    96.8562     0.1352     0.2663     7.5267   102.3065     0.0127     2.4540
  506.0000   -58.4028     9.2739     8.3854    10.1353    96.9997     0.1301     0.2784     7.5400   100.1924     0.0187     2.4685
  506.5000   -57.9533     9.2771     8.3878    10.2107    96.9189     0.1244     0.2757     7.5532   101.2843     0.0277     2.4718
  507.0000   -57.6521     9.2803     8.3322    10.2867    96.9134     0.1265     0.2675     7.5661   104.3068     0.0336     2.4650
  507.5000   -57.6476     9.2835     8.2199    10.3632    96.7574     0.1277     0.2693     7.5948   106.0305     0.0291     2.4649
  508.0000   -57.6432     9.2867     8.0531    10.5859    96.3008     0.1280     0.2778     7.5926   104.2150     0.0245     2.4716
  508.5000   -57.7882     9.2900     7.8897    10.4454    95.8346     0.1198     0.2839     7.5908    99.9956     0.0290     2.4806
  509.0000   -57.7826     9.4884     7.7296    10.2356    95.4530     0.1163     0.2824     7.5891    98.1822     0.0546     2.4844
  509.5000   -57.9277     9.5577     7.6784    10.0288    95.5602     0.1123     0.2739     7.5873    98.1734     0.0651     2.4896
  510.0000   -58.2188     9.5611     7.6275     9.8957    96.5027     0.1048     0.2609     7.5856    98.9164     0.0530     2.4986
  510.5000   -58.2144     9.3676     7.5247     9.8322    97.4746     0.1012     0.2622     7.5838   101.6143     0.0348     2.5106
  511.0000   -58.3594     8.9892     7.4748     9.9065    98.3713     0.1012     0.2746     7.5971   102.9589     0.0378     2.5105
  511.5000   -58.3539     8.8073     7.4253    10.0495    99.0425     0.1018     0.2981     7.5949   103.8523     0.0423     2.5105
  512.0000   -58.3494     8.6290     7.3252    10.0544    99.4128     0.1024     0.2930     7.5932   104.8961     0.0404     2.5082
  512.5000   -58.1966     8.5132     7.3781     9.9210    99.7080     0.1045     0.2875     7.5914   104.1353     0.0294     2.5042
  513.0000   -58.0438     8.4573     7.3802     9.4561   100.0032     0.1120     0.2864     7.5897   100.1441     0.0286     2.4968
  513.5000   -57.8910     8.4011     7.3822     9.2662   100.1481     0.1157     0.2812     7.5879    99.1548     0.0406     2.4854
  514.0000   -57.8865     8.2884     7.3843     9.2056   100.2191     0.1154     0.2752     7.5862   100.7983     0.0481     2.4831
  514.5000   -57.8820     8.2340     7.3354     9.2752   100.3625     0.1145     0.2812     7.5694   107.5564     0.0465     2.4860
  515.0000   -57.8776     8.1799     7.4397     9.4091   100.2818     0.1133     0.2873     7.5500   108.9031     0.0420     2.4882
  515.5000   -57.8731     8.1835     7.5456     9.5450    99.6747     0.1117     0.2888     7.5204   107.8395     0.0359     2.4920
  516.0000   -58.0171     8.1863     7.7061     9.7501    99.0677     0.1120     0.2867     7.5187   103.3193     0.0283     2.4904
  516.5000   -58.0126     8.1892     7.7618     9.8909    98.6767     0.1123     0.2864     7.5169   103.1623     0.0253     2.4911
  517.0000   -57.8598     8.1920     7.8179     9.8957    98.3045     0.1099     0.2906     7.5302   105.2565     0.0358     2.4941
  517.5000   -57.7070     8.2519     7.8744     9.9683    98.2239     0.1063     0.2910     7.5589   106.3025     0.0463     2.5008
  518.0000   -57.7025     8.3121     7.9313     9.9041    98.5178     0.0988     0.2824     7.5567   105.8403     0.0628     2.5098
  518.5000   -57.6981     8.4311     8.0442     9.9092    98.6626     0.1048     0.2792     7.4949   106.7337     0.0665     2.5109
  519.0000   -57.6936     8.5517     8.1586     9.9031    98.6570     0.1136     0.2865     7.4481   118.0444     0.0401     2.4916
  519.5000   -57.9859     8.6741     8.2176     9.8502    98.5011     0.1316     0.2922     7.4459   139.3587     0.0205     2.4649
  520.0000   -58.4277     8.7374     8.2199     9.8552    98.2700     0.1395     0.2946     7.4442   207.9080     0.0174     2.4488
  520.5000   -58.7200     8.8012     8.1654     9.8598    98.1141     0.1440     0.2971     7.4424   225.6435     0.0238     2.4364
  521.0000   -58.4177     8.8043     8.0553     9.8646    97.9581     0.1464     0.3146     7.4407   223.6798     0.0350     2.4341
  521.5000   -57.8197     8.8074     7.9467     9.8693    97.9526     0.1456     0.3004     7.4389   190.1371     0.0549     2.4401
  522.0000   -57.3702     8.8104     7.8396     9.8007    98.0236     0.1328     0.3031     7.4976   166.9704     0.0474     2.4649
  522.5000   -57.2174     8.9365     7.6805     9.6714    98.0932     0.1271     0.3025     7.5555   139.2923     0.0368     2.4754
  523.0000   -57.2129     9.0018     7.5247     9.5474    98.0863     0.1241     0.3007     7.5688   132.9677     0.0277     2.4701
  523.5000   -57.0601     9.0675     7.4232     9.6879    98.0807     0.1256     0.2994     7.5519   127.9965     0.0231     2.4670
  524.0000   -57.0556     9.1973     7.3741     9.8251    98.0752     0.1241     0.2862     7.5498   121.9726     0.0201     2.4700
  524.5000   -57.0512     9.3289     7.3761     9.8991    98.2246     0.1205     0.2790     7.5481   115.3472     0.0170     2.4759
  525.0000   -57.1962     9.3970     7.3781    10.0411    98.4400     0.1193     0.2814     7.5463   109.1729     0.0094     2.4782
