~VERSION INFORMATION
 VERS.                2.0:   CWLS LOG ASCII STANDARD - VERSION 2.0
 WRAP.                 NO:   ONE LINE PER DEPTH STEP
~WELL INFORMATION
#MNEM.UNIT      DATA TYPE    INFORMATION
#----------   ------------   ------------------------------
 STRT.F           25.0000:   START DEPTH
 STOP.F          681.0000:   STOP DEPTH
 STEP.F            0.5000:   STEP LENGTH
 NULL.          -999.2500:   NO VALUE
 COMP. FENIX & SCISSON INC:   COMPANY
 WELL.    56-SX-34 #56-34:   WELL
 FLD .             TEAPOT:   FIELD
 LOC .      S34 T39N R78W:   LOCATION
 CNTY.            NATRONA:   COUNTY
 STAT.            WYOMING:   STATE
 CTRY. UNITED STATES OF AMERICA:   COUNTRY
 SRVC.            Unknown:   SERVICE COMPANY
 DATE.        28-JAN-1979:   LOGDATE
 API .       490251077200:   API NUMBER
~CURVE INFORMATION
#MNEM.UNIT       API CODE    CURVE DESCRIPTION
#----------   ------------   ------------------------------
 DEPT.F                  :   
 SPR .MV     05 010 01 00:   SPONTANEOUS POTENTIAL FROM RES.
 DRHO.G/C3   45 356 01 00:   DENSITY CORRECTION
 RHOB.G/C3   45 350 01 00:   BULK DENSITY
 DPHI.DEC    45 890 12 00:   DENSITY POROSITY SANDSTONE
 CALD.IN     45 280 60 00:   CALIPER
 GRD .GAPI   45 310 01 00:   GAMMA RAY FROM DENSITY LOG
 SN  .OHMM   05 040 16 00:   SHORT NORMAL 16'
 ILD .OHMM   05 120 46 00:   INDUCTION LOG DEEP RESISTIVITY
~PARAMETER INFORMATION
#MNEM.UNIT          VALUE    DESCRIPTION
#----------   ------------   ------------------------------
 PD  .                 GL:   PERMANENT DATUM
 EPD .F              5088:   ELEVATION PERMANENT DATUM
 LMF .                 KB:   LOG MEASURED FROM
 DAPD.F                 4:   FEET ABOVE PERMANENT DATUM
 DMF .                 KB:   DRILLING MEASURED FROM
 EKB .F              5092:   KELLING BUSHING
 EGL .F              5088:   GROUND LEVEL
 DATE.            1-28-79:   RUN DATE
 RUN .                  1:   RUN NUMBER
 DD  .F               680:   DEPTH DRILLER
 DL  .F               681:   DEPTH LOGGER
 BLI .F               679:   BOTTOM LOG INTERVAL
 TLI .F                40:   TOP LOG INTERVAL
 CS  .IN            8.625:   CASING SIZE
 CBD .F                40:   CASING BOTTOM DRILLER
 CBL .F                40:   CASING BOTTOM LOGGER
 BS  .IN            7.875:   BIT SIZE
 BSD .F               680:   BIT SIZE AT DEPTH
 DFT .                KCL:   DRILLING FLUID TYPE
 DFD .                8.9:   DRILLING FLUID DENSITY
 DFV .                 43:   DRILLING FLUID VISCOSITY
 DFPH.                8.5:   DRILLING FLUID PH
 DFL .                9.8:   DRILLING FLUID LOSS
 MSS .           FLOWLINE:   MUD SAMPLE SOURCE
 RMS .OHMM            1.5:   RESISTIVITY MUD SAMPLE
 MST .F                66:   MUD SAMPLE TEMPERATURE
 RMF .OHMM            1.3:   RESISTIVITY MUD FILTRATE SAMPLE
 MFST.F                76:   MUD FILTRATE SAMPLE TEMPERATURE
 RMC .OHMM            1.3:   RESISTIVITY MUD CAKE
 MCST.F                78:   MUD CAKE SAMPLE TEMPERATURE
 MFSS.           MEASURED:   MUD FILTRATE SAMPLE SOURCE
 MCSS.           MEASURED:   MUD CAKE SAMPLE SOURCE
 RMB .OHMM            1.3:   RESISTIVITY MUD AT BHT
 BHT .F                76:   BOTTOM HOLE TEMPERATURE
 TCS .HRS               3:   TIME CURCULATED STOPPED
 MRT .F                76:   MAXIMUM RECORDED TEMPERATURE
 LUN .               3006:   LOGGING UNIT NUMBER
 LUL .             CASPER:   LOGGING UNIT LOCATION
 ENGI.            ROLLINS:   RECORDING ENGINEER
 WITN.              AMEND:   WITNESSED BY
 CLNT.            A2DTECH:   CLIENT CODE
 ORIG.       2", 5" PRINT:   ORIGIN OF DATA
 UWI .       490251077200:   UNIQUE WELL ID
 DICO. A2D Technologies, Inc.:   DIGITIZING COMPANY
~OTHER INFORMATION
~A   DEPT      SPR       DRHO       RHOB       DPHI       CALD         GRD        SN        ILD   
# ...
  470.5000   -45.2475     0.0843     2.4523     0.1293     8.6217   110.3719     4.7623     5.9281
  471.0000   -45.2475     0.0806     2.4653     0.1225     8.2029   111.2048     5.0343     5.9281
  471.5000   -45.2475     0.0808     2.4767     0.1178     8.8851   113.2861     5.5981     5.9281
  472.0000   -45.2475     0.0834     2.4876     0.1132     8.0413   110.7850     6.2251     6.5201
  472.5000   -45.2475     0.0857     2.4951     0.1121     8.0553   107.6151     6.7332     7.1629
  473.0000   -45.2475     0.0858     2.4950     0.1125     8.0434   105.4117     7.1434     7.8962
  473.5000   -45.2475     0.0857     2.4950     0.1127     8.0741   105.9733     7.4643     8.2171
  474.0000   -45.2475     0.0858     2.4949     0.1123     8.0570   105.8337     7.7059     8.5641
  474.5000   -45.2475     0.0819     2.4978     0.1118     8.0709   106.4799     7.8235     8.7416
  475.0000   -45.2475     0.0758     2.5009     0.1120     8.0900   108.4107     7.8889     8.7503
  475.5000   -45.2475     0.0699     2.4979     0.1135     8.1093   109.8688     7.9610     8.7626
  476.0000   -45.2475     0.0700     2.4926     0.1151     8.1285   107.2565     8.0337     8.7749
  476.5000   -45.2475     0.0704     2.4880     0.1164     8.1482   103.6109     8.0435     8.7872
  477.0000   -45.2475     0.0708     2.4880     0.1162     8.1585   104.0453     8.0363     8.7995
  477.5000   -45.2475     0.0712     2.4879     0.1160     8.1660   109.8639     8.0303     8.8118
  478.0000   -45.2475     0.0716     2.4880     0.1134     8.1736   109.8751     8.0244     8.8241
  478.5000   -45.2475     0.0717     2.4940     0.1109     8.1896   111.0582     8.0185     8.8365
  479.0000   -45.2475     0.0705     2.5000     0.1113     8.2056   111.5924     8.0126     8.8489
  479.5000   -45.2475     0.0656     2.5011     0.1156     8.2215   109.7631     8.0067     8.8613
  480.0000   -45.2475     0.0553     2.4810     0.1189     8.2329   108.7281     8.0008     8.8737
  480.5000   -45.2475     0.0537     2.4813     0.1174     8.2327   110.4048     7.9950     8.8862
  481.0000   -45.2475     0.0537     2.4904     0.1118     8.2327   110.3427     7.9891     8.8985
  481.5000   -45.2475     0.0536     2.4993     0.1100     8.2327   108.7494     7.9833     8.9057
  482.0000   -45.2475     0.0511     2.5015     0.1160     8.2327   109.4566     7.9778     8.9459
  482.5000   -45.2475     0.0399     2.4877     0.1153     8.2327   111.3024     7.9707     8.9891
  483.0000   -45.2475     0.0393     2.4894     0.1142     8.2327   111.3552     8.0440     9.2827
  483.5000   -45.2475     0.0387     2.4933     0.1132     8.2327   110.1437     8.1592     9.5675
  484.0000   -45.2475     0.0381     2.4944     0.1162     8.2327   100.0722     8.2760     9.8583
  484.5000   -45.2475     0.0375     2.4910     0.1176     8.2327   100.9552     8.3466     9.5021
  485.0000   -45.2475     0.0368     2.4910     0.1181     8.2326   102.0629     8.3012     9.0794
  485.5000   -45.2475     0.0362     2.4885     0.1268     8.2326   101.9194     8.1649     8.6524
  486.0000   -45.2475     0.0357     2.4668     0.1420     8.2330   100.0322     7.5626     8.1359
  486.5000   -45.2475     0.0446     2.4332     0.1572     8.2407   100.0669     7.0047     7.6502
  487.0000   -45.2472     0.0671     2.3983     0.1680     8.2676   100.1881     6.4880     7.1935
  487.5000   -45.2467     0.0696     2.3863     0.1717     8.2841   100.1672     6.1393     7.0668
  488.0000   -45.2505     0.0475     2.3794     0.1722     8.5851   103.1543     6.0996     7.0812
  488.5000   -45.3617     0.0419     2.3778     0.1293     8.0623   105.3035     6.0949     7.1105
  489.0000   -45.8349     0.0420     2.4666     0.1016     8.0744   106.9872     7.0729     7.1325
  489.5000   -46.2968     0.0423     2.5123     0.1008     8.0750   104.0153     8.0767     7.6197
  490.0000   -46.7577     0.0426     2.5127     0.1008     8.0745    98.4505     9.2555     8.6026
  490.5000   -47.2193     0.0429     2.5110     0.1008     8.0747    99.7641    10.2702     9.7123
  491.0000   -47.6806     0.0432     2.5133     0.1014     8.0928   102.0806    10.8811    10.2442
  491.5000   -48.1409     0.0435     2.5162     0.1029     8.0854    99.2636    11.5365    10.4207
  492.0000   -48.6035     0.0459     2.5131     0.1045     8.0767    97.5466    11.4496    10.4978
  492.5000   -48.7836     0.0497     2.5051     0.1056     8.0555    97.5284    11.2961    10.5777
  493.0000   -48.7389     0.0510     2.5072     0.1039     8.0348    97.5063    11.1466    10.7292
  493.5000   -48.6938     0.0558     2.5117     0.1000     8.0436    97.8065    11.0341    10.8519
  494.0000   -48.6473     0.0599     2.5162     0.1037     8.0535    98.1266    11.5403    11.1143
  494.5000   -48.6008     0.0553     2.5136     0.1125     7.9597    98.3435    12.0358    11.6891
  495.0000   -48.5545     0.0516     2.4952     0.1146     7.8988    99.1674    12.9584    12.4792
  495.5000   -48.5081     0.0562     2.4893     0.1148     7.9108   100.0102    14.4673    13.3226
  496.0000   -48.4618     0.0642     2.4929     0.1169     7.8795   100.8896    16.1520    14.3658
  496.5000   -48.4153     0.0724     2.4831     0.1784     7.8140   100.8869    18.0328    16.0120
  497.0000   -48.3596     0.0866     2.3540     0.1937     7.7972   100.3652    19.7323    17.8470
  497.5000   -48.3038     0.0720     2.3175     0.2065     7.8155   100.4590    21.3117    19.6465
  498.0000   -48.2482     0.0697     2.3144     0.2131     7.8442    81.5171    23.0823    22.2467
  498.5000   -48.1922     0.0698     2.2818     0.2228     7.8775    60.1342    22.8814    22.1106
  499.0000   -48.1367     0.0659     2.2858     0.2184     7.9108    45.9079    22.5426    21.7371
  499.5000   -48.0844     0.0611     2.2961     0.2184     7.9441    62.3346    22.2052    21.3685
  500.0000   -48.0298     0.0576     2.2935     0.2180     7.9775    66.2935    21.8696    21.0435
  500.5000   -48.5857     0.0578     2.2978     0.2147     8.0106    67.9955    21.6355    20.8498
  501.0000   -49.6584     0.0662     2.2999     0.2165     8.0148    67.1661    21.7445    20.8402
  501.5000   -50.5650     0.0834     2.2975     0.2175     8.0147    62.2647    22.2974    21.0367
  502.0000   -50.7922     0.0842     2.3561     0.1910     7.9987    58.0908    23.3852    21.1581
  502.5000   -50.8125     0.0847     2.4390     0.1540     7.9597    58.4998    24.5261    21.4363
  503.0000   -50.8299     0.0852     2.4510     0.1377     7.9210    59.9271    26.0308    21.9516
  503.5000   -50.8490     0.0839     2.4192     0.1407     7.8830    60.6599    25.9758    22.4792
  504.0000   -50.8680     0.0643     2.3425     0.1433     7.8703    62.2192    25.9027    23.0195
  504.5000   -50.8869     0.0514     2.4528     0.1273     7.9208    61.8566    25.8297    23.4602
  505.0000   -50.9058     0.0388     2.4524     0.1377     7.9690    58.0145    25.7912    23.7934
  505.5000   -50.9249     0.0297     2.4446     0.1440     7.9935    54.1212    25.9914    24.1313
  506.0000   -50.9438     0.0296     2.4390     0.1497     7.9907    53.6949    26.2270    24.3992
  506.5000   -50.9617     0.0298     2.4184     0.1529     7.9880    56.4538    26.4648    24.9446
  507.0000   -50.9804     0.0358     2.4139     0.1560     7.9852    59.6019    26.7047    25.3451
  507.5000   -50.8537     0.0422     2.4079     0.1594     7.9823    62.3642    26.9468    25.7520
  508.0000   -50.6144     0.0486     2.3953     0.1708     7.9795    62.1251    27.0565    26.0308
  508.5000   -50.3933     0.0549     2.3827     0.1830     7.9767    61.0798    27.1176    26.0308
  509.0000   -50.2743     0.0560     2.3514     0.1972     7.9815    60.0469    27.1788    26.0308
  509.5000   -50.1626     0.0564     2.3115     0.2166     7.9934    59.2733    27.2556    26.0308
  510.0000   -50.0511     0.0568     2.2717     0.2360     8.0053    59.6213    27.0034    26.2952
  510.5000   -49.9394     0.0572     2.2545     0.2394     8.0172    59.6207    26.3739    26.5507
