~VERSION INFORMATION
 VERS.                2.0:   CWLS LOG ASCII STANDARD - VERSION 2.0
 WRAP.                 NO:   ONE LINE PER DEPTH STEP
~WELL INFORMATION
#MNEM.UNIT      DATA TYPE    INFORMATION
#----------   ------------   ------------------------------
 STRT.F            0.0000:   START DEPTH
 STOP.F          545.0000:   STOP DEPTH
 STEP.F            0.1000:   STEP LENGTH
 NULL.          -999.2500:   NO VALUE
 COMP.       F D SERV INC:   COMPANY
 WELL. NAVAL PETROLEUM RESERVE 3 SX-3 #88-5-3:   WELL
 FLD .             TEAPOT:   FIELD
 LOC .       S3 T38N R78W:   LOCATION
 CNTY.            NATRONA:   COUNTY
 STAT.            WYOMING:   STATE
 CTRY. UNITED STATES OF AMERICA:   COUNTRY
 SRVC.     Atlas Wireline:   SERVICE COMPANY
 DATE.        14-OCT-1992:   LOGDATE
 API .       490252255700:   API NUMBER
~CURVE INFORMATION
#MNEM.UNIT       API CODE    CURVE DESCRIPTION
#----------   ------------   ------------------------------
 DEPT.F                  :   
 GRR .GAPI   07 310 01 00:   GAMMA RAY
 RILD.OHMM   07 120 46 00:   INDUCTION LOG DEEP RESISTIVITY
 RILM.OHMM   07 120 44 00:   INDUCTION LOG MEDIUM RESISTIVITY
~PARAMETER INFORMATION
#MNEM.UNIT          VALUE    DESCRIPTION
#----------   ------------   ------------------------------
 PD  .                 GL:   PERMANENT DATUM
 EPD .F              5152:   ELEVATION PERMANENT DATUM
 LMF .                 KB:   LOG MEASURED FROM
 DAPD.F                10:   FEET ABOVE PERMANENT DATUM
 DMF .                 KB:   DRILLING MEASURED FROM
 EKB .F              5162:   KELLING BUSHING
 EDF .F              5161:   DRILLING FLOOR
 EGL .F              5152:   GROUND LEVEL
 DATE.        14-OCT-1992:   RUN DATE
 RUN .                  1:   RUN NUMBER
 DD  .F               555:   DEPTH DRILLER
 DL  .F               552:   DEPTH LOGGER
 BLI .F               546:   BOTTOM LOG INTERVAL
 CS  .IN            8.625:   CASING SIZE
 CBD .F                85:   CASING BOTTOM DRILLER
 CBL .F                96:   CASING BOTTOM LOGGER
 BS  .IN            7.875:   BIT SIZE
 BSD .F               555:   BIT SIZE AT DEPTH
 DFT .           AIR FOAM:   DRILLING FLUID TYPE
 BHT .F                72:   BOTTOM HOLE TEMPERATURE
 TCS .HRS               2:   TIME CURCULATED STOPPED
 MRT .F                72:   MAXIMUM RECORDED TEMPERATURE
 LUN .            HL-6274:   LOGGING UNIT NUMBER
 LUL .             CASPER:   LOGGING UNIT LOCATION
 ENGI.             RAUTIO:   RECORDING ENGINEER
 WITN.        GARY STRONG:   WITNESSED BY
 CLNT.            A2DTECH:   CLIENT CODE
 ORIG.           5" PRINT:   ORIGIN OF DATA
 UWI .       490252255700:   UNIQUE WELL ID
 DICO. A2D Technologies, Inc.:   DIGITIZING COMPANY
~OTHER INFORMATION
~A    DEPT      GRR      RILD       RILM   
# ...
  236.6000   139.9706     8.5407     8.8698
  236.7000   138.3001     8.5404     8.7950
  236.8000   137.0162     8.5402     8.7479
  236.9000   135.7885     8.5399     8.7302
  237.0000   134.7288     8.5397     8.6875
  237.1000   133.4300     8.5395     8.6875
  237.2000   132.1184     8.5392     8.6388
  237.3000   131.2106     8.5390     8.6276
  237.4000   130.7063     8.5388     8.6276
  237.5000   130.4053     8.5385     8.6276
  237.6000   130.4048     8.5383     8.6276
  237.7000   130.5560     8.5381     8.6276
  237.8000   130.7039     8.5378     8.6276
  237.9000   130.7566     8.5376     8.6276
  238.0000   131.0070     8.5373     8.6276
  238.1000   131.3026     8.5371     8.6276
  238.2000   131.3021     8.5369     8.6276
  238.3000   131.6146     8.5047     8.6244
  238.4000   131.9015     8.4775     8.5681
  238.5000   132.0170     8.4773     8.5681
  238.6000   132.5097     8.4736     8.5342
  238.7000   132.8005     8.4183     8.5090
  238.8000   133.0106     8.4181     8.5090
  238.9000   133.2610     8.4179     8.5090
  239.0000   133.5115     8.4177     8.5090
  239.1000   133.7620     8.4174     8.5090
  239.2000   134.0260     8.4172     8.5090
  239.3000   134.5987     8.4170     8.4824
  239.4000   135.4599     8.4167     8.4504
  239.5000   136.6296     8.3813     8.4504
  239.6000   137.7674     8.3582     8.4504
  239.7000   138.7034     8.3416     8.4030
  239.8000   139.4190     8.3001     8.3921
  239.9000   139.7002     8.2999     8.3635
  240.0000   140.1401     8.2997     8.3151
  240.1000   140.4707     8.2995     8.2668
  240.2000   140.5994     8.2719     8.2189
  240.3000   140.5263     8.2418     8.1630
  240.4000   140.2514     8.2327     8.1240
  240.5000   139.6966     8.1845     8.0769
  240.6000   138.7960     8.1843     8.0301
  240.7000   137.7912     8.1840     7.9835
  240.8000   136.7864     8.1551     7.9401
  240.9000   135.7815     8.1076     7.9401
  241.0000   134.8328     8.0709     7.9000
  241.1000   134.2876     8.0678     7.8542
  241.2000   134.0573     7.9595     7.7865
  241.3000   133.8056     7.9207     7.7099
  241.4000   133.5540     7.8747     7.6603
  241.5000   133.3023     7.8085     7.5647
  241.6000   133.0835     7.7181     7.5243
  241.7000   133.0828     7.6317     7.4492
  241.8000   133.0823     7.5819     7.4093
  241.9000   132.8963     7.5433     7.3943
  242.0000   132.7808     7.4698     7.3514
  242.1000   132.7802     7.3834     7.3074
  242.2000   132.7796     7.2980     7.2664
  242.3000   132.7789     7.2135     7.2243
  242.4000   132.7784     7.1229     7.1825
  242.5000   132.7778     7.0851     7.1408
  242.6000   132.7772     7.0439     7.0994
  242.7000   132.7766     6.9816     7.0583
  242.8000   132.8184     6.9008     7.0102
  242.9000   133.0757     6.8152     6.9434
  243.0000   133.0751     6.6917     6.8632
  243.1000   133.2695     6.5817     6.7839
  243.2000   133.3742     6.4965     6.6957
  243.3000   133.3736     6.4213     6.5774
  243.4000   133.4202     6.3199     6.4071
  243.5000   133.6727     6.1681     6.2789
  243.6000   133.6721     5.9894     6.1107
  243.7000   133.4717     5.8534     5.9524
  243.8000   133.2200     5.6412     5.8154
  243.9000   132.8671     5.4730     5.6816
  244.0000   132.3123     5.3472     5.5406
  244.1000   131.5586     5.2177     5.3949
  244.2000   130.6653     5.0687     5.2186
  244.3000   130.2556     4.9334     5.0398
  244.4000   129.9083     4.8389     4.8862
  244.5000   129.6566     4.7278     4.7781
  244.6000   129.3481     4.6191     4.6928
  244.7000   128.8607     4.5129     4.5886
  244.8000   128.8600     4.4090     4.3653
  244.9000   129.4877     4.2951     4.2021
  245.0000   130.2403     4.1669     4.1055
  245.1000   130.8819     4.0400     4.0157
  245.2000   131.3833     3.9135     3.9462
  245.3000   131.8601     3.7920     3.8662
  245.4000   131.8594     3.6961     3.7572
  245.5000   131.8588     3.5136     3.6285
  245.6000   131.8582     3.4041     3.5041
  245.7000   131.8577     3.3287     3.3838
  245.8000   131.8571     3.2711     3.2675
  245.9000   131.8564     3.2084     3.1414
  246.0000   131.8558     3.1346     3.1097
  246.1000   131.8553     3.0589     3.0738
  246.2000   131.8546     3.0253     3.0383
  246.3000   131.8540     2.9904     3.0136
  246.4000   131.9960     2.9752     3.0136
  246.5000   132.4975     2.9623     3.0136
  246.6000   133.0534     2.9311     2.9976
  246.7000   133.9481     2.9138     2.9929
  246.8000   135.1264     2.8971     2.9929
  246.9000   136.2557     2.8670     2.9929
  247.0000   137.1832     2.8537     2.9956
  247.1000   137.8821     2.8468     3.0136
  247.2000   138.1549     2.8339     3.0136
  247.3000   138.3830     2.8338     3.0136
  247.4000   138.0953     2.8337     3.0240
  247.5000   137.5926     2.8200     3.0416
  247.6000   137.0899     2.8140     3.0556
  247.7000   136.4922     2.8139     3.0562
  247.8000   135.1483     2.8139     3.0982
  247.9000   134.2140     2.8138     3.0982
  248.0000   133.0251     2.8137     3.1212
  248.1000   132.0391     2.8136     3.1414
  248.2000   131.3710     2.8247     3.1507
  248.3000   130.9047     2.8411     3.1864
  248.4000   130.6402     2.8625     3.2073
  248.5000   130.8779     2.8993     3.2401
  248.6000   131.5063     2.9734     3.2780
  248.7000   132.2589     3.0533     3.3163
  248.8000   134.1518     3.1168     3.3551
  248.9000   138.4450     3.1617     3.3965
  249.0000   139.6055     3.2111     3.4610
  249.1000   140.5122     3.2835     3.4983
  249.2000   141.2829     3.3440     3.5696
  249.3000   141.9510     3.3997     3.6536
  249.4000   142.4644     3.4902     3.7395
  249.5000   143.0101     3.6050     3.8346
  249.6000   144.1465     3.7242     3.9747
  249.7000   144.6056     3.8295     4.0654
  249.8000   143.6263     3.9203     4.1802
  249.9000   141.3666     4.0113     4.2739
  250.0000   139.2392     4.0902     4.3874
  250.1000   138.1535     4.1658     4.5602
  250.2000   136.8540     4.2414     4.7329
  250.3000   135.1333     4.3170     4.8902
  250.4000   134.2231     4.3925     5.0041
  250.5000   133.5626     4.4681     5.0991
  250.6000   132.9069     4.5767     5.2439
  250.7000   132.3305     4.7142     5.4019
  250.8000   132.1273     4.8621     5.5442
  250.9000   132.1379     5.0362     5.6622
  251.0000   132.4263     5.2068     5.7449
  251.1000   132.6508     5.3442     5.7827
  251.2000   133.0891     5.4587     5.8559
  251.3000   133.6026     5.5566     5.9215
  251.4000   134.3067     5.6689     5.9922
  251.5000   135.4905     5.7906     6.0419
  251.6000   137.2629     5.8608     6.0778
  251.7000   138.4282     5.9802     6.1238
  251.8000   139.5406     6.0420     6.1930
  251.9000   140.6460     6.1142     6.2322
  252.0000   141.6737     6.1676     6.2669
  252.1000   142.6084     6.2177     6.3041
  252.2000   143.3293     6.2846     6.3416
  252.3000   143.8365     6.3220     6.3793
  252.4000   144.1297     6.3651     6.4071
  252.5000   144.3493     6.3976     6.4109
  252.6000   144.6058     6.4357     6.4516
  252.7000   144.7285     6.4541     6.4516
  252.8000   144.8184     6.4676     6.4809
  252.9000   145.0277     6.5062     6.5194
  253.0000   145.0230     6.5443     6.5415
  253.1000   144.7260     6.5444     6.5415
  253.2000   144.7255     6.5444     6.5452
  253.3000   144.7249     6.5445     6.5870
  253.4000   144.4617     6.5446     6.5870
  253.5000   143.9469     6.5447     6.5870
  253.6000   143.3874     6.5448     6.5870
  253.7000   142.6123     6.5451     6.5870
  253.8000   141.1182     6.5905     6.5870
  253.9000   140.4715     6.6234     6.5870
  254.0000   139.6997     6.6364     6.5870
  254.1000   138.7991     6.6365     6.5870
  254.2000   137.8559     6.6366     6.5870
  254.3000   137.1689     6.6367     6.5870
  254.4000   136.9105     6.6368     6.5870
  254.5000   136.3092     6.6369     6.5870
  254.6000   136.0957     6.6045     6.5836
  254.7000   135.8380     6.5656     6.5415
