~VERSION INFORMATION
 VERS.                2.0:   CWLS LOG ASCII STANDARD - VERSION 2.0
 WRAP.                 NO:   ONE LINE PER DEPTH STEP
~WELL INFORMATION
#MNEM.UNIT      DATA TYPE    INFORMATION
#----------   ------------   ------------------------------
 STRT.F            2.0000:   START DEPTH
 STOP.F          548.0000:   STOP DEPTH
 STEP.F            0.1000:   STEP LENGTH
 NULL.          -999.2500:   NO VALUE
 COMP.       F D SERV INC:   COMPANY
 WELL. NAVAL PETROLEUM RESERVE 3 SX-3 #88-10-3:   WELL
 FLD .             TEAPOT:   FIELD
 LOC .       S3 T38N R78W:   LOCATION
 CNTY.            NATRONA:   COUNTY
 STAT.            WYOMING:   STATE
 CTRY. UNITED STATES OF AMERICA:   COUNTRY
 SRVC.     Atlas Wireline:   SERVICE COMPANY
 DATE.        19-OCT-1992:   LOGDATE
 API .       490252254600:   API NUMBER
~CURVE INFORMATION
#MNEM.UNIT       API CODE    CURVE DESCRIPTION
#----------   ------------   ------------------------------
 DEPT.F                  :   
 GRR .GAPI   07 310 01 00:   GAMMA RAY
 ILD .OHMM   07 120 46 00:   INDUCTION LOG DEEP
 ILM .OHMM   07 120 44 00:   INDUCTION LOG MEDIUM
~PARAMETER INFORMATION
#MNEM.UNIT          VALUE    DESCRIPTION
#----------   ------------   ------------------------------
 PD  .                 GL:   PERMANENT DATUM
 EPD .F              5126:   ELEVATION PERMANENT DATUM
 LMF .                 KB:   LOG MEASURED FROM
 DAPD.F                10:   FEET ABOVE PERMANENT DATUM
 DMF .                 KB:   DRILLING MEASURED FROM
 EKB .F              5136:   KELLING BUSHING
 EDF .F              5135:   DRILLING FLOOR
 EGL .F              5126:   GROUND LEVEL
 DATE.        19-OCT-1992:   RUN DATE
 RUN .                  1:   RUN NUMBER
 DD  .F               566:   DEPTH DRILLER
 DL  .F               558:   DEPTH LOGGER
 BLI .F               550:   BOTTOM LOG INTERVAL
 TLI .F                98:   TOP LOG INTERVAL
 CS  .IN            8.625:   CASING SIZE
 CBD .F                85:   CASING BOTTOM DRILLER
 CBL .F                98:   CASING BOTTOM LOGGER
 BS  .IN            7.875:   BIT SIZE
 BSD .F               566:   BIT SIZE AT DEPTH
 DFT .           AIR FOAM:   DRILLING FLUID TYPE
 TCS .HRS               2:   TIME CURCULATED STOPPED
 MRT .F                73:   MAXIMUM RECORDED TEMPERATURE
 LUN .            HL-6274:   LOGGING UNIT NUMBER
 LUL .             CASPER:   LOGGING UNIT LOCATION
 ENGI.             RAUTIO:   RECORDING ENGINEER
 WITN.        GARY STRONG:   WITNESSED BY
 CLNT.            A2DTECH:   CLIENT CODE
 ORIG.           5" PRINT:   ORIGIN OF DATA
 UWI .       490252254600:   UNIQUE WELL ID
 DICO. A2D Technologies, Inc.:   DIGITIZING COMPANY
~OTHER INFORMATION
~A    DEPT     GRR        ILD        ILM   
# ...
  275.0000   136.6111     5.5340     5.8316
  275.1000   137.1007     5.5972     5.8979
  275.2000   137.5902     5.6610     5.9704
  275.3000   138.1148     5.7298     6.0799
  275.4000   138.5695     5.8219     6.1769
  275.5000   139.0590     5.9462     6.2828
  275.6000   139.7810     6.0829     6.3561
  275.7000   140.6433     6.2134     6.4098
  275.8000   141.1328     6.3200     6.5195
  275.9000   141.6225     6.4503     6.6314
  276.0000   142.4992     6.5094     6.7150
  276.1000   143.6185     6.6054     6.8131
  276.2000   144.7661     6.7054     6.9037
  276.3000   145.7235     6.7866     6.9467
  276.4000   146.5533     6.9154     7.0358
  276.5000   147.8398     6.9505     7.0705
  276.6000   149.1559     7.0167     7.0844
  276.7000   150.2820     7.0788     7.1007
  276.8000   151.1722     7.1189     7.1333
  276.9000   151.6822     7.1597     7.1328
  277.0000   151.9153     7.2406     7.1714
  277.1000   152.1585     7.2597     7.2119
  277.2000   152.2784     7.2817     7.2526
  277.3000   152.2082     7.3100     7.2822
  277.4000   151.9479     7.3097     7.2818
  277.5000   151.3610     7.3093     7.2813
  277.6000   151.1576     7.3091     7.2810
  277.7000   151.0529     7.3088     7.3049
  277.8000   151.0499     7.3085     7.3312
  277.9000   151.0469     7.3156     7.3362
  278.0000   151.0436     7.3590     7.3817
  278.1000   151.0408     7.3588     7.3813
  278.2000   151.0378     7.3584     7.4092
  278.3000   151.1443     7.3791     7.4322
  278.4000   151.3344     7.4209     7.4318
  278.5000   151.3313     7.4610     7.4313
  278.6000   151.3283     7.4606     7.4309
  278.7000   151.3253     7.4952     7.4627
  278.8000   151.3223     7.5123     7.4822
  278.9000   151.3192     7.5120     7.4818
  279.0000   151.3162     7.5117     7.4813
  279.1000   151.3127     7.5114     7.4809
  279.2000   151.3101     7.5111     7.4805
  279.3000   151.3071     7.5108     7.4801
  279.4000   151.3997     7.5104     7.4797
  279.5000   151.6041     7.5201     7.4792
  279.6000   151.6004     7.5624     7.4788
  279.7000   151.5976     7.5621     7.5181
  279.8000   151.5945     7.5618     7.5304
  279.9000   151.4747     7.5615     7.5300
  280.0000   151.2254     7.5612     7.5296
  280.1000   150.9719     7.5608     7.5291
  280.2000   150.4763     7.5605     7.5287
  280.3000   150.1749     7.5227     7.5622
  280.4000   149.7876     7.5073     7.5806
  280.5000   149.3737     7.5070     7.5802
  280.6000   149.0990     7.5067     7.5753
  280.7000   148.5412     7.5063     7.5266
  280.8000   147.2457     7.5060     7.5262
  280.9000   145.9242     7.5057     7.5258
  281.0000   144.9985     7.5054     7.5253
  281.1000   144.5495     7.4928     7.5249
  281.2000   144.2904     7.4526     7.5245
  281.3000   144.5240     7.4522     7.5241
  281.4000   144.5870     7.4519     7.4925
  281.5000   144.5840     7.4259     7.4709
  281.6000   144.6487     7.3995     7.4705
  281.7000   144.8806     7.3991     7.4701
  281.8000   144.8769     7.3988     7.4696
  281.9000   145.0760     7.3985     7.4692
  282.0000   145.1740     7.3982     7.4439
  282.1000   145.2599     7.3979     7.4164
  282.2000   145.4709     7.3976     7.4160
  282.3000   145.4672     7.3973     7.4156
  282.4000   145.6871     7.3970     7.3772
  282.5000   145.7640     7.3967     7.3632
  282.6000   145.8711     7.3964     7.3441
  282.7000   146.0605     7.3960     7.3111
  282.8000   146.0575     7.3957     7.3107
  282.9000   146.2984     7.3954     7.2693
  283.0000   146.3540     7.3951     7.2590
  283.1000   146.3510     7.3948     7.2586
  283.2000   146.3480     7.3761     7.2457
  283.3000   146.3262     7.3427     7.2073
  283.4000   146.0389     7.3424     7.2068
  283.5000   145.8275     7.3421     7.2065
  283.6000   145.4257     7.3418     7.2061
  283.7000   144.4489     7.3415     7.2057
  283.8000   142.9216     7.3285     7.2053
  283.9000   142.3931     7.2898     7.2049
  284.0000   142.1603     7.2895     7.2045
  284.1000   142.0847     7.2892     7.2041
  284.2000   142.3164     7.2889     7.2037
  284.3000   142.8670     7.2886     7.2135
  284.4000   143.6030     7.2883     7.2534
  284.5000   144.3389     7.2880     7.2529
  284.6000   145.0748     7.2877     7.2525
  284.7000   145.9492     7.2874     7.2521
  284.8000   146.8491     7.2871     7.2656
  284.9000   147.5589     7.2868     7.3022
  285.0000   148.1086     7.2864     7.3017
  285.1000   148.5379     7.2861     7.3013
  285.2000   149.0275     7.2858     7.3279
  285.3000   149.5171     7.3100     7.3517
  285.4000   149.9128     7.3363     7.3593
  285.5000   149.9091     7.3360     7.4023
  285.6000   149.6690     7.3356     7.4019
  285.7000   149.2387     7.3734     7.4015
  285.8000   148.9924     7.4152     7.4011
  285.9000   148.9894     7.4379     7.4007
  286.0000   148.9985     7.4376     7.4003
  286.1000   149.2854     7.4373     7.3998
  286.2000   149.6872     7.4370     7.3995
  286.3000   150.1767     7.4696     7.3990
  286.4000   150.5767     7.4884     7.3986
  286.5000   150.8533     7.4881     7.3926
  286.6000   151.3885     7.4878     7.3463
  286.7000   151.8324     7.4875     7.3082
  286.8000   152.3219     7.4872     7.2944
  286.9000   152.7008     7.4595     7.2940
  287.0000   152.8896     7.4345     7.2844
  287.1000   152.8865     7.4342     7.2424
  287.2000   153.1280     7.4338     7.2420
  287.3000   153.3712     7.3525     7.2416
  287.4000   153.4826     7.2995     7.2412
  287.5000   153.5552     7.2577     7.2282
  287.6000   153.7794     7.2162     7.1900
  287.7000   153.7757     7.1749     7.1896
  287.8000   153.9825     7.1270     7.1546
  287.9000   154.0726     7.0931     7.1137
  288.0000   154.0696     7.0526     7.0729
  288.1000   154.0260     7.0122     7.0324
  288.2000   153.7608     6.9721     6.9896
  288.3000   153.5274     6.9292     6.9522
  288.4000   152.9296     6.8926     6.9124
  288.5000   152.4236     6.8261     6.8728
  288.6000   152.0509     6.7485     6.8335
  288.7000   151.2980     6.6811     6.7943
  288.8000   150.0636     6.6428     6.7555
  288.9000   149.0245     6.6049     6.7168
  289.0000   148.5930     6.5671     6.6784
  289.1000   148.5900     6.5295     6.6402
  289.2000   148.6402     6.4922     6.6021
  289.3000   149.1888     6.4592     6.5598
  289.4000   149.6193     6.4589     6.5268
  289.5000   150.2692     6.4262     6.4894
  289.6000   151.0051     6.3894     6.4678
  289.7000   151.8365     6.3529     6.4674
  289.8000   153.1073     6.3240     6.4670
  289.9000   154.2937     6.3237     6.4313
  290.0000   154.9774     6.3235     6.4213
  290.1000   155.5922     6.3232     6.4210
  290.2000   156.3281     6.3229     6.4206
  290.3000   157.0637     6.3227     6.4203
  290.4000   157.9299     6.3224     6.4198
  290.5000   158.3328     6.3221     6.4195
  290.6000   158.9688     6.3219     6.4192
  290.7000   159.6145     6.3216     6.4188
  290.8000   160.0702     6.3213     6.4135
  290.9000   160.3356     6.3211     6.3734
  291.0000   159.4371     6.3208     6.3731
  291.1000   158.6165     6.3205     6.3482
  291.2000   157.7634     6.3203     6.3280
  291.3000   156.7753     6.3200     6.3277
  291.4000   155.7821     6.3197     6.3273
  291.5000   155.0439     6.3195     6.2913
  291.6000   152.7914     6.3192     6.2553
  291.7000   150.4767     6.2899     6.2195
  291.8000   148.4272     6.2539     6.1839
  291.9000   146.3073     6.2182     6.1485
  292.0000   145.1735     6.1826     6.1081
  292.1000   144.9609     6.1438     6.0784
  292.2000   145.0191     6.1121     6.0436
  292.3000   145.2623     6.0539     6.0090
  292.4000   145.5878     6.0003     5.9746
  292.5000   146.3690     5.9660     5.9383
  292.6000   146.8284     5.9318     5.8750
  292.7000   147.1431     5.8646     5.8083
  292.8000   147.3864     5.8234     5.7580
  292.9000   147.5673     5.7723     5.7169
  293.0000   147.5643     5.7067     5.6526
  293.1000   147.5613     5.6418     5.6203
