~VERSION INFORMATION
 VERS.                2.0:   CWLS LOG ASCII STANDARD - VERSION 2.0
 WRAP.                 NO:   ONE LINE PER DEPTH STEP
~WELL INFORMATION
#MNEM.UNIT      DATA TYPE    INFORMATION
#----------   ------------   ------------------------------
 STRT.F           10.0000:   START DEPTH
 STOP.F          485.0000:   STOP DEPTH
 STEP.F            0.5000:   STEP LENGTH
 NULL.          -999.2500:   NO VALUE
 COMP. FENIX & SCISSON INC:   COMPANY
 WELL.    56 S 3 SX #56-3:   WELL
 FLD .             TEAPOT:   FIELD
 LOC .       S3 T38N R78W:   LOCATION
 CNTY.            NATRONA:   COUNTY
 STAT.            WYOMING:   STATE
 CTRY. UNITED STATES OF AMERICA:   COUNTRY
 SRVC.            Unknown:   SERVICE COMPANY
 DATE.        09-OCT-1978:   LOGDATE
 API .       490251071900:   API NUMBER
~CURVE INFORMATION
#MNEM.UNIT       API CODE    CURVE DESCRIPTION
#----------   ------------   ------------------------------
 DEPT.F                  :   
 SPR .MV     05 010 01 00:   SPONTANEOUS POTENTIAL FROM RES.
 SN  .OHMM   05 040 16 00:   SHORT NORMAL 16"
 ILD .OHMM   05 120 46 00:   INDUCTION LOG DEEP
 CALD.IN     45 280 60 00:   CALIPER
 GRD .GAPI   45 310 01 00:   GAMMA RAY FROM DENSITY LOG
 CORR.G/C3   45 356 01 00:   DENSITY CORRECTION
 RHOB.G/C3   45 350 01 00:   BULK DENSITY
 DPHI.DEC    45 890 12 00:   DENSITY POROSITY SANDSTONE
~PARAMETER INFORMATION
#MNEM.UNIT          VALUE    DESCRIPTION
#----------   ------------   ------------------------------
 PD  .                 GL:   PERMANENT DATUM
 EPD .F              5188:   ELEVATION PERMANENT DATUM
 LMF .                 KB:   LOG MEASURED FROM
 DAPD.F                 4:   FEET ABOVE PERMANENT DATUM
 DMF .                 KB:   DRILLING MEASURED FROM
 EKB .F              5192:   KELLING BUSHING
 EGL .F              5188:   GROUND LEVEL
 DATE.            10-9-78:   RUN DATE
 RUN .                  1:   RUN NUMBER
 DD  .F               485:   DEPTH DRILLER
 DL  .F               485:   DEPTH LOGGER
 BLI .F               479:   BOTTOM LOG INTERVAL
 TLI .F                32:   TOP LOG INTERVAL
 CS  .IN            8.625:   CASING SIZE
 BS  .IN            7.875:   BIT SIZE
 BSD .F               485:   BIT SIZE AT DEPTH
 DFT .                KCL:   DRILLING FLUID TYPE
 DFD .                8.8:   DRILLING FLUID DENSITY
 DFV .                 41:   DRILLING FLUID VISCOSITY
 DFPH.                  9:   DRILLING FLUID PH
 DFL .                7.6:   DRILLING FLUID LOSS
 MSS .          FLOW LINE:   MUD SAMPLE SOURCE
 RMS .OHMM            .18:   RESISTIVITY MUD SAMPLE
 MST .F                60:   MUD SAMPLE TEMPERATURE
 RMF .OHMM            .16:   RESISTIVITY MUD FILTRATE SAMPLE
 MFST.F                70:   MUD FILTRATE SAMPLE TEMPERATURE
 RMC .OHMM            .26:   RESISTIVITY MUD CAKE
 MCST.F                70:   MUD CAKE SAMPLE TEMPERATURE
 MFSS.               MEAS:   MUD FILTRATE SAMPLE SOURCE
 MCSS.               MEAS:   MUD CAKE SAMPLE SOURCE
 TCS .HRS             1.5:   TIME CURCULATED STOPPED
 LUN .               2958:   LOGGING UNIT NUMBER
 LUL .               CASP:   LOGGING UNIT LOCATION
 ENGI.             MILLER:   RECORDING ENGINEER
 WITN.              AMEND:   WITNESSED BY
 CLNT.            A2DTECH:   CLIENT CODE
 ORIG.           5" PRINT:   ORIGIN OF DATA
 UWI .       490251071900:   UNIQUE WELL ID
 DICO. A2D Technologies, Inc.:   DIGITIZING COMPANY
~OTHER INFORMATION
~A   DEPT      SPR         SN        ILD       CALD         GRD      CORR       RHOB       DPHI   
# ...
  455.5000   -39.6286     8.5320     8.9423     7.9883   104.7750     0.0361     2.5238     0.0925
  456.0000   -39.6571     8.5320     8.8900     7.9883   104.1177     0.0380     2.5239     0.0941
  456.5000   -39.6854     8.5320     8.8167     7.9883   103.3858     0.0401     2.5244     0.0952
  457.0000   -39.7136     8.5320     8.7441     7.9883   102.6594     0.0403     2.5255     0.0952
  457.5000   -39.7422     8.5320     8.6721     7.9883   101.9193     0.0391     2.5242     0.0920
  458.0000   -39.7706     8.5319     8.6006     7.9883   101.1851     0.0381     2.5195     0.0937
  458.5000   -39.8275     8.5320     8.5297     7.9883   100.4833     0.0371     2.5146     0.0960
  459.0000   -39.9027     8.5085     8.4595     7.9883    99.6376     0.0368     2.5132     0.0960
  459.5000   -39.9783     8.4521     8.3898     7.9883   100.3171     0.0368     2.5187     0.0944
  460.0000   -40.0542     8.3961     8.3207     7.9883   101.7722     0.0368     2.5237     0.0927
  460.5000   -40.1301     8.3403     8.2521     7.9883   103.2180     0.0368     2.5277     0.0913
  461.0000   -40.2056     8.2850     8.1841     7.9883   102.2232     0.0368     2.5278     0.0913
  461.5000   -40.2817     8.2301     8.1167     7.9883   100.8664     0.0368     2.5278     0.0913
  462.0000   -40.3652     8.1755     8.0498     7.9883   100.3863     0.0368     2.5279     0.0913
  462.5000   -40.2006     8.1213     7.9836     7.9883   100.2696     0.0368     2.5279     0.0911
  463.0000   -39.9495     8.0674     7.9179     7.9883   101.3830     0.0368     2.5292     0.0907
  463.5000   -39.1975     8.0140     7.8528     7.9883   103.6020     0.0368     2.5305     0.0903
  464.0000   -38.4644     7.9444     7.7834     7.9883   105.6634     0.0368     2.5320     0.0899
  464.5000   -38.1913     7.8701     7.6315     7.9883   107.9175     0.0368     2.5336     0.0902
  465.0000   -38.1778     7.7964     7.4707     7.9883   108.2608     0.0368     2.5304     0.0914
  465.5000   -38.1662     7.7234     7.3133     7.9883   107.0496     0.0368     2.5268     0.0953
  466.0000   -38.1557     7.5887     7.1595     7.9883   106.8957     0.0368     2.5103     0.1022
  466.5000   -38.1451     7.4448     7.0998     7.9883   107.3371     0.0368     2.4844     0.1091
  467.0000   -38.1344     7.2982     7.0998     7.9883   107.2654     0.0368     2.4708     0.1172
  467.5000   -38.1237     7.2315     7.0998     7.9883   106.4340     0.0368     2.4761     0.1226
  468.0000   -38.1131     7.1395     7.1416     7.9883   105.6075     0.0368     2.5033     0.1229
  468.5000   -38.1024     7.1042     7.2758     7.9883   105.5578     0.0368     2.5254     0.1087
  469.0000   -38.0917     7.2684     7.4125     7.9883   105.5860     0.0368     2.5470     0.0950
  469.5000   -38.0810     7.4549     7.6557     7.9883   104.9986     0.0368     2.5474     0.0849
  470.0000   -38.0703     7.7057     7.9255     7.9883   104.0024     0.0368     2.5441     0.0852
  470.5000   -38.0597     7.9649     8.2066     7.9883   103.7806     0.0368     2.5424     0.0855
  471.0000   -38.0490     8.2329     8.4972     7.9883   103.6320     0.0368     2.5454     0.0850
  471.5000   -38.0383     8.5099     8.7978     7.9883   102.2013     0.0368     2.5480     0.0837
  472.0000   -38.0276     8.7704     9.0419     7.9883   100.3938     0.0368     2.5477     0.0855
  472.5000   -38.0172     8.8657     9.1321     7.9883    98.5461     0.0368     2.5402     0.0874
  473.0000   -38.0076     8.9542     9.1827     7.9885    99.1510     0.0368     2.5361     0.0877
  473.5000   -37.9879     9.0435     9.1827     7.9883    99.9216     0.0368     2.5357     0.0880
  474.0000   -37.7452     9.0952     9.1828     7.9884   100.0990     0.0368     2.5355     0.0891
  474.5000   -37.5056     9.0625     9.1828     7.9890   104.1157     0.0368     2.5320     0.0897
  475.0000   -37.2587     9.0364     9.1827     7.9796  -999.2500     0.0368     2.5359     0.0893
  475.5000   -37.2004     9.0104     9.1827     7.9513  -999.2500     0.0368     2.5410     0.0878
  476.0000   -37.2229     8.9845     9.1827     7.9238  -999.2500     0.0368     2.5465     0.0860
  476.5000   -37.7207     8.9587     9.1827     7.8958  -999.2500     0.0368     2.5500     0.0841
  477.0000   -38.3024     8.9332     9.1836     7.8680  -999.2500     0.0368     2.5501     0.0849
  477.5000   -38.9404     8.9555     9.1820     7.8401  -999.2500     0.0368     2.5448     0.0877
  478.0000   -37.9788     8.9778     9.1827     7.8110  -999.2500     0.0368     2.5336     0.0897
  478.5000   -36.9417     9.0001     9.3299     7.7782  -999.2500     0.0367     2.5328     0.0897
  479.0000   -35.9492     9.0595     9.7807     7.7361  -999.2500     0.0368     2.5244     0.0928
  479.5000  -999.2500  -999.2500  -999.2500     7.6946  -999.2500     0.0368     2.5208     0.0957
  480.0000  -999.2500  -999.2500  -999.2500     7.6582  -999.2500     0.0367     2.5245     0.0957
  480.5000  -999.2500  -999.2500  -999.2500  -999.2500  -999.2500     0.0368     2.5257     0.0936
  481.0000  -999.2500  -999.2500  -999.2500  -999.2500  -999.2500     0.0371     2.5246     0.0929
  481.5000  -999.2500  -999.2500  -999.2500  -999.2500  -999.2500     0.0449     2.5237     0.0921
  482.0000  -999.2500  -999.2500  -999.2500  -999.2500  -999.2500     0.0525     2.5259     0.0908
  482.5000  -999.2500  -999.2500  -999.2500  -999.2500  -999.2500     0.0612     2.5311     0.0892
  483.0000  -999.2500  -999.2500  -999.2500  -999.2500  -999.2500     0.0705     2.5362     0.0876
  483.5000  -999.2500  -999.2500  -999.2500  -999.2500  -999.2500     0.0808     2.5415     0.0875
  484.0000  -999.2500  -999.2500  -999.2500  -999.2500  -999.2500     0.0764     2.5417     0.0905
  484.5000  -999.2500  -999.2500  -999.2500  -999.2500  -999.2500     0.0900     2.5312     0.0895
  485.0000  -999.2500  -999.2500  -999.2500  -999.2500  -999.2500     0.1042     2.5322     0.0888
