~VERSION INFORMATION
 VERS.                2.0:   CWLS LOG ASCII STANDARD - VERSION 2.0
 WRAP.                 NO:   ONE LINE PER DEPTH STEP
~WELL INFORMATION
#MNEM.UNIT      DATA TYPE    INFORMATION
#----------   ------------   ------------------------------
 STRT.F           34.0000:   START DEPTH
 STOP.F          582.0000:   STOP DEPTH
 STEP.F            0.5000:   STEP LENGTH
 NULL.          -999.2500:   NO VALUE
 COMP. FENIX & SCISSON INC:   COMPANY
 WELL. NPR 3 SX-33 #88-33:   WELL
 FLD .             TEAPOT:   FIELD
 LOC .      S33 T39N R78W:   LOCATION
 CNTY.            NATRONA:   COUNTY
 STAT.            WYOMING:   STATE
 CTRY. UNITED STATES OF AMERICA:   COUNTRY
 SRVC.           BIRDWELL:   SERVICE COMPANY
 DATE.        04-AUG-1978:   LOGDATE
 API .       490251068000:   API NUMBER
~CURVE INFORMATION
#MNEM.UNIT       API CODE    CURVE DESCRIPTION
#----------   ------------   ------------------------------
 DEPT.F                  :   
 SPR .MV     05 010 01 00:   SPONTANEOUS POTENTIAL FROM RES.
 ILD .OHMM   05 120 46 00:   INDUCTION LOG DEEP
 SN  .OHMM   05 040 16 00:   SHORT NORMAL 16"
 CALD.IN     45 280 60 00:   CALIPER
 GRD .GAPI   45 310 01 00:   GAMMA RAY FROM DENSITY LOG
 DEN .G/C3   45 350 01 00:   COMPENSATED BULK DENSTIY
 CORR.G/C3   45 356 01 00:   DENSITY CORRECTION
 DPHI.DEC    45 890 12 00:   DENSITY POROSITY SANDSTONE
~PARAMETER INFORMATION
#MNEM.UNIT          VALUE    DESCRIPTION
#----------   ------------   ------------------------------
 PD  .                 GL:   PERMANENT DATUM
 EPD .F              5146:   ELEVATION PERMANENT DATUM
 LMF .                 KB:   LOG MEASURED FROM
 DAPD.F                 4:   FEET ABOVE PERMANENT DATUM
 DMF .                 KB:   DRILLING MEASURED FROM
 EKB .F              5150:   KELLING BUSHING
 EGL .F              5146:   GROUND LEVEL
 DATE.             8-4-78:   RUN DATE
 RUN .                  1:   RUN NUMBER
 DD  .F               570:   DEPTH DRILLER
 DL  .F               588:   DEPTH LOGGER
 BLI .F               582:   BOTTOM LOG INTERVAL
 TLI .F                50:   TOP LOG INTERVAL
 CS  .IN            8.625:   CASING SIZE
 CBD .F                40:   CASING BOTTOM DRILLER
 BS  .IN            7.875:   BIT SIZE
 BSD .F               570:   BIT SIZE AT DEPTH
 DFT .                KCL:   DRILLING FLUID TYPE
 DFD .                8.7:   DRILLING FLUID DENSITY
 DFV .                 34:   DRILLING FLUID VISCOSITY
 DFPH.                  9:   DRILLING FLUID PH
 DFL .                9.6:   DRILLING FLUID LOSS
 MSS .          FLOW LINE:   MUD SAMPLE SOURCE
 RMS .OHMM            .24:   RESISTIVITY MUD SAMPLE
 MST .F                70:   MUD SAMPLE TEMPERATURE
 RMF .OHMM            .24:   RESISTIVITY MUD FILTRATE SAMPLE
 MFST.F                80:   MUD FILTRATE SAMPLE TEMPERATURE
 RMC .OHMM             .3:   RESISTIVITY MUD CAKE
 MCST.F                75:   MUD CAKE SAMPLE TEMPERATURE
 MFSS.               MEAS:   MUD FILTRATE SAMPLE SOURCE
 TCS .HRS               2:   TIME CURCULATED STOPPED
 LUN .               3006:   LOGGING UNIT NUMBER
 LUL .               CASP:   LOGGING UNIT LOCATION
 ENGI.             MILLER:   RECORDING ENGINEER
 WITN.           MCGINLEY:   WITNESSED BY
 CLNT.            A2DTECH:   CLIENT CODE
 ORIG.        2" 5" PRINT:   ORIGIN OF DATA
 UWI .       490251068000:   UNIQUE WELL ID
 DICO. A2D Technologies, Inc.:   DIGITIZING COMPANY
~OTHER INFORMATION
~A   DEPT      SPR        ILD         SN       CALD         GRD       DEN       CORR       DPHI   
# ...
  520.0000   -20.5503    13.1072    11.4931     7.2137    88.0304     2.4755     0.0358     0.1238
  520.5000   -20.6753    12.9716    11.4680     7.2268    82.8972     2.4769     0.0356     0.1192
  521.0000   -20.8001    12.8710    11.4429     7.2394    82.0957     2.4787     0.0353     0.1168
  521.5000   -20.9253    12.7843    11.4129     7.2519    84.6371     2.4804     0.0350     0.1219
  522.0000   -21.0500    12.6970    11.3619     7.2644    88.0369     2.4770     0.0347     0.1252
  522.5000   -21.1898    12.6103    11.3110     7.2796    89.6628     2.4725     0.0345     0.1269
  523.0000   -21.3263    12.5242    11.2603     7.3129    88.4471     2.4711     0.0342     0.1234
  523.5000   -21.4629    12.4386    11.2099     7.4066    87.0629     2.4741     0.0339     0.1238
  524.0000   -21.5972    12.3537    11.1597     7.5334    86.5541     2.4771     0.0336     0.1174
  524.5000   -21.6576    12.2694    11.1097     7.5423    87.1500     2.4792     0.0334     0.1211
  525.0000   -21.7064    12.1856    11.0599     7.5732    87.9025     2.4769     0.0331     0.1222
  525.5000   -21.7554    12.1024    11.0105     7.6046    88.5541     2.4768     0.0328     0.1193
  526.0000   -21.8043    12.0323    10.8426     7.6100    84.8430     2.4802     0.0325     0.1166
  526.5000   -21.8534    11.9710    10.6776     7.6101    84.4237     2.4869     0.0323     0.1115
  527.0000   -21.9024    11.9100    10.5151     7.6132    85.1659     2.4934     0.0320     0.1095
  527.5000   -21.9514    11.8498    10.3551     7.6210    86.4366     2.4987     0.0308     0.1084
  528.0000   -22.0004    11.5393    10.1954     7.6287    87.6949     2.4975     0.0295     0.1074
  528.5000   -22.0494    11.2399    10.0303     7.6365    88.9523     2.4962     0.0281     0.1095
  529.0000   -22.0985    11.0053     9.8679     7.6443    90.2107     2.4948     0.0268     0.1129
  529.5000   -22.1475    10.9812     9.7081     7.6505    91.0688     2.4931     0.0255     0.1142
  530.0000   -22.1965    10.9572     9.5509     7.6351    90.2239     2.4915     0.0240     0.1143
  530.5000   -22.2455    10.9332     9.3963     7.6176    88.9244     2.4915     0.0268     0.1145
  531.0000   -22.2945    10.9099     9.2477     7.5999    87.6654     2.4915     0.0302     0.1146
  531.5000   -22.3436    10.7728     8.9618     7.5827    90.0516     2.4915     0.0335     0.1124
  532.0000   -22.3926    10.6134     8.6911     7.5779    91.3464     2.4920     0.0369     0.1106
  532.5000   -22.4416     9.4590     8.4363     7.6131    89.1830     2.4939     0.0399     0.1109
  533.0000   -22.4908     8.4487     8.1506     7.6465    88.7625     2.4959     0.0400     0.1179
  533.5000   -22.5394     7.5504     7.8824     7.6473    90.2923     2.4838     0.0373     0.1300
  534.0000   -22.5904     7.0209     7.6230     7.6441    93.3030     2.4679     0.0344     0.1450
  534.5000   -22.4440     6.9567     7.3722     7.6409    96.7984     2.4455     0.0319     0.1497
  535.0000   -22.1595     7.0398     7.2836     7.6378    92.9946     2.4349     0.0370     0.1433
  535.5000   -21.8675     7.1073     7.3500     7.6346    91.0451     2.4479     0.0457     0.1296
  536.0000   -21.8128     7.1756     7.4515     7.6316    92.7578     2.4871     0.0742     0.1158
  536.5000   -21.8120     7.2454     7.5595     7.6030    94.9834     2.5229     0.0937     0.0959
  537.0000   -21.8126     7.4186     8.2829     7.5528    94.1529     2.5223     0.0842     0.0925
  537.5000   -21.8127     8.2071     9.0500     7.5026    91.2052     2.5214     0.0610     0.0926
  538.0000   -21.8127     9.1272     9.5725     7.4518    87.0140     2.5207     0.0495     0.0934
  538.5000   -21.8127    10.1020     9.9524     7.4205    85.7701     2.5200     0.0480     0.0947
  539.0000   -21.8127    11.1173    10.3250     7.3918    90.1386     2.5193     0.0464     0.0960
  539.5000   -21.8127    11.1121    10.4025     7.3637    86.9408     2.5186     0.0448     0.0989
  540.0000   -21.8131    11.1143    10.4764     7.3357    86.8581     2.5179     0.0432     0.1010
  540.5000   -21.8130    11.1126    10.5508     7.3076    88.4420     2.5172     0.0419     0.1004
  541.0000   -21.8095    11.1103    10.6257     7.2795    87.8493     2.5165     0.0434     0.0994
  541.5000   -21.6160    11.2971    10.7012     7.2515    87.3081     2.5164     0.0473     0.0984
  542.0000   -21.1518    11.4759    10.8450     7.2235    87.3391     2.5169     0.0512     0.0976
  542.5000   -20.6998    11.6564    11.0013     7.1961    88.6955     2.5311     0.0584     0.0922
  543.0000   -20.4163    11.8398    11.1599     7.1409    90.1067     2.5451     0.0697     0.0858
  543.5000   -20.4190    12.0261    11.3208     7.0802    91.5066     2.5437     0.0810     0.0782
  544.0000   -20.4181    12.2153    11.4840     7.0567    92.8756     2.5424     0.0917     0.0816
  544.5000   -20.4183    12.4074    11.6495     7.0406    92.1617     2.5425     0.0872     0.0871
  545.0000   -20.4183    12.6026    11.8176     7.0245    90.2911     2.5301     0.0815     0.0910
  545.5000   -20.4180    12.8009    11.9878     7.0085    88.8510     2.5274     0.0758     0.0890
  546.0000   -20.4167    13.0022    12.1606     6.9914    87.4911     2.5274     0.0738     0.0907
  546.5000   -20.4287    13.2052    12.1808     7.0226    89.3441     2.5275     0.0727     0.0914
  547.0000   -20.6509    13.4128    12.1810     7.0744    85.6800     2.5275     0.0716     0.0860
  547.5000   -20.8713    13.6192    12.1808     7.2469    85.8222     2.5274     0.0704     0.0850
  548.0000   -21.0903    13.7253    12.1808     7.2468    89.7672     2.5243     0.0665     0.0976
  548.5000   -21.3090    13.6845    12.1808     7.2408    87.9565     2.5111     0.0593     0.0998
  549.0000   -21.5279    13.6573    12.1808     7.2351    86.4717     2.5078     0.0520     0.0996
  549.5000   -21.7508    13.6301    12.1808     7.2300    87.0372     2.5065     0.0481     0.1007
  550.0000   -21.8849    13.6029    12.1808     7.2300    87.6853     2.5052     0.0444     0.1074
  550.5000   -22.0327    13.5758    12.1808     7.2300    88.3636     2.5039     0.0407     0.1078
  551.0000   -22.1784    13.5488    12.1808     7.2300    89.7073     2.5027     0.0369     0.1044
  551.5000   -22.3249    13.5218    12.1807     7.2300    91.0020     2.5021     0.0337     0.1014
  552.0000   -22.4717    13.4949    12.1809     7.2300    91.4266     2.5035     0.0331     0.0998
  552.5000   -22.6072    13.4680    12.1823     7.2300    90.1554     2.5045     0.0325     0.1066
  553.0000   -22.6103    13.4412    12.1127     7.2300    88.9304     2.5045     0.0319     0.1081
  553.5000   -22.6096    13.4144    12.0495     7.2298    87.7138     2.5045     0.0301     0.1012
  554.0000   -22.6083    13.3877    11.9869     7.2435    88.1861     2.5071     0.0283     0.0992
  554.5000   -22.6000    13.3611    11.9248     7.2645    89.0357     2.5110     0.0265     0.0996
  555.0000   -22.9808    13.2333    11.8629     7.2861    87.2788     2.5115     0.0245     0.1001
  555.5000   -23.4346    13.0578    11.8013     7.2923    88.4591     2.5115     0.0239     0.1006
  556.0000   -23.8354    12.8846    11.7401     7.2951    90.4165     2.5115     0.0239     0.1012
  556.5000   -23.9524    12.7134    11.6792     7.2979    90.8457     2.5115     0.0239     0.1006
  557.0000   -24.0749    12.5461    11.5972     7.3007    84.5941     2.5117     0.0239     0.0995
  557.5000   -24.1983    12.3736    11.4547     7.3036    87.1428     2.5120     0.0239     0.0986
  558.0000   -24.3203    12.2036    11.3139     7.3064    85.8017     2.5123     0.0252     0.0986
  558.5000   -24.4059    12.0359    11.1748     7.3089    82.6495     2.5126     0.0272     0.0977
  559.0000   -24.4109    11.8705    11.0374     7.3281    82.7832     2.5129     0.0292     0.0967
  559.5000   -24.4177    11.7074    10.9016     7.3527    85.3221     2.5131     0.0312     0.0956
  560.0000   -24.4241    11.5464    10.7675     7.3776    87.8647     2.5134     0.0319     0.0974
