~VERSION INFORMATION
 VERS.                2.0:   CWLS LOG ASCII STANDARD - VERSION 2.0
 WRAP.                 NO:   ONE LINE PER DEPTH STEP
~WELL INFORMATION
#MNEM.UNIT      DATA TYPE    INFORMATION
#----------   ------------   ------------------------------
 STRT.F           43.0000:   START DEPTH
 STOP.F          551.0000:   STOP DEPTH
 STEP.F            0.5000:   STEP LENGTH
 NULL.          -999.2500:   NO VALUE
 COMP. FENIX & SCISSON INC:   COMPANY
 WELL.   NPR 3  27-S #3-3:   WELL
 FLD .             TEAPOT:   FIELD
 LOC .       S3 T38N R78W:   LOCATION
 CNTY.            NATRONA:   COUNTY
 STAT.            WYOMING:   STATE
 CTRY. UNITED STATES OF AMERICA:   COUNTRY
 SRVC.           BIRDWELL:   SERVICE COMPANY
 DATE.        07-OCT-1978:   LOGDATE
 API .       490251071600:   API NUMBER
~CURVE INFORMATION
#MNEM.UNIT       API CODE    CURVE DESCRIPTION
#----------   ------------   ------------------------------
 DEPT.F                  :   
 SPR .MV     05 010 01 00:   SPONTANEOUS POTENTIAL FROM RES.
 SN  .OHMM   05 040 16 00:   SHORT NORMAL 16"
 ILD .OHMM   05 120 46 00:   INDUCTION LOG DEEP
 GRD .GAPI   45 310 01 00:   GAMMA RAY FROM DENSITY LOG
 CALD.IN     45 280 60 00:   CALIPER
 RHOB.G/C3   45 350 01 00:   BULK DENSITY
 CORR.G/C3   45 356 01 00:   DENSITY CORRECTION
 DPHI.DEC    45 890 12 00:   DENSITY POROSITY SANDSTONE
~PARAMETER INFORMATION
#MNEM.UNIT          VALUE    DESCRIPTION
#----------   ------------   ------------------------------
 PD  .                 GL:   PERMANENT DATUM
 EPD .F              5241:   ELEVATION PERMANENT DATUM
 LMF .                 KB:   LOG MEASURED FROM
 DAPD.F                 4:   FEET ABOVE PERMANENT DATUM
 DMF .                 KB:   DRILLING MEASURED FROM
 EKB .F              5245:   KELLING BUSHING
 EGL .F              5241:   GROUND LEVEL
 DATE.            10-7-78:   RUN DATE
 RUN .                  1:   RUN NUMBER
 DD  .F               552:   DEPTH DRILLER
 DL  .F               551:   DEPTH LOGGER
 BLI .F               545:   BOTTOM LOG INTERVAL
 TLI .F                48:   TOP LOG INTERVAL
 CS  .IN            8.625:   CASING SIZE
 CBL .F                43:   CASING BOTTOM LOGGER
 BS  .IN            7.875:   BIT SIZE
 BSD .F               552:   BIT SIZE AT DEPTH
 DFT .                KCL:   DRILLING FLUID TYPE
 DFD .                8.7:   DRILLING FLUID DENSITY
 DFV .                 38:   DRILLING FLUID VISCOSITY
 DFPH.                  9:   DRILLING FLUID PH
 DFL .                 38:   DRILLING FLUID LOSS
 MSS .            MUD PIT:   MUD SAMPLE SOURCE
 RMS .OHMM            .24:   RESISTIVITY MUD SAMPLE
 MST .F                48:   MUD SAMPLE TEMPERATURE
 RMF .OHMM             .2:   RESISTIVITY MUD FILTRATE SAMPLE
 MFST.F                62:   MUD FILTRATE SAMPLE TEMPERATURE
 RMC .OHMM             .3:   RESISTIVITY MUD CAKE
 MCST.F                62:   MUD CAKE SAMPLE TEMPERATURE
 MFSS.               MEAS:   MUD FILTRATE SAMPLE SOURCE
 MCSS.               MEAS:   MUD CAKE SAMPLE SOURCE
 TCS .HRS               3:   TIME CURCULATED STOPPED
 LUN .               2958:   LOGGING UNIT NUMBER
 LUL .               CASP:   LOGGING UNIT LOCATION
 ENGI.             MILLER:   RECORDING ENGINEER
 WITN.              AMEND:   WITNESSED BY
 CLNT.            A2DTECH:   CLIENT CODE
 ORIG.       2", 5" PRINT:   ORIGIN OF DATA
 UWI .       490251071600:   UNIQUE WELL ID
 DICO. A2D Technologies, Inc.:   DIGITIZING COMPANY
~OTHER INFORMATION
~A   DEPT      SPR         SN        ILD        GRD         CALD       RHOB      CORR        DPHI 
# ...
  326.5000   -33.1660     5.5577     5.7177   117.0404     8.1621     2.4424     0.0122     0.1406
  327.0000   -33.1589     5.4509     5.6214   118.8624     8.1829     2.4365     0.0171     0.1464
  327.5000   -33.4495     5.3461     5.5266   120.9740     8.2036     2.4374     0.0170     0.1460
  328.0000   -33.7650     5.2535     5.4337   120.9703     8.2243     2.4513     0.0169     0.1373
  328.5000   -34.0826     5.2369     5.3513   118.7655     8.2448     2.4651     0.0169     0.1278
  329.0000   -34.3843     5.2218     5.3395   116.0816     8.2571     2.4759     0.0163     0.1223
  329.5000   -33.9157     5.2053     5.3288   115.9990     8.2570     2.4792     0.0157     0.1207
  330.0000   -33.4164     5.2053     5.3181   116.1170     8.2570     2.4823     0.0150     0.1190
  330.5000   -32.9548     5.2053     5.3075   116.7417     8.2570     2.4842     0.0184     0.1173
  331.0000   -32.9659     5.2233     5.3022   118.6549     8.2570     2.4862     0.0230     0.1156
  331.5000   -32.9681     5.3427     5.6055   121.1086     8.2570     2.4900     0.0273     0.1122
  332.0000   -32.9687     5.5258     5.8339   121.3286     8.2570     2.5029     0.0287     0.1041
  332.5000   -32.9680     5.7151     6.0717   118.9479     8.2570     2.5266     0.0212     0.0953
  333.0000   -32.9620     5.9109     6.3192   116.2547     8.2571     2.5316     0.0130     0.0895
  333.5000   -32.6360     6.1134     6.5768   115.0341     8.2506     2.5254     0.0046     0.0922
  334.0000   -31.9721     6.2636     6.8449   113.7869     8.2429     2.5118     0.0041     0.0974
  334.5000   -31.3088     6.2781     7.0401   113.7692     8.2369     2.5055     0.0060     0.1024
  335.0000   -31.0129     6.2928     7.2042   113.9565     8.2370     2.4997     0.0079     0.1075
  335.5000   -31.0670     6.3072     7.3892   114.5366     8.2370     2.5001     0.0099     0.1078
  336.0000   -31.1330     6.3173     7.3637   115.1769     8.2370     2.5008     0.0118     0.1058
  336.5000   -31.4306     6.2941     7.3355   115.4604     8.2371     2.5015     0.0130     0.1054
  337.0000   -32.5145     6.2764     7.2542   115.5661     8.2408     2.5023     0.0130     0.1054
  337.5000   -32.7523     6.2587     7.1217   115.5494     8.2590     2.4990     0.0130     0.1078
  338.0000   -32.7387     6.2411     6.9915   115.4561     8.2767     2.4932     0.0130     0.1108
  338.5000   -32.7167     6.2235     6.9274   114.8436     8.2946     2.4877     0.0130     0.1138
  339.0000   -32.6967     6.2059     6.9274   112.2771     8.2873     2.4884     0.0130     0.1135
  339.5000   -32.6771     6.1884     6.9274   110.3647     8.2774     2.4893     0.0129     0.1133
  340.0000   -32.6576     6.1710     6.7094   110.4305     8.2827     2.4903     0.0130     0.1131
  340.5000   -32.6381     6.1536     6.5173   114.1105     8.2883     2.4879     0.0111     0.1137
  341.0000   -32.6185     6.0614     6.3306   118.1791     8.2935     2.4837     0.0082     0.1174
  341.5000   -32.5990     5.8978     6.1493   121.9478     8.2791     2.4796     0.0053     0.1233
  342.0000   -32.5795     5.7385     5.9731   122.3165     8.2403     2.4633     0.0026     0.1313
  342.5000   -32.5600     5.5836     5.8020   121.9486     8.2020     2.4413     0.0092     0.1467
  343.0000   -32.5404     5.4328     5.6358   121.2979     8.1999     2.4286     0.0207     0.1496
  343.5000   -32.5209     5.2861     5.4744   119.1889     8.2031     2.4289     0.0210     0.1504
  344.0000   -32.5014     5.1575     5.3022   117.1510     8.2064     2.4475     0.0192     0.1373
  344.5000   -32.4818     5.2129     5.3337   115.1136     8.2097     2.4683     0.0109     0.1219
  345.0000   -32.4623     5.2637     5.3884   113.0734     8.2129     2.4893     0.0046     0.1109
  345.5000   -32.4428     5.3151     5.4634   111.2412     8.2163     2.5015     0.0038     0.1063
  346.0000   -32.4233     5.4161     5.6220   111.4183     8.2090     2.4966     0.0028     0.1095
  346.5000   -32.4043     5.6380     5.8713   111.8276     8.1974     2.4909     0.0019     0.1145
  347.0000   -32.3838     5.8690     6.1316   112.3151     8.1856     2.4852     0.0012     0.1157
  347.5000   -32.3157     6.1094     6.4035   114.4492     8.1736     2.4868     0.0048     0.1165
  348.0000   -32.0939     6.3597     6.6874   116.5434     8.1588     2.4918     0.0085     0.1087
  348.5000   -31.8798     6.6202     6.9840   117.8947     8.1440     2.5058     0.0123     0.1014
  349.0000   -31.7930     6.8638     7.2937   118.4722     8.1416     2.5194     0.0094     0.0959
  349.5000   -31.8276     6.8565     7.3892   120.3467     8.2222     2.5247     0.0060     0.0922
  350.0000   -31.8635     6.8499     7.3033   120.8902     8.2928     2.5212     0.0026     0.0947
  350.5000   -31.9001     6.8433     7.2671   120.9047     8.2973     2.5127     0.0010     0.0996
  351.0000   -31.9364     6.8368     7.2312   120.7622     8.2970     2.5045     0.0025     0.1045
  351.5000   -31.9727     6.8302     7.1955   120.6088     8.2968     2.4984     0.0079     0.1070
  352.0000   -32.0091     6.8236     7.1599   120.8139     8.2968     2.4994     0.0132     0.1056
  352.5000   -32.0454     6.8170     7.1217   121.1464     8.2968     2.5076     0.0170     0.1012
  353.0000   -32.0817     6.8104     7.1154   121.4959     8.2968     2.5134     0.0169     0.0990
  353.5000   -32.1180     6.8039     7.1085   121.5546     8.2968     2.5127     0.0169     0.1008
  354.0000   -32.1545     6.7973     7.1016   120.6653     8.2954     2.5096     0.0169     0.1033
  354.5000   -32.1710     6.7908     7.0948   117.7929     8.2828     2.5039     0.0169     0.1059
  355.0000   -32.1713     6.7842     7.0880   117.4530     8.3237     2.4984     0.0168     0.1085
  355.5000   -32.1713     6.7777     7.0811   117.5683     8.4145     2.4943     0.0228     0.1102
  356.0000   -32.1713     6.7712     7.0743   117.6842     8.4530     2.5046     0.0310     0.1038
  356.5000   -32.1713     6.7646     7.0674   117.8647     8.2647     2.5183     0.0340     0.0970
  357.0000   -32.1713     6.7581     7.0607   118.4533     8.2204     2.5306     0.0281     0.0910
  357.5000   -32.1713     6.7516     7.0563   118.5207     8.2225     2.5296     0.0215     0.0910
  358.0000   -32.1713     6.7451     7.1059   117.7057     8.2263     2.5238     0.0116     0.0940
  358.5000   -32.1713     6.7384     7.1489   116.1523     8.2298     2.5129     0.0015     0.0972
  359.0000   -32.1713     6.6196     7.1922   115.1807     8.2332     2.5071     0.0016     0.1004
  359.5000   -32.1713     6.4681     7.2542   114.9067     8.2366     2.5025     0.0025     0.1038
  360.0000   -32.1713     6.3758     7.2155   114.9015     8.2400     2.4964     0.0030     0.1121
  360.5000   -32.1713     6.4071     7.0507   116.3301     8.2434     2.4818     0.0030     0.1210
  361.0000   -32.1713     6.4348     6.8243   119.1583     8.2468     2.4670     0.0030     0.1299
  361.5000   -32.1713     6.2954     6.6169   121.9705     8.2502     2.4521     0.0029     0.1388
  362.0000   -32.1713     6.1230     6.4159   124.7726     8.2536     2.4374     0.0072     0.1464
  362.5000   -32.1713     5.9553     6.2208   127.2211     8.2570     2.4372     0.0127     0.1437
  363.0000   -32.1713     5.8432     6.0314   127.1544     8.2604     2.4626     0.0125     0.1349
  363.5000   -32.1713     5.7080     5.8681   126.8987     8.2638     2.4805     0.0119     0.1214
  364.0000   -32.1713     5.7132     5.8864   123.6106     8.2672     2.4881     0.0113     0.1137
  364.5000   -32.1713     5.7217     5.9092   119.0541     8.2706     2.4915     0.0108     0.1136
  365.0000   -32.1713     5.7303     5.9320   119.1816     8.2741     2.4908     0.0102     0.1145
  365.5000   -32.1713     5.7389     5.9550   119.7856     8.2769     2.4855     0.0095     0.1196
  366.0000   -32.1713     5.7474     5.9773   120.3756     8.2727     2.4707     0.0092     0.1285
  366.5000   -32.1713     5.7560     5.9695   120.9682     8.2684     2.4548     0.0172     0.1392
