~VERSION INFORMATION
 VERS.                2.0:   CWLS LOG ASCII STANDARD - VERSION 2.0
 WRAP.                 NO:   ONE LINE PER DEPTH STEP
~WELL INFORMATION
#MNEM.UNIT      DATA TYPE    INFORMATION
#----------   ------------   ------------------------------
 STRT.F            2.0000:   START DEPTH
 STOP.F          592.0000:   STOP DEPTH
 STEP.F            0.1000:   STEP LENGTH
 NULL.          -999.2500:   NO VALUE
 COMP. BROWN JOHN E&C INC:   COMPANY
 WELL. NAVAL PETROLEUM RESERVE 3 SX-3 #73-3:   WELL
 FLD .             TEAPOT:   FIELD
 LOC .       S3 T38N R78W:   LOCATION
 CNTY.            NATRONA:   COUNTY
 STAT.            WYOMING:   STATE
 CTRY. UNITED STATES OF AMERICA:   COUNTRY
 SRVC.     Atlas Wireline:   SERVICE COMPANY
 DATE.        22-APR-1992:   LOGDATE
 API .       490252251000:   API NUMBER
~CURVE INFORMATION
#MNEM.UNIT       API CODE    CURVE DESCRIPTION
#----------   ------------   ------------------------------
 DEPT.F                  :   
 GRR .GAPI   07 310 01 00:   GAMMA RAY
 RILD.OHMM   07 120 46 00:   INDUCTION LOG DEEP RESISTIVITY
 RILM.OHMM   07 120 44 00:   INDUCTION LOG MEDIUM RESISTIVITY
~PARAMETER INFORMATION
#MNEM.UNIT          VALUE    DESCRIPTION
#----------   ------------   ------------------------------
 PD  .                 GL:   PERMANENT DATUM
 EPD .F              5148:   ELEVATION PERMANENT DATUM
 LMF .                 KB:   LOG MEASURED FROM
 DAPD.F                 5:   FEET ABOVE PERMANENT DATUM
 DMF .                 KB:   DRILLING MEASURED FROM
 EKB .F              5153:   KELLING BUSHING
 EDF .F              5152:   DRILLING FLOOR
 EGL .F              5148:   GROUND LEVEL
 DATE.        22-APR-1992:   RUN DATE
 RUN .                  1:   RUN NUMBER
 DD  .F               600:   DEPTH DRILLER
 DL  .F               601:   DEPTH LOGGER
 BLI .F               592:   BOTTOM LOG INTERVAL
 TLI .F                51:   TOP LOG INTERVAL
 CS  .IN            8.625:   CASING SIZE
 CBD .F                48:   CASING BOTTOM DRILLER
 CBL .F                51:   CASING BOTTOM LOGGER
 BS  .IN            7.875:   BIT SIZE
 BSD .F               600:   BIT SIZE AT DEPTH
 DFT .                AIR:   DRILLING FLUID TYPE
 LUN .            HL-5272:   LOGGING UNIT NUMBER
 LUL .             CASPER:   LOGGING UNIT LOCATION
 ENGI.       P. RAGMUSSEN:   RECORDING ENGINEER
 WITN.          G. STRONG:   WITNESSED BY
 CLNT.            A2DTECH:   CLIENT CODE
 ORIG.           5" PRINT:   ORIGIN OF DATA
 UWI .       490252251000:   UNIQUE WELL ID
 DICO. A2D Technologies, Inc.:   DIGITIZING COMPANY
~OTHER INFORMATION
~A    DEPT      GRR      RILD       RILM   
# ...
  256.8000   136.8134     7.3561     7.3694
  256.9000   136.0636     7.3153     7.3702
  257.0000   134.8667     7.2693     7.3710
  257.1000   133.0932     7.1996     7.3719
  257.2000   131.5098     7.1448     7.3586
  257.3000   130.1480     7.1213     7.3223
  257.4000   128.4673     7.1153     7.3233
  257.5000   127.3077     7.0735     7.2876
  257.6000   126.7096     7.0743     7.2472
  257.7000   125.8332     7.0468     7.2243
  257.8000   124.9404     7.0267     7.2252
  257.9000   124.2067     7.0275     7.2260
  258.0000   123.3892     7.0283     7.1873
  258.1000   122.9571     7.0290     7.1774
  258.2000   122.6295     6.9987     7.1575
  258.3000   122.4902     6.9819     7.1292
  258.4000   122.4932     6.9827     7.1279
  258.5000   122.4964     6.9872     7.0815
  258.6000   122.4993     7.0331     7.0821
  258.7000   122.6796     7.0338     7.0591
  258.8000   122.9281     7.0094     7.0346
  258.9000   123.1766     6.9865     7.0298
  259.0000   123.4191     6.9873     6.9874
  259.1000   123.4221     6.9881     6.9881
  259.2000   123.6196     6.9889     6.9620
  259.3000   123.7307     6.9897     6.9234
  259.4000   123.6535     6.9715     6.8850
  259.5000   123.4339     6.9329     6.8467
  259.6000   123.4376     6.8938     6.8089
  259.7000   123.0171     6.8171     6.7419
  259.8000   122.5291     6.7412     6.6870
  259.9000   121.9437     6.6661     6.6384
  260.0000   121.1703     6.5797     6.5672
  260.1000   120.1243     6.4730     6.5255
  260.2000   119.4410     6.3914     6.4635
  260.3000   118.7074     6.3607     6.4139
  260.4000   117.6301     6.3029     6.3642
  260.5000   116.3328     6.2458     6.2990
  260.6000   115.6006     6.2084     6.2620
  260.7000   115.6036     6.1709     6.1636
  260.8000   115.6067     6.1335     6.0605
  260.9000   115.7415     6.0921     5.9752
  261.0000   115.9900     6.0315     5.9084
  261.1000   116.2916     5.9643     5.8433
  261.2000   117.4347     5.9122     5.8109
  261.3000   118.2609     5.8795     5.7787
  261.4000   119.2460     5.8461     5.7652
  261.5000   120.2314     5.8467     5.7658
  261.6000   121.2515     5.8474     5.7665
  261.7000   122.5933     5.8480     5.7672
  261.8000   123.7256     5.8487     5.7678
  261.9000   124.9714     5.8493     5.7684
  262.0000   126.2171     5.8501     5.7691
  262.1000   127.4629     5.8506     5.7697
  262.2000   128.7087     5.8513     5.7704
  262.3000   129.9545     5.8519     5.8028
  262.4000   130.8660     5.8568     5.8120
  262.5000   131.0892     5.8942     5.8126
  262.6000   131.0927     5.8948     5.8226
  262.7000   131.0953     5.8954     5.8545
  262.8000   131.0983     5.9107     5.8553
  262.9000   130.9024     5.9379     5.8834
  263.0000   130.3718     5.9386     5.8974
  263.1000   129.5947     5.9392     5.9104
  263.2000   128.9049     5.9650     5.9447
  263.3000   127.3030     5.9820     5.9821
  263.4000   124.6424     5.9827     5.9827
  263.5000   121.8039     5.9852     6.0067
  263.6000   120.8253     6.0260     6.0415
  263.7000   119.8466     6.0265     6.0765
  263.8000   119.2492     6.0475     6.1117
  263.9000   118.8950     6.0700     6.1471
  264.0000   118.7292     6.0707     6.1827
  264.1000   118.7322     6.0714     6.2186
  264.2000   118.7357     6.0721     6.2546
  264.3000   118.7382     6.0727     6.2909
  264.4000   119.1941     6.0885     6.3325
  264.5000   120.0270     6.1165     6.3640
  264.6000   120.9750     6.1172     6.4238
  264.7000   121.7763     6.1519     6.4829
  264.8000   122.6799     6.2138     6.5204
  264.9000   123.8329     6.2667     6.5604
  265.0000   125.5066     6.3237     6.5963
  265.1000   127.7187     6.4304     6.6345
  265.2000   129.9607     6.5172     6.6914
  265.3000   131.1749     6.5791     6.7585
  265.4000   132.4054     6.6323     6.7976
  265.5000   133.5078     6.6846     6.8371
  265.6000   134.4926     6.7613     6.8767
  265.7000   135.4361     6.8464     6.9390
  265.8000   135.7282     6.8823     7.0052
  265.9000   135.9329     6.9221     7.0412
  266.0000   136.0363     6.9621     7.0421
  266.1000   136.0394     6.9940     7.0783
  266.2000   136.0112     6.9947     7.1193
  266.3000   135.7431     7.0345     7.1431
  266.4000   135.5265     7.0451     7.1439
  266.5000   135.1216     7.0667     7.1447
  266.6000   134.6336     7.0959     7.1455
  266.7000   134.0976     7.0992     7.1463
  266.8000   133.3375     7.1472     7.1680
  266.9000   132.6308     7.1479     7.1978
  267.0000   131.7177     7.1487     7.1986
  267.1000   130.9835     7.1495     7.1996
  267.2000   130.3650     7.1447     7.2003
  267.3000   129.3857     7.1016     7.2011
  267.4000   128.2124     7.1023     7.2019
  267.5000   127.4278     7.1030     7.1968
  267.6000   126.3094     7.1039     7.1536
  267.7000   125.2502     7.0960     7.1543
  267.8000   124.4910     7.0562     7.1551
  267.9000   123.3862     7.0569     7.1559
  268.0000   122.1064     7.0577     7.1567
  268.1000   120.6362     7.0585     7.1575
  268.2000   119.3655     7.0476     7.1582
  268.3000   118.3020     7.0110     7.1279
  268.4000   116.7445     7.0120     7.1102
  268.5000   116.0546     7.0127     7.1110
  268.6000   115.4949     7.0134     7.1118
  268.7000   115.1237     7.0142     7.1127
  268.8000   114.8814     7.0150     7.1134
  268.9000   114.6414     7.0159     7.0889
  269.0000   114.8925     7.0166     7.0656
  269.1000   115.1412     7.0174     7.0663
  269.2000   115.7916     7.0181     7.0672
  269.3000   116.6225     7.0189     7.0680
  269.4000   117.1361     7.0197     7.0687
  269.5000   117.9884     7.0205     7.0501
  269.6000   119.2396     7.0213     7.0213
  269.7000   120.4136     7.0220     7.0220
  269.8000   121.3986     7.0228     7.0230
  269.9000   122.3464     7.0236     7.0236
  270.0000   123.1470     7.0245     7.0244
  270.1000   124.5014     6.9920     7.0252
  270.2000   126.6506     6.9772     7.0260
  270.3000   129.6646     6.9780     7.0268
  270.4000   132.8629     6.9730     6.9923
  270.5000   134.3571     6.9312     6.9795
  270.6000   135.0873     6.9319     6.9803
  270.7000   134.9000     6.9059     6.9731
  270.8000   134.4120     6.8853     6.9335
  270.9000   133.9953     6.8774     6.9342
  271.0000   133.7668     6.8391     6.9350
  271.1000   133.7706     6.8398     6.9155
  271.2000   133.7731     6.8406     6.8884
  271.3000   133.7761     6.8414     6.8891
  271.4000   133.7791     6.8306     6.8901
  271.5000   133.8136     6.7954     6.8584
  271.6000   134.0881     6.7963     6.8436
  271.7000   134.7497     6.7648     6.8444
  271.8000   135.6519     6.7274     6.8396
  271.9000   136.5314     6.7045     6.7985
  272.0000   137.1740     6.6996     6.7640
  272.1000   137.4313     6.6595     6.7528
  272.2000   137.4342     6.6602     6.7360
  272.3000   137.4372     6.6609     6.7075
  272.4000   137.1948     6.6445     6.7082
  272.5000   136.5105     6.6077     6.7089
  272.6000   135.2697     6.5710     6.6803
  272.7000   133.2139     6.5717     6.6433
  272.8000   131.6404     6.5441     6.6184
  272.9000   129.8196     6.5079     6.6158
  273.0000   128.3531     6.4609     6.5740
  273.1000   127.3743     6.3863     6.5110
  273.2000   126.2697     6.2628     6.4383
  273.3000   125.6303     6.1167     6.3664
  273.4000   124.7398     5.9876     6.2893
  273.5000   123.9606     5.8874     6.1782
  273.6000   123.5577     5.7889     6.0481
  273.7000   124.1666     5.6843     5.9133
  273.8000   126.0187     5.6261     5.8132
  273.9000   127.1154     5.5635     5.7567
  274.0000   127.7379     5.5157     5.7237
  274.1000   128.1718     5.4781     5.6474
  274.2000   128.4175     5.4169     5.6223
  274.3000   128.4205     5.3870     5.5730
  274.4000   128.6149     5.3572     5.5216
  274.5000   128.7292     5.3276     5.4910
  274.6000   128.8093     5.2981     5.4572
  274.7000   129.0578     5.2688     5.4303
  274.8000   129.3439     5.2352     5.4002
  274.9000   129.5548     5.2357     5.3703
