~VERSION INFORMATION
 VERS.                2.0:   CWLS LOG ASCII STANDARD - VERSION 2.0
 WRAP.                 NO:   ONE LINE PER DEPTH STEP
~WELL INFORMATION
#MNEM.UNIT      DATA TYPE    INFORMATION
#----------   ------------   ------------------------------
 STRT.F           93.0000:   START DEPTH
 STOP.F         1921.0000:   STOP DEPTH
 STEP.F            0.5000:   STEP LENGTH
 NULL.          -999.2500:   NO VALUE
 COMP. LAWRENCE-ALLISON &AS:   COMPANY
 WELL.  NPR 3 #15-1SHX2/T:   WELL
 FLD .             NPR #3:   :   FIELD
 LOC .       S2 T38N R78W:   LOCATION
 CNTY.            NATRONA:   COUNTY
 STAT.            WYOMING:   STATE
 CTRY. UNITED STATES OF AMERICA:   COUNTRY
 SRVC.       Schlumberger:   SERVICE COMPANY
 DATE.        10-JUN-1982:   LOGDATE
 API .       490251077600:   API NUMBER
~CURVE INFORMATION
#MNEM.UNIT       API CODE    CURVE DESCRIPTION
#----------   ------------   ------------------------------
 DEPT.F                  :   
 GR  .GAPI   70 310 01 00:   GAMMA RAY
 CALI.IN     70 280 01 00:   CALIPER
~PARAMETER INFORMATION
#MNEM.UNIT          VALUE    DESCRIPTION
#----------   ------------   ------------------------------
 PD  .                 GL:   PERMANENT DATUM
 EPD .F              5116:   ELEVATION PERMANENT DATUM
 LMF .                 KB:   LOG MEASURED FROM
 DAPD.F                10:   FEET ABOVE PERMANENT DATUM
 DMF .                 KB:   DRILLING MEASURED FROM
 EKB .F              5126:   KELLING BUSHING
 EGL .F              5116:   GROUND LEVEL
 DATE.        10-JUN-1982:   RUN DATE
 RUN .                  1:   RUN NUMBER
 DD  .F              2100:   DEPTH DRILLER
 DL  .F              1924:   DEPTH LOGGER
 BLI .F              1921:   BOTTOM LOG INTERVAL
 TLI .F               100:   TOP LOG INTERVAL
 CS  .IN            10.75:   CASING SIZE
 BS  .IN             8.75:   BIT SIZE
 BSD .F              2100:   BIT SIZE AT DEPTH
 DFT .                AIR:   DRILLING FLUID TYPE
 ENGI.        C. MARRINER:   RECORDING ENGINEER
 WITN.             SCOTTY:   WITNESSED BY
 CLNT.            A2DTECH:   CLIENT CODE
 ORIG.           5" PRINT:   ORIGIN OF DATA
 UWI .       490251077600:   UNIQUE WELL ID
 DICO. A2D Technologies, Inc.:   DIGITIZING COMPANY
~OTHER INFORMATION
~A   DEPT       GR       CALI   
# ...
 1186.5000   139.9361    15.3143
 1187.0000   141.9401    15.3309
 1187.5000   141.9617    15.4213
 1188.0000   143.0846    15.6002
 1188.5000   145.9697    16.0296
 1189.0000   145.5508    15.6869
 1189.5000   141.3252    14.7946
 1190.0000   138.4875    14.2213
 1190.5000   137.4658    14.3117
 1191.0000   140.7968    14.0733
 1191.5000   145.4440    14.0036
 1192.0000   148.3290    14.2883
 1192.5000   152.7523    15.7503
 1193.0000   150.4984    15.9455
 1193.5000   144.8643    16.1964
 1194.0000   141.9909    16.8014
 1194.5000   142.5929    16.2595
 1195.0000   144.0570    15.8778
 1195.5000   141.4354    15.6137
 1196.0000   137.9328    15.8373
 1196.5000   134.4302    16.2521
 1197.0000   133.5654    16.8145
 1197.5000   140.6408    17.1851
 1198.0000   143.9664    17.5627
 1198.5000   145.0839    18.2618
 1199.0000   141.8070    18.2384
 1199.5000   138.7449    17.7241
 1200.0000   135.6828    17.4352
 1200.5000   137.5176    17.3095
 1201.0000   141.6225    17.0359
 1201.5000   146.3257    17.3773
 1202.0000   144.5853    18.2640
 1202.5000   143.7204    20.1684
 1203.0000   146.3906    21.2026
 1203.5000   150.7047    21.2928
 1204.0000   156.9165    21.3683
 1204.5000   163.0947    21.5323
 1205.0000   165.1321    21.5782
 1205.5000   166.9539    21.5947
 1206.0000   168.4135    21.5817
 1206.5000   163.1407    21.5687
 1207.0000   157.8652    21.5557
 1207.5000   154.1315    21.5578
 1208.0000   152.8180    21.5596
 1208.5000   154.8139    21.5756
 1209.0000   155.4855    21.5626
 1209.5000   153.2937    21.5648
 1210.0000   147.5477    21.5665
 1210.5000   148.2511    21.5388
 1211.0000   156.6319    21.5257
 1211.5000   160.8277    21.4832
 1212.0000   158.8562    21.3965
 1212.5000   153.8009    21.3380
 1213.0000   147.8619    21.3435
 1213.5000   148.3159    21.4316
 1214.0000   156.9171    21.2858
 1214.5000   160.8926    21.2876
 1215.0000   160.6832    21.3335
 1215.5000   155.4077    21.5123
 1216.0000   151.6427    21.5730
 1216.5000   149.2619    21.5596
 1217.0000   154.0044    21.4732
 1217.5000   155.4509    21.3852
 1218.0000   151.7199    21.4914
 1218.5000   143.1079    21.5964
 1219.0000   142.0481    21.5982
 1219.5000   146.2467    21.6003
 1220.0000   150.9296    21.6021
 1220.5000   153.7564    21.6038
 1221.0000   154.8685    21.6055
 1221.5000   155.5401    21.6073
 1222.0000   152.9078    21.6090
 1222.5000   147.4129    21.6255
 1223.0000   145.0008    21.6272
 1223.5000   143.0292    21.6289
 1224.0000   140.3969    21.6307
 1224.5000   138.6456    21.6177
 1225.0000   137.7753    21.6342
 1225.5000   141.7997    21.6363
 1226.0000   144.8458    21.6229
 1226.5000   144.1982    21.6250
 1227.0000   142.2266    21.6415
 1227.5000   140.4753    21.6432
 1228.0000   138.7240    21.6302
 1228.5000   138.0713    21.6320
 1229.0000   138.9659    21.6485
 1229.5000   141.8401    21.6354
 1230.0000   145.8157    21.6519
 1230.5000   148.4697    21.6537
 1231.0000   155.7501    21.6555
 1231.5000   159.5054    21.6576
 1232.0000   157.7541    21.6445
 1232.5000   151.8178    21.6463
 1233.0000   148.5640    21.6480
 1233.5000   145.8921    21.6497
 1234.0000   147.6652    21.6515
 1234.5000   152.5237    21.6532
 1235.0000   153.8561    21.6549
 1235.5000   154.7479    21.6567
 1236.0000   155.6398    21.6437
 1236.5000   156.5317    21.6454
 1237.0000   157.8641    21.6472
 1237.5000   160.2978    21.6493
 1238.0000   158.9870    21.6510
 1238.5000   155.0331    21.6528
 1239.0000   152.1570    21.6393
 1239.5000   152.7162    21.6562
 1240.0000   155.0683    21.6580
 1240.5000   153.3169    21.6597
 1241.0000   151.7832    21.6614
 1241.5000   153.3386    21.6632
 1242.0000   153.3494    21.6501
 1242.5000   150.7170    21.6519
 1243.0000   143.6785    21.6537
 1243.5000   139.0536    21.6558
 1244.0000   140.2822    21.6575
 1244.5000   147.6784    21.6592
 1245.0000   151.4053    21.6610
 1245.5000   155.1881    21.6627
 1246.0000   154.3179    21.6645
 1246.5000   150.3639    21.6514
 1247.0000   149.0529    21.6532
 1247.5000   152.3679    21.6549
 1248.0000   152.3787    21.6566
 1248.5000   148.4711    21.6584
 1249.0000   141.8304    21.6233
 1249.5000   138.5372    20.8363
 1250.0000   137.0035    18.7289
 1250.5000   138.5589    17.4006
 1251.0000   139.2278    16.0334
 1251.5000   135.0667    15.9319
 1252.0000   130.4560    15.9856
 1252.5000   130.9301    16.1571
 1253.0000   132.2647    15.9769
 1253.5000   131.6293    15.7775
 1254.0000   132.3127    15.5287
 1254.5000   134.0991    15.1766
 1255.0000   138.0913    15.9821
 1255.5000   140.7600    16.3014
 1256.0000   142.3258    16.8785
 1256.5000   137.9357    15.9131
 1257.0000   129.1338    14.7292
 1257.5000   122.0966    13.5954
 1258.0000   121.9756    13.1691
 1258.5000   128.3163    14.0859
 1259.0000   134.5560    14.7515
 1259.5000   138.7824    14.8714
 1260.0000   142.5043    14.6815
 1260.5000   144.5113    14.1229
 1261.0000   139.9006    13.5348
 1261.5000   130.2163    13.5072
 1262.0000   127.5855    14.0677
 1262.5000   128.4949    14.7647
 1263.0000   130.2812    14.6490
 1263.5000   131.4058    13.7512
 1264.0000   132.0838    12.5437
 1264.5000   131.2280    11.8671
 1265.0000   130.3678    11.4412
 1265.5000   129.2490    11.1334
 1266.0000   124.1292    10.3978
 1266.5000   119.4088     9.8245
 1267.0000   117.8863     9.7153
 1267.5000   118.5697    10.0495
 1268.0000   119.9149    10.4348
 1268.5000   120.3777    10.6882
 1269.0000   119.9582    10.7962
 1269.5000   119.5386    10.9277
 1270.0000   118.6779    10.9885
 1270.5000   117.3760    11.0789
 1271.0000   115.6330    11.1398
 1271.5000   113.9362    11.1417
 1272.0000   112.1908    11.1583
 1272.5000   110.6280    11.1450
 1273.0000   110.2030    11.1616
 1273.5000   113.3183    11.1487
 1274.0000   117.3106    11.1511
 1274.5000   119.9793    11.1530
 1275.0000   121.3244    11.1549
 1275.5000   122.0078    11.1726
 1276.0000   122.0295    11.2199
 1276.5000   119.3482    11.2937
 1277.0000   115.7423    11.3104
 1277.5000   110.4087    11.3122
 1278.0000   109.3274    11.3141
 1278.5000   112.4372    11.3603
 1279.0000   119.5177    11.3769
 1279.5000   124.3923    11.3636
 1280.0000   126.8404    11.3507
 1280.5000   125.7591    11.4415
 1281.0000   126.0013    11.8711
 1281.5000   128.4494    12.4188
 1282.0000   130.6770    12.2289
 1282.5000   130.2574    12.2957
 1283.0000   127.1511    12.6290
 1283.5000   124.4759    13.4297
 1284.0000   122.8224    13.4164
 1284.5000   123.9524    12.9761
 1285.0000   127.5034    12.9628
 1285.5000   131.2751    13.2601
 1286.0000   133.9438    13.5127
 1286.5000   135.5095    13.5739
 1287.0000   134.2077    13.9714
 1287.5000   132.9058    14.5067
 1288.0000   132.0441    14.5822
 1288.5000   132.0667    14.5255
 1289.0000   133.1913    14.4975
 1289.5000   134.5618    14.3081
 1290.0000   135.9706    14.2652
 1290.5000   137.0062    14.5331
 1291.0000   134.8274    14.7709
 1291.5000   133.0843    15.1121
 1292.0000   130.9001    15.2492
 1292.5000   127.1717    15.1011
 1293.0000   123.6640    15.1620
 1293.5000   123.0184    15.5388
 1294.0000   127.2367    15.8053
 1294.5000   134.3171    15.9940
 1295.0000   136.9858    15.9809
 1295.5000   138.7722    16.3087
 1296.0000   136.9820    16.9581
 1296.5000   132.9952    16.3792
 1297.0000   130.6808    15.8558
 1297.5000   129.3789    15.9019
 1298.0000   131.8270    16.2875
 1298.5000   137.5839    17.5135
 1299.0000   140.6938    17.4564
 1299.5000   141.3772    16.4848
 1300.0000   140.3297    15.4693
 1300.5000   138.1102    15.4556
 1301.0000   140.7871    15.3837
 1301.5000   136.1786    15.2524
 1302.0000   131.3496    15.0621
 1302.5000   128.2853    14.7538
 1303.0000   127.2062    14.4013
 1303.5000   126.7830    14.0193
 1304.0000   127.0335    13.6962
 1304.5000   128.1603    13.7419
 1305.0000   130.3901    13.9499
 1305.5000   132.8405    14.5266
 1306.0000   135.0942    14.9873
 1306.5000   134.5789    15.7832
 1307.0000   131.1778    15.4176
 1307.5000   126.7656    15.1303
